{"Response":{"MetaInfo":{"Timestamp":"2020-03-28T10:24:51.138+0000","NextPageInformation":"2"},"View":[{"_type":"SearchResultsViewType","ViewId":0,"Result":[{"Relevance":1.0,"Distance":0.0,"Direction":0.0,"MatchLevel":"district","MatchQuality":{"Country":1.0,"State":1.0,"County":1.0,"City":1.0,"District":1.0,"PostalCode":1.0},"Location":{"LocationId":"NT_H70cZU.7zETfjyFKi8fgGB","LocationType":"point","DisplayPosition":{"Latitude":49.0005216,"Longitude":8.4782999},"MapView":{"TopLeft":{"Latitude":49.0082,"Longitude":8.43046},"BottomRight":{"Latitude":48.98476,"Longitude":8.49217}},"Address":{"Label":"Durlach, Karlsruhe, Baden-Württemberg, Deutschland","Country":"DEU","State":"Baden-Württemberg","County":"Karlsruhe (Stadt)","City":"Karlsruhe","District":"Durlach","PostalCode":"76227","AdditionalData":[{"value":"Deutschland","key":"CountryName"},{"value":"Baden-Württemberg","key":"StateName"},{"value":"Karlsruhe (Stadt)","key":"CountyName"}]},"MapReference":{"ReferenceId":"53190036","SideOfStreet":"neither","CountryId":"20147700","StateId":"20171489","CountyId":"20173236","CityId":"20173237","DistrictId":"20173251"}}},{"Relevance":1.0,"Distance":13.9,"MatchLevel":"houseNumber","MatchQuality":{"Country":1.0,"State":1.0,"County":1.0,"City":1.0,"District":1.0,"Street":[1.0],"HouseNumber":1.0,"PostalCode":1.0},"MatchType":"interpolated","Location":{"LocationId":"NT_.prmWDLm-hFbsbEU0-nZBD_zA","LocationType":"point","DisplayPosition":{"Latitude":49.00026,"Longitude":8.4779},"MapView":{"TopLeft":{"Latitude":49.0013842,"Longitude":8.4761865},"BottomRight":{"Latitude":48.9991358,"Longitude":8.4796135}},"Address":{"Label":"Grötzinger Straße 3, 76227 Karlsruhe, Deutschland","Country":"DEU","State":"Baden-Württemberg","County":"Karlsruhe (Stadt)","City":"Karlsruhe","District":"Durlach","Street":"Grötzinger Straße","HouseNumber":"3","PostalCode":"76227","AdditionalData":[{"value":"Deutschland","key":"CountryName"},{"value":"Baden-Württemberg","key":"StateName"},{"value":"Karlsruhe (Stadt)","key":"CountyName"}]},"MapReference":{"ReferenceId":"810349553","Spot":0.52,"SideOfStreet":"right","CountryId":"20147700","StateId":"20171489","CountyId":"20173236","CityId":"20173237","DistrictId":"20173251","AddressId":"167993153","RoadLinkId":"197664194"}}},{"Relevance":1.0,"Distance":21.8,"MatchLevel":"houseNumber","MatchQuality":{"Country":1.0,"State":1.0,"County":1.0,"City":1.0,"District":1.0,"Street":[1.0],"HouseNumber":1.0,"PostalCode":1.0},"MatchType":"interpolated","Location":{"LocationId":"NT_m.GsXOFnZ5LNRlVI2VQo.D_zA","LocationType":"point","DisplayPosition":{"Latitude":49.00033,"Longitude":8.47857},"MapView":{"TopLeft":{"Latitude":49.0014542,"Longitude":8.4768565},"BottomRight":{"Latitude":48.9992058,"Longitude":8.4802835}},"Address":{"Label":"Lamprechtstraße 3, 76227 Karlsruhe, Deutschland","Country":"DEU","State":"Baden-Württemberg","County":"Karlsruhe (Stadt)","City":"Karlsruhe","District":"Durlach","Street":"Lamprechtstraße","HouseNumber":"3","PostalCode":"76227","AdditionalData":[{"value":"Deutschland","key":"CountryName"},{"value":"Baden-Württemberg","key":"StateName"},{"value":"Karlsruhe (Stadt)","key":"CountyName"}]},"MapReference":{"ReferenceId":"53189949","Spot":0.49,"SideOfStreet":"left","CountryId":"20147700","StateId":"20171489","CountyId":"20173236","CityId":"20173237","DistrictId":"20173251","AddressId":"169150799","RoadLinkId":"38301822"}}},{"Relevance":1.0,"Distance":24.3,"MatchLevel":"houseNumber","MatchQuality":{"Country":1.0,"State":1.0,"County":1.0,"City":1.0,"District":1.0,"Street":[1.0],"HouseNumber":1.0,"PostalCode":1.0},"MatchType":"interpolated","Location":{"LocationId":"NT_5RAdzjzaCekgwRsJ0sNiID_xMD","LocationType":"point","DisplayPosition":{"Latitude":49.00078,"Longitude":8.47836},"MapView":{"TopLeft":{"Latitude":49.0019042,"Longitude":8.4766465},"BottomRight":{"Latitude":48.9996558,"Longitude":8.4800735}},"Address":{"Label":"Neuensteinstraße 13, 76227 Karlsruhe, Deutschland","Country":"DEU","State":"Baden-Württemberg","County":"Karlsruhe (Stadt)","City":"Karlsruhe","District":"Durlach","Street":"Neuensteinstraße","HouseNumber":"13","PostalCode":"76227","AdditionalData":[{"value":"Deutschland","key":"CountryName"},{"value":"Baden-Württemberg","key":"StateName"},{"value":"Karlsruhe (Stadt)","key":"CountyName"}]},"MapReference":{"ReferenceId":"53189896","Spot":0.52,"SideOfStreet":"left","CountryId":"20147700","StateId":"20171489","CountyId":"20173236","CityId":"20173237","DistrictId":"20173251","AddressId":"169801406","RoadLinkId":"38473481"}}},{"Relevance":1.0,"Distance":35.9,"MatchLevel":"houseNumber","MatchQuality":{"Country":1.0,"State":1.0,"County":1.0,"City":1.0,"District":1.0,"Street":[1.0],"HouseNumber":1.0,"PostalCode":1.0},"MatchType":"interpolated","Location":{"LocationId":"NT_C6gUl-z697t7KjzB682DBA_2A","LocationType":"point","DisplayPosition":{"Latitude":49.00089,"Longitude":8.47789},"MapView":{"TopLeft":{"Latitude":49.0020142,"Longitude":8.4761765},"BottomRight":{"Latitude":48.9997658,"Longitude":8.4796035}},"Address":{"Label":"Alte Weingartener Straße 6, 76227 Karlsruhe, Deutschland","Country":"DEU","State":"Baden-Württemberg","County":"Karlsruhe (Stadt)","City":"Karlsruhe","District":"Durlach","Street":"Alte Weingartener Straße","HouseNumber":"6","PostalCode":"76227","AdditionalData":[{"value":"Deutschland","key":"CountryName"},{"value":"Baden-Württemberg","key":"StateName"},{"value":"Karlsruhe (Stadt)","key":"CountyName"}]},"MapReference":{"ReferenceId":"574418749","Spot":0.86,"SideOfStreet":"right","CountryId":"20147700","StateId":"20171489","CountyId":"20173236","CityId":"20173237","DistrictId":"20173251","AddressId":"169335066","RoadLinkId":"38766358"}}},{"Relevance":1.0,"Distance":49.9,"MatchLevel":"houseNumber","MatchQuality":{"Country":1.0,"State":1.0,"County":1.0,"City":1.0,"District":1.0,"Street":[1.0],"HouseNumber":1.0,"PostalCode":1.0},"MatchType":"interpolated","Location":{"LocationId":"NT_m.GsXOFnZ5LNRlVI2VQo.D_3A","LocationType":"point","DisplayPosition":{"Latitude":49.00074,"Longitude":8.47895},"MapView":{"TopLeft":{"Latitude":49.0018642,"Longitude":8.4772365},"BottomRight":{"Latitude":48.9996158,"Longitude":8.4806635}},"Address":{"Label":"Lamprechtstraße 7, 76227 Karlsruhe, Deutschland","Country":"DEU","State":"Baden-Württemberg","County":"Karlsruhe (Stadt)","City":"Karlsruhe","District":"Durlach","Street":"Lamprechtstraße","HouseNumber":"7","PostalCode":"76227","AdditionalData":[{"value":"Deutschland","key":"CountryName"},{"value":"Baden-Württemberg","key":"StateName"},{"value":"Karlsruhe (Stadt)","key":"CountyName"}]},"MapReference":{"ReferenceId":"53181201","Spot":0.12,"SideOfStreet":"left","CountryId":"20147700","StateId":"20171489","CountyId":"20173236","CityId":"20173237","DistrictId":"20173251","AddressId":"169290724","RoadLinkId":"38225291"}}},{"Relevance":1.0,"Distance":50.7,"MatchLevel":"houseNumber","MatchQuality":{"Country":1.0,"State":1.0,"County":1.0,"City":1.0,"District":1.0,"Street":[1.0],"HouseNumber":1.0,"PostalCode":1.0},"MatchType":"interpolated","Location":{"LocationId":"NT_5RAdzjzaCekgwRsJ0sNiID_1A","LocationType":"point","DisplayPosition":{"Latitude":49.00052,"Longitude":8.47903},"MapView":{"TopLeft":{"Latitude":49.0016442,"Longitude":8.4773165},"BottomRight":{"Latitude":48.9993958,"Longitude":8.4807435}},"Address":{"Label":"Neuensteinstraße 5, 76227 Karlsruhe, Deutschland","Country":"DEU","State":"Baden-Württemberg","County":"Karlsruhe (Stadt)","City":"Karlsruhe","District":"Durlach","Street":"Neuensteinstraße","HouseNumber":"5","PostalCode":"76227","AdditionalData":[{"value":"Deutschland","key":"CountryName"},{"value":"Baden-Württemberg","key":"StateName"},{"value":"Karlsruhe (Stadt)","key":"CountyName"}]},"MapReference":{"ReferenceId":"53181243","Spot":0.79,"SideOfStreet":"left","CountryId":"20147700","StateId":"20171489","CountyId":"20173236","CityId":"20173237","DistrictId":"20173251","AddressId":"168260807","RoadLinkId":"38746269"}}},{"Relevance":1.0,"Distance":54.4,"MatchLevel":"street","MatchQuality":{"Country":1.0,"State":1.0,"County":1.0,"City":1.0,"District":1.0,"Street":[1.0],"PostalCode":1.0},"Location":{"LocationId":"NT_5RAdzjzaCekgwRsJ0sNiID_l_53183993_L","LocationType":"point","DisplayPosition":{"Latitude":49.00095,"Longitude":8.47794},"MapView":{"TopLeft":{"Latitude":49.00097,"Longitude":8.47777},"BottomRight":{"Latitude":49.00095,"Longitude":8.47794}},"Address":{"Label":"Neuensteinstraße, 76227 Karlsruhe, Deutschland","Country":"DEU","State":"Baden-Württemberg","County":"Karlsruhe (Stadt)","City":"Karlsruhe","District":"Durlach","Street":"Neuensteinstraße","PostalCode":"76227","AdditionalData":[{"value":"Deutschland","key":"CountryName"},{"value":"Baden-Württemberg","key":"StateName"},{"value":"Karlsruhe (Stadt)","key":"CountyName"}]},"MapReference":{"ReferenceId":"53183993","Spot":0.0,"SideOfStreet":"left","CountryId":"20147700","StateId":"20171489","CountyId":"20173236","CityId":"20173237","DistrictId":"20173251"}}},{"Relevance":1.0,"Distance":55.9,"MatchLevel":"houseNumber","MatchQuality":{"Country":1.0,"State":1.0,"County":1.0,"City":1.0,"District":1.0,"Street":[1.0],"HouseNumber":1.0,"PostalCode":1.0},"MatchType":"interpolated","Location":{"LocationId":"NT_.prmWDLm-hFbsbEU0-nZBD_xMD","LocationType":"point","DisplayPosition":{"Latitude":48.99996,"Longitude":8.47859},"MapView":{"TopLeft":{"Latitude":49.0010842,"Longitude":8.4768765},"BottomRight":{"Latitude":48.9988358,"Longitude":8.4803035}},"Address":{"Label":"Grötzinger Straße 13, 76227 Karlsruhe, Deutschland","Country":"DEU","State":"Baden-Württemberg","County":"Karlsruhe (Stadt)","City":"Karlsruhe","District":"Durlach","Street":"Grötzinger Straße","HouseNumber":"13","PostalCode":"76227","AdditionalData":[{"value":"Deutschland","key":"CountryName"},{"value":"Baden-Württemberg","key":"StateName"},{"value":"Karlsruhe (Stadt)","key":"CountyName"}]},"MapReference":{"ReferenceId":"53189980","Spot":0.67,"SideOfStreet":"right","CountryId":"20147700","StateId":"20171489","CountyId":"20173236","CityId":"20173237","DistrictId":"20173251","AddressId":"169499126","RoadLinkId":"38654013"}}},{"Relevance":1.0,"Distance":60.0,"MatchLevel":"houseNumber","MatchQuality":{"Country":1.0,"State":1.0,"County":1.0,"City":1.0,"District":1.0,"Street":[1.0],"HouseNumber":1.0,"PostalCode":1.0},"MatchType":"interpolated","Location":{"LocationId":"NT_.prmWDLm-hFbsbEU0-nZBD_2A","LocationType":"point","DisplayPosition":{"Latitude":49.00016,"Longitude":8.47769},"MapView":{"TopLeft":{"Latitude":49.0012842,"Longitude":8.4759765},"BottomRight":{"Latitude":48.9990358,"Longitude":8.4794035}},"Address":{"Label":"Grötzinger Straße 6, 76227 Karlsruhe, Deutschland","Country":"DEU","State":"Baden-Württemberg","County":"Karlsruhe (Stadt)","City":"Karlsruhe","District":"Durlach","Street":"Grötzinger Straße","HouseNumber":"6","PostalCode":"76227","AdditionalData":[{"value":"Deutschland","key":"CountryName"},{"value":"Baden-Württemberg","key":"StateName"},{"value":"Karlsruhe (Stadt)","key":"CountyName"}]},"MapReference":{"ReferenceId":"589239811","Spot":0.4,"SideOfStreet":"left","CountryId":"20147700","StateId":"20171489","CountyId":"20173236","CityId":"20173237","DistrictId":"20173251","AddressId":"169836114","RoadLinkId":"38568015"}}}]}]}}