{"Response":{"MetaInfo":{"Timestamp":"2020-03-28T10:23:14.257+0000","NextPageInformation":"2"},"View":[{"_type":"SearchResultsViewType","ViewId":0,"Result":[{"Relevance":1.0,"Distance":0.0,"Direction":0.0,"MatchLevel":"district","MatchQuality":{"Country":1.0,"State":1.0,"County":1.0,"City":1.0,"District":1.0,"PostalCode":1.0},"Location":{"LocationId":"NT_IxUzCqaRRlqBc455CKtGjD","LocationType":"point","DisplayPosition":{"Latitude":49.0656306,"Longitude":11.8890586},"MapView":{"TopLeft":{"Latitude":49.07054,"Longitude":11.87589},"BottomRight":{"Latitude":49.06161,"Longitude":11.89447}},"Address":{"Label":"Laaber, Bayern, Deutschland","Country":"DEU","State":"Bayern","County":"Regensburg (Landkreis)","City":"Laaber","District":"Laaber","PostalCode":"93164","AdditionalData":[{"value":"Deutschland","key":"CountryName"},{"value":"Bayern","key":"StateName"},{"value":"Regensburg (Landkreis)","key":"CountyName"}]},"MapReference":{"ReferenceId":"541497238","SideOfStreet":"neither","CountryId":"20147700","StateId":"20177250","CountyId":"20181414","CityId":"20181486","DistrictId":"20181488"}}},{"Relevance":1.0,"Distance":13.7,"MatchLevel":"houseNumber","MatchQuality":{"Country":1.0,"State":1.0,"County":1.0,"City":1.0,"District":1.0,"Street":[1.0],"HouseNumber":1.0,"PostalCode":1.0},"MatchType":"interpolated","Location":{"LocationId":"NT_7WLiasX1HrEzkqrxQEelkC_yQTQ","LocationType":"point","DisplayPosition":{"Latitude":49.06568,"Longitude":11.88886},"MapView":{"TopLeft":{"Latitude":49.0668042,"Longitude":11.8871442},"BottomRight":{"Latitude":49.0645558,"Longitude":11.8905758}},"Address":{"Label":"Regensburger Straße 24A, 93164 Laaber, Deutschland","Country":"DEU","State":"Bayern","County":"Regensburg (Landkreis)","City":"Laaber","District":"Laaber","Street":"Regensburger Straße","HouseNumber":"24A","PostalCode":"93164","AdditionalData":[{"value":"Deutschland","key":"CountryName"},{"value":"Bayern","key":"StateName"},{"value":"Regensburg (Landkreis)","key":"CountyName"}]},"MapReference":{"ReferenceId":"545258647","Spot":0.11,"SideOfStreet":"right","CountryId":"20147700","StateId":"20177250","CountyId":"20181414","CityId":"20181486","DistrictId":"20181488","AddressId":"184631467","RoadLinkId":"33603145"}}},{"Relevance":1.0,"Distance":63.5,"MatchLevel":"houseNumber","MatchQuality":{"Country":1.0,"State":1.0,"County":1.0,"City":1.0,"District":1.0,"Street":[1.0],"HouseNumber":1.0,"PostalCode":1.0},"MatchType":"interpolated","Location":{"LocationId":"NT_7WLiasX1HrEzkqrxQEelkC_yQzQ","LocationType":"point","DisplayPosition":{"Latitude":49.06544,"Longitude":11.88822},"MapView":{"TopLeft":{"Latitude":49.0665642,"Longitude":11.8865043},"BottomRight":{"Latitude":49.0643158,"Longitude":11.8899357}},"Address":{"Label":"Regensburger Straße 24C, 93164 Laaber, Deutschland","Country":"DEU","State":"Bayern","County":"Regensburg (Landkreis)","City":"Laaber","District":"Laaber","Street":"Regensburger Straße","HouseNumber":"24C","PostalCode":"93164","AdditionalData":[{"value":"Deutschland","key":"CountryName"},{"value":"Bayern","key":"StateName"},{"value":"Regensburg (Landkreis)","key":"CountyName"}]},"MapReference":{"ReferenceId":"541497232","Spot":0.54,"SideOfStreet":"right","CountryId":"20147700","StateId":"20177250","CountyId":"20181414","CityId":"20181486","DistrictId":"20181488","AddressId":"186134332","RoadLinkId":"33155985"}}},{"Relevance":1.0,"Distance":73.9,"MatchLevel":"landmark","MatchQuality":{"Country":1.0,"State":1.0,"Name":1.0},"Location":{"LocationId":"NT_2mqop5OIqXvCLgcmbBSbgC","LocationType":"river","Name":"Schwarze Laaber","DisplayPosition":{"Latitude":49.10357,"Longitude":11.80739},"MapView":{"TopLeft":{"Latitude":49.27233,"Longitude":11.6093},"BottomRight":{"Latitude":48.98132,"Longitude":12.04178}},"Address":{"Label":"Deutschland","Country":"DEU","State":"Bayern","AdditionalData":[{"value":"Deutschland","key":"CountryName"},{"value":"Bayern","key":"StateName"}]},"MapReference":{"CountryId":"20147700","StateId":"20177250","PlaceId":"750688802"}}},{"Relevance":1.0,"Distance":83.1,"MatchLevel":"houseNumber","MatchQuality":{"Country":1.0,"State":1.0,"County":1.0,"City":1.0,"District":1.0,"Street":[1.0],"HouseNumber":1.0,"PostalCode":1.0},"MatchType":"interpolated","Location":{"LocationId":"NT_7WLiasX1HrEzkqrxQEelkC_xA","LocationType":"point","DisplayPosition":{"Latitude":49.06598,"Longitude":11.88805},"MapView":{"TopLeft":{"Latitude":49.0671042,"Longitude":11.8863342},"BottomRight":{"Latitude":49.0648558,"Longitude":11.8897658}},"Address":{"Label":"Regensburger Straße 1, 93164 Laaber, Deutschland","Country":"DEU","State":"Bayern","County":"Regensburg (Landkreis)","City":"Laaber","District":"Laaber","Street":"Regensburger Straße","HouseNumber":"1","PostalCode":"93164","AdditionalData":[{"value":"Deutschland","key":"CountryName"},{"value":"Bayern","key":"StateName"},{"value":"Regensburg (Landkreis)","key":"CountyName"}]},"MapReference":{"ReferenceId":"541497209","Spot":0.87,"SideOfStreet":"left","CountryId":"20147700","StateId":"20177250","CountyId":"20181414","CityId":"20181486","DistrictId":"20181488","AddressId":"249131735","RoadLinkId":"33019311"}}},{"Relevance":1.0,"Distance":90.8,"MatchLevel":"street","MatchQuality":{"Country":1.0,"State":1.0,"County":1.0,"City":1.0,"District":1.0,"PostalCode":1.0},"Location":{"LocationId":"NT_cVNvsO50C8zBfQJeI7cK6D_l_541497212_R","LocationType":"point","DisplayPosition":{"Latitude":49.06604,"Longitude":11.88798},"MapView":{"TopLeft":{"Latitude":49.06604,"Longitude":11.88747},"BottomRight":{"Latitude":49.06556,"Longitude":11.88798}},"Address":{"Label":"93164 Laaber, Deutschland","Country":"DEU","State":"Bayern","County":"Regensburg (Landkreis)","City":"Laaber","District":"Laaber","PostalCode":"93164","AdditionalData":[{"value":"Deutschland","key":"CountryName"},{"value":"Bayern","key":"StateName"},{"value":"Regensburg (Landkreis)","key":"CountyName"}]},"MapReference":{"ReferenceId":"541497212","Spot":1.0,"SideOfStreet":"right","CountryId":"20147700","StateId":"20177250","CountyId":"20181414","CityId":"20181486","DistrictId":"20181488"}}},{"Relevance":1.0,"Distance":92.5,"MatchLevel":"houseNumber","MatchQuality":{"Country":1.0,"State":1.0,"County":1.0,"City":1.0,"District":1.0,"Street":[1.0],"HouseNumber":1.0,"PostalCode":1.0},"MatchType":"interpolated","Location":{"LocationId":"NT_fOeYr2VObG-Kl5lYfAYp9D_0A","LocationType":"point","DisplayPosition":{"Latitude":49.06642,"Longitude":11.8885},"MapView":{"TopLeft":{"Latitude":49.0675442,"Longitude":11.8867842},"BottomRight":{"Latitude":49.0652958,"Longitude":11.8902158}},"Address":{"Label":"Weinbergweg 4, 93164 Laaber, Deutschland","Country":"DEU","State":"Bayern","County":"Regensburg (Landkreis)","City":"Laaber","District":"Laaber","Street":"Weinbergweg","HouseNumber":"4","PostalCode":"93164","AdditionalData":[{"value":"Deutschland","key":"CountryName"},{"value":"Bayern","key":"StateName"},{"value":"Regensburg (Landkreis)","key":"CountyName"}]},"MapReference":{"ReferenceId":"1251483654","Spot":0.75,"SideOfStreet":"right","CountryId":"20147700","StateId":"20177250","CountyId":"20181414","CityId":"20181486","DistrictId":"20181488","AddressId":"184920685","RoadLinkId":"574527032"}}},{"Relevance":1.0,"Distance":97.0,"MatchLevel":"houseNumber","MatchQuality":{"Country":1.0,"State":1.0,"County":1.0,"City":1.0,"District":1.0,"Street":[1.0],"HouseNumber":1.0,"PostalCode":1.0},"MatchType":"interpolated","Location":{"LocationId":"NT_TpCRpG406tnmR53mvZnCAA_yA","LocationType":"point","DisplayPosition":{"Latitude":49.06546,"Longitude":11.88768},"MapView":{"TopLeft":{"Latitude":49.0665842,"Longitude":11.8859643},"BottomRight":{"Latitude":49.0643358,"Longitude":11.8893957}},"Address":{"Label":"Am Turm 2, 93164 Laaber, Deutschland","Country":"DEU","State":"Bayern","County":"Regensburg (Landkreis)","City":"Laaber","District":"Laaber","Street":"Am Turm","HouseNumber":"2","PostalCode":"93164","AdditionalData":[{"value":"Deutschland","key":"CountryName"},{"value":"Bayern","key":"StateName"},{"value":"Regensburg (Landkreis)","key":"CountyName"}]},"MapReference":{"ReferenceId":"541497215","Spot":0.46,"SideOfStreet":"right","CountryId":"20147700","StateId":"20177250","CountyId":"20181414","CityId":"20181486","DistrictId":"20181488","AddressId":"184764308","RoadLinkId":"33300298"}}},{"Relevance":1.0,"Distance":107.3,"MatchLevel":"houseNumber","MatchQuality":{"Country":1.0,"State":1.0,"County":1.0,"City":1.0,"District":1.0,"Street":[1.0],"HouseNumber":1.0,"PostalCode":1.0},"MatchType":"interpolated","Location":{"LocationId":"NT_fOeYr2VObG-Kl5lYfAYp9D_xA","LocationType":"point","DisplayPosition":{"Latitude":49.0661,"Longitude":11.88778},"MapView":{"TopLeft":{"Latitude":49.0672242,"Longitude":11.8860642},"BottomRight":{"Latitude":49.0649758,"Longitude":11.8894958}},"Address":{"Label":"Weinbergweg 1, 93164 Laaber, Deutschland","Country":"DEU","State":"Bayern","County":"Regensburg (Landkreis)","City":"Laaber","District":"Laaber","Street":"Weinbergweg","HouseNumber":"1","PostalCode":"93164","AdditionalData":[{"value":"Deutschland","key":"CountryName"},{"value":"Bayern","key":"StateName"},{"value":"Regensburg (Landkreis)","key":"CountyName"}]},"MapReference":{"ReferenceId":"541497213","Spot":0.26,"SideOfStreet":"right","CountryId":"20147700","StateId":"20177250","CountyId":"20181414","CityId":"20181486","DistrictId":"20181488","AddressId":"183750715","RoadLinkId":"33548269"}}},{"Relevance":1.0,"Distance":112.3,"MatchLevel":"houseNumber","MatchQuality":{"Country":1.0,"State":1.0,"County":1.0,"City":1.0,"District":1.0,"Street":[1.0],"HouseNumber":1.0,"PostalCode":1.0},"MatchType":"interpolated","Location":{"LocationId":"NT_fOeYr2VObG-Kl5lYfAYp9D_2A","LocationType":"point","DisplayPosition":{"Latitude":49.0667,"Longitude":11.88901},"MapView":{"TopLeft":{"Latitude":49.0678242,"Longitude":11.8872942},"BottomRight":{"Latitude":49.0655758,"Longitude":11.8907258}},"Address":{"Label":"Weinbergweg 6, 93164 Laaber, Deutschland","Country":"DEU","State":"Bayern","County":"Regensburg (Landkreis)","City":"Laaber","District":"Laaber","Street":"Weinbergweg","HouseNumber":"6","PostalCode":"93164","AdditionalData":[{"value":"Deutschland","key":"CountryName"},{"value":"Bayern","key":"StateName"},{"value":"Regensburg (Landkreis)","key":"CountyName"}]},"MapReference":{"ReferenceId":"1251483655","Spot":0.75,"SideOfStreet":"right","CountryId":"20147700","StateId":"20177250","CountyId":"20181414","CityId":"20181486","DistrictId":"20181488","AddressId":"183772670","RoadLinkId":"574527033"}}}]}]}}