{"Response":{"MetaInfo":{"Timestamp":"2020-03-28T10:21:03.413+0000","NextPageInformation":"2"},"View":[{"_type":"SearchResultsViewType","ViewId":0,"Result":[{"Relevance":1.0,"Distance":0.0,"Direction":0.0,"MatchLevel":"district","MatchQuality":{"Country":1.0,"State":1.0,"County":1.0,"City":1.0,"District":1.0,"PostalCode":1.0},"Location":{"LocationId":"NT_48wcjOXL2NS1wNzW8SQ1qC","LocationType":"point","DisplayPosition":{"Latitude":49.0541246,"Longitude":9.2418807},"MapView":{"TopLeft":{"Latitude":49.06919,"Longitude":9.23214},"BottomRight":{"Latitude":49.04913,"Longitude":9.27166}},"Address":{"Label":"Ilsfeld, Baden-Württemberg, Deutschland","Country":"DEU","State":"Baden-Württemberg","County":"Heilbronn (Landkreis)","City":"Ilsfeld","District":"Ilsfeld","PostalCode":"74360","AdditionalData":[{"value":"Deutschland","key":"CountryName"},{"value":"Baden-Württemberg","key":"StateName"},{"value":"Heilbronn (Landkreis)","key":"CountyName"}]},"MapReference":{"ReferenceId":"72772809","SideOfStreet":"neither","CountryId":"20147700","StateId":"20171489","CountyId":"20172304","CityId":"20172382","DistrictId":"20172385"}}},{"Relevance":1.0,"Distance":9.4,"MatchLevel":"houseNumber","MatchQuality":{"Country":1.0,"State":1.0,"County":1.0,"City":1.0,"District":1.0,"Street":[1.0],"HouseNumber":1.0,"PostalCode":1.0},"MatchType":"interpolated","Location":{"LocationId":"NT_4YHKCdo4Ug8hLo6QJPQPyC_xA","LocationType":"point","DisplayPosition":{"Latitude":49.05417,"Longitude":9.24199},"MapView":{"TopLeft":{"Latitude":49.0552942,"Longitude":9.2402746},"BottomRight":{"Latitude":49.0530458,"Longitude":9.2437054}},"Address":{"Label":"Johann-Geyling-Weg 1, 74360 Ilsfeld, Deutschland","Country":"DEU","State":"Baden-Württemberg","County":"Heilbronn (Landkreis)","City":"Ilsfeld","District":"Ilsfeld","Street":"Johann-Geyling-Weg","HouseNumber":"1","PostalCode":"74360","AdditionalData":[{"value":"Deutschland","key":"CountryName"},{"value":"Baden-Württemberg","key":"StateName"},{"value":"Heilbronn (Landkreis)","key":"CountyName"}]},"MapReference":{"ReferenceId":"72772775","Spot":0.79,"SideOfStreet":"right","CountryId":"20147700","StateId":"20171489","CountyId":"20172304","CityId":"20172382","DistrictId":"20172385","AddressId":"178272611","RoadLinkId":"38761916"}}},{"Relevance":1.0,"Distance":24.3,"MatchLevel":"houseNumber","MatchQuality":{"Country":1.0,"State":1.0,"County":1.0,"City":1.0,"District":1.0,"Street":[1.0],"HouseNumber":1.0,"PostalCode":1.0},"MatchType":"interpolated","Location":{"LocationId":"NT_hlzkDUQ1fiWdKYKowmJfeD_xQD","LocationType":"point","DisplayPosition":{"Latitude":49.05408,"Longitude":9.24231},"MapView":{"TopLeft":{"Latitude":49.0552042,"Longitude":9.2405946},"BottomRight":{"Latitude":49.0529558,"Longitude":9.2440254}},"Address":{"Label":"Brückenstraße 14, 74360 Ilsfeld, Deutschland","Country":"DEU","State":"Baden-Württemberg","County":"Heilbronn (Landkreis)","City":"Ilsfeld","District":"Ilsfeld","Street":"Brückenstraße","HouseNumber":"14","PostalCode":"74360","AdditionalData":[{"value":"Deutschland","key":"CountryName"},{"value":"Baden-Württemberg","key":"StateName"},{"value":"Heilbronn (Landkreis)","key":"CountyName"}]},"MapReference":{"ReferenceId":"72772799","Spot":0.8,"SideOfStreet":"left","CountryId":"20147700","StateId":"20171489","CountyId":"20172304","CityId":"20172382","DistrictId":"20172385","AddressId":"180181326","RoadLinkId":"38823545"}}},{"Relevance":1.0,"Distance":35.4,"MatchLevel":"houseNumber","MatchQuality":{"Country":1.0,"State":1.0,"County":1.0,"City":1.0,"District":1.0,"Street":[1.0],"HouseNumber":1.0,"PostalCode":1.0},"MatchType":"interpolated","Location":{"LocationId":"NT_hlzkDUQ1fiWdKYKowmJfeD_4A","LocationType":"point","DisplayPosition":{"Latitude":49.05441,"Longitude":9.24236},"MapView":{"TopLeft":{"Latitude":49.0555342,"Longitude":9.2406446},"BottomRight":{"Latitude":49.0532858,"Longitude":9.2440754}},"Address":{"Label":"Brückenstraße 8, 74360 Ilsfeld, Deutschland","Country":"DEU","State":"Baden-Württemberg","County":"Heilbronn (Landkreis)","City":"Ilsfeld","District":"Ilsfeld","Street":"Brückenstraße","HouseNumber":"8","PostalCode":"74360","AdditionalData":[{"value":"Deutschland","key":"CountryName"},{"value":"Baden-Württemberg","key":"StateName"},{"value":"Heilbronn (Landkreis)","key":"CountyName"}]},"MapReference":{"ReferenceId":"72772764","Spot":0.25,"SideOfStreet":"left","CountryId":"20147700","StateId":"20171489","CountyId":"20172304","CityId":"20172382","DistrictId":"20172385","AddressId":"178267613","RoadLinkId":"38187466"}}},{"Relevance":1.0,"Distance":48.5,"MatchLevel":"houseNumber","MatchQuality":{"Country":1.0,"State":1.0,"County":1.0,"City":1.0,"District":1.0,"Street":[1.0],"HouseNumber":1.0,"PostalCode":1.0},"MatchType":"interpolated","Location":{"LocationId":"NT_-t5qaGDlK2iaiZY6fYJmjA_0A","LocationType":"point","DisplayPosition":{"Latitude":49.05361,"Longitude":9.24174},"MapView":{"TopLeft":{"Latitude":49.0547342,"Longitude":9.2400247},"BottomRight":{"Latitude":49.0524858,"Longitude":9.2434553}},"Address":{"Label":"Kernerstraße 4, 74360 Ilsfeld, Deutschland","Country":"DEU","State":"Baden-Württemberg","County":"Heilbronn (Landkreis)","City":"Ilsfeld","District":"Ilsfeld","Street":"Kernerstraße","HouseNumber":"4","PostalCode":"74360","AdditionalData":[{"value":"Deutschland","key":"CountryName"},{"value":"Baden-Württemberg","key":"StateName"},{"value":"Heilbronn (Landkreis)","key":"CountyName"}]},"MapReference":{"ReferenceId":"72772798","Spot":0.65,"SideOfStreet":"left","CountryId":"20147700","StateId":"20171489","CountyId":"20172304","CityId":"20172382","DistrictId":"20172385","AddressId":"177293411","RoadLinkId":"38833091"}}},{"Relevance":1.0,"Distance":67.3,"MatchLevel":"houseNumber","MatchQuality":{"Country":1.0,"State":1.0,"County":1.0,"City":1.0,"District":1.0,"Street":[1.0],"HouseNumber":1.0,"PostalCode":1.0},"MatchType":"interpolated","Location":{"LocationId":"NT_hlzkDUQ1fiWdKYKowmJfeD_xgD","LocationType":"point","DisplayPosition":{"Latitude":49.05355,"Longitude":9.24227},"MapView":{"TopLeft":{"Latitude":49.0546742,"Longitude":9.2405547},"BottomRight":{"Latitude":49.0524258,"Longitude":9.2439853}},"Address":{"Label":"Brückenstraße 18, 74360 Ilsfeld, Deutschland","Country":"DEU","State":"Baden-Württemberg","County":"Heilbronn (Landkreis)","City":"Ilsfeld","District":"Ilsfeld","Street":"Brückenstraße","HouseNumber":"18","PostalCode":"74360","AdditionalData":[{"value":"Deutschland","key":"CountryName"},{"value":"Baden-Württemberg","key":"StateName"},{"value":"Heilbronn (Landkreis)","key":"CountyName"}]},"MapReference":{"ReferenceId":"72772738","Spot":0.72,"SideOfStreet":"left","CountryId":"20147700","StateId":"20171489","CountyId":"20172304","CityId":"20172382","DistrictId":"20172385","AddressId":"178908007","RoadLinkId":"38940248"}}},{"Relevance":1.0,"Distance":81.1,"MatchLevel":"houseNumber","MatchQuality":{"Country":1.0,"State":1.0,"County":1.0,"City":1.0,"District":1.0,"Street":[1.0],"HouseNumber":1.0,"PostalCode":1.0},"MatchType":"interpolated","Location":{"LocationId":"NT_Cs42ZxPHH8b5wS7HB8dq4A_xA","LocationType":"point","DisplayPosition":{"Latitude":49.05489,"Longitude":9.24139},"MapView":{"TopLeft":{"Latitude":49.0560142,"Longitude":9.2396746},"BottomRight":{"Latitude":49.0537658,"Longitude":9.2431054}},"Address":{"Label":"Lauffener Straße 1, 74360 Ilsfeld, Deutschland","Country":"DEU","State":"Baden-Württemberg","County":"Heilbronn (Landkreis)","City":"Ilsfeld","District":"Ilsfeld","Street":"Lauffener Straße","HouseNumber":"1","PostalCode":"74360","AdditionalData":[{"value":"Deutschland","key":"CountryName"},{"value":"Baden-Württemberg","key":"StateName"},{"value":"Heilbronn (Landkreis)","key":"CountyName"}]},"MapReference":{"ReferenceId":"76819907","Spot":0.96,"SideOfStreet":"right","CountryId":"20147700","StateId":"20171489","CountyId":"20172304","CityId":"20172382","DistrictId":"20172385","AddressId":"179231553","RoadLinkId":"38348079"}}},{"Relevance":1.0,"Distance":84.0,"MatchLevel":"houseNumber","MatchQuality":{"Country":1.0,"State":1.0,"County":1.0,"City":1.0,"District":1.0,"Street":[1.0],"HouseNumber":1.0,"PostalCode":1.0},"MatchType":"interpolated","Location":{"LocationId":"NT_fb-xVylBYtZWrkp5U176UB_4cD","LocationType":"point","DisplayPosition":{"Latitude":49.05503,"Longitude":9.24186},"MapView":{"TopLeft":{"Latitude":49.0561542,"Longitude":9.2401446},"BottomRight":{"Latitude":49.0539058,"Longitude":9.2435754}},"Address":{"Label":"König-Wilhelm-Straße 87, 74360 Ilsfeld, Deutschland","Country":"DEU","State":"Baden-Württemberg","County":"Heilbronn (Landkreis)","City":"Ilsfeld","District":"Ilsfeld","Street":"König-Wilhelm-Straße","HouseNumber":"87","PostalCode":"74360","AdditionalData":[{"value":"Deutschland","key":"CountryName"},{"value":"Baden-Württemberg","key":"StateName"},{"value":"Heilbronn (Landkreis)","key":"CountyName"}]},"MapReference":{"ReferenceId":"72772805","Spot":0.18,"SideOfStreet":"right","CountryId":"20147700","StateId":"20171489","CountyId":"20172304","CityId":"20172382","DistrictId":"20172385","AddressId":"199158583","RoadLinkId":"38390890"}}},{"Relevance":1.0,"Distance":94.5,"MatchLevel":"street","MatchQuality":{"Country":1.0,"State":1.0,"County":1.0,"City":1.0,"District":1.0,"PostalCode":1.0},"Location":{"LocationId":"NT_E36CowZ65KQSr1v4okUVvB_l_846592594_R","LocationType":"point","DisplayPosition":{"Latitude":49.05496,"Longitude":9.24164},"MapView":{"TopLeft":{"Latitude":49.05504,"Longitude":9.24149},"BottomRight":{"Latitude":49.05495,"Longitude":9.24173}},"Address":{"Label":"74360 Ilsfeld, Deutschland","Country":"DEU","State":"Baden-Württemberg","County":"Heilbronn (Landkreis)","City":"Ilsfeld","District":"Ilsfeld","PostalCode":"74360","AdditionalData":[{"value":"Deutschland","key":"CountryName"},{"value":"Baden-Württemberg","key":"StateName"},{"value":"Heilbronn (Landkreis)","key":"CountyName"}]},"MapReference":{"ReferenceId":"846592594","Spot":0.54,"SideOfStreet":"right","CountryId":"20147700","StateId":"20171489","CountyId":"20172304","CityId":"20172382","DistrictId":"20172385"}}},{"Relevance":1.0,"Distance":97.2,"MatchLevel":"street","MatchQuality":{"Country":1.0,"State":1.0,"County":1.0,"City":1.0,"District":1.0,"PostalCode":1.0},"Location":{"LocationId":"NT_E36CowZ65KQSr1v4okUVvB_l_846592592_L","LocationType":"point","DisplayPosition":{"Latitude":49.05496,"Longitude":9.24149},"MapView":{"TopLeft":{"Latitude":49.0551,"Longitude":9.24141},"BottomRight":{"Latitude":49.05496,"Longitude":9.24149}},"Address":{"Label":"74360 Ilsfeld, Deutschland","Country":"DEU","State":"Baden-Württemberg","County":"Heilbronn (Landkreis)","City":"Ilsfeld","District":"Ilsfeld","PostalCode":"74360","AdditionalData":[{"value":"Deutschland","key":"CountryName"},{"value":"Baden-Württemberg","key":"StateName"},{"value":"Heilbronn (Landkreis)","key":"CountyName"}]},"MapReference":{"ReferenceId":"846592592","Spot":0.0,"SideOfStreet":"left","CountryId":"20147700","StateId":"20171489","CountyId":"20172304","CityId":"20172382","DistrictId":"20172385"}}}]}]}}