{"Response":{"MetaInfo":{"Timestamp":"2020-03-28T11:48:01.626+0000","NextPageInformation":"2"},"View":[{"_type":"SearchResultsViewType","ViewId":0,"Result":[{"Relevance":1.0,"Distance":0.0,"Direction":0.0,"MatchLevel":"city","MatchQuality":{"Country":1.0,"State":1.0,"County":1.0,"City":1.0,"PostalCode":1.0},"Location":{"LocationId":"NT_2.C5cBT0ctvTRKpYyzdmJC","LocationType":"point","DisplayPosition":{"Latitude":49.0132882,"Longitude":2.0904893},"MapView":{"TopLeft":{"Latitude":49.03612,"Longitude":2.0785},"BottomRight":{"Latitude":49.00875,"Longitude":2.12132}},"Address":{"Label":"Éragny, Île-de-France, France","Country":"FRA","State":"Île-de-France","County":"Val-d'Oise","City":"Éragny","PostalCode":"95610","AdditionalData":[{"value":"France","key":"CountryName"},{"value":"Île-de-France","key":"StateName"},{"value":"Val-d'Oise","key":"CountyName"}]},"MapReference":{"ReferenceId":"56368094","SideOfStreet":"neither","CountryId":"20000001","StateId":"20002126","CountyId":"20005470","CityId":"20005663"}}},{"Relevance":1.0,"Distance":9.2,"MatchLevel":"houseNumber","MatchQuality":{"Country":1.0,"State":1.0,"County":1.0,"City":1.0,"Street":[1.0],"HouseNumber":1.0,"PostalCode":1.0},"MatchType":"interpolated","Location":{"LocationId":"NT_jKi1pkrk13E3Fk5btUrw3D_yQDO","LocationType":"point","DisplayPosition":{"Latitude":49.01316,"Longitude":2.0905},"MapView":{"TopLeft":{"Latitude":49.0142842,"Longitude":2.0887861},"BottomRight":{"Latitude":49.0120358,"Longitude":2.0922139}},"Address":{"Label":"248 Rue de l'Ambassadeur, 95610 Éragny, France","Country":"FRA","State":"Île-de-France","County":"Val-d'Oise","City":"Éragny","Street":"Rue de l'Ambassadeur","HouseNumber":"248","PostalCode":"95610","AdditionalData":[{"value":"France","key":"CountryName"},{"value":"Île-de-France","key":"StateName"},{"value":"Val-d'Oise","key":"CountyName"}]},"MapReference":{"ReferenceId":"864772349","Spot":0.64,"SideOfStreet":"right","CountryId":"20000001","StateId":"20002126","CountyId":"20005470","CityId":"20005663","AddressId":"322345983","RoadLinkId":"238104263"}}},{"Relevance":1.0,"Distance":10.4,"MatchLevel":"houseNumber","MatchQuality":{"Country":1.0,"State":1.0,"County":1.0,"City":1.0,"Street":[1.0],"HouseNumber":1.0,"PostalCode":1.0},"MatchType":"interpolated","Location":{"LocationId":"NT_jKi1pkrk13E3Fk5btUrw3D_yUDM","LocationType":"point","DisplayPosition":{"Latitude":49.01322,"Longitude":2.09031},"MapView":{"TopLeft":{"Latitude":49.0143442,"Longitude":2.0885961},"BottomRight":{"Latitude":49.0120958,"Longitude":2.0920239}},"Address":{"Label":"250 Rue de l'Ambassadeur, 95610 Éragny, France","Country":"FRA","State":"Île-de-France","County":"Val-d'Oise","City":"Éragny","Street":"Rue de l'Ambassadeur","HouseNumber":"250","PostalCode":"95610","AdditionalData":[{"value":"France","key":"CountryName"},{"value":"Île-de-France","key":"StateName"},{"value":"Val-d'Oise","key":"CountyName"}]},"MapReference":{"ReferenceId":"864573422","Spot":0.19,"SideOfStreet":"right","CountryId":"20000001","StateId":"20002126","CountyId":"20005470","CityId":"20005663","AddressId":"322058707","RoadLinkId":"237894869"}}},{"Relevance":1.0,"Distance":12.8,"MatchLevel":"street","MatchQuality":{"Country":1.0,"State":1.0,"County":1.0,"City":1.0,"PostalCode":1.0},"Location":{"LocationId":"NT_kwny9OQSc1X4fqu6rNx4fD_l_864573420_R","LocationType":"point","DisplayPosition":{"Latitude":49.01321,"Longitude":2.09036},"MapView":{"TopLeft":{"Latitude":49.01321,"Longitude":2.09016},"BottomRight":{"Latitude":49.01248,"Longitude":2.09036}},"Address":{"Label":"78700 Conflans-Sainte-Honorine, France","Country":"FRA","State":"Île-de-France","County":"Yvelines","City":"Conflans-Sainte-Honorine","PostalCode":"78700","AdditionalData":[{"value":"France","key":"CountryName"},{"value":"Île-de-France","key":"StateName"},{"value":"Yvelines","key":"CountyName"}]},"MapReference":{"ReferenceId":"864573420","Spot":1.0,"SideOfStreet":"right","CountryId":"20000001","StateId":"20002126","CountyId":"20003702","CityId":"20003895"}}},{"Relevance":1.0,"Distance":31.6,"MatchLevel":"houseNumber","MatchQuality":{"Country":1.0,"State":1.0,"County":1.0,"City":1.0,"Street":[1.0],"HouseNumber":1.0,"PostalCode":1.0},"MatchType":"interpolated","Location":{"LocationId":"NT_jpzlPUlRfFKogEHqTq-VeD_yQzM","LocationType":"point","DisplayPosition":{"Latitude":49.01303,"Longitude":2.09074},"MapView":{"TopLeft":{"Latitude":49.0141542,"Longitude":2.0890261},"BottomRight":{"Latitude":49.0119058,"Longitude":2.0924539}},"Address":{"Label":"243 Rue de l'Ambassadeur, 78700 Conflans-Sainte-Honorine, France","Country":"FRA","State":"Île-de-France","County":"Yvelines","City":"Conflans-Sainte-Honorine","Street":"Rue de l'Ambassadeur","HouseNumber":"243","PostalCode":"78700","AdditionalData":[{"value":"France","key":"CountryName"},{"value":"Île-de-France","key":"StateName"},{"value":"Yvelines","key":"CountyName"}]},"MapReference":{"ReferenceId":"864772350","Spot":0.91,"SideOfStreet":"left","CountryId":"20000001","StateId":"20002126","CountyId":"20003702","CityId":"20003895","AddressId":"371095300","RoadLinkId":"238104264"}}},{"Relevance":1.0,"Distance":37.8,"MatchLevel":"houseNumber","MatchQuality":{"Country":1.0,"State":1.0,"County":1.0,"City":1.0,"Street":[1.0],"HouseNumber":1.0,"PostalCode":1.0},"MatchType":"interpolated","Location":{"LocationId":"NT_fgg56KXXOlxG9h5BABQQBA_l_56393704_R_yUjM","LocationType":"point","DisplayPosition":{"Latitude":49.0133171,"Longitude":2.0899728},"MapView":{"TopLeft":{"Latitude":49.0144413,"Longitude":2.0882588},"BottomRight":{"Latitude":49.012193,"Longitude":2.0916867}},"Address":{"Label":"252 Rue de l'Ambassadeur, 95610 Éragny, France","Country":"FRA","State":"Île-de-France","County":"Val-d'Oise","City":"Éragny","Street":"Rue de l'Ambassadeur","HouseNumber":"252","PostalCode":"95610","AdditionalData":[{"value":"France","key":"CountryName"},{"value":"Île-de-France","key":"StateName"},{"value":"Val-d'Oise","key":"CountyName"}]},"MapReference":{"ReferenceId":"56393704","Spot":0.53,"SideOfStreet":"right","CountryId":"20000001","StateId":"20002126","CountyId":"20005470","CityId":"20005663"}}},{"Relevance":1.0,"Distance":46.4,"MatchLevel":"street","MatchQuality":{"Country":1.0,"State":1.0,"County":1.0,"City":1.0,"Street":[1.0],"PostalCode":1.0},"Location":{"LocationId":"NT_SCEbP4yHR8wFBrY4-bm3pB_l_882233206_R","LocationType":"point","DisplayPosition":{"Latitude":49.01335,"Longitude":2.08986},"MapView":{"TopLeft":{"Latitude":49.01383,"Longitude":2.08986},"BottomRight":{"Latitude":49.01335,"Longitude":2.08996}},"Address":{"Label":"Boulevard Jacques Duclos, 95610 Éragny, France","Country":"FRA","State":"Île-de-France","County":"Val-d'Oise","City":"Éragny","Street":"Boulevard Jacques Duclos","PostalCode":"95610","AdditionalData":[{"value":"France","key":"CountryName"},{"value":"Île-de-France","key":"StateName"},{"value":"Val-d'Oise","key":"CountyName"}]},"MapReference":{"ReferenceId":"882233206","Spot":0.0,"SideOfStreet":"right","CountryId":"20000001","StateId":"20002126","CountyId":"20005470","CityId":"20005663"}}},{"Relevance":1.0,"Distance":46.4,"MatchLevel":"street","MatchQuality":{"Country":1.0,"State":1.0,"County":1.0,"City":1.0,"Street":[1.0],"PostalCode":1.0},"Location":{"LocationId":"NT_4v0v2HkiqdPR5qdSgoNh-B_l_929248338_R","LocationType":"point","DisplayPosition":{"Latitude":49.01335,"Longitude":2.08986},"MapView":{"TopLeft":{"Latitude":49.01335,"Longitude":2.08971},"BottomRight":{"Latitude":49.01307,"Longitude":2.08986}},"Address":{"Label":"N184, 78700 Conflans-Sainte-Honorine, France","Country":"FRA","State":"Île-de-France","County":"Yvelines","City":"Conflans-Sainte-Honorine","Street":"N184","PostalCode":"78700","AdditionalData":[{"value":"France","key":"CountryName"},{"value":"Île-de-France","key":"StateName"},{"value":"Yvelines","key":"CountyName"}]},"MapReference":{"ReferenceId":"929248338","Spot":1.0,"SideOfStreet":"right","CountryId":"20000001","StateId":"20002126","CountyId":"20003702","CityId":"20003895"}}},{"Relevance":1.0,"Distance":46.4,"MatchLevel":"street","MatchQuality":{"Country":1.0,"State":1.0,"County":1.0,"City":1.0,"Street":[1.0],"PostalCode":1.0},"Location":{"LocationId":"NT_fgg56KXXOlxG9h5BABQQBA_l_759460057_R","LocationType":"point","DisplayPosition":{"Latitude":49.01335,"Longitude":2.08986},"MapView":{"TopLeft":{"Latitude":49.01342,"Longitude":2.08964},"BottomRight":{"Latitude":49.01335,"Longitude":2.08986}},"Address":{"Label":"Rue de l'Ambassadeur, 95610 Éragny, France","Country":"FRA","State":"Île-de-France","County":"Val-d'Oise","City":"Éragny","Street":"Rue de l'Ambassadeur","PostalCode":"95610","AdditionalData":[{"value":"France","key":"CountryName"},{"value":"Île-de-France","key":"StateName"},{"value":"Val-d'Oise","key":"CountyName"}]},"MapReference":{"ReferenceId":"759460057","Spot":0.0,"SideOfStreet":"right","CountryId":"20000001","StateId":"20002126","CountyId":"20005470","CityId":"20005663"}}},{"Relevance":1.0,"Distance":48.0,"MatchLevel":"street","MatchQuality":{"Country":1.0,"State":1.0,"County":1.0,"City":1.0,"Street":[1.0],"PostalCode":1.0},"Location":{"LocationId":"NT_y5LfMGjkS0e7IE.VEsYckD_l_1119236609_R","LocationType":"point","DisplayPosition":{"Latitude":49.0136085,"Longitude":2.0900489},"MapView":{"TopLeft":{"Latitude":49.01393,"Longitude":2.08986},"BottomRight":{"Latitude":49.01335,"Longitude":2.09019}},"Address":{"Label":"Boulevard Jacques Duclos, 95610 Éragny, France","Country":"FRA","State":"Île-de-France","County":"Val-d'Oise","City":"Éragny","Street":"Boulevard Jacques Duclos","PostalCode":"95610","AdditionalData":[{"value":"France","key":"CountryName"},{"value":"Île-de-France","key":"StateName"},{"value":"Val-d'Oise","key":"CountyName"}]},"MapReference":{"ReferenceId":"1119236609","Spot":0.48,"SideOfStreet":"right","CountryId":"20000001","StateId":"20002126","CountyId":"20005470","CityId":"20005663"}}}]}]}}