{"Response":{"MetaInfo":{"Timestamp":"2020-03-28T09:35:00.038+0000","NextPageInformation":"2"},"View":[{"_type":"SearchResultsViewType","ViewId":0,"Result":[{"Relevance":1.0,"Distance":0.0,"Direction":0.0,"MatchLevel":"city","MatchQuality":{"Country":1.0,"State":1.0,"County":1.0,"City":1.0,"PostalCode":1.0},"Location":{"LocationId":"NT_5GqXlGdtuBCHSgrfxNmT8C","LocationType":"point","DisplayPosition":{"Latitude":49.0952935,"Longitude":7.9874894},"MapView":{"TopLeft":{"Latitude":49.132,"Longitude":7.93651},"BottomRight":{"Latitude":49.086,"Longitude":8.01467}},"Address":{"Label":"Bad Bergzabern, Rheinland-Pfalz, Deutschland","Country":"DEU","State":"Rheinland-Pfalz","County":"Südliche Weinstraße","City":"Bad Bergzabern","PostalCode":"76887","AdditionalData":[{"value":"Deutschland","key":"CountryName"},{"value":"Rheinland-Pfalz","key":"StateName"},{"value":"Südliche Weinstraße","key":"CountyName"}]},"MapReference":{"ReferenceId":"841577291","SideOfStreet":"neither","CountryId":"20147700","StateId":"20164001","CountyId":"20170682","CityId":"20170689"}}},{"Relevance":1.0,"Distance":28.4,"MatchLevel":"street","MatchQuality":{"Country":1.0,"State":1.0,"County":1.0,"City":1.0,"District":1.0,"Street":[1.0],"PostalCode":1.0},"Location":{"LocationId":"NT_4t8t8mMZf49Ocx4HyY-quC_l_1194947531_R","LocationType":"point","DisplayPosition":{"Latitude":49.09542,"Longitude":7.98715},"MapView":{"TopLeft":{"Latitude":49.09542,"Longitude":7.98709},"BottomRight":{"Latitude":49.09534,"Longitude":7.98715}},"Address":{"Label":"L508, 76887 Bad Bergzabern, Deutschland","Country":"DEU","State":"Rheinland-Pfalz","County":"Südliche Weinstraße","City":"Bad Bergzabern","District":"Bad Bergzabern","Street":"L508","PostalCode":"76887","AdditionalData":[{"value":"Deutschland","key":"CountryName"},{"value":"Rheinland-Pfalz","key":"StateName"},{"value":"Südliche Weinstraße","key":"CountyName"}]},"MapReference":{"ReferenceId":"1194947531","Spot":1.0,"SideOfStreet":"right","CountryId":"20147700","StateId":"20164001","CountyId":"20170682","CityId":"20170689","DistrictId":"20170692"}}},{"Relevance":1.0,"Distance":29.5,"MatchLevel":"street","MatchQuality":{"Country":1.0,"State":1.0,"County":1.0,"City":1.0,"Street":[1.0],"PostalCode":1.0},"Location":{"LocationId":"NT_zVINwPwqMwPjWiYo5y0fiA_l_703737978_R","LocationType":"point","DisplayPosition":{"Latitude":49.09534,"Longitude":7.98709},"MapView":{"TopLeft":{"Latitude":49.09534,"Longitude":7.98707},"BottomRight":{"Latitude":49.09456,"Longitude":7.98797}},"Address":{"Label":"L508, 76887 Bad Bergzabern, Deutschland","Country":"DEU","State":"Rheinland-Pfalz","County":"Südliche Weinstraße","City":"Bad Bergzabern","Street":"L508","PostalCode":"76887","AdditionalData":[{"value":"Deutschland","key":"CountryName"},{"value":"Rheinland-Pfalz","key":"StateName"},{"value":"Südliche Weinstraße","key":"CountyName"}]},"MapReference":{"ReferenceId":"703737978","Spot":1.0,"SideOfStreet":"right","CountryId":"20147700","StateId":"20164001","CountyId":"20170682","CityId":"20170689"}}},{"Relevance":1.0,"Distance":31.1,"MatchLevel":"street","MatchQuality":{"Country":1.0,"State":1.0,"County":1.0,"City":1.0,"District":1.0,"Street":[1.0],"PostalCode":1.0},"Location":{"LocationId":"NT_4t8t8mMZf49Ocx4HyY-quC_l_1194947532_R","LocationType":"point","DisplayPosition":{"Latitude":49.0955577,"Longitude":7.9873471},"MapView":{"TopLeft":{"Latitude":49.09557,"Longitude":7.98715},"BottomRight":{"Latitude":49.09542,"Longitude":7.98737}},"Address":{"Label":"L508, 76887 Bad Bergzabern, Deutschland","Country":"DEU","State":"Rheinland-Pfalz","County":"Südliche Weinstraße","City":"Bad Bergzabern","District":"Bad Bergzabern","Street":"L508","PostalCode":"76887","AdditionalData":[{"value":"Deutschland","key":"CountryName"},{"value":"Rheinland-Pfalz","key":"StateName"},{"value":"Südliche Weinstraße","key":"CountyName"}]},"MapReference":{"ReferenceId":"1194947532","Spot":0.9,"SideOfStreet":"right","CountryId":"20147700","StateId":"20164001","CountyId":"20170682","CityId":"20170689","DistrictId":"20170692"}}},{"Relevance":1.0,"Distance":32.0,"MatchLevel":"street","MatchQuality":{"Country":1.0,"State":1.0,"County":1.0,"City":1.0,"Street":[1.0],"PostalCode":1.0},"Location":{"LocationId":"NT_zVINwPwqMwPjWiYo5y0fiA_l_548217800_R","LocationType":"point","DisplayPosition":{"Latitude":49.09557,"Longitude":7.98737},"MapView":{"TopLeft":{"Latitude":49.09586,"Longitude":7.98737},"BottomRight":{"Latitude":49.09557,"Longitude":7.98938}},"Address":{"Label":"L508, 76887 Bad Bergzabern, Deutschland","Country":"DEU","State":"Rheinland-Pfalz","County":"Südliche Weinstraße","City":"Bad Bergzabern","Street":"L508","PostalCode":"76887","AdditionalData":[{"value":"Deutschland","key":"CountryName"},{"value":"Rheinland-Pfalz","key":"StateName"},{"value":"Südliche Weinstraße","key":"CountyName"}]},"MapReference":{"ReferenceId":"548217800","Spot":0.0,"SideOfStreet":"right","CountryId":"20147700","StateId":"20164001","CountyId":"20170682","CityId":"20170689"}}},{"Relevance":1.0,"Distance":37.2,"MatchLevel":"houseNumber","MatchQuality":{"Country":1.0,"State":1.0,"County":1.0,"City":1.0,"Street":[1.0],"HouseNumber":1.0,"PostalCode":1.0},"MatchType":"interpolated","Location":{"LocationId":"NT_bPjIOSOcMOBHpU8DMAPocA_4A","LocationType":"point","DisplayPosition":{"Latitude":49.09516,"Longitude":7.98805},"MapView":{"TopLeft":{"Latitude":49.0962842,"Longitude":7.9863332},"BottomRight":{"Latitude":49.0940358,"Longitude":7.9897668}},"Address":{"Label":"Tischbergerstraße 8, 76887 Bad Bergzabern, Deutschland","Country":"DEU","State":"Rheinland-Pfalz","County":"Südliche Weinstraße","City":"Bad Bergzabern","Street":"Tischbergerstraße","HouseNumber":"8","PostalCode":"76887","AdditionalData":[{"value":"Deutschland","key":"CountryName"},{"value":"Rheinland-Pfalz","key":"StateName"},{"value":"Südliche Weinstraße","key":"CountyName"}]},"MapReference":{"ReferenceId":"548213731","Spot":1.0,"SideOfStreet":"right","CountryId":"20147700","StateId":"20164001","CountyId":"20170682","CityId":"20170689","AddressId":"249764632","RoadLinkId":"33943379"}}},{"Relevance":1.0,"Distance":48.8,"MatchLevel":"houseNumber","MatchQuality":{"Country":1.0,"State":1.0,"County":1.0,"City":1.0,"District":1.0,"Street":[1.0],"HouseNumber":1.0,"PostalCode":1.0},"MatchType":"interpolated","Location":{"LocationId":"NT_RNAm6gxCqE83ziG.-bxnuD_yMTR","LocationType":"point","DisplayPosition":{"Latitude":49.09571,"Longitude":7.98728},"MapView":{"TopLeft":{"Latitude":49.0968342,"Longitude":7.9855632},"BottomRight":{"Latitude":49.0945858,"Longitude":7.9889968}},"Address":{"Label":"Wiesenstraße 23E, 76887 Bad Bergzabern, Deutschland","Country":"DEU","State":"Rheinland-Pfalz","County":"Südliche Weinstraße","City":"Bad Bergzabern","District":"Bad Bergzabern","Street":"Wiesenstraße","HouseNumber":"23E","PostalCode":"76887","AdditionalData":[{"value":"Deutschland","key":"CountryName"},{"value":"Rheinland-Pfalz","key":"StateName"},{"value":"Südliche Weinstraße","key":"CountyName"}]},"MapReference":{"ReferenceId":"548213792","Spot":0.31,"SideOfStreet":"left","CountryId":"20147700","StateId":"20164001","CountyId":"20170682","CityId":"20170689","DistrictId":"20170692","AddressId":"188650038","RoadLinkId":"34664153"}}},{"Relevance":1.0,"Distance":65.4,"MatchLevel":"street","MatchQuality":{"Country":1.0,"State":1.0,"County":1.0,"City":1.0,"District":1.0,"Street":[1.0],"PostalCode":1.0},"Location":{"LocationId":"NT_RNAm6gxCqE83ziG.-bxnuD_l_548213845_R","LocationType":"point","DisplayPosition":{"Latitude":49.09588,"Longitude":7.98755},"MapView":{"TopLeft":{"Latitude":49.0959,"Longitude":7.98755},"BottomRight":{"Latitude":49.09588,"Longitude":7.98773}},"Address":{"Label":"Wiesenstraße, 76887 Bad Bergzabern, Deutschland","Country":"DEU","State":"Rheinland-Pfalz","County":"Südliche Weinstraße","City":"Bad Bergzabern","District":"Bad Bergzabern","Street":"Wiesenstraße","PostalCode":"76887","AdditionalData":[{"value":"Deutschland","key":"CountryName"},{"value":"Rheinland-Pfalz","key":"StateName"},{"value":"Südliche Weinstraße","key":"CountyName"}]},"MapReference":{"ReferenceId":"548213845","Spot":0.0,"SideOfStreet":"right","CountryId":"20147700","StateId":"20164001","CountyId":"20170682","CityId":"20170689","DistrictId":"20170692"}}},{"Relevance":1.0,"Distance":84.7,"MatchLevel":"houseNumber","MatchQuality":{"Country":1.0,"State":1.0,"County":1.0,"City":1.0,"District":1.0,"Street":[1.0],"HouseNumber":1.0,"PostalCode":1.0},"MatchType":"interpolated","Location":{"LocationId":"NT_RNAm6gxCqE83ziG.-bxnuD_yMTQ","LocationType":"point","DisplayPosition":{"Latitude":49.09613,"Longitude":7.98745},"MapView":{"TopLeft":{"Latitude":49.0972542,"Longitude":7.9857332},"BottomRight":{"Latitude":49.0950058,"Longitude":7.9891668}},"Address":{"Label":"Wiesenstraße 23A, 76887 Bad Bergzabern, Deutschland","Country":"DEU","State":"Rheinland-Pfalz","County":"Südliche Weinstraße","City":"Bad Bergzabern","District":"Bad Bergzabern","Street":"Wiesenstraße","HouseNumber":"23A","PostalCode":"76887","AdditionalData":[{"value":"Deutschland","key":"CountryName"},{"value":"Rheinland-Pfalz","key":"StateName"},{"value":"Südliche Weinstraße","key":"CountyName"}]},"MapReference":{"ReferenceId":"548213794","Spot":0.53,"SideOfStreet":"left","CountryId":"20147700","StateId":"20164001","CountyId":"20170682","CityId":"20170689","DistrictId":"20170692","AddressId":"188499342","RoadLinkId":"34167346"}}},{"Relevance":1.0,"Distance":88.8,"MatchLevel":"street","MatchQuality":{"Country":1.0,"State":1.0,"County":1.0,"City":1.0,"Street":[1.0],"PostalCode":1.0},"Location":{"LocationId":"NT_zVINwPwqMwPjWiYo5y0fiA_l_703737977_R","LocationType":"point","DisplayPosition":{"Latitude":49.09456,"Longitude":7.98797},"MapView":{"TopLeft":{"Latitude":49.09456,"Longitude":7.98797},"BottomRight":{"Latitude":49.09337,"Longitude":7.98916}},"Address":{"Label":"L508, 76887 Bad Bergzabern, Deutschland","Country":"DEU","State":"Rheinland-Pfalz","County":"Südliche Weinstraße","City":"Bad Bergzabern","Street":"L508","PostalCode":"76887","AdditionalData":[{"value":"Deutschland","key":"CountryName"},{"value":"Rheinland-Pfalz","key":"StateName"},{"value":"Südliche Weinstraße","key":"CountyName"}]},"MapReference":{"ReferenceId":"703737977","Spot":1.0,"SideOfStreet":"right","CountryId":"20147700","StateId":"20164001","CountyId":"20170682","CityId":"20170689"}}}]}]}}