{"Response":{"MetaInfo":{"Timestamp":"2020-03-28T10:24:15.901+0000","NextPageInformation":"2"},"View":[{"_type":"SearchResultsViewType","ViewId":0,"Result":[{"Relevance":1.0,"Distance":0.0,"Direction":0.0,"MatchLevel":"district","MatchQuality":{"Country":1.0,"State":1.0,"County":1.0,"City":1.0,"District":1.0,"PostalCode":1.0},"Location":{"LocationId":"NT_48wcjOXL2NS1wNzW8SQ1qC","LocationType":"point","DisplayPosition":{"Latitude":49.0524594,"Longitude":9.2462557},"MapView":{"TopLeft":{"Latitude":49.06919,"Longitude":9.23214},"BottomRight":{"Latitude":49.04913,"Longitude":9.27166}},"Address":{"Label":"Ilsfeld, Baden-Württemberg, Deutschland","Country":"DEU","State":"Baden-Württemberg","County":"Heilbronn (Landkreis)","City":"Ilsfeld","District":"Ilsfeld","PostalCode":"74360","AdditionalData":[{"value":"Deutschland","key":"CountryName"},{"value":"Baden-Württemberg","key":"StateName"},{"value":"Heilbronn (Landkreis)","key":"CountyName"}]},"MapReference":{"ReferenceId":"72772809","SideOfStreet":"neither","CountryId":"20147700","StateId":"20171489","CountyId":"20172304","CityId":"20172382","DistrictId":"20172385"}}},{"Relevance":1.0,"Distance":5.8,"MatchLevel":"houseNumber","MatchQuality":{"Country":1.0,"State":1.0,"County":1.0,"City":1.0,"District":1.0,"Street":[1.0],"HouseNumber":1.0,"PostalCode":1.0},"MatchType":"interpolated","Location":{"LocationId":"NT_YHVCeI0KiveJEGm9kT6MrD_0A","LocationType":"point","DisplayPosition":{"Latitude":49.05251,"Longitude":9.24617},"MapView":{"TopLeft":{"Latitude":49.0536342,"Longitude":9.2444547},"BottomRight":{"Latitude":49.0513858,"Longitude":9.2478853}},"Address":{"Label":"Raiffeisenstraße 4, 74360 Ilsfeld, Deutschland","Country":"DEU","State":"Baden-Württemberg","County":"Heilbronn (Landkreis)","City":"Ilsfeld","District":"Ilsfeld","Street":"Raiffeisenstraße","HouseNumber":"4","PostalCode":"74360","AdditionalData":[{"value":"Deutschland","key":"CountryName"},{"value":"Baden-Württemberg","key":"StateName"},{"value":"Heilbronn (Landkreis)","key":"CountyName"}]},"MapReference":{"ReferenceId":"72772758","Spot":0.53,"SideOfStreet":"right","CountryId":"20147700","StateId":"20171489","CountyId":"20172304","CityId":"20172382","DistrictId":"20172385","AddressId":"179691989","RoadLinkId":"38871576"}}},{"Relevance":1.0,"Distance":41.1,"MatchLevel":"houseNumber","MatchQuality":{"Country":1.0,"State":1.0,"County":1.0,"City":1.0,"District":1.0,"Street":[1.0],"HouseNumber":1.0,"PostalCode":1.0},"MatchType":"interpolated","Location":{"LocationId":"NT_qFTRbrTFpWbV5kKdbFRiVC_1A","LocationType":"point","DisplayPosition":{"Latitude":49.05203,"Longitude":9.24654},"MapView":{"TopLeft":{"Latitude":49.0531542,"Longitude":9.2448247},"BottomRight":{"Latitude":49.0509058,"Longitude":9.2482553}},"Address":{"Label":"Schwabstraße 5, 74360 Ilsfeld, Deutschland","Country":"DEU","State":"Baden-Württemberg","County":"Heilbronn (Landkreis)","City":"Ilsfeld","District":"Ilsfeld","Street":"Schwabstraße","HouseNumber":"5","PostalCode":"74360","AdditionalData":[{"value":"Deutschland","key":"CountryName"},{"value":"Baden-Württemberg","key":"StateName"},{"value":"Heilbronn (Landkreis)","key":"CountyName"}]},"MapReference":{"ReferenceId":"72772757","Spot":0.5,"SideOfStreet":"left","CountryId":"20147700","StateId":"20171489","CountyId":"20172304","CityId":"20172382","DistrictId":"20172385","AddressId":"179000196","RoadLinkId":"38935230"}}},{"Relevance":1.0,"Distance":50.9,"MatchLevel":"houseNumber","MatchQuality":{"Country":1.0,"State":1.0,"County":1.0,"City":1.0,"District":1.0,"Street":[1.0],"HouseNumber":1.0,"PostalCode":1.0},"MatchType":"interpolated","Location":{"LocationId":"NT_LxyNF6Q.yA6dsbPvNt2dxD_0EzLxA","LocationType":"point","DisplayPosition":{"Latitude":49.05206,"Longitude":9.24536},"MapView":{"TopLeft":{"Latitude":49.0531842,"Longitude":9.2436447},"BottomRight":{"Latitude":49.0509358,"Longitude":9.2470753}},"Address":{"Label":"Bahnhofstraße 41/1, 74360 Ilsfeld, Deutschland","Country":"DEU","State":"Baden-Württemberg","County":"Heilbronn (Landkreis)","City":"Ilsfeld","District":"Ilsfeld","Street":"Bahnhofstraße","HouseNumber":"41/1","PostalCode":"74360","AdditionalData":[{"value":"Deutschland","key":"CountryName"},{"value":"Baden-Württemberg","key":"StateName"},{"value":"Heilbronn (Landkreis)","key":"CountyName"}]},"MapReference":{"ReferenceId":"72772720","Spot":0.47,"SideOfStreet":"right","CountryId":"20147700","StateId":"20171489","CountyId":"20172304","CityId":"20172382","DistrictId":"20172385","AddressId":"178985289","RoadLinkId":"38585169"}}},{"Relevance":1.0,"Distance":56.8,"MatchLevel":"houseNumber","MatchQuality":{"Country":1.0,"State":1.0,"County":1.0,"City":1.0,"District":1.0,"Street":[1.0],"HouseNumber":1.0,"PostalCode":1.0},"MatchType":"interpolated","Location":{"LocationId":"NT_YHVCeI0KiveJEGm9kT6MrD_1A","LocationType":"point","DisplayPosition":{"Latitude":49.05303,"Longitude":9.24691},"MapView":{"TopLeft":{"Latitude":49.0541542,"Longitude":9.2451947},"BottomRight":{"Latitude":49.0519058,"Longitude":9.2486253}},"Address":{"Label":"Raiffeisenstraße 5, 74360 Ilsfeld, Deutschland","Country":"DEU","State":"Baden-Württemberg","County":"Heilbronn (Landkreis)","City":"Ilsfeld","District":"Ilsfeld","Street":"Raiffeisenstraße","HouseNumber":"5","PostalCode":"74360","AdditionalData":[{"value":"Deutschland","key":"CountryName"},{"value":"Baden-Württemberg","key":"StateName"},{"value":"Heilbronn (Landkreis)","key":"CountyName"}]},"MapReference":{"ReferenceId":"76819859","Spot":0.61,"SideOfStreet":"left","CountryId":"20147700","StateId":"20171489","CountyId":"20172304","CityId":"20172382","DistrictId":"20172385","AddressId":"382272505","RoadLinkId":"38431380"}}},{"Relevance":1.0,"Distance":71.5,"MatchLevel":"houseNumber","MatchQuality":{"Country":1.0,"State":1.0,"County":1.0,"City":1.0,"District":1.0,"Street":[1.0],"HouseNumber":1.0,"PostalCode":1.0},"MatchType":"interpolated","Location":{"LocationId":"NT_YHVCeI0KiveJEGm9kT6MrD_xED","LocationType":"point","DisplayPosition":{"Latitude":49.05261,"Longitude":9.24721},"MapView":{"TopLeft":{"Latitude":49.0537342,"Longitude":9.2454947},"BottomRight":{"Latitude":49.0514858,"Longitude":9.2489253}},"Address":{"Label":"Raiffeisenstraße 11, 74360 Ilsfeld, Deutschland","Country":"DEU","State":"Baden-Württemberg","County":"Heilbronn (Landkreis)","City":"Ilsfeld","District":"Ilsfeld","Street":"Raiffeisenstraße","HouseNumber":"11","PostalCode":"74360","AdditionalData":[{"value":"Deutschland","key":"CountryName"},{"value":"Baden-Württemberg","key":"StateName"},{"value":"Heilbronn (Landkreis)","key":"CountyName"}]},"MapReference":{"ReferenceId":"72772779","Spot":0.91,"SideOfStreet":"right","CountryId":"20147700","StateId":"20171489","CountyId":"20172304","CityId":"20172382","DistrictId":"20172385","AddressId":"178272569","RoadLinkId":"38251757"}}},{"Relevance":1.0,"Distance":78.7,"MatchLevel":"houseNumber","MatchQuality":{"Country":1.0,"State":1.0,"County":1.0,"City":1.0,"District":1.0,"Street":[1.0],"HouseNumber":1.0,"PostalCode":1.0},"MatchType":"interpolated","Location":{"LocationId":"NT_LxyNF6Q.yA6dsbPvNt2dxD_zkD","LocationType":"point","DisplayPosition":{"Latitude":49.05268,"Longitude":9.24512},"MapView":{"TopLeft":{"Latitude":49.0538042,"Longitude":9.2434047},"BottomRight":{"Latitude":49.0515558,"Longitude":9.2468353}},"Address":{"Label":"Bahnhofstraße 39, 74360 Ilsfeld, Deutschland","Country":"DEU","State":"Baden-Württemberg","County":"Heilbronn (Landkreis)","City":"Ilsfeld","District":"Ilsfeld","Street":"Bahnhofstraße","HouseNumber":"39","PostalCode":"74360","AdditionalData":[{"value":"Deutschland","key":"CountryName"},{"value":"Baden-Württemberg","key":"StateName"},{"value":"Heilbronn (Landkreis)","key":"CountyName"}]},"MapReference":{"ReferenceId":"72772803","Spot":0.55,"SideOfStreet":"right","CountryId":"20147700","StateId":"20171489","CountyId":"20172304","CityId":"20172382","DistrictId":"20172385","AddressId":"178224433","RoadLinkId":"38684367"}}},{"Relevance":1.0,"Distance":91.4,"MatchLevel":"houseNumber","MatchQuality":{"Country":1.0,"State":1.0,"County":1.0,"City":1.0,"District":1.0,"Street":[1.0],"HouseNumber":1.0,"PostalCode":1.0},"MatchType":"interpolated","Location":{"LocationId":"NT_1LTR4XX1Vtxtf5rqxx-ljD_zA","LocationType":"point","DisplayPosition":{"Latitude":49.05156,"Longitude":9.24639},"MapView":{"TopLeft":{"Latitude":49.0526842,"Longitude":9.2446747},"BottomRight":{"Latitude":49.0504358,"Longitude":9.2481053}},"Address":{"Label":"Fischerstraße 3, 74360 Ilsfeld, Deutschland","Country":"DEU","State":"Baden-Württemberg","County":"Heilbronn (Landkreis)","City":"Ilsfeld","District":"Ilsfeld","Street":"Fischerstraße","HouseNumber":"3","PostalCode":"74360","AdditionalData":[{"value":"Deutschland","key":"CountryName"},{"value":"Baden-Württemberg","key":"StateName"},{"value":"Heilbronn (Landkreis)","key":"CountyName"}]},"MapReference":{"ReferenceId":"72772763","Spot":0.17,"SideOfStreet":"left","CountryId":"20147700","StateId":"20171489","CountyId":"20172304","CityId":"20172382","DistrictId":"20172385","AddressId":"178818767","RoadLinkId":"38206187"}}},{"Relevance":1.0,"Distance":92.5,"MatchLevel":"houseNumber","MatchQuality":{"Country":1.0,"State":1.0,"County":1.0,"City":1.0,"District":1.0,"Street":[1.0],"HouseNumber":1.0,"PostalCode":1.0},"MatchType":"interpolated","Location":{"LocationId":"NT_LxyNF6Q.yA6dsbPvNt2dxD_zczLyA","LocationType":"point","DisplayPosition":{"Latitude":49.05293,"Longitude":9.24515},"MapView":{"TopLeft":{"Latitude":49.0540542,"Longitude":9.2434347},"BottomRight":{"Latitude":49.0518058,"Longitude":9.2468653}},"Address":{"Label":"Bahnhofstraße 37/2, 74360 Ilsfeld, Deutschland","Country":"DEU","State":"Baden-Württemberg","County":"Heilbronn (Landkreis)","City":"Ilsfeld","District":"Ilsfeld","Street":"Bahnhofstraße","HouseNumber":"37/2","PostalCode":"74360","AdditionalData":[{"value":"Deutschland","key":"CountryName"},{"value":"Baden-Württemberg","key":"StateName"},{"value":"Heilbronn (Landkreis)","key":"CountyName"}]},"MapReference":{"ReferenceId":"72772725","Spot":0.18,"SideOfStreet":"right","CountryId":"20147700","StateId":"20171489","CountyId":"20172304","CityId":"20172382","DistrictId":"20172385","AddressId":"382270609","RoadLinkId":"38319185"}}},{"Relevance":1.0,"Distance":97.0,"MatchLevel":"street","MatchQuality":{"Country":1.0,"State":1.0,"County":1.0,"City":1.0,"District":1.0,"Street":[1.0],"PostalCode":1.0},"Location":{"LocationId":"NT_LxyNF6Q.yA6dsbPvNt2dxD_l_574410643_R","LocationType":"point","DisplayPosition":{"Latitude":49.05175,"Longitude":9.24548},"MapView":{"TopLeft":{"Latitude":49.05175,"Longitude":9.24548},"BottomRight":{"Latitude":49.05167,"Longitude":9.24551}},"Address":{"Label":"Bahnhofstraße, 74360 Ilsfeld, Deutschland","Country":"DEU","State":"Baden-Württemberg","County":"Heilbronn (Landkreis)","City":"Ilsfeld","District":"Ilsfeld","Street":"Bahnhofstraße","PostalCode":"74360","AdditionalData":[{"value":"Deutschland","key":"CountryName"},{"value":"Baden-Württemberg","key":"StateName"},{"value":"Heilbronn (Landkreis)","key":"CountyName"}]},"MapReference":{"ReferenceId":"574410643","Spot":1.0,"SideOfStreet":"right","CountryId":"20147700","StateId":"20171489","CountyId":"20172304","CityId":"20172382","DistrictId":"20172385"}}}]}]}}