{"Response":{"MetaInfo":{"Timestamp":"2020-03-28T11:47:43.674+0000","NextPageInformation":"2"},"View":[{"_type":"SearchResultsViewType","ViewId":0,"Result":[{"Relevance":1.0,"Distance":0.0,"Direction":0.0,"MatchLevel":"city","MatchQuality":{"Country":1.0,"State":1.0,"County":1.0,"City":1.0,"PostalCode":1.0},"Location":{"LocationId":"NT_OYWRu3i5gam0cEzXtT3TSD","LocationType":"point","DisplayPosition":{"Latitude":49.0921,"Longitude":1.48565},"MapView":{"TopLeft":{"Latitude":49.13266,"Longitude":1.42553},"BottomRight":{"Latitude":49.05147,"Longitude":1.5398}},"Address":{"Label":"Vernon, Normandie, France","Country":"FRA","State":"Normandie","County":"Eure","City":"Vernon","PostalCode":"27200","AdditionalData":[{"value":"France","key":"CountryName"},{"value":"Normandie","key":"StateName"},{"value":"Eure","key":"CountyName"}]},"MapReference":{"ReferenceId":"556729598","SideOfStreet":"neither","CountryId":"20000001","StateId":"20057204","CountyId":"20002109","CityId":"20063314"}}},{"Relevance":1.0,"Distance":3.1,"MatchLevel":"houseNumber","MatchQuality":{"Country":1.0,"State":1.0,"County":1.0,"City":1.0,"Street":[1.0],"HouseNumber":1.0,"PostalCode":1.0},"MatchType":"interpolated","Location":{"LocationId":"NT_m1QOQSCnWNnrDl6oNO63gC_yMD","LocationType":"point","DisplayPosition":{"Latitude":49.09208,"Longitude":1.48568},"MapView":{"TopLeft":{"Latitude":49.0932042,"Longitude":1.4839633},"BottomRight":{"Latitude":49.0909558,"Longitude":1.4873967}},"Address":{"Label":"23 Rue Saint-Jacques, 27200 Vernon, France","Country":"FRA","State":"Normandie","County":"Eure","City":"Vernon","Street":"Rue Saint-Jacques","HouseNumber":"23","PostalCode":"27200","AdditionalData":[{"value":"France","key":"CountryName"},{"value":"Normandie","key":"StateName"},{"value":"Eure","key":"CountyName"}]},"MapReference":{"ReferenceId":"1151359891","Spot":0.6,"SideOfStreet":"right","CountryId":"20000001","StateId":"20057204","CountyId":"20002109","CityId":"20063314","AddressId":"399107249","RoadLinkId":"456724876"}}},{"Relevance":1.0,"Distance":30.9,"MatchLevel":"houseNumber","MatchQuality":{"Country":1.0,"State":1.0,"County":1.0,"City":1.0,"Street":[1.0],"HouseNumber":1.0,"PostalCode":1.0},"MatchType":"interpolated","Location":{"LocationId":"NT_XQeJwem7sKD8WuD9tLA9PB_xA","LocationType":"point","DisplayPosition":{"Latitude":49.0924,"Longitude":1.48583},"MapView":{"TopLeft":{"Latitude":49.0935242,"Longitude":1.4841133},"BottomRight":{"Latitude":49.0912758,"Longitude":1.4875467}},"Address":{"Label":"1 Rue Sainte-Geneviève, 27200 Vernon, France","Country":"FRA","State":"Normandie","County":"Eure","City":"Vernon","Street":"Rue Sainte-Geneviève","HouseNumber":"1","PostalCode":"27200","AdditionalData":[{"value":"France","key":"CountryName"},{"value":"Normandie","key":"StateName"},{"value":"Eure","key":"CountyName"}]},"MapReference":{"ReferenceId":"556728545","Spot":0.28,"SideOfStreet":"left","CountryId":"20000001","StateId":"20057204","CountyId":"20002109","CityId":"20063314","AddressId":"590445179","RoadLinkId":"46446059"}}},{"Relevance":1.0,"Distance":51.4,"MatchLevel":"houseNumber","MatchQuality":{"Country":1.0,"State":1.0,"County":1.0,"City":1.0,"Street":[1.0],"HouseNumber":1.0,"PostalCode":1.0},"MatchType":"interpolated","Location":{"LocationId":"NT_m1QOQSCnWNnrDl6oNO63gC_0IE","LocationType":"point","DisplayPosition":{"Latitude":49.09239,"Longitude":1.48617},"MapView":{"TopLeft":{"Latitude":49.0935142,"Longitude":1.4844533},"BottomRight":{"Latitude":49.0912658,"Longitude":1.4878867}},"Address":{"Label":"4B Rue Saint-Jacques, 27200 Vernon, France","Country":"FRA","State":"Normandie","County":"Eure","City":"Vernon","Street":"Rue Saint-Jacques","HouseNumber":"4B","PostalCode":"27200","AdditionalData":[{"value":"France","key":"CountryName"},{"value":"Normandie","key":"StateName"},{"value":"Eure","key":"CountyName"}]},"MapReference":{"ReferenceId":"556728543","Spot":0.25,"SideOfStreet":"left","CountryId":"20000001","StateId":"20057204","CountyId":"20002109","CityId":"20063314","AddressId":"371066330","RoadLinkId":"46548495"}}},{"Relevance":1.0,"Distance":56.3,"MatchLevel":"houseNumber","MatchQuality":{"Country":1.0,"State":1.0,"County":1.0,"City":1.0,"Street":[1.0],"HouseNumber":1.0,"PostalCode":1.0},"MatchType":"interpolated","Location":{"LocationId":"NT_MU489lX.NNaP0OsjIduHFD_yA","LocationType":"point","DisplayPosition":{"Latitude":49.09169,"Longitude":1.4849},"MapView":{"TopLeft":{"Latitude":49.0928142,"Longitude":1.4831833},"BottomRight":{"Latitude":49.0905658,"Longitude":1.4866167}},"Address":{"Label":"2 Place du Général de Gaulle, 27200 Vernon, France","Country":"FRA","State":"Normandie","County":"Eure","City":"Vernon","Street":"Place du Général de Gaulle","HouseNumber":"2","PostalCode":"27200","AdditionalData":[{"value":"France","key":"CountryName"},{"value":"Normandie","key":"StateName"},{"value":"Eure","key":"CountyName"}]},"MapReference":{"ReferenceId":"556728550","Spot":0.22,"SideOfStreet":"right","CountryId":"20000001","StateId":"20057204","CountyId":"20002109","CityId":"20063314","AddressId":"316728725","RoadLinkId":"47420255"}}},{"Relevance":1.0,"Distance":58.8,"MatchLevel":"houseNumber","MatchQuality":{"Country":1.0,"State":1.0,"County":1.0,"City":1.0,"Street":[1.0],"HouseNumber":1.0,"PostalCode":1.0},"MatchType":"interpolated","Location":{"LocationId":"NT_m1QOQSCnWNnrDl6oNO63gC_l_1151359890_L_yQD","LocationType":"point","DisplayPosition":{"Latitude":49.0916767,"Longitude":1.4850633},"MapView":{"TopLeft":{"Latitude":49.0928008,"Longitude":1.4833467},"BottomRight":{"Latitude":49.0905525,"Longitude":1.48678}},"Address":{"Label":"24 Rue Saint-Jacques, 27200 Vernon, France","Country":"FRA","State":"Normandie","County":"Eure","City":"Vernon","Street":"Rue Saint-Jacques","HouseNumber":"24","PostalCode":"27200","AdditionalData":[{"value":"France","key":"CountryName"},{"value":"Normandie","key":"StateName"},{"value":"Eure","key":"CountyName"}]},"MapReference":{"ReferenceId":"1151359890","Spot":0.67,"SideOfStreet":"left","CountryId":"20000001","StateId":"20057204","CountyId":"20002109","CityId":"20063314"}}},{"Relevance":1.0,"Distance":61.9,"MatchLevel":"houseNumber","MatchQuality":{"Country":1.0,"State":1.0,"County":1.0,"City":1.0,"Street":[1.0],"HouseNumber":1.0,"PostalCode":1.0},"MatchType":"interpolated","Location":{"LocationId":"NT_XQeJwem7sKD8WuD9tLA9PB_yED","LocationType":"point","DisplayPosition":{"Latitude":49.09258,"Longitude":1.48512},"MapView":{"TopLeft":{"Latitude":49.0937042,"Longitude":1.4834033},"BottomRight":{"Latitude":49.0914558,"Longitude":1.4868367}},"Address":{"Label":"21 Rue Sainte-Geneviève, 27200 Vernon, France","Country":"FRA","State":"Normandie","County":"Eure","City":"Vernon","Street":"Rue Sainte-Geneviève","HouseNumber":"21","PostalCode":"27200","AdditionalData":[{"value":"France","key":"CountryName"},{"value":"Normandie","key":"StateName"},{"value":"Eure","key":"CountyName"}]},"MapReference":{"ReferenceId":"556728544","Spot":0.3,"SideOfStreet":"left","CountryId":"20000001","StateId":"20057204","CountyId":"20002109","CityId":"20063314","AddressId":"316663756","RoadLinkId":"47333038"}}},{"Relevance":1.0,"Distance":65.7,"MatchLevel":"houseNumber","MatchQuality":{"Country":1.0,"State":1.0,"County":1.0,"City":1.0,"Street":[1.0],"HouseNumber":1.0,"PostalCode":1.0},"MatchType":"interpolated","Location":{"LocationId":"NT_sOGMf70OscN8Bjjz2Dah1D_xUD","LocationType":"point","DisplayPosition":{"Latitude":49.09272,"Longitude":1.48544},"MapView":{"TopLeft":{"Latitude":49.0938442,"Longitude":1.4837233},"BottomRight":{"Latitude":49.0915958,"Longitude":1.4871567}},"Address":{"Label":"15 Place Adolphe Barette, 27200 Vernon, France","Country":"FRA","State":"Normandie","County":"Eure","City":"Vernon","Street":"Place Adolphe Barette","HouseNumber":"15","PostalCode":"27200","AdditionalData":[{"value":"France","key":"CountryName"},{"value":"Normandie","key":"StateName"},{"value":"Eure","key":"CountyName"}]},"MapReference":{"ReferenceId":"546226464","Spot":0.45,"SideOfStreet":"right","CountryId":"20000001","StateId":"20057204","CountyId":"20002109","CityId":"20063314","AddressId":"571118329","RoadLinkId":"46930204"}}},{"Relevance":1.0,"Distance":70.3,"MatchLevel":"houseNumber","MatchQuality":{"Country":1.0,"State":1.0,"County":1.0,"City":1.0,"Street":[1.0],"HouseNumber":1.0,"PostalCode":1.0},"MatchType":"interpolated","Location":{"LocationId":"NT_MU489lX.NNaP0OsjIduHFD_zIE","LocationType":"point","DisplayPosition":{"Latitude":49.09163,"Longitude":1.48499},"MapView":{"TopLeft":{"Latitude":49.0927542,"Longitude":1.4832733},"BottomRight":{"Latitude":49.0905058,"Longitude":1.4867067}},"Address":{"Label":"3B Place du Général de Gaulle, 27200 Vernon, France","Country":"FRA","State":"Normandie","County":"Eure","City":"Vernon","Street":"Place du Général de Gaulle","HouseNumber":"3B","PostalCode":"27200","AdditionalData":[{"value":"France","key":"CountryName"},{"value":"Normandie","key":"StateName"},{"value":"Eure","key":"CountyName"}]},"MapReference":{"ReferenceId":"556728538","Spot":1.0,"SideOfStreet":"right","CountryId":"20000001","StateId":"20057204","CountyId":"20002109","CityId":"20063314","AddressId":"571060058","RoadLinkId":"46825627"}}},{"Relevance":1.0,"Distance":73.9,"MatchLevel":"houseNumber","MatchQuality":{"Country":1.0,"State":1.0,"County":1.0,"City":1.0,"Street":[1.0],"HouseNumber":1.0,"PostalCode":1.0},"MatchType":"interpolated","Location":{"LocationId":"NT_5y4YtN4CyuYYIH6pvVveuA_xUD","LocationType":"point","DisplayPosition":{"Latitude":49.09265,"Longitude":1.4864},"MapView":{"TopLeft":{"Latitude":49.0937742,"Longitude":1.4846833},"BottomRight":{"Latitude":49.0915258,"Longitude":1.4881167}},"Address":{"Label":"15 Rue Sadi Carnot, 27200 Vernon, France","Country":"FRA","State":"Normandie","County":"Eure","City":"Vernon","Street":"Rue Sadi Carnot","HouseNumber":"15","PostalCode":"27200","AdditionalData":[{"value":"France","key":"CountryName"},{"value":"Normandie","key":"StateName"},{"value":"Eure","key":"CountyName"}]},"MapReference":{"ReferenceId":"556728551","Spot":0.16,"SideOfStreet":"left","CountryId":"20000001","StateId":"20057204","CountyId":"20002109","CityId":"20063314","AddressId":"316757584","RoadLinkId":"46464389"}}}]}]}}