{"Response":{"MetaInfo":{"Timestamp":"2020-03-28T11:43:51.646+0000","NextPageInformation":"2"},"View":[{"_type":"SearchResultsViewType","ViewId":0,"Result":[{"Relevance":1.0,"Distance":0.0,"Direction":0.0,"MatchLevel":"district","MatchQuality":{"Country":1.0,"State":1.0,"County":1.0,"City":1.0,"District":1.0,"PostalCode":1.0},"Location":{"LocationId":"NT_Ipdawj3LgEpWFwy8fSkHzA","LocationType":"point","DisplayPosition":{"Latitude":49.0756488,"Longitude":9.1515665},"MapView":{"TopLeft":{"Latitude":49.08165,"Longitude":9.13249},"BottomRight":{"Latitude":49.06173,"Longitude":9.18402}},"Address":{"Label":"Lauffen am Neckar, Baden-Württemberg, Deutschland","Country":"DEU","State":"Baden-Württemberg","County":"Heilbronn (Landkreis)","City":"Lauffen am Neckar","District":"Lauffen am Neckar","PostalCode":"74348","AdditionalData":[{"value":"Deutschland","key":"CountryName"},{"value":"Baden-Württemberg","key":"StateName"},{"value":"Heilbronn (Landkreis)","key":"CountyName"}]},"MapReference":{"ReferenceId":"72776203","SideOfStreet":"neither","CountryId":"20147700","StateId":"20171489","CountyId":"20172304","CityId":"20172397","DistrictId":"20172399"}}},{"Relevance":1.0,"Distance":2.7,"MatchLevel":"houseNumber","MatchQuality":{"Country":1.0,"State":1.0,"County":1.0,"City":1.0,"District":1.0,"Street":[1.0],"HouseNumber":1.0,"PostalCode":1.0},"MatchType":"interpolated","Location":{"LocationId":"NT_e-BkwcBUIAcri3eQAKZ4YB_1A","LocationType":"point","DisplayPosition":{"Latitude":49.07564,"Longitude":9.15152},"MapView":{"TopLeft":{"Latitude":49.0767642,"Longitude":9.1498039},"BottomRight":{"Latitude":49.0745158,"Longitude":9.1532361}},"Address":{"Label":"Körnerstraße 5, 74348 Lauffen am Neckar, Deutschland","Country":"DEU","State":"Baden-Württemberg","County":"Heilbronn (Landkreis)","City":"Lauffen am Neckar","District":"Lauffen am Neckar","Street":"Körnerstraße","HouseNumber":"5","PostalCode":"74348","AdditionalData":[{"value":"Deutschland","key":"CountryName"},{"value":"Baden-Württemberg","key":"StateName"},{"value":"Heilbronn (Landkreis)","key":"CountyName"}]},"MapReference":{"ReferenceId":"1176038383","Spot":0.35,"SideOfStreet":"right","CountryId":"20147700","StateId":"20171489","CountyId":"20172304","CityId":"20172397","DistrictId":"20172399","AddressId":"177319743","RoadLinkId":"483616506"}}},{"Relevance":1.0,"Distance":23.4,"MatchLevel":"houseNumber","MatchQuality":{"Country":1.0,"State":1.0,"County":1.0,"City":1.0,"District":1.0,"Street":[1.0],"HouseNumber":1.0,"PostalCode":1.0},"MatchType":"interpolated","Location":{"LocationId":"NT_3bFL3-UOX52cMLoUfwnrIC_2MD","LocationType":"point","DisplayPosition":{"Latitude":49.07566,"Longitude":9.15208},"MapView":{"TopLeft":{"Latitude":49.0767842,"Longitude":9.1503639},"BottomRight":{"Latitude":49.0745358,"Longitude":9.1537961}},"Address":{"Label":"Lange Straße 63, 74348 Lauffen am Neckar, Deutschland","Country":"DEU","State":"Baden-Württemberg","County":"Heilbronn (Landkreis)","City":"Lauffen am Neckar","District":"Lauffen am Neckar","Street":"Lange Straße","HouseNumber":"63","PostalCode":"74348","AdditionalData":[{"value":"Deutschland","key":"CountryName"},{"value":"Baden-Württemberg","key":"StateName"},{"value":"Heilbronn (Landkreis)","key":"CountyName"}]},"MapReference":{"ReferenceId":"72797606","Spot":0.29,"SideOfStreet":"left","CountryId":"20147700","StateId":"20171489","CountyId":"20172304","CityId":"20172397","DistrictId":"20172399","AddressId":"179758911","RoadLinkId":"38380339"}}},{"Relevance":1.0,"Distance":25.1,"MatchLevel":"street","MatchQuality":{"Country":1.0,"State":1.0,"County":1.0,"City":1.0,"District":1.0,"Street":[1.0],"PostalCode":1.0},"Location":{"LocationId":"NT_3MHeC5RHQz7wSGJIkOyR3D_l_59401770_L","LocationType":"point","DisplayPosition":{"Latitude":49.07543,"Longitude":9.15165},"MapView":{"TopLeft":{"Latitude":49.07561,"Longitude":9.15165},"BottomRight":{"Latitude":49.07543,"Longitude":9.15213}},"Address":{"Label":"Schulstraße, 74348 Lauffen am Neckar, Deutschland","Country":"DEU","State":"Baden-Württemberg","County":"Heilbronn (Landkreis)","City":"Lauffen am Neckar","District":"Lauffen am Neckar","Street":"Schulstraße","PostalCode":"74348","AdditionalData":[{"value":"Deutschland","key":"CountryName"},{"value":"Baden-Württemberg","key":"StateName"},{"value":"Heilbronn (Landkreis)","key":"CountyName"}]},"MapReference":{"ReferenceId":"59401770","Spot":0.0,"SideOfStreet":"left","CountryId":"20147700","StateId":"20171489","CountyId":"20172304","CityId":"20172397","DistrictId":"20172399"}}},{"Relevance":1.0,"Distance":25.1,"MatchLevel":"street","MatchQuality":{"Country":1.0,"State":1.0,"County":1.0,"City":1.0,"District":1.0,"Street":[1.0],"PostalCode":1.0},"Location":{"LocationId":"NT_e-BkwcBUIAcri3eQAKZ4YB_l_1176038382_L","LocationType":"point","DisplayPosition":{"Latitude":49.07543,"Longitude":9.15165},"MapView":{"TopLeft":{"Latitude":49.07543,"Longitude":9.15165},"BottomRight":{"Latitude":49.07533,"Longitude":9.15167}},"Address":{"Label":"Körnerstraße, 74348 Lauffen am Neckar, Deutschland","Country":"DEU","State":"Baden-Württemberg","County":"Heilbronn (Landkreis)","City":"Lauffen am Neckar","District":"Lauffen am Neckar","Street":"Körnerstraße","PostalCode":"74348","AdditionalData":[{"value":"Deutschland","key":"CountryName"},{"value":"Baden-Württemberg","key":"StateName"},{"value":"Heilbronn (Landkreis)","key":"CountyName"}]},"MapReference":{"ReferenceId":"1176038382","Spot":1.0,"SideOfStreet":"left","CountryId":"20147700","StateId":"20171489","CountyId":"20172304","CityId":"20172397","DistrictId":"20172399"}}},{"Relevance":1.0,"Distance":26.3,"MatchLevel":"houseNumber","MatchQuality":{"Country":1.0,"State":1.0,"County":1.0,"City":1.0,"District":1.0,"Street":[1.0],"HouseNumber":1.0,"PostalCode":1.0},"MatchType":"interpolated","Location":{"LocationId":"NT_3bFL3-UOX52cMLoUfwnrIC_2kD","LocationType":"point","DisplayPosition":{"Latitude":49.07584,"Longitude":9.15193},"MapView":{"TopLeft":{"Latitude":49.0769642,"Longitude":9.1502139},"BottomRight":{"Latitude":49.0747158,"Longitude":9.1536461}},"Address":{"Label":"Lange Straße 69, 74348 Lauffen am Neckar, Deutschland","Country":"DEU","State":"Baden-Württemberg","County":"Heilbronn (Landkreis)","City":"Lauffen am Neckar","District":"Lauffen am Neckar","Street":"Lange Straße","HouseNumber":"69","PostalCode":"74348","AdditionalData":[{"value":"Deutschland","key":"CountryName"},{"value":"Baden-Württemberg","key":"StateName"},{"value":"Heilbronn (Landkreis)","key":"CountyName"}]},"MapReference":{"ReferenceId":"72797605","Spot":0.1,"SideOfStreet":"left","CountryId":"20147700","StateId":"20171489","CountyId":"20172304","CityId":"20172397","DistrictId":"20172399","AddressId":"177856750","RoadLinkId":"38043555"}}},{"Relevance":1.0,"Distance":27.1,"MatchLevel":"houseNumber","MatchQuality":{"Country":1.0,"State":1.0,"County":1.0,"City":1.0,"District":1.0,"Street":[1.0],"HouseNumber":1.0,"PostalCode":1.0},"MatchType":"interpolated","Location":{"LocationId":"NT_3MHeC5RHQz7wSGJIkOyR3D_yA","LocationType":"point","DisplayPosition":{"Latitude":49.07531,"Longitude":9.15142},"MapView":{"TopLeft":{"Latitude":49.0764342,"Longitude":9.1497039},"BottomRight":{"Latitude":49.0741858,"Longitude":9.1531361}},"Address":{"Label":"Schulstraße 2, 74348 Lauffen am Neckar, Deutschland","Country":"DEU","State":"Baden-Württemberg","County":"Heilbronn (Landkreis)","City":"Lauffen am Neckar","District":"Lauffen am Neckar","Street":"Schulstraße","HouseNumber":"2","PostalCode":"74348","AdditionalData":[{"value":"Deutschland","key":"CountryName"},{"value":"Baden-Württemberg","key":"StateName"},{"value":"Heilbronn (Landkreis)","key":"CountyName"}]},"MapReference":{"ReferenceId":"72797617","Spot":0.17,"SideOfStreet":"right","CountryId":"20147700","StateId":"20171489","CountyId":"20172304","CityId":"20172397","DistrictId":"20172399","AddressId":"621602408","RoadLinkId":"38426543"}}},{"Relevance":1.0,"Distance":41.8,"MatchLevel":"houseNumber","MatchQuality":{"Country":1.0,"State":1.0,"County":1.0,"City":1.0,"District":1.0,"Street":[1.0],"HouseNumber":1.0,"PostalCode":1.0},"MatchType":"interpolated","Location":{"LocationId":"NT_8dkyqfNyQ0JrmQl3nADCqA_xA","LocationType":"point","DisplayPosition":{"Latitude":49.07601,"Longitude":9.15126},"MapView":{"TopLeft":{"Latitude":49.0771342,"Longitude":9.1495439},"BottomRight":{"Latitude":49.0748858,"Longitude":9.1529761}},"Address":{"Label":"Postplatz 1, 74348 Lauffen am Neckar, Deutschland","Country":"DEU","State":"Baden-Württemberg","County":"Heilbronn (Landkreis)","City":"Lauffen am Neckar","District":"Lauffen am Neckar","Street":"Postplatz","HouseNumber":"1","PostalCode":"74348","AdditionalData":[{"value":"Deutschland","key":"CountryName"},{"value":"Baden-Württemberg","key":"StateName"},{"value":"Heilbronn (Landkreis)","key":"CountyName"}]},"MapReference":{"ReferenceId":"72776553","Spot":0.0,"SideOfStreet":"right","CountryId":"20147700","StateId":"20171489","CountyId":"20172304","CityId":"20172397","DistrictId":"20172399","AddressId":"249619353","RoadLinkId":"167046726"}}},{"Relevance":1.0,"Distance":44.5,"MatchLevel":"houseNumber","MatchQuality":{"Country":1.0,"State":1.0,"County":1.0,"City":1.0,"District":1.0,"Street":[1.0],"HouseNumber":1.0,"PostalCode":1.0},"MatchType":"interpolated","Location":{"LocationId":"NT_8dkyqfNyQ0JrmQl3nADCqA_zA","LocationType":"point","DisplayPosition":{"Latitude":49.07601,"Longitude":9.15102},"MapView":{"TopLeft":{"Latitude":49.0771342,"Longitude":9.1493039},"BottomRight":{"Latitude":49.0748858,"Longitude":9.1527361}},"Address":{"Label":"Postplatz 3, 74348 Lauffen am Neckar, Deutschland","Country":"DEU","State":"Baden-Württemberg","County":"Heilbronn (Landkreis)","City":"Lauffen am Neckar","District":"Lauffen am Neckar","Street":"Postplatz","HouseNumber":"3","PostalCode":"74348","AdditionalData":[{"value":"Deutschland","key":"CountryName"},{"value":"Baden-Württemberg","key":"StateName"},{"value":"Heilbronn (Landkreis)","key":"CountyName"}]},"MapReference":{"ReferenceId":"72776576","Spot":0.63,"SideOfStreet":"right","CountryId":"20147700","StateId":"20171489","CountyId":"20172304","CityId":"20172397","DistrictId":"20172399","AddressId":"179026711","RoadLinkId":"38211745"}}},{"Relevance":1.0,"Distance":50.1,"MatchLevel":"houseNumber","MatchQuality":{"Country":1.0,"State":1.0,"County":1.0,"City":1.0,"District":1.0,"Street":[1.0],"HouseNumber":1.0,"PostalCode":1.0},"MatchType":"interpolated","Location":{"LocationId":"NT_FQFdKylXIdLIELhy7mUgLA_ycD","LocationType":"point","DisplayPosition":{"Latitude":49.07584,"Longitude":9.15219},"MapView":{"TopLeft":{"Latitude":49.0769642,"Longitude":9.1504739},"BottomRight":{"Latitude":49.0747158,"Longitude":9.1539061}},"Address":{"Label":"Sonnenstraße 27, 74348 Lauffen am Neckar, Deutschland","Country":"DEU","State":"Baden-Württemberg","County":"Heilbronn (Landkreis)","City":"Lauffen am Neckar","District":"Lauffen am Neckar","Street":"Sonnenstraße","HouseNumber":"27","PostalCode":"74348","AdditionalData":[{"value":"Deutschland","key":"CountryName"},{"value":"Baden-Württemberg","key":"StateName"},{"value":"Heilbronn (Landkreis)","key":"CountyName"}]},"MapReference":{"ReferenceId":"72776641","Spot":0.4,"SideOfStreet":"right","CountryId":"20147700","StateId":"20171489","CountyId":"20172304","CityId":"20172397","DistrictId":"20172399","AddressId":"177822361","RoadLinkId":"38335462"}}}]}]}}