{"Response":{"MetaInfo":{"Timestamp":"2020-03-28T09:49:16.279+0000","NextPageInformation":"2"},"View":[{"_type":"SearchResultsViewType","ViewId":0,"Result":[{"Relevance":1.0,"Distance":0.0,"Direction":0.0,"MatchLevel":"city","MatchQuality":{"Country":1.0,"State":1.0,"County":1.0,"City":1.0,"PostalCode":1.0},"Location":{"LocationId":"NT_7UuBM28YdbUGRhPh-aqxlB","LocationType":"point","DisplayPosition":{"Latitude":49.0337926,"Longitude":2.3434832},"MapView":{"TopLeft":{"Latitude":49.04699,"Longitude":2.29392},"BottomRight":{"Latitude":49.01093,"Longitude":2.35451}},"Address":{"Label":"Domont, Île-de-France, France","Country":"FRA","State":"Île-de-France","County":"Val-d'Oise","City":"Domont","PostalCode":"95330","AdditionalData":[{"value":"France","key":"CountryName"},{"value":"Île-de-France","key":"StateName"},{"value":"Val-d'Oise","key":"CountyName"}]},"MapReference":{"ReferenceId":"766050914","SideOfStreet":"neither","CountryId":"20000001","StateId":"20002126","CountyId":"20005470","CityId":"20005639"}}},{"Relevance":1.0,"Distance":35.1,"MatchLevel":"houseNumber","MatchQuality":{"Country":1.0,"State":1.0,"County":1.0,"City":1.0,"Street":[1.0],"HouseNumber":1.0,"PostalCode":1.0},"MatchType":"interpolated","Location":{"LocationId":"NT_1bIhQIchR.8Ec3hxBA7-nB_4cD","LocationType":"point","DisplayPosition":{"Latitude":49.03409,"Longitude":2.34332},"MapView":{"TopLeft":{"Latitude":49.0352142,"Longitude":2.3416053},"BottomRight":{"Latitude":49.0329658,"Longitude":2.3450347}},"Address":{"Label":"87 Rue de Domont, 95460 Ézanville, France","Country":"FRA","State":"Île-de-France","County":"Val-d'Oise","City":"Ézanville","Street":"Rue de Domont","HouseNumber":"87","PostalCode":"95460","AdditionalData":[{"value":"France","key":"CountryName"},{"value":"Île-de-France","key":"StateName"},{"value":"Val-d'Oise","key":"CountyName"}]},"MapReference":{"ReferenceId":"56364793","Spot":0.0,"SideOfStreet":"right","CountryId":"20000001","StateId":"20002126","CountyId":"20005470","CityId":"20005669","AddressId":"697054331","RoadLinkId":"43362916"}}},{"Relevance":1.0,"Distance":35.1,"MatchLevel":"street","MatchQuality":{"Country":1.0,"State":1.0,"County":1.0,"City":1.0,"Street":[1.0],"PostalCode":1.0},"Location":{"LocationId":"NT_PYu6uM6qSz2-vrN8yjg0TA_l_56364805_R","LocationType":"point","DisplayPosition":{"Latitude":49.03409,"Longitude":2.34332},"MapView":{"TopLeft":{"Latitude":49.03409,"Longitude":2.34303},"BottomRight":{"Latitude":49.03408,"Longitude":2.34332}},"Address":{"Label":"D370, 95460 Ézanville, France","Country":"FRA","State":"Île-de-France","County":"Val-d'Oise","City":"Ézanville","Street":"D370","PostalCode":"95460","AdditionalData":[{"value":"France","key":"CountryName"},{"value":"Île-de-France","key":"StateName"},{"value":"Val-d'Oise","key":"CountyName"}]},"MapReference":{"ReferenceId":"56364805","Spot":1.0,"SideOfStreet":"right","CountryId":"20000001","StateId":"20002126","CountyId":"20005470","CityId":"20005669"}}},{"Relevance":1.0,"Distance":46.0,"MatchLevel":"street","MatchQuality":{"Country":1.0,"State":1.0,"County":1.0,"City":1.0,"Street":[1.0],"PostalCode":1.0},"Location":{"LocationId":"NT_PYu6uM6qSz2-vrN8yjg0TA_l_1067470020_R","LocationType":"point","DisplayPosition":{"Latitude":49.03408,"Longitude":2.34303},"MapView":{"TopLeft":{"Latitude":49.03408,"Longitude":2.34269},"BottomRight":{"Latitude":49.03404,"Longitude":2.34303}},"Address":{"Label":"D370, 95330 Domont, France","Country":"FRA","State":"Île-de-France","County":"Val-d'Oise","City":"Domont","Street":"D370","PostalCode":"95330","AdditionalData":[{"value":"France","key":"CountryName"},{"value":"Île-de-France","key":"StateName"},{"value":"Val-d'Oise","key":"CountyName"}]},"MapReference":{"ReferenceId":"1067470020","Spot":1.0,"SideOfStreet":"right","CountryId":"20000001","StateId":"20002126","CountyId":"20005470","CityId":"20005639"}}},{"Relevance":1.0,"Distance":60.7,"MatchLevel":"houseNumber","MatchQuality":{"Country":1.0,"State":1.0,"County":1.0,"City":1.0,"Street":[1.0],"HouseNumber":1.0,"PostalCode":1.0},"MatchType":"interpolated","Location":{"LocationId":"NT_ih6pkQtJnV25BiYumGr4KA_5ID","LocationType":"point","DisplayPosition":{"Latitude":49.03346,"Longitude":2.34236},"MapView":{"TopLeft":{"Latitude":49.0345842,"Longitude":2.3406454},"BottomRight":{"Latitude":49.0323358,"Longitude":2.3440746}},"Address":{"Label":"92 Avenue Jean Rostand, 95330 Domont, France","Country":"FRA","State":"Île-de-France","County":"Val-d'Oise","City":"Domont","Street":"Avenue Jean Rostand","HouseNumber":"92","PostalCode":"95330","AdditionalData":[{"value":"France","key":"CountryName"},{"value":"Île-de-France","key":"StateName"},{"value":"Val-d'Oise","key":"CountyName"}]},"MapReference":{"ReferenceId":"56365226","Spot":0.95,"SideOfStreet":"right","CountryId":"20000001","StateId":"20002126","CountyId":"20005470","CityId":"20005639","AddressId":"322023439","RoadLinkId":"43376992"}}},{"Relevance":1.0,"Distance":64.0,"MatchLevel":"street","MatchQuality":{"Country":1.0,"State":1.0,"County":1.0,"City":1.0,"Street":[1.0],"PostalCode":1.0},"Location":{"LocationId":"NT_PYu6uM6qSz2-vrN8yjg0TA_l_1067828298_R","LocationType":"point","DisplayPosition":{"Latitude":49.03404,"Longitude":2.34269},"MapView":{"TopLeft":{"Latitude":49.03404,"Longitude":2.34219},"BottomRight":{"Latitude":49.03396,"Longitude":2.34269}},"Address":{"Label":"D370, 95330 Domont, France","Country":"FRA","State":"Île-de-France","County":"Val-d'Oise","City":"Domont","Street":"D370","PostalCode":"95330","AdditionalData":[{"value":"France","key":"CountryName"},{"value":"Île-de-France","key":"StateName"},{"value":"Val-d'Oise","key":"CountyName"}]},"MapReference":{"ReferenceId":"1067828298","Spot":1.0,"SideOfStreet":"right","CountryId":"20000001","StateId":"20002126","CountyId":"20005470","CityId":"20005639"}}},{"Relevance":1.0,"Distance":68.1,"MatchLevel":"houseNumber","MatchQuality":{"Country":1.0,"State":1.0,"County":1.0,"City":1.0,"Street":[1.0],"HouseNumber":1.0,"PostalCode":1.0},"MatchType":"interpolated","Location":{"LocationId":"NT_ih6pkQtJnV25BiYumGr4KA_5QD","LocationType":"point","DisplayPosition":{"Latitude":49.03382,"Longitude":2.34219},"MapView":{"TopLeft":{"Latitude":49.0349442,"Longitude":2.3404753},"BottomRight":{"Latitude":49.0326958,"Longitude":2.3439047}},"Address":{"Label":"94 Avenue Jean Rostand, 95330 Domont, France","Country":"FRA","State":"Île-de-France","County":"Val-d'Oise","City":"Domont","Street":"Avenue Jean Rostand","HouseNumber":"94","PostalCode":"95330","AdditionalData":[{"value":"France","key":"CountryName"},{"value":"Île-de-France","key":"StateName"},{"value":"Val-d'Oise","key":"CountyName"}]},"MapReference":{"ReferenceId":"913122482","Spot":0.88,"SideOfStreet":"right","CountryId":"20000001","StateId":"20002126","CountyId":"20005470","CityId":"20005639","AddressId":"321872263","RoadLinkId":"270879976"}}},{"Relevance":1.0,"Distance":82.7,"MatchLevel":"houseNumber","MatchQuality":{"Country":1.0,"State":1.0,"County":1.0,"City":1.0,"Street":[1.0],"HouseNumber":1.0,"PostalCode":1.0},"MatchType":"interpolated","Location":{"LocationId":"NT_1bIhQIchR.8Ec3hxBA7-nB_3kD","LocationType":"point","DisplayPosition":{"Latitude":49.03412,"Longitude":2.34453},"MapView":{"TopLeft":{"Latitude":49.0352442,"Longitude":2.3428153},"BottomRight":{"Latitude":49.0329958,"Longitude":2.3462447}},"Address":{"Label":"79 Rue de Domont, 95460 Ézanville, France","Country":"FRA","State":"Île-de-France","County":"Val-d'Oise","City":"Ézanville","Street":"Rue de Domont","HouseNumber":"79","PostalCode":"95460","AdditionalData":[{"value":"France","key":"CountryName"},{"value":"Île-de-France","key":"StateName"},{"value":"Val-d'Oise","key":"CountyName"}]},"MapReference":{"ReferenceId":"56364774","Spot":0.16,"SideOfStreet":"right","CountryId":"20000001","StateId":"20002126","CountyId":"20005470","CityId":"20005669","AddressId":"322283278","RoadLinkId":"43562158"}}},{"Relevance":1.0,"Distance":83.4,"MatchLevel":"houseNumber","MatchQuality":{"Country":1.0,"State":1.0,"County":1.0,"City":1.0,"Street":[1.0],"HouseNumber":1.0,"PostalCode":1.0},"MatchType":"interpolated","Location":{"LocationId":"NT_ih6pkQtJnV25BiYumGr4KA_5IjQ","LocationType":"point","DisplayPosition":{"Latitude":49.03363,"Longitude":2.34228},"MapView":{"TopLeft":{"Latitude":49.0347542,"Longitude":2.3405653},"BottomRight":{"Latitude":49.0325058,"Longitude":2.3439947}},"Address":{"Label":"92B Avenue Jean Rostand, 95330 Domont, France","Country":"FRA","State":"Île-de-France","County":"Val-d'Oise","City":"Domont","Street":"Avenue Jean Rostand","HouseNumber":"92B","PostalCode":"95330","AdditionalData":[{"value":"France","key":"CountryName"},{"value":"Île-de-France","key":"StateName"},{"value":"Val-d'Oise","key":"CountyName"}]},"MapReference":{"ReferenceId":"913122481","Spot":1.0,"SideOfStreet":"right","CountryId":"20000001","StateId":"20002126","CountyId":"20005470","CityId":"20005639","AddressId":"572313816","RoadLinkId":"270879975"}}},{"Relevance":1.0,"Distance":94.0,"MatchLevel":"houseNumber","MatchQuality":{"Country":1.0,"State":1.0,"County":1.0,"City":1.0,"Street":[1.0],"HouseNumber":1.0,"PostalCode":1.0},"MatchType":"interpolated","Location":{"LocationId":"NT_u3bdcsXDoMbej2Bd.ObZjA_l_913119121_L_4cD","LocationType":"point","DisplayPosition":{"Latitude":49.0335106,"Longitude":2.3422666},"MapView":{"TopLeft":{"Latitude":49.0346348,"Longitude":2.3405519},"BottomRight":{"Latitude":49.0323865,"Longitude":2.3439812}},"Address":{"Label":"87 Avenue Jean Rostand, 95330 Domont, France","Country":"FRA","State":"Île-de-France","County":"Val-d'Oise","City":"Domont","Street":"Avenue Jean Rostand","HouseNumber":"87","PostalCode":"95330","AdditionalData":[{"value":"France","key":"CountryName"},{"value":"Île-de-France","key":"StateName"},{"value":"Val-d'Oise","key":"CountyName"}]},"MapReference":{"ReferenceId":"913119121","Spot":0.53,"SideOfStreet":"left","CountryId":"20000001","StateId":"20002126","CountyId":"20005470","CityId":"20005639"}}}]}]}}