{"Response":{"MetaInfo":{"Timestamp":"2020-03-28T10:20:36.617+0000","NextPageInformation":"2"},"View":[{"_type":"SearchResultsViewType","ViewId":0,"Result":[{"Relevance":1.0,"Distance":0.0,"Direction":0.0,"MatchLevel":"district","MatchQuality":{"Country":1.0,"State":1.0,"County":1.0,"City":1.0,"District":1.0,"PostalCode":1.0},"Location":{"LocationId":"NT_mz4S27h8EXfKQI2xD3HU9A","LocationType":"point","DisplayPosition":{"Latitude":49.0058679,"Longitude":12.1189269},"MapView":{"TopLeft":{"Latitude":49.01191,"Longitude":12.10178},"BottomRight":{"Latitude":48.99261,"Longitude":12.14079}},"Address":{"Label":"Kasernenviertel, Regensburg, Bayern, Deutschland","Country":"DEU","State":"Bayern","County":"Regensburg (Stadt)","City":"Regensburg","District":"Kasernenviertel","PostalCode":"93053","AdditionalData":[{"value":"Deutschland","key":"CountryName"},{"value":"Bayern","key":"StateName"},{"value":"Regensburg (Stadt)","key":"CountyName"}]},"MapReference":{"ReferenceId":"53138875","SideOfStreet":"neither","CountryId":"20147700","StateId":"20177250","CountyId":"20180813","CityId":"20180814"}}},{"Relevance":1.0,"Distance":11.7,"MatchLevel":"street","MatchQuality":{"Country":1.0,"State":1.0,"County":1.0,"City":1.0,"District":1.0,"Street":[1.0],"PostalCode":1.0},"Location":{"LocationId":"NT_Utkq.PsUFKvN.bL0xE3dLA_l_67616785_R","LocationType":"point","DisplayPosition":{"Latitude":49.00577,"Longitude":12.11887},"MapView":{"TopLeft":{"Latitude":49.00577,"Longitude":12.11887},"BottomRight":{"Latitude":49.00553,"Longitude":12.11925}},"Address":{"Label":"Landshuter Straße, 93053 Regensburg, Deutschland","Country":"DEU","State":"Bayern","County":"Regensburg (Stadt)","City":"Regensburg","District":"Kasernenviertel","Street":"Landshuter Straße","PostalCode":"93053","AdditionalData":[{"value":"Deutschland","key":"CountryName"},{"value":"Bayern","key":"StateName"},{"value":"Regensburg (Stadt)","key":"CountyName"}]},"MapReference":{"ReferenceId":"67616785","Spot":1.0,"SideOfStreet":"right","CountryId":"20147700","StateId":"20177250","CountyId":"20180813","CityId":"20180814"}}},{"Relevance":1.0,"Distance":21.7,"MatchLevel":"houseNumber","MatchQuality":{"Country":1.0,"State":1.0,"County":1.0,"City":1.0,"District":1.0,"Street":[1.0],"HouseNumber":1.0,"PostalCode":1.0},"MatchType":"interpolated","Location":{"LocationId":"NT_Utkq.PsUFKvN.bL0xE3dLA_3QDR","LocationType":"point","DisplayPosition":{"Latitude":49.00577,"Longitude":12.11867},"MapView":{"TopLeft":{"Latitude":49.0068942,"Longitude":12.1169563},"BottomRight":{"Latitude":49.0046458,"Longitude":12.1203837}},"Address":{"Label":"Landshuter Straße 74D, 93053 Regensburg, Deutschland","Country":"DEU","State":"Bayern","County":"Regensburg (Stadt)","City":"Regensburg","District":"Kasernenviertel","Street":"Landshuter Straße","HouseNumber":"74D","PostalCode":"93053","AdditionalData":[{"value":"Deutschland","key":"CountryName"},{"value":"Bayern","key":"StateName"},{"value":"Regensburg (Stadt)","key":"CountyName"}]},"MapReference":{"ReferenceId":"53140305","Spot":0.0,"SideOfStreet":"left","CountryId":"20147700","StateId":"20177250","CountyId":"20180813","CityId":"20180814","AddressId":"183608114","RoadLinkId":"32515112"}}},{"Relevance":1.0,"Distance":32.8,"MatchLevel":"houseNumber","MatchQuality":{"Country":1.0,"State":1.0,"County":1.0,"City":1.0,"District":1.0,"Street":[1.0],"HouseNumber":1.0,"PostalCode":1.0},"MatchType":"interpolated","Location":{"LocationId":"NT_Utkq.PsUFKvN.bL0xE3dLA_3ED","LocationType":"point","DisplayPosition":{"Latitude":49.006,"Longitude":12.11851},"MapView":{"TopLeft":{"Latitude":49.0071242,"Longitude":12.1167963},"BottomRight":{"Latitude":49.0048758,"Longitude":12.1202237}},"Address":{"Label":"Landshuter Straße 71, 93053 Regensburg, Deutschland","Country":"DEU","State":"Bayern","County":"Regensburg (Stadt)","City":"Regensburg","District":"Kasernenviertel","Street":"Landshuter Straße","HouseNumber":"71","PostalCode":"93053","AdditionalData":[{"value":"Deutschland","key":"CountryName"},{"value":"Bayern","key":"StateName"},{"value":"Regensburg (Stadt)","key":"CountyName"}]},"MapReference":{"ReferenceId":"67616786","Spot":0.38,"SideOfStreet":"right","CountryId":"20147700","StateId":"20177250","CountyId":"20180813","CityId":"20180814","AddressId":"186149350","RoadLinkId":"32474060"}}},{"Relevance":1.0,"Distance":33.4,"MatchLevel":"houseNumber","MatchQuality":{"Country":1.0,"State":1.0,"County":1.0,"City":1.0,"District":1.0,"Street":[1.0],"HouseNumber":1.0,"PostalCode":1.0},"MatchType":"interpolated","Location":{"LocationId":"NT_p06ki0pJjBaTkdej.heTHD_xA","LocationType":"point","DisplayPosition":{"Latitude":49.00573,"Longitude":12.11962},"MapView":{"TopLeft":{"Latitude":49.0068542,"Longitude":12.1179063},"BottomRight":{"Latitude":49.0046058,"Longitude":12.1213337}},"Address":{"Label":"Hildegard-von-Bingen-Straße 1, 93053 Regensburg, Deutschland","Country":"DEU","State":"Bayern","County":"Regensburg (Stadt)","City":"Regensburg","District":"Kasernenviertel","Street":"Hildegard-von-Bingen-Straße","HouseNumber":"1","PostalCode":"93053","AdditionalData":[{"value":"Deutschland","key":"CountryName"},{"value":"Bayern","key":"StateName"},{"value":"Regensburg (Stadt)","key":"CountyName"}]},"MapReference":{"ReferenceId":"806683932","Spot":0.19,"SideOfStreet":"left","CountryId":"20147700","StateId":"20177250","CountyId":"20180813","CityId":"20180814","AddressId":"184710914","RoadLinkId":"194393089"}}},{"Relevance":1.0,"Distance":37.1,"MatchLevel":"houseNumber","MatchQuality":{"Country":1.0,"State":1.0,"County":1.0,"City":1.0,"District":1.0,"Street":[1.0],"HouseNumber":1.0,"PostalCode":1.0},"MatchType":"interpolated","Location":{"LocationId":"NT_Utkq.PsUFKvN.bL0xE3dLA_3QTR","LocationType":"point","DisplayPosition":{"Latitude":49.00554,"Longitude":12.11902},"MapView":{"TopLeft":{"Latitude":49.0066642,"Longitude":12.1173063},"BottomRight":{"Latitude":49.0044158,"Longitude":12.1207337}},"Address":{"Label":"Landshuter Straße 74E, 93053 Regensburg, Deutschland","Country":"DEU","State":"Bayern","County":"Regensburg (Stadt)","City":"Regensburg","District":"Kasernenviertel","Street":"Landshuter Straße","HouseNumber":"74E","PostalCode":"93053","AdditionalData":[{"value":"Deutschland","key":"CountryName"},{"value":"Bayern","key":"StateName"},{"value":"Regensburg (Stadt)","key":"CountyName"}]},"MapReference":{"ReferenceId":"53138767","Spot":0.26,"SideOfStreet":"left","CountryId":"20147700","StateId":"20177250","CountyId":"20180813","CityId":"20180814","AddressId":"181967918","RoadLinkId":"32758982"}}},{"Relevance":1.0,"Distance":44.4,"MatchLevel":"street","MatchQuality":{"Country":1.0,"State":1.0,"County":1.0,"City":1.0,"District":1.0,"Street":[1.0],"PostalCode":1.0},"Location":{"LocationId":"NT_Utkq.PsUFKvN.bL0xE3dLA_l_1190310947_R","LocationType":"point","DisplayPosition":{"Latitude":49.00553,"Longitude":12.11925},"MapView":{"TopLeft":{"Latitude":49.00553,"Longitude":12.11925},"BottomRight":{"Latitude":49.00539,"Longitude":12.11946}},"Address":{"Label":"Landshuter Straße, 93053 Regensburg, Deutschland","Country":"DEU","State":"Bayern","County":"Regensburg (Stadt)","City":"Regensburg","District":"Kasernenviertel","Street":"Landshuter Straße","PostalCode":"93053","AdditionalData":[{"value":"Deutschland","key":"CountryName"},{"value":"Bayern","key":"StateName"},{"value":"Regensburg (Stadt)","key":"CountyName"}]},"MapReference":{"ReferenceId":"1190310947","Spot":1.0,"SideOfStreet":"right","CountryId":"20147700","StateId":"20177250","CountyId":"20180813","CityId":"20180814"}}},{"Relevance":1.0,"Distance":46.1,"MatchLevel":"houseNumber","MatchQuality":{"Country":1.0,"State":1.0,"County":1.0,"City":1.0,"District":1.0,"Street":[1.0],"HouseNumber":1.0,"PostalCode":1.0},"MatchType":"interpolated","Location":{"LocationId":"NT_Utkq.PsUFKvN.bL0xE3dLA_2kjQ","LocationType":"point","DisplayPosition":{"Latitude":49.00642,"Longitude":12.1192},"MapView":{"TopLeft":{"Latitude":49.0075442,"Longitude":12.1174863},"BottomRight":{"Latitude":49.0052958,"Longitude":12.1209137}},"Address":{"Label":"Landshuter Straße 69B, 93053 Regensburg, Deutschland","Country":"DEU","State":"Bayern","County":"Regensburg (Stadt)","City":"Regensburg","District":"Kasernenviertel","Street":"Landshuter Straße","HouseNumber":"69B","PostalCode":"93053","AdditionalData":[{"value":"Deutschland","key":"CountryName"},{"value":"Bayern","key":"StateName"},{"value":"Regensburg (Stadt)","key":"CountyName"}]},"MapReference":{"ReferenceId":"562764898","Spot":0.42,"SideOfStreet":"right","CountryId":"20147700","StateId":"20177250","CountyId":"20180813","CityId":"20180814","AddressId":"185969374","RoadLinkId":"33277474"}}},{"Relevance":1.0,"Distance":46.6,"MatchLevel":"street","MatchQuality":{"Country":1.0,"State":1.0,"County":1.0,"City":1.0,"District":1.0,"PostalCode":1.0},"Location":{"LocationId":"NT_9cTC2GPzuCfP78.clCdq6C_l_53138809_L","LocationType":"point","DisplayPosition":{"Latitude":49.005481,"Longitude":12.1191731},"MapView":{"TopLeft":{"Latitude":49.00553,"Longitude":12.11914},"BottomRight":{"Latitude":49.00546,"Longitude":12.11925}},"Address":{"Label":"93053 Regensburg, Deutschland","Country":"DEU","State":"Bayern","County":"Regensburg (Stadt)","City":"Regensburg","District":"Kasernenviertel","PostalCode":"93053","AdditionalData":[{"value":"Deutschland","key":"CountryName"},{"value":"Bayern","key":"StateName"},{"value":"Regensburg (Stadt)","key":"CountyName"}]},"MapReference":{"ReferenceId":"53138809","Spot":0.3,"SideOfStreet":"left","CountryId":"20147700","StateId":"20177250","CountyId":"20180813","CityId":"20180814"}}},{"Relevance":1.0,"Distance":58.3,"MatchLevel":"houseNumber","MatchQuality":{"Country":1.0,"State":1.0,"County":1.0,"City":1.0,"District":1.0,"Street":[1.0],"HouseNumber":1.0,"PostalCode":1.0},"MatchType":"interpolated","Location":{"LocationId":"NT_6ZL-whNhz6krWq2wgXuXhB_xA","LocationType":"point","DisplayPosition":{"Latitude":49.00561,"Longitude":12.11843},"MapView":{"TopLeft":{"Latitude":49.0067342,"Longitude":12.1167163},"BottomRight":{"Latitude":49.0044858,"Longitude":12.1201437}},"Address":{"Label":"Kleiberstraße 1, 93053 Regensburg, Deutschland","Country":"DEU","State":"Bayern","County":"Regensburg (Stadt)","City":"Regensburg","District":"Kasernenviertel","Street":"Kleiberstraße","HouseNumber":"1","PostalCode":"93053","AdditionalData":[{"value":"Deutschland","key":"CountryName"},{"value":"Bayern","key":"StateName"},{"value":"Regensburg (Stadt)","key":"CountyName"}]},"MapReference":{"ReferenceId":"53140306","Spot":0.4,"SideOfStreet":"right","CountryId":"20147700","StateId":"20177250","CountyId":"20180813","CityId":"20180814","AddressId":"185385008","RoadLinkId":"33250862"}}}]}]}}