{"Response":{"MetaInfo":{"Timestamp":"2020-03-28T10:01:23.027+0000","NextPageInformation":"2"},"View":[{"_type":"SearchResultsViewType","ViewId":0,"Result":[{"Relevance":1.0,"Distance":0.0,"Direction":0.0,"MatchLevel":"district","MatchQuality":{"Country":1.0,"State":1.0,"County":1.0,"City":1.0,"District":1.0,"PostalCode":1.0},"Location":{"LocationId":"NT_20u8ZwBZtg5NsbnwpFAkdC","LocationType":"point","DisplayPosition":{"Latitude":49.1274275,"Longitude":18.6811796},"MapView":{"TopLeft":{"Latitude":49.13651,"Longitude":18.67226},"BottomRight":{"Latitude":49.11891,"Longitude":18.69981}},"Address":{"Label":"Rajecké Teplice, Žilinský kraj, Slovenská Republika","Country":"SVK","State":"Žilinský kraj","County":"Žilina","City":"Rajecké Teplice","District":"Rajecké Teplice","PostalCode":"013 13","AdditionalData":[{"value":"Slovenská Republika","key":"CountryName"},{"value":"Žilinský kraj","key":"StateName"},{"value":"Žilina","key":"CountyName"}]},"MapReference":{"ReferenceId":"709934959","SideOfStreet":"neither","CountryId":"20428682","StateId":"20492640","CountyId":"20493175","CityId":"20493250","DistrictId":"22186776"}}},{"Relevance":1.0,"Distance":18.6,"MatchLevel":"landmark","MatchQuality":{"Country":1.0,"State":1.0,"County":1.0,"City":1.0,"District":1.0,"PostalCode":1.0,"Name":1.0},"Location":{"LocationId":"NT_q6BnVRjePvRtI7hW8sOCqC_p_EvZ8vUj-F0wfrjERjtllBB","LocationType":"park","Name":"Park Rajecké Teplice","DisplayPosition":{"Latitude":49.13003,"Longitude":18.68177},"MapView":{"TopLeft":{"Latitude":49.13358,"Longitude":18.67818},"BottomRight":{"Latitude":49.12731,"Longitude":18.68954}},"Address":{"Label":"013 13 Rajecké Teplice, Slovenská Republika","Country":"SVK","State":"Žilinský kraj","County":"Žilina","City":"Rajecké Teplice","District":"Rajecké Teplice","PostalCode":"013 13","AdditionalData":[{"value":"Slovenská Republika","key":"CountryName"},{"value":"Žilinský kraj","key":"StateName"},{"value":"Žilina","key":"CountyName"}]},"MapReference":{"CountryId":"20428682","StateId":"20492640","CountyId":"20493175","CityId":"20493250","DistrictId":"22186776","PlaceId":"1112887060"}}},{"Relevance":1.0,"Distance":18.6,"MatchLevel":"street","MatchQuality":{"Country":1.0,"State":1.0,"County":1.0,"City":1.0,"District":1.0,"Street":[1.0],"PostalCode":1.0},"Location":{"LocationId":"NT_3Z7S5-ONDbYhSVuOEM7XnD_l_1190448139_R","LocationType":"point","DisplayPosition":{"Latitude":49.1275937,"Longitude":18.6811559},"MapView":{"TopLeft":{"Latitude":49.12763,"Longitude":18.68086},"BottomRight":{"Latitude":49.12756,"Longitude":18.68139}},"Address":{"Label":"Rajecká cesta, 013 13 Rajecké Teplice, Slovenská Republika","Country":"SVK","State":"Žilinský kraj","County":"Žilina","City":"Rajecké Teplice","District":"Rajecké Teplice","Street":"Rajecká cesta","PostalCode":"013 13","AdditionalData":[{"value":"Slovenská Republika","key":"CountryName"},{"value":"Žilinský kraj","key":"StateName"},{"value":"Žilina","key":"CountyName"}]},"MapReference":{"ReferenceId":"1190448139","Spot":0.56,"SideOfStreet":"right","CountryId":"20428682","StateId":"20492640","CountyId":"20493175","CityId":"20493250","DistrictId":"22186776"}}},{"Relevance":1.0,"Distance":21.1,"MatchLevel":"street","MatchQuality":{"Country":1.0,"State":1.0,"County":1.0,"City":1.0,"District":1.0,"PostalCode":1.0},"Location":{"LocationId":"NT_WDJyjoO1B3lG6PMJ8yA2uD_l_1090778570_L","LocationType":"point","DisplayPosition":{"Latitude":49.1272397,"Longitude":18.6812228},"MapView":{"TopLeft":{"Latitude":49.1274,"Longitude":18.68105},"BottomRight":{"Latitude":49.1272,"Longitude":18.68192}},"Address":{"Label":"013 13 Rajecké Teplice, Slovenská Republika","Country":"SVK","State":"Žilinský kraj","County":"Žilina","City":"Rajecké Teplice","District":"Rajecké Teplice","PostalCode":"013 13","AdditionalData":[{"value":"Slovenská Republika","key":"CountryName"},{"value":"Žilinský kraj","key":"StateName"},{"value":"Žilina","key":"CountyName"}]},"MapReference":{"ReferenceId":"1090778570","Spot":0.2,"SideOfStreet":"left","CountryId":"20428682","StateId":"20492640","CountyId":"20493175","CityId":"20493250","DistrictId":"22186776"}}},{"Relevance":1.0,"Distance":27.0,"MatchLevel":"houseNumber","MatchQuality":{"Country":1.0,"State":1.0,"County":1.0,"City":1.0,"District":1.0,"Street":[1.0],"HouseNumber":1.0,"PostalCode":1.0},"MatchType":"interpolated","Location":{"LocationId":"NT_lEq3m-D2WpTpi8ACA7j.NA_0YTOvEzN","LocationType":"point","DisplayPosition":{"Latitude":49.1272,"Longitude":18.68105},"MapView":{"TopLeft":{"Latitude":49.1283242,"Longitude":18.6793321},"BottomRight":{"Latitude":49.1260758,"Longitude":18.6827679}},"Address":{"Label":"Lesná 469/17, 013 13 Rajecké Teplice, Slovenská Republika","Country":"SVK","State":"Žilinský kraj","County":"Žilina","City":"Rajecké Teplice","District":"Rajecké Teplice","Street":"Lesná","HouseNumber":"469/17","PostalCode":"013 13","AdditionalData":[{"value":"Slovenská Republika","key":"CountryName"},{"value":"Žilinský kraj","key":"StateName"},{"value":"Žilina","key":"CountyName"}]},"MapReference":{"ReferenceId":"763052202","Spot":0.0,"SideOfStreet":"right","CountryId":"20428682","StateId":"20492640","CountyId":"20493175","CityId":"20493250","DistrictId":"22186776","AddressId":"589623191","RoadLinkId":"157363944"}}},{"Relevance":1.0,"Distance":28.8,"MatchLevel":"street","MatchQuality":{"Country":1.0,"State":1.0,"County":1.0,"City":1.0,"District":1.0,"PostalCode":1.0},"Location":{"LocationId":"NT_WDJyjoO1B3lG6PMJ8yA2uD_l_1190448141_L","LocationType":"point","DisplayPosition":{"Latitude":49.1276669,"Longitude":18.681332},"MapView":{"TopLeft":{"Latitude":49.12834,"Longitude":18.68067},"BottomRight":{"Latitude":49.12763,"Longitude":18.68139}},"Address":{"Label":"013 13 Rajecké Teplice, Slovenská Republika","Country":"SVK","State":"Žilinský kraj","County":"Žilina","City":"Rajecké Teplice","District":"Rajecké Teplice","PostalCode":"013 13","AdditionalData":[{"value":"Slovenská Republika","key":"CountryName"},{"value":"Žilinský kraj","key":"StateName"},{"value":"Žilina","key":"CountyName"}]},"MapReference":{"ReferenceId":"1190448141","Spot":0.07,"SideOfStreet":"left","CountryId":"20428682","StateId":"20492640","CountyId":"20493175","CityId":"20493250","DistrictId":"22186776"}}},{"Relevance":1.0,"Distance":31.2,"MatchLevel":"houseNumber","MatchQuality":{"Country":1.0,"State":1.0,"County":1.0,"City":1.0,"District":1.0,"Street":[1.0],"HouseNumber":1.0,"PostalCode":1.0},"MatchType":"interpolated","Location":{"LocationId":"NT_Col5ow3eYNfuNj8mJswRgC_xMzLxkD","LocationType":"point","DisplayPosition":{"Latitude":49.12764,"Longitude":18.68146},"MapView":{"TopLeft":{"Latitude":49.1287642,"Longitude":18.6797421},"BottomRight":{"Latitude":49.1265158,"Longitude":18.6831779}},"Address":{"Label":"Rajecká cesta 13/19, 013 13 Rajecké Teplice, Slovenská Republika","Country":"SVK","State":"Žilinský kraj","County":"Žilina","City":"Rajecké Teplice","District":"Rajecké Teplice","Street":"Rajecká cesta","HouseNumber":"13/19","PostalCode":"013 13","AdditionalData":[{"value":"Slovenská Republika","key":"CountryName"},{"value":"Žilinský kraj","key":"StateName"},{"value":"Žilina","key":"CountyName"}]},"MapReference":{"ReferenceId":"1190448140","Spot":0.12,"SideOfStreet":"right","CountryId":"20428682","StateId":"20492640","CountyId":"20493175","CityId":"20493250","DistrictId":"22186776","AddressId":"299540967","RoadLinkId":"499813966"}}},{"Relevance":1.0,"Distance":47.6,"MatchLevel":"houseNumber","MatchQuality":{"Country":1.0,"State":1.0,"County":1.0,"City":1.0,"District":1.0,"Street":[1.0],"HouseNumber":1.0,"PostalCode":1.0},"MatchType":"interpolated","Location":{"LocationId":"NT_Col5ow3eYNfuNj8mJswRgC_xUjNvEDO","LocationType":"point","DisplayPosition":{"Latitude":49.12753,"Longitude":18.6805},"MapView":{"TopLeft":{"Latitude":49.1286542,"Longitude":18.6787821},"BottomRight":{"Latitude":49.1264058,"Longitude":18.6822179}},"Address":{"Label":"Rajecká cesta 156/18, 013 13 Rajecké Teplice, Slovenská Republika","Country":"SVK","State":"Žilinský kraj","County":"Žilina","City":"Rajecké Teplice","District":"Rajecké Teplice","Street":"Rajecká cesta","HouseNumber":"156/18","PostalCode":"013 13","AdditionalData":[{"value":"Slovenská Republika","key":"CountryName"},{"value":"Žilinský kraj","key":"StateName"},{"value":"Žilina","key":"CountyName"}]},"MapReference":{"ReferenceId":"851557619","Spot":0.53,"SideOfStreet":"right","CountryId":"20428682","StateId":"20492640","CountyId":"20493175","CityId":"20493250","DistrictId":"22186776","AddressId":"299657108","RoadLinkId":"230885902"}}},{"Relevance":1.0,"Distance":54.0,"MatchLevel":"street","MatchQuality":{"Country":1.0,"State":1.0,"County":1.0,"City":1.0,"District":1.0,"PostalCode":1.0},"Location":{"LocationId":"NT_WDJyjoO1B3lG6PMJ8yA2uD_l_1090939916_L","LocationType":"point","DisplayPosition":{"Latitude":49.1274,"Longitude":18.68192},"MapView":{"TopLeft":{"Latitude":49.12742,"Longitude":18.68192},"BottomRight":{"Latitude":49.1274,"Longitude":18.68206}},"Address":{"Label":"013 13 Rajecké Teplice, Slovenská Republika","Country":"SVK","State":"Žilinský kraj","County":"Žilina","City":"Rajecké Teplice","District":"Rajecké Teplice","PostalCode":"013 13","AdditionalData":[{"value":"Slovenská Republika","key":"CountryName"},{"value":"Žilinský kraj","key":"StateName"},{"value":"Žilina","key":"CountyName"}]},"MapReference":{"ReferenceId":"1090939916","Spot":0.0,"SideOfStreet":"left","CountryId":"20428682","StateId":"20492640","CountyId":"20493175","CityId":"20493250","DistrictId":"22186776"}}},{"Relevance":1.0,"Distance":63.1,"MatchLevel":"houseNumber","MatchQuality":{"Country":1.0,"State":1.0,"County":1.0,"City":1.0,"District":1.0,"Street":[1.0],"HouseNumber":1.0,"PostalCode":1.0},"MatchType":"interpolated","Location":{"LocationId":"NT_lEq3m-D2WpTpi8ACA7j.NA_xIzLxA","LocationType":"point","DisplayPosition":{"Latitude":49.12685,"Longitude":18.68113},"MapView":{"TopLeft":{"Latitude":49.1279742,"Longitude":18.6794121},"BottomRight":{"Latitude":49.1257258,"Longitude":18.6828479}},"Address":{"Label":"Lesná 12/1, 013 13 Rajecké Teplice, Slovenská Republika","Country":"SVK","State":"Žilinský kraj","County":"Žilina","City":"Rajecké Teplice","District":"Rajecké Teplice","Street":"Lesná","HouseNumber":"12/1","PostalCode":"013 13","AdditionalData":[{"value":"Slovenská Republika","key":"CountryName"},{"value":"Žilinský kraj","key":"StateName"},{"value":"Žilina","key":"CountyName"}]},"MapReference":{"ReferenceId":"1071325153","Spot":0.1,"SideOfStreet":"right","CountryId":"20428682","StateId":"20492640","CountyId":"20493175","CityId":"20493250","DistrictId":"22186776","AddressId":"299887884","RoadLinkId":"393370800"}}}]}]}}