{"Response":{"MetaInfo":{"Timestamp":"2020-03-28T10:19:21.391+0000","NextPageInformation":"2"},"View":[{"_type":"SearchResultsViewType","ViewId":0,"Result":[{"Relevance":1.0,"Distance":0.0,"Direction":0.0,"MatchLevel":"district","MatchQuality":{"Country":1.0,"State":1.0,"County":1.0,"City":1.0,"District":1.0,"PostalCode":1.0},"Location":{"LocationId":"NT_N1c9hLLXdYIeu9.cX2ckVC","LocationType":"point","DisplayPosition":{"Latitude":49.1888418,"Longitude":11.0160727},"MapView":{"TopLeft":{"Latitude":49.20037,"Longitude":10.99545},"BottomRight":{"Latitude":49.16766,"Longitude":11.02579}},"Address":{"Label":"Georgensgmünd, Bayern, Deutschland","Country":"DEU","State":"Bayern","County":"Roth","City":"Georgensgmünd","District":"Georgensgmünd","PostalCode":"91166","AdditionalData":[{"value":"Deutschland","key":"CountryName"},{"value":"Bayern","key":"StateName"},{"value":"Roth","key":"CountyName"}]},"MapReference":{"ReferenceId":"541576126","SideOfStreet":"neither","CountryId":"20147700","StateId":"20177250","CountyId":"20183712","CityId":"20183725","DistrictId":"20183727"}}},{"Relevance":1.0,"Distance":7.9,"MatchLevel":"houseNumber","MatchQuality":{"Country":1.0,"State":1.0,"County":1.0,"City":1.0,"District":1.0,"Street":[1.0],"HouseNumber":1.0,"PostalCode":1.0},"MatchType":"interpolated","Location":{"LocationId":"NT_m60scHbQK3sAyi4zEoYY7C_xUD","LocationType":"point","DisplayPosition":{"Latitude":49.18877,"Longitude":11.01632},"MapView":{"TopLeft":{"Latitude":49.1898942,"Longitude":11.0146},"BottomRight":{"Latitude":49.1876458,"Longitude":11.01804}},"Address":{"Label":"Am Anger 15, 91166 Georgensgmünd, Deutschland","Country":"DEU","State":"Bayern","County":"Roth","City":"Georgensgmünd","District":"Georgensgmünd","Street":"Am Anger","HouseNumber":"15","PostalCode":"91166","AdditionalData":[{"value":"Deutschland","key":"CountryName"},{"value":"Bayern","key":"StateName"},{"value":"Roth","key":"CountyName"}]},"MapReference":{"ReferenceId":"1252956774","Spot":0.08,"SideOfStreet":"left","CountryId":"20147700","StateId":"20177250","CountyId":"20183712","CityId":"20183725","DistrictId":"20183727","AddressId":"186144551","RoadLinkId":"576096567"}}},{"Relevance":1.0,"Distance":16.0,"MatchLevel":"houseNumber","MatchQuality":{"Country":1.0,"State":1.0,"County":1.0,"City":1.0,"District":1.0,"Street":[1.0],"HouseNumber":1.0,"PostalCode":1.0},"MatchType":"interpolated","Location":{"LocationId":"NT_m60scHbQK3sAyi4zEoYY7C_xMD","LocationType":"point","DisplayPosition":{"Latitude":49.18866,"Longitude":11.01618},"MapView":{"TopLeft":{"Latitude":49.1897842,"Longitude":11.01446},"BottomRight":{"Latitude":49.1875358,"Longitude":11.0179}},"Address":{"Label":"Am Anger 13, 91166 Georgensgmünd, Deutschland","Country":"DEU","State":"Bayern","County":"Roth","City":"Georgensgmünd","District":"Georgensgmünd","Street":"Am Anger","HouseNumber":"13","PostalCode":"91166","AdditionalData":[{"value":"Deutschland","key":"CountryName"},{"value":"Bayern","key":"StateName"},{"value":"Roth","key":"CountyName"}]},"MapReference":{"ReferenceId":"1252956773","Spot":0.57,"SideOfStreet":"left","CountryId":"20147700","StateId":"20177250","CountyId":"20183712","CityId":"20183725","DistrictId":"20183727","AddressId":"183151219","RoadLinkId":"576096566"}}},{"Relevance":1.0,"Distance":18.8,"MatchLevel":"street","MatchQuality":{"Country":1.0,"State":1.0,"County":1.0,"City":1.0,"District":1.0,"PostalCode":1.0},"Location":{"LocationId":"NT_exOv.whbju9sVdoPSXU-QA_l_1252956775_L","LocationType":"point","DisplayPosition":{"Latitude":49.18874,"Longitude":11.01628},"MapView":{"TopLeft":{"Latitude":49.18874,"Longitude":11.01628},"BottomRight":{"Latitude":49.18852,"Longitude":11.0166}},"Address":{"Label":"91166 Georgensgmünd, Deutschland","Country":"DEU","State":"Bayern","County":"Roth","City":"Georgensgmünd","District":"Georgensgmünd","PostalCode":"91166","AdditionalData":[{"value":"Deutschland","key":"CountryName"},{"value":"Bayern","key":"StateName"},{"value":"Roth","key":"CountyName"}]},"MapReference":{"ReferenceId":"1252956775","Spot":1.0,"SideOfStreet":"left","CountryId":"20147700","StateId":"20177250","CountyId":"20183712","CityId":"20183725","DistrictId":"20183727"}}},{"Relevance":1.0,"Distance":20.7,"MatchLevel":"houseNumber","MatchQuality":{"Country":1.0,"State":1.0,"County":1.0,"City":1.0,"District":1.0,"Street":[1.0],"HouseNumber":1.0,"PostalCode":1.0},"MatchType":"interpolated","Location":{"LocationId":"NT_GMmz0h8bOPLgInhbjzxvJB_yA","LocationType":"point","DisplayPosition":{"Latitude":49.18903,"Longitude":11.01586},"MapView":{"TopLeft":{"Latitude":49.1901542,"Longitude":11.01414},"BottomRight":{"Latitude":49.1879058,"Longitude":11.01758}},"Address":{"Label":"Am Zehentstadel 2, 91166 Georgensgmünd, Deutschland","Country":"DEU","State":"Bayern","County":"Roth","City":"Georgensgmünd","District":"Georgensgmünd","Street":"Am Zehentstadel","HouseNumber":"2","PostalCode":"91166","AdditionalData":[{"value":"Deutschland","key":"CountryName"},{"value":"Bayern","key":"StateName"},{"value":"Roth","key":"CountyName"}]},"MapReference":{"ReferenceId":"541576060","Spot":0.7,"SideOfStreet":"right","CountryId":"20147700","StateId":"20177250","CountyId":"20183712","CityId":"20183725","DistrictId":"20183727","AddressId":"185477058","RoadLinkId":"32498557"}}},{"Relevance":1.0,"Distance":41.9,"MatchLevel":"houseNumber","MatchQuality":{"Country":1.0,"State":1.0,"County":1.0,"City":1.0,"District":1.0,"Street":[1.0],"HouseNumber":1.0,"PostalCode":1.0},"MatchType":"interpolated","Location":{"LocationId":"NT_m60scHbQK3sAyi4zEoYY7C_xED","LocationType":"point","DisplayPosition":{"Latitude":49.18847,"Longitude":11.01598},"MapView":{"TopLeft":{"Latitude":49.1895942,"Longitude":11.01426},"BottomRight":{"Latitude":49.1873458,"Longitude":11.0177}},"Address":{"Label":"Am Anger 11, 91166 Georgensgmünd, Deutschland","Country":"DEU","State":"Bayern","County":"Roth","City":"Georgensgmünd","District":"Georgensgmünd","Street":"Am Anger","HouseNumber":"11","PostalCode":"91166","AdditionalData":[{"value":"Deutschland","key":"CountryName"},{"value":"Bayern","key":"StateName"},{"value":"Roth","key":"CountyName"}]},"MapReference":{"ReferenceId":"541576129","Spot":0.68,"SideOfStreet":"left","CountryId":"20147700","StateId":"20177250","CountyId":"20183712","CityId":"20183725","DistrictId":"20183727","AddressId":"186171245","RoadLinkId":"33619856"}}},{"Relevance":1.0,"Distance":42.4,"MatchLevel":"houseNumber","MatchQuality":{"Country":1.0,"State":1.0,"County":1.0,"City":1.0,"District":1.0,"Street":[1.0],"HouseNumber":1.0,"PostalCode":1.0},"MatchType":"interpolated","Location":{"LocationId":"NT_lE.htl8swgeBzd4SqAKKvA_2A","LocationType":"point","DisplayPosition":{"Latitude":49.18892,"Longitude":11.01523},"MapView":{"TopLeft":{"Latitude":49.1900442,"Longitude":11.01351},"BottomRight":{"Latitude":49.1877958,"Longitude":11.01695}},"Address":{"Label":"Rittersbacher Straße 6, 91166 Georgensgmünd, Deutschland","Country":"DEU","State":"Bayern","County":"Roth","City":"Georgensgmünd","District":"Georgensgmünd","Street":"Rittersbacher Straße","HouseNumber":"6","PostalCode":"91166","AdditionalData":[{"value":"Deutschland","key":"CountryName"},{"value":"Bayern","key":"StateName"},{"value":"Roth","key":"CountyName"}]},"MapReference":{"ReferenceId":"1252956754","Spot":0.85,"SideOfStreet":"right","CountryId":"20147700","StateId":"20177250","CountyId":"20183712","CityId":"20183725","DistrictId":"20183727","AddressId":"184544805","RoadLinkId":"576096553"}}},{"Relevance":1.0,"Distance":43.7,"MatchLevel":"street","MatchQuality":{"Country":1.0,"State":1.0,"County":1.0,"City":1.0,"District":1.0,"PostalCode":1.0},"Location":{"LocationId":"NT_exOv.whbju9sVdoPSXU-QA_l_1252956756_R","LocationType":"point","DisplayPosition":{"Latitude":49.18923,"Longitude":11.01598},"MapView":{"TopLeft":{"Latitude":49.18923,"Longitude":11.01538},"BottomRight":{"Latitude":49.18903,"Longitude":11.01598}},"Address":{"Label":"91166 Georgensgmünd, Deutschland","Country":"DEU","State":"Bayern","County":"Roth","City":"Georgensgmünd","District":"Georgensgmünd","PostalCode":"91166","AdditionalData":[{"value":"Deutschland","key":"CountryName"},{"value":"Bayern","key":"StateName"},{"value":"Roth","key":"CountyName"}]},"MapReference":{"ReferenceId":"1252956756","Spot":1.0,"SideOfStreet":"right","CountryId":"20147700","StateId":"20177250","CountyId":"20183712","CityId":"20183725","DistrictId":"20183727"}}},{"Relevance":1.0,"Distance":43.7,"MatchLevel":"street","MatchQuality":{"Country":1.0,"State":1.0,"County":1.0,"City":1.0,"District":1.0,"PostalCode":1.0},"Location":{"LocationId":"NT_exOv.whbju9sVdoPSXU-QA_l_541576158_R","LocationType":"point","DisplayPosition":{"Latitude":49.18923,"Longitude":11.01598},"MapView":{"TopLeft":{"Latitude":49.18952,"Longitude":11.01598},"BottomRight":{"Latitude":49.18923,"Longitude":11.0161}},"Address":{"Label":"91166 Georgensgmünd, Deutschland","Country":"DEU","State":"Bayern","County":"Roth","City":"Georgensgmünd","District":"Georgensgmünd","PostalCode":"91166","AdditionalData":[{"value":"Deutschland","key":"CountryName"},{"value":"Bayern","key":"StateName"},{"value":"Roth","key":"CountyName"}]},"MapReference":{"ReferenceId":"541576158","Spot":0.0,"SideOfStreet":"right","CountryId":"20147700","StateId":"20177250","CountyId":"20183712","CityId":"20183725","DistrictId":"20183727"}}},{"Relevance":1.0,"Distance":51.6,"MatchLevel":"houseNumber","MatchQuality":{"Country":1.0,"State":1.0,"County":1.0,"City":1.0,"District":1.0,"Street":[1.0],"HouseNumber":1.0,"PostalCode":1.0},"MatchType":"interpolated","Location":{"LocationId":"NT_GMmz0h8bOPLgInhbjzxvJB_0A","LocationType":"point","DisplayPosition":{"Latitude":49.18932,"Longitude":11.01639},"MapView":{"TopLeft":{"Latitude":49.1904442,"Longitude":11.01467},"BottomRight":{"Latitude":49.1881958,"Longitude":11.01811}},"Address":{"Label":"Am Zehentstadel 4, 91166 Georgensgmünd, Deutschland","Country":"DEU","State":"Bayern","County":"Roth","City":"Georgensgmünd","District":"Georgensgmünd","Street":"Am Zehentstadel","HouseNumber":"4","PostalCode":"91166","AdditionalData":[{"value":"Deutschland","key":"CountryName"},{"value":"Bayern","key":"StateName"},{"value":"Roth","key":"CountyName"}]},"MapReference":{"ReferenceId":"541576149","Spot":0.73,"SideOfStreet":"right","CountryId":"20147700","StateId":"20177250","CountyId":"20183712","CityId":"20183725","DistrictId":"20183727","AddressId":"185968849","RoadLinkId":"33274296"}}}]}]}}