{"Response":{"MetaInfo":{"Timestamp":"2020-03-28T10:20:11.565+0000","NextPageInformation":"2"},"View":[{"_type":"SearchResultsViewType","ViewId":0,"Result":[{"Relevance":1.0,"Distance":0.0,"Direction":0.0,"MatchLevel":"district","MatchQuality":{"Country":1.0,"State":1.0,"County":1.0,"City":1.0,"District":1.0,"PostalCode":1.0},"Location":{"LocationId":"NT_CM2vELjZ0doMFwuO.cT.6A","LocationType":"point","DisplayPosition":{"Latitude":49.1115831,"Longitude":10.3871239},"MapView":{"TopLeft":{"Latitude":49.11333,"Longitude":10.37657},"BottomRight":{"Latitude":49.104,"Longitude":10.3949}},"Address":{"Label":"Dürrwangen, Bayern, Deutschland","Country":"DEU","State":"Bayern","County":"Ansbach (Landkreis)","City":"Dürrwangen","District":"Dürrwangen","PostalCode":"91602","AdditionalData":[{"value":"Deutschland","key":"CountryName"},{"value":"Bayern","key":"StateName"},{"value":"Ansbach (Landkreis)","key":"CountyName"}]},"MapReference":{"ReferenceId":"780290575","SideOfStreet":"neither","CountryId":"20147700","StateId":"20177250","CountyId":"20183021","CityId":"20183075","DistrictId":"20183077"}}},{"Relevance":1.0,"Distance":7.3,"MatchLevel":"houseNumber","MatchQuality":{"Country":1.0,"State":1.0,"County":1.0,"City":1.0,"District":1.0,"Street":[1.0],"HouseNumber":1.0,"PostalCode":1.0},"MatchType":"interpolated","Location":{"LocationId":"NT_Ge8EfrJayxRhwVQzMebh.D_yYD","LocationType":"point","DisplayPosition":{"Latitude":49.11145,"Longitude":10.38706},"MapView":{"TopLeft":{"Latitude":49.1125742,"Longitude":10.3853427},"BottomRight":{"Latitude":49.1103258,"Longitude":10.3887773}},"Address":{"Label":"Sulzacher Straße 26, 91602 Dürrwangen, Deutschland","Country":"DEU","State":"Bayern","County":"Ansbach (Landkreis)","City":"Dürrwangen","District":"Dürrwangen","Street":"Sulzacher Straße","HouseNumber":"26","PostalCode":"91602","AdditionalData":[{"value":"Deutschland","key":"CountryName"},{"value":"Bayern","key":"StateName"},{"value":"Ansbach (Landkreis)","key":"CountyName"}]},"MapReference":{"ReferenceId":"541983937","Spot":0.79,"SideOfStreet":"right","CountryId":"20147700","StateId":"20177250","CountyId":"20183021","CityId":"20183075","DistrictId":"20183077","AddressId":"198965975","RoadLinkId":"33358861"}}},{"Relevance":1.0,"Distance":30.9,"MatchLevel":"houseNumber","MatchQuality":{"Country":1.0,"State":1.0,"County":1.0,"City":1.0,"District":1.0,"Street":[1.0],"HouseNumber":1.0,"PostalCode":1.0},"MatchType":"interpolated","Location":{"LocationId":"NT_Ge8EfrJayxRhwVQzMebh.D_yUD","LocationType":"point","DisplayPosition":{"Latitude":49.11148,"Longitude":10.38671},"MapView":{"TopLeft":{"Latitude":49.1126042,"Longitude":10.3849927},"BottomRight":{"Latitude":49.1103558,"Longitude":10.3884273}},"Address":{"Label":"Sulzacher Straße 25, 91602 Dürrwangen, Deutschland","Country":"DEU","State":"Bayern","County":"Ansbach (Landkreis)","City":"Dürrwangen","District":"Dürrwangen","Street":"Sulzacher Straße","HouseNumber":"25","PostalCode":"91602","AdditionalData":[{"value":"Deutschland","key":"CountryName"},{"value":"Bayern","key":"StateName"},{"value":"Ansbach (Landkreis)","key":"CountyName"}]},"MapReference":{"ReferenceId":"558272281","Spot":0.76,"SideOfStreet":"right","CountryId":"20147700","StateId":"20177250","CountyId":"20183021","CityId":"20183075","DistrictId":"20183077","AddressId":"198965979","RoadLinkId":"245118600"}}},{"Relevance":1.0,"Distance":39.7,"MatchLevel":"houseNumber","MatchQuality":{"Country":1.0,"State":1.0,"County":1.0,"City":1.0,"District":1.0,"Street":[1.0],"HouseNumber":1.0,"PostalCode":1.0},"MatchType":"interpolated","Location":{"LocationId":"NT_Ge8EfrJayxRhwVQzMebh.D_ygD","LocationType":"point","DisplayPosition":{"Latitude":49.11173,"Longitude":10.38659},"MapView":{"TopLeft":{"Latitude":49.1128542,"Longitude":10.3848727},"BottomRight":{"Latitude":49.1106058,"Longitude":10.3883073}},"Address":{"Label":"Sulzacher Straße 28, 91602 Dürrwangen, Deutschland","Country":"DEU","State":"Bayern","County":"Ansbach (Landkreis)","City":"Dürrwangen","District":"Dürrwangen","Street":"Sulzacher Straße","HouseNumber":"28","PostalCode":"91602","AdditionalData":[{"value":"Deutschland","key":"CountryName"},{"value":"Bayern","key":"StateName"},{"value":"Ansbach (Landkreis)","key":"CountyName"}]},"MapReference":{"ReferenceId":"541983980","Spot":0.7,"SideOfStreet":"right","CountryId":"20147700","StateId":"20177250","CountyId":"20183021","CityId":"20183075","DistrictId":"20183077","AddressId":"182451074","RoadLinkId":"33206866"}}},{"Relevance":1.0,"Distance":47.9,"MatchLevel":"landmark","MatchQuality":{"Country":1.0,"State":1.0,"County":1.0,"Name":1.0},"Location":{"LocationId":"NT_VGDYrT25RQYMFBJ8Fv0iYB","LocationType":"river","Name":"Sulzach","DisplayPosition":{"Latitude":49.12257,"Longitude":10.37343},"MapView":{"TopLeft":{"Latitude":49.22581,"Longitude":10.31685},"BottomRight":{"Latitude":49.05946,"Longitude":10.48544}},"Address":{"Label":"Deutschland","Country":"DEU","State":"Bayern","County":"Ansbach (Landkreis)","AdditionalData":[{"value":"Deutschland","key":"CountryName"},{"value":"Bayern","key":"StateName"},{"value":"Ansbach (Landkreis)","key":"CountyName"}]},"MapReference":{"CountryId":"20147700","StateId":"20177250","CountyId":"20183021","PlaceId":"750681961"}}},{"Relevance":1.0,"Distance":50.1,"MatchLevel":"houseNumber","MatchQuality":{"Country":1.0,"State":1.0,"County":1.0,"City":1.0,"District":1.0,"Street":[1.0],"HouseNumber":1.0,"PostalCode":1.0},"MatchType":"interpolated","Location":{"LocationId":"NT_Ge8EfrJayxRhwVQzMebh.D_zAD","LocationType":"point","DisplayPosition":{"Latitude":49.1118,"Longitude":10.38648},"MapView":{"TopLeft":{"Latitude":49.1129242,"Longitude":10.3847626},"BottomRight":{"Latitude":49.1106758,"Longitude":10.3881974}},"Address":{"Label":"Sulzacher Straße 30, 91602 Dürrwangen, Deutschland","Country":"DEU","State":"Bayern","County":"Ansbach (Landkreis)","City":"Dürrwangen","District":"Dürrwangen","Street":"Sulzacher Straße","HouseNumber":"30","PostalCode":"91602","AdditionalData":[{"value":"Deutschland","key":"CountryName"},{"value":"Bayern","key":"StateName"},{"value":"Ansbach (Landkreis)","key":"CountyName"}]},"MapReference":{"ReferenceId":"542074727","Spot":0.04,"SideOfStreet":"right","CountryId":"20147700","StateId":"20177250","CountyId":"20183021","CityId":"20183075","DistrictId":"20183077","AddressId":"183465907","RoadLinkId":"33159211"}}},{"Relevance":1.0,"Distance":53.5,"MatchLevel":"houseNumber","MatchQuality":{"Country":1.0,"State":1.0,"County":1.0,"City":1.0,"District":1.0,"Street":[1.0],"HouseNumber":1.0,"PostalCode":1.0},"MatchType":"interpolated","Location":{"LocationId":"NT_kXBeXSwgzuinLm10djhm4A_xA","LocationType":"point","DisplayPosition":{"Latitude":49.11164,"Longitude":10.38631},"MapView":{"TopLeft":{"Latitude":49.1127642,"Longitude":10.3845927},"BottomRight":{"Latitude":49.1105158,"Longitude":10.3880273}},"Address":{"Label":"Mühlgasse 1, 91602 Dürrwangen, Deutschland","Country":"DEU","State":"Bayern","County":"Ansbach (Landkreis)","City":"Dürrwangen","District":"Dürrwangen","Street":"Mühlgasse","HouseNumber":"1","PostalCode":"91602","AdditionalData":[{"value":"Deutschland","key":"CountryName"},{"value":"Bayern","key":"StateName"},{"value":"Ansbach (Landkreis)","key":"CountyName"}]},"MapReference":{"ReferenceId":"541983938","Spot":0.5,"SideOfStreet":"right","CountryId":"20147700","StateId":"20177250","CountyId":"20183021","CityId":"20183075","DistrictId":"20183077","AddressId":"184584743","RoadLinkId":"32443565"}}},{"Relevance":1.0,"Distance":75.7,"MatchLevel":"street","MatchQuality":{"Country":1.0,"State":1.0,"County":1.0,"City":1.0,"District":1.0,"PostalCode":1.0},"Location":{"LocationId":"NT_aWdLWMAMuJQ54R59etEpvC_l_541983930_R","LocationType":"point","DisplayPosition":{"Latitude":49.11098,"Longitude":10.38664},"MapView":{"TopLeft":{"Latitude":49.11104,"Longitude":10.38606},"BottomRight":{"Latitude":49.11086,"Longitude":10.38675}},"Address":{"Label":"91602 Dürrwangen, Deutschland","Country":"DEU","State":"Bayern","County":"Ansbach (Landkreis)","City":"Dürrwangen","District":"Dürrwangen","PostalCode":"91602","AdditionalData":[{"value":"Deutschland","key":"CountryName"},{"value":"Bayern","key":"StateName"},{"value":"Ansbach (Landkreis)","key":"CountyName"}]},"MapReference":{"ReferenceId":"541983930","Spot":0.21,"SideOfStreet":"right","CountryId":"20147700","StateId":"20177250","CountyId":"20183021","CityId":"20183075","DistrictId":"20183077"}}},{"Relevance":1.0,"Distance":87.3,"MatchLevel":"houseNumber","MatchQuality":{"Country":1.0,"State":1.0,"County":1.0,"City":1.0,"District":1.0,"Street":[1.0],"HouseNumber":1.0,"PostalCode":1.0},"MatchType":"interpolated","Location":{"LocationId":"NT_kXBeXSwgzuinLm10djhm4A_3A","LocationType":"point","DisplayPosition":{"Latitude":49.11109,"Longitude":10.38609},"MapView":{"TopLeft":{"Latitude":49.1122142,"Longitude":10.3843727},"BottomRight":{"Latitude":49.1099658,"Longitude":10.3878073}},"Address":{"Label":"Mühlgasse 7, 91602 Dürrwangen, Deutschland","Country":"DEU","State":"Bayern","County":"Ansbach (Landkreis)","City":"Dürrwangen","District":"Dürrwangen","Street":"Mühlgasse","HouseNumber":"7","PostalCode":"91602","AdditionalData":[{"value":"Deutschland","key":"CountryName"},{"value":"Bayern","key":"StateName"},{"value":"Ansbach (Landkreis)","key":"CountyName"}]},"MapReference":{"ReferenceId":"541983933","Spot":0.26,"SideOfStreet":"right","CountryId":"20147700","StateId":"20177250","CountyId":"20183021","CityId":"20183075","DistrictId":"20183077","AddressId":"199011909","RoadLinkId":"33576998"}}},{"Relevance":1.0,"Distance":92.3,"MatchLevel":"houseNumber","MatchQuality":{"Country":1.0,"State":1.0,"County":1.0,"City":1.0,"District":1.0,"Street":[1.0],"HouseNumber":1.0,"PostalCode":1.0},"MatchType":"interpolated","Location":{"LocationId":"NT_kXBeXSwgzuinLm10djhm4A_0IE","LocationType":"point","DisplayPosition":{"Latitude":49.11146,"Longitude":10.38587},"MapView":{"TopLeft":{"Latitude":49.1125842,"Longitude":10.3841527},"BottomRight":{"Latitude":49.1103358,"Longitude":10.3875873}},"Address":{"Label":"Mühlgasse 4B, 91602 Dürrwangen, Deutschland","Country":"DEU","State":"Bayern","County":"Ansbach (Landkreis)","City":"Dürrwangen","District":"Dürrwangen","Street":"Mühlgasse","HouseNumber":"4B","PostalCode":"91602","AdditionalData":[{"value":"Deutschland","key":"CountryName"},{"value":"Bayern","key":"StateName"},{"value":"Ansbach (Landkreis)","key":"CountyName"}]},"MapReference":{"ReferenceId":"541983957","Spot":0.68,"SideOfStreet":"left","CountryId":"20147700","StateId":"20177250","CountyId":"20183021","CityId":"20183075","DistrictId":"20183077","AddressId":"621724428","RoadLinkId":"245706729"}}}]}]}}