{"Response":{"MetaInfo":{"Timestamp":"2020-03-28T11:53:57.258+0000","NextPageInformation":"2"},"View":[{"_type":"SearchResultsViewType","ViewId":0,"Result":[{"Relevance":1.0,"Distance":0.0,"Direction":0.0,"MatchLevel":"city","MatchQuality":{"Country":1.0,"State":1.0,"County":1.0,"City":1.0,"PostalCode":1.0},"Location":{"LocationId":"NT_hpmbvVfW862D-Z7f5PqyMD","LocationType":"point","DisplayPosition":{"Latitude":49.176688,"Longitude":-0.383576},"MapView":{"TopLeft":{"Latitude":49.21624,"Longitude":-0.4134},"BottomRight":{"Latitude":49.15298,"Longitude":-0.33082}},"Address":{"Label":"Caen, Normandie, France","Country":"FRA","State":"Normandie","County":"Calvados","City":"Caen","PostalCode":"14000","AdditionalData":[{"value":"France","key":"CountryName"},{"value":"Normandie","key":"StateName"},{"value":"Calvados","key":"CountyName"}]},"MapReference":{"ReferenceId":"59349972","SideOfStreet":"neither","CountryId":"20000001","StateId":"20057204","CountyId":"20057205","CityId":"20057520"}}},{"Relevance":1.0,"Distance":7.8,"MatchLevel":"houseNumber","MatchQuality":{"Country":1.0,"State":1.0,"County":1.0,"City":1.0,"Street":[1.0],"HouseNumber":1.0,"PostalCode":1.0},"MatchType":"interpolated","Location":{"LocationId":"NT_XQYcm4ucO3i72-9GET.YBA_xkDO","LocationType":"point","DisplayPosition":{"Latitude":49.17654,"Longitude":-0.38356},"MapView":{"TopLeft":{"Latitude":49.1776642,"Longitude":-0.3852796},"BottomRight":{"Latitude":49.1754158,"Longitude":-0.3818404}},"Address":{"Label":"198 Rue Caponière, 14000 Caen, France","Country":"FRA","State":"Normandie","County":"Calvados","City":"Caen","Street":"Rue Caponière","HouseNumber":"198","PostalCode":"14000","AdditionalData":[{"value":"France","key":"CountryName"},{"value":"Normandie","key":"StateName"},{"value":"Calvados","key":"CountyName"}]},"MapReference":{"ReferenceId":"57476930","Spot":0.38,"SideOfStreet":"left","CountryId":"20000001","StateId":"20057204","CountyId":"20057205","CityId":"20057520","AddressId":"321668613","RoadLinkId":"47503977"}}},{"Relevance":1.0,"Distance":44.5,"MatchLevel":"houseNumber","MatchQuality":{"Country":1.0,"State":1.0,"County":1.0,"City":1.0,"Street":[1.0],"HouseNumber":1.0,"PostalCode":1.0},"MatchType":"interpolated","Location":{"LocationId":"NT_hKYMVgNLOl1aiy21zKj8LD_1ID","LocationType":"point","DisplayPosition":{"Latitude":49.17696,"Longitude":-0.38402},"MapView":{"TopLeft":{"Latitude":49.1780842,"Longitude":-0.3857396},"BottomRight":{"Latitude":49.1758358,"Longitude":-0.3823004}},"Address":{"Label":"52 Allée du Nice Caennais, 14000 Caen, France","Country":"FRA","State":"Normandie","County":"Calvados","City":"Caen","Street":"Allée du Nice Caennais","HouseNumber":"52","PostalCode":"14000","AdditionalData":[{"value":"France","key":"CountryName"},{"value":"Normandie","key":"StateName"},{"value":"Calvados","key":"CountyName"}]},"MapReference":{"ReferenceId":"57476890","Spot":0.91,"SideOfStreet":"right","CountryId":"20000001","StateId":"20057204","CountyId":"20057205","CityId":"20057520","AddressId":"321698334","RoadLinkId":"46622974"}}},{"Relevance":1.0,"Distance":53.9,"MatchLevel":"houseNumber","MatchQuality":{"Country":1.0,"State":1.0,"County":1.0,"City":1.0,"Street":[1.0],"HouseNumber":1.0,"PostalCode":1.0},"MatchType":"interpolated","Location":{"LocationId":"NT_hKYMVgNLOl1aiy21zKj8LD_0gD","LocationType":"point","DisplayPosition":{"Latitude":49.17693,"Longitude":-0.38425},"MapView":{"TopLeft":{"Latitude":49.1780542,"Longitude":-0.3859696},"BottomRight":{"Latitude":49.1758058,"Longitude":-0.3825304}},"Address":{"Label":"48 Allée du Nice Caennais, 14000 Caen, France","Country":"FRA","State":"Normandie","County":"Calvados","City":"Caen","Street":"Allée du Nice Caennais","HouseNumber":"48","PostalCode":"14000","AdditionalData":[{"value":"France","key":"CountryName"},{"value":"Normandie","key":"StateName"},{"value":"Calvados","key":"CountyName"}]},"MapReference":{"ReferenceId":"57476899","Spot":0.79,"SideOfStreet":"right","CountryId":"20000001","StateId":"20057204","CountyId":"20057205","CityId":"20057520","AddressId":"321648029","RoadLinkId":"46992513"}}},{"Relevance":1.0,"Distance":70.0,"MatchLevel":"houseNumber","MatchQuality":{"Country":1.0,"State":1.0,"County":1.0,"City":1.0,"Street":[1.0],"HouseNumber":1.0,"PostalCode":1.0},"MatchType":"interpolated","Location":{"LocationId":"NT_Etd5HshQPv8mmr-Ji2F0CC_xED","LocationType":"point","DisplayPosition":{"Latitude":49.17761,"Longitude":-0.38334},"MapView":{"TopLeft":{"Latitude":49.1787342,"Longitude":-0.3850596},"BottomRight":{"Latitude":49.1764858,"Longitude":-0.3816204}},"Address":{"Label":"11 Rue Charles Léandre, 14000 Caen, France","Country":"FRA","State":"Normandie","County":"Calvados","City":"Caen","Street":"Rue Charles Léandre","HouseNumber":"11","PostalCode":"14000","AdditionalData":[{"value":"France","key":"CountryName"},{"value":"Normandie","key":"StateName"},{"value":"Calvados","key":"CountyName"}]},"MapReference":{"ReferenceId":"57476873","Spot":0.38,"SideOfStreet":"left","CountryId":"20000001","StateId":"20057204","CountyId":"20057205","CityId":"20057520","AddressId":"321722529","RoadLinkId":"46403455"}}},{"Relevance":1.0,"Distance":80.0,"MatchLevel":"houseNumber","MatchQuality":{"Country":1.0,"State":1.0,"County":1.0,"City":1.0,"Street":[1.0],"HouseNumber":1.0,"PostalCode":1.0},"MatchType":"interpolated","Location":{"LocationId":"NT_hKYMVgNLOl1aiy21zKj8LD_yA","LocationType":"point","DisplayPosition":{"Latitude":49.17629,"Longitude":-0.38458},"MapView":{"TopLeft":{"Latitude":49.1774142,"Longitude":-0.3862996},"BottomRight":{"Latitude":49.1751658,"Longitude":-0.3828604}},"Address":{"Label":"2 Allée du Nice Caennais, 14000 Caen, France","Country":"FRA","State":"Normandie","County":"Calvados","City":"Caen","Street":"Allée du Nice Caennais","HouseNumber":"2","PostalCode":"14000","AdditionalData":[{"value":"France","key":"CountryName"},{"value":"Normandie","key":"StateName"},{"value":"Calvados","key":"CountyName"}]},"MapReference":{"ReferenceId":"57476931","Spot":0.2,"SideOfStreet":"right","CountryId":"20000001","StateId":"20057204","CountyId":"20057205","CityId":"20057520","AddressId":"321620208","RoadLinkId":"47254389"}}},{"Relevance":1.0,"Distance":91.2,"MatchLevel":"houseNumber","MatchQuality":{"Country":1.0,"State":1.0,"County":1.0,"City":1.0,"Street":[1.0],"HouseNumber":1.0,"PostalCode":1.0},"MatchType":"interpolated","Location":{"LocationId":"NT_hKYMVgNLOl1aiy21zKj8LD_1kD","LocationType":"point","DisplayPosition":{"Latitude":49.17725,"Longitude":-0.38449},"MapView":{"TopLeft":{"Latitude":49.1783742,"Longitude":-0.3862096},"BottomRight":{"Latitude":49.1761258,"Longitude":-0.3827704}},"Address":{"Label":"59 Allée du Nice Caennais, 14000 Caen, France","Country":"FRA","State":"Normandie","County":"Calvados","City":"Caen","Street":"Allée du Nice Caennais","HouseNumber":"59","PostalCode":"14000","AdditionalData":[{"value":"France","key":"CountryName"},{"value":"Normandie","key":"StateName"},{"value":"Calvados","key":"CountyName"}]},"MapReference":{"ReferenceId":"57476888","Spot":0.38,"SideOfStreet":"left","CountryId":"20000001","StateId":"20057204","CountyId":"20057205","CityId":"20057520","AddressId":"321638334","RoadLinkId":"46528448"}}},{"Relevance":1.0,"Distance":94.9,"MatchLevel":"houseNumber","MatchQuality":{"Country":1.0,"State":1.0,"County":1.0,"City":1.0,"Street":[1.0],"HouseNumber":1.0,"PostalCode":1.0},"MatchType":"interpolated","Location":{"LocationId":"NT_wyMCaE5sn4CJacQQUIg7UD_xAD","LocationType":"point","DisplayPosition":{"Latitude":49.17607,"Longitude":-0.38258},"MapView":{"TopLeft":{"Latitude":49.1771942,"Longitude":-0.3842996},"BottomRight":{"Latitude":49.1749458,"Longitude":-0.3808604}},"Address":{"Label":"10 Rue de Maltot, 14000 Caen, France","Country":"FRA","State":"Normandie","County":"Calvados","City":"Caen","Street":"Rue de Maltot","HouseNumber":"10","PostalCode":"14000","AdditionalData":[{"value":"France","key":"CountryName"},{"value":"Normandie","key":"StateName"},{"value":"Calvados","key":"CountyName"}]},"MapReference":{"ReferenceId":"57476992","Spot":0.75,"SideOfStreet":"left","CountryId":"20000001","StateId":"20057204","CountyId":"20057205","CityId":"20057520","AddressId":"321529153","RoadLinkId":"46358291"}}},{"Relevance":1.0,"Distance":100.6,"MatchLevel":"houseNumber","MatchQuality":{"Country":1.0,"State":1.0,"County":1.0,"City":1.0,"Street":[1.0],"HouseNumber":1.0,"PostalCode":1.0},"MatchType":"interpolated","Location":{"LocationId":"NT_wyMCaE5sn4CJacQQUIg7UD_0IE","LocationType":"point","DisplayPosition":{"Latitude":49.17632,"Longitude":-0.38225},"MapView":{"TopLeft":{"Latitude":49.1774442,"Longitude":-0.3839696},"BottomRight":{"Latitude":49.1751958,"Longitude":-0.3805304}},"Address":{"Label":"4B Rue de Maltot, 14000 Caen, France","Country":"FRA","State":"Normandie","County":"Calvados","City":"Caen","Street":"Rue de Maltot","HouseNumber":"4B","PostalCode":"14000","AdditionalData":[{"value":"France","key":"CountryName"},{"value":"Normandie","key":"StateName"},{"value":"Calvados","key":"CountyName"}]},"MapReference":{"ReferenceId":"57476929","Spot":0.14,"SideOfStreet":"left","CountryId":"20000001","StateId":"20057204","CountyId":"20057205","CityId":"20057520","AddressId":"321692337","RoadLinkId":"46709542"}}},{"Relevance":1.0,"Distance":108.1,"MatchLevel":"houseNumber","MatchQuality":{"Country":1.0,"State":1.0,"County":1.0,"City":1.0,"Street":[1.0],"HouseNumber":1.0,"PostalCode":1.0},"MatchType":"interpolated","Location":{"LocationId":"NT_hKYMVgNLOl1aiy21zKj8LD_xAD","LocationType":"point","DisplayPosition":{"Latitude":49.17681,"Longitude":-0.3851},"MapView":{"TopLeft":{"Latitude":49.1779342,"Longitude":-0.3868196},"BottomRight":{"Latitude":49.1756858,"Longitude":-0.3833804}},"Address":{"Label":"10 Allée du Nice Caennais, 14000 Caen, France","Country":"FRA","State":"Normandie","County":"Calvados","City":"Caen","Street":"Allée du Nice Caennais","HouseNumber":"10","PostalCode":"14000","AdditionalData":[{"value":"France","key":"CountryName"},{"value":"Normandie","key":"StateName"},{"value":"Calvados","key":"CountyName"}]},"MapReference":{"ReferenceId":"57476900","Spot":0.02,"SideOfStreet":"right","CountryId":"20000001","StateId":"20057204","CountyId":"20057205","CityId":"20057520","AddressId":"321550058","RoadLinkId":"47183329"}}}]}]}}