{"Response":{"MetaInfo":{"Timestamp":"2020-03-28T10:19:09.967+0000","NextPageInformation":"2"},"View":[{"_type":"SearchResultsViewType","ViewId":0,"Result":[{"Relevance":1.0,"Distance":0.0,"Direction":0.0,"MatchLevel":"district","MatchQuality":{"Country":1.0,"State":1.0,"County":1.0,"City":1.0,"District":1.0,"PostalCode":1.0},"Location":{"LocationId":"NT_CuSyi0V0yAAae1.J9yIfnA","LocationType":"point","DisplayPosition":{"Latitude":49.1655243,"Longitude":8.414936},"MapView":{"TopLeft":{"Latitude":49.16913,"Longitude":8.40554},"BottomRight":{"Latitude":49.15334,"Longitude":8.42755}},"Address":{"Label":"Liedolsheim, Dettenheim, Baden-Württemberg, Deutschland","Country":"DEU","State":"Baden-Württemberg","County":"Karlsruhe (Landkreis)","City":"Dettenheim","District":"Liedolsheim","PostalCode":"76706","AdditionalData":[{"value":"Deutschland","key":"CountryName"},{"value":"Baden-Württemberg","key":"StateName"},{"value":"Karlsruhe (Landkreis)","key":"CountyName"}]},"MapReference":{"ReferenceId":"808973392","SideOfStreet":"neither","CountryId":"20147700","StateId":"20171489","CountyId":"20173258","CityId":"20173418","DistrictId":"20173421"}}},{"Relevance":1.0,"Distance":9.8,"MatchLevel":"houseNumber","MatchQuality":{"Country":1.0,"State":1.0,"County":1.0,"City":1.0,"District":1.0,"Street":[1.0],"HouseNumber":1.0,"PostalCode":1.0},"MatchType":"interpolated","Location":{"LocationId":"NT_GM-35eSegahiFcZmKTItQC_xA","LocationType":"point","DisplayPosition":{"Latitude":49.16557,"Longitude":8.41518},"MapView":{"TopLeft":{"Latitude":49.1666942,"Longitude":8.4134608},"BottomRight":{"Latitude":49.1644458,"Longitude":8.4168992}},"Address":{"Label":"Langgewann 1, 76706 Dettenheim, Deutschland","Country":"DEU","State":"Baden-Württemberg","County":"Karlsruhe (Landkreis)","City":"Dettenheim","District":"Liedolsheim","Street":"Langgewann","HouseNumber":"1","PostalCode":"76706","AdditionalData":[{"value":"Deutschland","key":"CountryName"},{"value":"Baden-Württemberg","key":"StateName"},{"value":"Karlsruhe (Landkreis)","key":"CountyName"}]},"MapReference":{"ReferenceId":"72824325","Spot":0.1,"SideOfStreet":"left","CountryId":"20147700","StateId":"20171489","CountyId":"20173258","CityId":"20173418","DistrictId":"20173421","AddressId":"621612164","RoadLinkId":"38482502"}}},{"Relevance":1.0,"Distance":10.7,"MatchLevel":"houseNumber","MatchQuality":{"Country":1.0,"State":1.0,"County":1.0,"City":1.0,"District":1.0,"Street":[1.0],"HouseNumber":1.0,"PostalCode":1.0},"MatchType":"interpolated","Location":{"LocationId":"NT_IOJaNNpzEtN9OvmnzTPt6C_xMzNBB","LocationType":"point","DisplayPosition":{"Latitude":49.16536,"Longitude":8.41499},"MapView":{"TopLeft":{"Latitude":49.1664842,"Longitude":8.4132708},"BottomRight":{"Latitude":49.1642358,"Longitude":8.4167092}},"Address":{"Label":"Hauptstraße 137A, 76706 Dettenheim, Deutschland","Country":"DEU","State":"Baden-Württemberg","County":"Karlsruhe (Landkreis)","City":"Dettenheim","District":"Liedolsheim","Street":"Hauptstraße","HouseNumber":"137A","PostalCode":"76706","AdditionalData":[{"value":"Deutschland","key":"CountryName"},{"value":"Baden-Württemberg","key":"StateName"},{"value":"Karlsruhe (Landkreis)","key":"CountyName"}]},"MapReference":{"ReferenceId":"72822563","Spot":0.85,"SideOfStreet":"left","CountryId":"20147700","StateId":"20171489","CountyId":"20173258","CityId":"20173418","DistrictId":"20173421","AddressId":"178598478","RoadLinkId":"38588431"}}},{"Relevance":1.0,"Distance":41.2,"MatchLevel":"houseNumber","MatchQuality":{"Country":1.0,"State":1.0,"County":1.0,"City":1.0,"District":1.0,"Street":[1.0],"HouseNumber":1.0,"PostalCode":1.0},"MatchType":"interpolated","Location":{"LocationId":"NT_IOJaNNpzEtN9OvmnzTPt6C_xMTO","LocationType":"point","DisplayPosition":{"Latitude":49.16562,"Longitude":8.41553},"MapView":{"TopLeft":{"Latitude":49.1667442,"Longitude":8.4138108},"BottomRight":{"Latitude":49.1644958,"Longitude":8.4172492}},"Address":{"Label":"Hauptstraße 139, 76706 Dettenheim, Deutschland","Country":"DEU","State":"Baden-Württemberg","County":"Karlsruhe (Landkreis)","City":"Dettenheim","District":"Liedolsheim","Street":"Hauptstraße","HouseNumber":"139","PostalCode":"76706","AdditionalData":[{"value":"Deutschland","key":"CountryName"},{"value":"Baden-Württemberg","key":"StateName"},{"value":"Karlsruhe (Landkreis)","key":"CountyName"}]},"MapReference":{"ReferenceId":"808973395","Spot":0.32,"SideOfStreet":"left","CountryId":"20147700","StateId":"20171489","CountyId":"20173258","CityId":"20173418","DistrictId":"20173421","AddressId":"177503910","RoadLinkId":"196309477"}}},{"Relevance":1.0,"Distance":52.9,"MatchLevel":"houseNumber","MatchQuality":{"Country":1.0,"State":1.0,"County":1.0,"City":1.0,"District":1.0,"Street":[1.0],"HouseNumber":1.0,"PostalCode":1.0},"MatchType":"interpolated","Location":{"LocationId":"NT_JG5CYMod.nE0QPmncW3LLD_zA","LocationType":"point","DisplayPosition":{"Latitude":49.16566,"Longitude":8.41411},"MapView":{"TopLeft":{"Latitude":49.1667842,"Longitude":8.4123908},"BottomRight":{"Latitude":49.1645358,"Longitude":8.4158292}},"Address":{"Label":"Am Billacker 3, 76706 Dettenheim, Deutschland","Country":"DEU","State":"Baden-Württemberg","County":"Karlsruhe (Landkreis)","City":"Dettenheim","District":"Liedolsheim","Street":"Am Billacker","HouseNumber":"3","PostalCode":"76706","AdditionalData":[{"value":"Deutschland","key":"CountryName"},{"value":"Baden-Württemberg","key":"StateName"},{"value":"Karlsruhe (Landkreis)","key":"CountyName"}]},"MapReference":{"ReferenceId":"563903266","Spot":0.17,"SideOfStreet":"right","CountryId":"20147700","StateId":"20171489","CountyId":"20173258","CityId":"20173418","DistrictId":"20173421","AddressId":"178880389","RoadLinkId":"38072984"}}},{"Relevance":1.0,"Distance":87.7,"MatchLevel":"houseNumber","MatchQuality":{"Country":1.0,"State":1.0,"County":1.0,"City":1.0,"District":1.0,"Street":[1.0],"HouseNumber":1.0,"PostalCode":1.0},"MatchType":"interpolated","Location":{"LocationId":"NT_scYkzxz6cMOTbs.lQ5gywA_4IE","LocationType":"point","DisplayPosition":{"Latitude":49.16612,"Longitude":8.41399},"MapView":{"TopLeft":{"Latitude":49.1672442,"Longitude":8.4122708},"BottomRight":{"Latitude":49.1649958,"Longitude":8.4157092}},"Address":{"Label":"Wiesenstraße 8B, 76706 Dettenheim, Deutschland","Country":"DEU","State":"Baden-Württemberg","County":"Karlsruhe (Landkreis)","City":"Dettenheim","District":"Liedolsheim","Street":"Wiesenstraße","HouseNumber":"8B","PostalCode":"76706","AdditionalData":[{"value":"Deutschland","key":"CountryName"},{"value":"Baden-Württemberg","key":"StateName"},{"value":"Karlsruhe (Landkreis)","key":"CountyName"}]},"MapReference":{"ReferenceId":"563903265","Spot":0.29,"SideOfStreet":"right","CountryId":"20147700","StateId":"20171489","CountyId":"20173258","CityId":"20173418","DistrictId":"20173421","AddressId":"180405227","RoadLinkId":"38977894"}}},{"Relevance":1.0,"Distance":87.9,"MatchLevel":"houseNumber","MatchQuality":{"Country":1.0,"State":1.0,"County":1.0,"City":1.0,"District":1.0,"Street":[1.0],"HouseNumber":1.0,"PostalCode":1.0},"MatchType":"interpolated","Location":{"LocationId":"NT_scYkzxz6cMOTbs.lQ5gywA_xAD","LocationType":"point","DisplayPosition":{"Latitude":49.16638,"Longitude":8.41473},"MapView":{"TopLeft":{"Latitude":49.1675042,"Longitude":8.4130108},"BottomRight":{"Latitude":49.1652558,"Longitude":8.4164492}},"Address":{"Label":"Wiesenstraße 10, 76706 Dettenheim, Deutschland","Country":"DEU","State":"Baden-Württemberg","County":"Karlsruhe (Landkreis)","City":"Dettenheim","District":"Liedolsheim","Street":"Wiesenstraße","HouseNumber":"10","PostalCode":"76706","AdditionalData":[{"value":"Deutschland","key":"CountryName"},{"value":"Baden-Württemberg","key":"StateName"},{"value":"Karlsruhe (Landkreis)","key":"CountyName"}]},"MapReference":{"ReferenceId":"72822614","Spot":0.32,"SideOfStreet":"right","CountryId":"20147700","StateId":"20171489","CountyId":"20173258","CityId":"20173418","DistrictId":"20173421","AddressId":"180165255","RoadLinkId":"38187867"}}},{"Relevance":1.0,"Distance":96.2,"MatchLevel":"houseNumber","MatchQuality":{"Country":1.0,"State":1.0,"County":1.0,"City":1.0,"District":1.0,"Street":[1.0],"HouseNumber":1.0,"PostalCode":1.0},"MatchType":"interpolated","Location":{"LocationId":"NT_IOJaNNpzEtN9OvmnzTPt6C_xIDN","LocationType":"point","DisplayPosition":{"Latitude":49.16582,"Longitude":8.41618},"MapView":{"TopLeft":{"Latitude":49.1669442,"Longitude":8.4144608},"BottomRight":{"Latitude":49.1646958,"Longitude":8.4178992}},"Address":{"Label":"Hauptstraße 124, 76706 Dettenheim, Deutschland","Country":"DEU","State":"Baden-Württemberg","County":"Karlsruhe (Landkreis)","City":"Dettenheim","District":"Liedolsheim","Street":"Hauptstraße","HouseNumber":"124","PostalCode":"76706","AdditionalData":[{"value":"Deutschland","key":"CountryName"},{"value":"Baden-Württemberg","key":"StateName"},{"value":"Karlsruhe (Landkreis)","key":"CountyName"}]},"MapReference":{"ReferenceId":"808973396","Spot":0.17,"SideOfStreet":"right","CountryId":"20147700","StateId":"20171489","CountyId":"20173258","CityId":"20173418","DistrictId":"20173421","AddressId":"177470553","RoadLinkId":"196309478"}}},{"Relevance":1.0,"Distance":97.0,"MatchLevel":"houseNumber","MatchQuality":{"Country":1.0,"State":1.0,"County":1.0,"City":1.0,"District":1.0,"Street":[1.0],"HouseNumber":1.0,"PostalCode":1.0},"MatchType":"interpolated","Location":{"LocationId":"NT_VHTHyls7EibImjMrxbpZmC_zA","LocationType":"point","DisplayPosition":{"Latitude":49.16539,"Longitude":8.41349},"MapView":{"TopLeft":{"Latitude":49.1665142,"Longitude":8.4117708},"BottomRight":{"Latitude":49.1642658,"Longitude":8.4152092}},"Address":{"Label":"Am Steinacker 3, 76706 Dettenheim, Deutschland","Country":"DEU","State":"Baden-Württemberg","County":"Karlsruhe (Landkreis)","City":"Dettenheim","District":"Liedolsheim","Street":"Am Steinacker","HouseNumber":"3","PostalCode":"76706","AdditionalData":[{"value":"Deutschland","key":"CountryName"},{"value":"Baden-Württemberg","key":"StateName"},{"value":"Karlsruhe (Landkreis)","key":"CountyName"}]},"MapReference":{"ReferenceId":"563903269","Spot":0.13,"SideOfStreet":"right","CountryId":"20147700","StateId":"20171489","CountyId":"20173258","CityId":"20173418","DistrictId":"20173421","AddressId":"180267322","RoadLinkId":"38147074"}}},{"Relevance":1.0,"Distance":100.6,"MatchLevel":"houseNumber","MatchQuality":{"Country":1.0,"State":1.0,"County":1.0,"City":1.0,"District":1.0,"Street":[1.0],"HouseNumber":1.0,"PostalCode":1.0},"MatchType":"interpolated","Location":{"LocationId":"NT_scYkzxz6cMOTbs.lQ5gywA_2A","LocationType":"point","DisplayPosition":{"Latitude":49.166,"Longitude":8.41364},"MapView":{"TopLeft":{"Latitude":49.1671242,"Longitude":8.4119208},"BottomRight":{"Latitude":49.1648758,"Longitude":8.4153592}},"Address":{"Label":"Wiesenstraße 6, 76706 Dettenheim, Deutschland","Country":"DEU","State":"Baden-Württemberg","County":"Karlsruhe (Landkreis)","City":"Dettenheim","District":"Liedolsheim","Street":"Wiesenstraße","HouseNumber":"6","PostalCode":"76706","AdditionalData":[{"value":"Deutschland","key":"CountryName"},{"value":"Baden-Württemberg","key":"StateName"},{"value":"Karlsruhe (Landkreis)","key":"CountyName"}]},"MapReference":{"ReferenceId":"563903268","Spot":0.79,"SideOfStreet":"right","CountryId":"20147700","StateId":"20171489","CountyId":"20173258","CityId":"20173418","DistrictId":"20173421","AddressId":"178633711","RoadLinkId":"38345911"}}}]}]}}