{"Response":{"MetaInfo":{"Timestamp":"2020-03-28T11:44:31.580+0000","NextPageInformation":"2"},"View":[{"_type":"SearchResultsViewType","ViewId":0,"Result":[{"Relevance":1.0,"Distance":0.0,"Direction":0.0,"MatchLevel":"district","MatchQuality":{"Country":1.0,"State":1.0,"County":1.0,"City":1.0,"District":1.0,"PostalCode":1.0},"Location":{"LocationId":"NT_7Jro0rtB4D9GEakFK3qudD","LocationType":"point","DisplayPosition":{"Latitude":49.115852,"Longitude":10.7561333},"MapView":{"TopLeft":{"Latitude":49.12726,"Longitude":10.7499},"BottomRight":{"Latitude":49.10149,"Longitude":10.78954}},"Address":{"Label":"Gunzenhausen, Bayern, Deutschland","Country":"DEU","State":"Bayern","County":"Weißenburg-Gunzenhausen","City":"Gunzenhausen","District":"Gunzenhausen","PostalCode":"91710","AdditionalData":[{"value":"Deutschland","key":"CountryName"},{"value":"Bayern","key":"StateName"},{"value":"Weißenburg-Gunzenhausen","key":"CountyName"}]},"MapReference":{"ReferenceId":"542186863","SideOfStreet":"neither","CountryId":"20147700","StateId":"20177250","CountyId":"20183802","CityId":"20183833","DistrictId":"20183835"}}},{"Relevance":1.0,"Distance":14.3,"MatchLevel":"houseNumber","MatchQuality":{"Country":1.0,"State":1.0,"County":1.0,"City":1.0,"District":1.0,"Street":[1.0],"HouseNumber":1.0,"PostalCode":1.0},"MatchType":"interpolated","Location":{"LocationId":"NT_8KujPuNUtrp0KCHbrgC46C_zA","LocationType":"point","DisplayPosition":{"Latitude":49.11562,"Longitude":10.75635},"MapView":{"TopLeft":{"Latitude":49.1167442,"Longitude":10.7546325},"BottomRight":{"Latitude":49.1144958,"Longitude":10.7580675}},"Address":{"Label":"Burgstallstraße 3, 91710 Gunzenhausen, Deutschland","Country":"DEU","State":"Bayern","County":"Weißenburg-Gunzenhausen","City":"Gunzenhausen","District":"Gunzenhausen","Street":"Burgstallstraße","HouseNumber":"3","PostalCode":"91710","AdditionalData":[{"value":"Deutschland","key":"CountryName"},{"value":"Bayern","key":"StateName"},{"value":"Weißenburg-Gunzenhausen","key":"CountyName"}]},"MapReference":{"ReferenceId":"542186960","Spot":0.46,"SideOfStreet":"left","CountryId":"20147700","StateId":"20177250","CountyId":"20183802","CityId":"20183833","DistrictId":"20183835","AddressId":"183474879","RoadLinkId":"32434975"}}},{"Relevance":1.0,"Distance":20.0,"MatchLevel":"houseNumber","MatchQuality":{"Country":1.0,"State":1.0,"County":1.0,"City":1.0,"District":1.0,"Street":[1.0],"HouseNumber":1.0,"PostalCode":1.0},"MatchType":"interpolated","Location":{"LocationId":"NT_9bfFk.Tw8VMcZtGJXNR.4A_0A","LocationType":"point","DisplayPosition":{"Latitude":49.11614,"Longitude":10.75608},"MapView":{"TopLeft":{"Latitude":49.1172642,"Longitude":10.7543625},"BottomRight":{"Latitude":49.1150158,"Longitude":10.7577975}},"Address":{"Label":"Hensoltstraße 4, 91710 Gunzenhausen, Deutschland","Country":"DEU","State":"Bayern","County":"Weißenburg-Gunzenhausen","City":"Gunzenhausen","District":"Gunzenhausen","Street":"Hensoltstraße","HouseNumber":"4","PostalCode":"91710","AdditionalData":[{"value":"Deutschland","key":"CountryName"},{"value":"Bayern","key":"StateName"},{"value":"Weißenburg-Gunzenhausen","key":"CountyName"}]},"MapReference":{"ReferenceId":"542190347","Spot":0.66,"SideOfStreet":"right","CountryId":"20147700","StateId":"20177250","CountyId":"20183802","CityId":"20183833","DistrictId":"20183835","AddressId":"183521916","RoadLinkId":"33120780"}}},{"Relevance":1.0,"Distance":53.5,"MatchLevel":"houseNumber","MatchQuality":{"Country":1.0,"State":1.0,"County":1.0,"City":1.0,"District":1.0,"Street":[1.0],"HouseNumber":1.0,"PostalCode":1.0},"MatchType":"interpolated","Location":{"LocationId":"NT_M1rhTbetHwVQCSv7udRcWD_xA","LocationType":"point","DisplayPosition":{"Latitude":49.11533,"Longitude":10.75576},"MapView":{"TopLeft":{"Latitude":49.1164542,"Longitude":10.7540425},"BottomRight":{"Latitude":49.1142058,"Longitude":10.7574775}},"Address":{"Label":"Bühringerstraße 1, 91710 Gunzenhausen, Deutschland","Country":"DEU","State":"Bayern","County":"Weißenburg-Gunzenhausen","City":"Gunzenhausen","District":"Gunzenhausen","Street":"Bühringerstraße","HouseNumber":"1","PostalCode":"91710","AdditionalData":[{"value":"Deutschland","key":"CountryName"},{"value":"Bayern","key":"StateName"},{"value":"Weißenburg-Gunzenhausen","key":"CountyName"}]},"MapReference":{"ReferenceId":"542187132","Spot":0.74,"SideOfStreet":"right","CountryId":"20147700","StateId":"20177250","CountyId":"20183802","CityId":"20183833","DistrictId":"20183835","AddressId":"186026204","RoadLinkId":"33666457"}}},{"Relevance":1.0,"Distance":56.3,"MatchLevel":"houseNumber","MatchQuality":{"Country":1.0,"State":1.0,"County":1.0,"City":1.0,"District":1.0,"Street":[1.0],"HouseNumber":1.0,"PostalCode":1.0},"MatchType":"interpolated","Location":{"LocationId":"NT_wJNSkc.zO4v7WFrBcfJoHB_0A","LocationType":"point","DisplayPosition":{"Latitude":49.11573,"Longitude":10.75519},"MapView":{"TopLeft":{"Latitude":49.1168542,"Longitude":10.7534725},"BottomRight":{"Latitude":49.1146058,"Longitude":10.7569075}},"Address":{"Label":"Dr.-Martin-Luther-Platz 4, 91710 Gunzenhausen, Deutschland","Country":"DEU","State":"Bayern","County":"Weißenburg-Gunzenhausen","City":"Gunzenhausen","District":"Gunzenhausen","Street":"Dr.-Martin-Luther-Platz","HouseNumber":"4","PostalCode":"91710","AdditionalData":[{"value":"Deutschland","key":"CountryName"},{"value":"Bayern","key":"StateName"},{"value":"Weißenburg-Gunzenhausen","key":"CountyName"}]},"MapReference":{"ReferenceId":"83533587","Spot":0.54,"SideOfStreet":"right","CountryId":"20147700","StateId":"20177250","CountyId":"20183802","CityId":"20183833","DistrictId":"20183835","AddressId":"185902482","RoadLinkId":"32922760"}}},{"Relevance":1.0,"Distance":68.1,"MatchLevel":"houseNumber","MatchQuality":{"Country":1.0,"State":1.0,"County":1.0,"City":1.0,"District":1.0,"Street":[1.0],"HouseNumber":1.0,"PostalCode":1.0},"MatchType":"interpolated","Location":{"LocationId":"NT_3xhw9qUH57E6z1y65RcjhB_yA","LocationType":"point","DisplayPosition":{"Latitude":49.1158,"Longitude":10.75718},"MapView":{"TopLeft":{"Latitude":49.1169242,"Longitude":10.7554625},"BottomRight":{"Latitude":49.1146758,"Longitude":10.7588975}},"Address":{"Label":"Luitpoldstraße 2, 91710 Gunzenhausen, Deutschland","Country":"DEU","State":"Bayern","County":"Weißenburg-Gunzenhausen","City":"Gunzenhausen","District":"Gunzenhausen","Street":"Luitpoldstraße","HouseNumber":"2","PostalCode":"91710","AdditionalData":[{"value":"Deutschland","key":"CountryName"},{"value":"Bayern","key":"StateName"},{"value":"Weißenburg-Gunzenhausen","key":"CountyName"}]},"MapReference":{"ReferenceId":"542186946","Spot":0.92,"SideOfStreet":"left","CountryId":"20147700","StateId":"20177250","CountyId":"20183802","CityId":"20183833","DistrictId":"20183835","AddressId":"182021272","RoadLinkId":"33467092"}}},{"Relevance":1.0,"Distance":73.3,"MatchLevel":"houseNumber","MatchQuality":{"Country":1.0,"State":1.0,"County":1.0,"City":1.0,"District":1.0,"Street":[1.0],"HouseNumber":1.0,"PostalCode":1.0},"MatchType":"interpolated","Location":{"LocationId":"NT_aOasZCVPG1q6p5lEBbHVBC_xA","LocationType":"point","DisplayPosition":{"Latitude":49.11641,"Longitude":10.75667},"MapView":{"TopLeft":{"Latitude":49.1175342,"Longitude":10.7549525},"BottomRight":{"Latitude":49.1152858,"Longitude":10.7583875}},"Address":{"Label":"Seckendorffstraße 1, 91710 Gunzenhausen, Deutschland","Country":"DEU","State":"Bayern","County":"Weißenburg-Gunzenhausen","City":"Gunzenhausen","District":"Gunzenhausen","Street":"Seckendorffstraße","HouseNumber":"1","PostalCode":"91710","AdditionalData":[{"value":"Deutschland","key":"CountryName"},{"value":"Bayern","key":"StateName"},{"value":"Weißenburg-Gunzenhausen","key":"CountyName"}]},"MapReference":{"ReferenceId":"542190269","Spot":0.15,"SideOfStreet":"left","CountryId":"20147700","StateId":"20177250","CountyId":"20183802","CityId":"20183833","DistrictId":"20183835","AddressId":"186018198","RoadLinkId":"32739386"}}},{"Relevance":1.0,"Distance":80.2,"MatchLevel":"houseNumber","MatchQuality":{"Country":1.0,"State":1.0,"County":1.0,"City":1.0,"District":1.0,"Street":[1.0],"HouseNumber":1.0,"PostalCode":1.0},"MatchType":"interpolated","Location":{"LocationId":"NT_8KujPuNUtrp0KCHbrgC46C_5A","LocationType":"point","DisplayPosition":{"Latitude":49.11587,"Longitude":10.75728},"MapView":{"TopLeft":{"Latitude":49.1169942,"Longitude":10.7555625},"BottomRight":{"Latitude":49.1147458,"Longitude":10.7589975}},"Address":{"Label":"Burgstallstraße 9, 91710 Gunzenhausen, Deutschland","Country":"DEU","State":"Bayern","County":"Weißenburg-Gunzenhausen","City":"Gunzenhausen","District":"Gunzenhausen","Street":"Burgstallstraße","HouseNumber":"9","PostalCode":"91710","AdditionalData":[{"value":"Deutschland","key":"CountryName"},{"value":"Bayern","key":"StateName"},{"value":"Weißenburg-Gunzenhausen","key":"CountyName"}]},"MapReference":{"ReferenceId":"1195143454","Spot":0.18,"SideOfStreet":"left","CountryId":"20147700","StateId":"20177250","CountyId":"20183802","CityId":"20183833","DistrictId":"20183835","AddressId":"249278835","RoadLinkId":"505293457"}}},{"Relevance":1.0,"Distance":82.0,"MatchLevel":"houseNumber","MatchQuality":{"Country":1.0,"State":1.0,"County":1.0,"City":1.0,"District":1.0,"Street":[1.0],"HouseNumber":1.0,"PostalCode":1.0},"MatchType":"interpolated","Location":{"LocationId":"NT_wJNSkc.zO4v7WFrBcfJoHB_xA","LocationType":"point","DisplayPosition":{"Latitude":49.11531,"Longitude":10.75537},"MapView":{"TopLeft":{"Latitude":49.1164342,"Longitude":10.7536525},"BottomRight":{"Latitude":49.1141858,"Longitude":10.7570875}},"Address":{"Label":"Dr.-Martin-Luther-Platz 1, 91710 Gunzenhausen, Deutschland","Country":"DEU","State":"Bayern","County":"Weißenburg-Gunzenhausen","City":"Gunzenhausen","District":"Gunzenhausen","Street":"Dr.-Martin-Luther-Platz","HouseNumber":"1","PostalCode":"91710","AdditionalData":[{"value":"Deutschland","key":"CountryName"},{"value":"Bayern","key":"StateName"},{"value":"Weißenburg-Gunzenhausen","key":"CountyName"}]},"MapReference":{"ReferenceId":"542186948","Spot":0.43,"SideOfStreet":"left","CountryId":"20147700","StateId":"20177250","CountyId":"20183802","CityId":"20183833","DistrictId":"20183835","AddressId":"184637500","RoadLinkId":"33247430"}}},{"Relevance":1.0,"Distance":82.7,"MatchLevel":"houseNumber","MatchQuality":{"Country":1.0,"State":1.0,"County":1.0,"City":1.0,"District":1.0,"Street":[1.0],"HouseNumber":1.0,"PostalCode":1.0},"MatchType":"interpolated","Location":{"LocationId":"NT_9bfFk.Tw8VMcZtGJXNR.4A_xAD","LocationType":"point","DisplayPosition":{"Latitude":49.11618,"Longitude":10.7572},"MapView":{"TopLeft":{"Latitude":49.1173042,"Longitude":10.7554825},"BottomRight":{"Latitude":49.1150558,"Longitude":10.7589175}},"Address":{"Label":"Hensoltstraße 10, 91710 Gunzenhausen, Deutschland","Country":"DEU","State":"Bayern","County":"Weißenburg-Gunzenhausen","City":"Gunzenhausen","District":"Gunzenhausen","Street":"Hensoltstraße","HouseNumber":"10","PostalCode":"91710","AdditionalData":[{"value":"Deutschland","key":"CountryName"},{"value":"Bayern","key":"StateName"},{"value":"Weißenburg-Gunzenhausen","key":"CountyName"}]},"MapReference":{"ReferenceId":"542190348","Spot":0.67,"SideOfStreet":"left","CountryId":"20147700","StateId":"20177250","CountyId":"20183802","CityId":"20183833","DistrictId":"20183835","AddressId":"182052172","RoadLinkId":"33129640"}}}]}]}}