{"Response":{"MetaInfo":{"Timestamp":"2020-03-28T11:41:57.190+0000","NextPageInformation":"2"},"View":[{"_type":"SearchResultsViewType","ViewId":0,"Result":[{"Relevance":1.0,"Distance":0.0,"Direction":0.0,"MatchLevel":"district","MatchQuality":{"Country":1.0,"State":1.0,"County":1.0,"City":1.0,"District":1.0,"PostalCode":1.0},"Location":{"LocationId":"NT_UeLFzzSe2px.pSz.2t2AlB","LocationType":"point","DisplayPosition":{"Latitude":49.1300895,"Longitude":10.0559822},"MapView":{"TopLeft":{"Latitude":49.1505,"Longitude":10.02611},"BottomRight":{"Latitude":49.12164,"Longitude":10.09314}},"Address":{"Label":"Crailsheim, Baden-Württemberg, Deutschland","Country":"DEU","State":"Baden-Württemberg","County":"Schwäbisch Hall","City":"Crailsheim","District":"Crailsheim","PostalCode":"74564","AdditionalData":[{"value":"Deutschland","key":"CountryName"},{"value":"Baden-Württemberg","key":"StateName"},{"value":"Schwäbisch Hall","key":"CountyName"}]},"MapReference":{"ReferenceId":"906609557","SideOfStreet":"neither","CountryId":"20147700","StateId":"20171489","CountyId":"20172627","CityId":"20172649","DistrictId":"20172660"}}},{"Relevance":1.0,"Distance":24.6,"MatchLevel":"houseNumber","MatchQuality":{"Country":1.0,"State":1.0,"County":1.0,"City":1.0,"District":1.0,"Street":[1.0],"HouseNumber":1.0,"PostalCode":1.0},"MatchType":"interpolated","Location":{"LocationId":"NT_.HSUXo1fRNdquK1duqFAuA_3YD","LocationType":"point","DisplayPosition":{"Latitude":49.13002,"Longitude":10.05649},"MapView":{"TopLeft":{"Latitude":49.1311442,"Longitude":10.054772},"BottomRight":{"Latitude":49.1288958,"Longitude":10.058208}},"Address":{"Label":"Gaildorfer Straße 76, 74564 Crailsheim, Deutschland","Country":"DEU","State":"Baden-Württemberg","County":"Schwäbisch Hall","City":"Crailsheim","District":"Crailsheim","Street":"Gaildorfer Straße","HouseNumber":"76","PostalCode":"74564","AdditionalData":[{"value":"Deutschland","key":"CountryName"},{"value":"Baden-Württemberg","key":"StateName"},{"value":"Schwäbisch Hall","key":"CountyName"}]},"MapReference":{"ReferenceId":"1198279854","Spot":0.04,"SideOfStreet":"left","CountryId":"20147700","StateId":"20171489","CountyId":"20172627","CityId":"20172649","DistrictId":"20172660","AddressId":"179716451","RoadLinkId":"509458896"}}},{"Relevance":1.0,"Distance":27.6,"MatchLevel":"houseNumber","MatchQuality":{"Country":1.0,"State":1.0,"County":1.0,"City":1.0,"District":1.0,"Street":[1.0],"HouseNumber":1.0,"PostalCode":1.0},"MatchType":"interpolated","Location":{"LocationId":"NT_.HSUXo1fRNdquK1duqFAuA_3gD","LocationType":"point","DisplayPosition":{"Latitude":49.12978,"Longitude":10.05616},"MapView":{"TopLeft":{"Latitude":49.1309042,"Longitude":10.054442},"BottomRight":{"Latitude":49.1286558,"Longitude":10.057878}},"Address":{"Label":"Gaildorfer Straße 78, 74564 Crailsheim, Deutschland","Country":"DEU","State":"Baden-Württemberg","County":"Schwäbisch Hall","City":"Crailsheim","District":"Crailsheim","Street":"Gaildorfer Straße","HouseNumber":"78","PostalCode":"74564","AdditionalData":[{"value":"Deutschland","key":"CountryName"},{"value":"Baden-Württemberg","key":"StateName"},{"value":"Schwäbisch Hall","key":"CountyName"}]},"MapReference":{"ReferenceId":"540851162","Spot":0.94,"SideOfStreet":"left","CountryId":"20147700","StateId":"20171489","CountyId":"20172627","CityId":"20172649","DistrictId":"20172660","AddressId":"179887876","RoadLinkId":"38940894"}}},{"Relevance":1.0,"Distance":31.7,"MatchLevel":"landmark","MatchQuality":{"Country":1.0,"State":1.0,"County":1.0,"City":1.0,"District":1.0,"PostalCode":1.0,"Name":1.0},"Location":{"LocationId":"NT_bhj1B470Cu0Dy8.9dFnVlA","LocationType":"industrialComplex","Name":"Gewerbegebiet Flügelau","DisplayPosition":{"Latitude":49.12869,"Longitude":10.03876},"MapView":{"TopLeft":{"Latitude":49.13293,"Longitude":10.02611},"BottomRight":{"Latitude":49.12445,"Longitude":10.05676}},"Address":{"Label":"74564 Crailsheim, Deutschland","Country":"DEU","State":"Baden-Württemberg","County":"Schwäbisch Hall","City":"Crailsheim","District":"Crailsheim","PostalCode":"74564","AdditionalData":[{"value":"Deutschland","key":"CountryName"},{"value":"Baden-Württemberg","key":"StateName"},{"value":"Schwäbisch Hall","key":"CountyName"}]},"MapReference":{"CountryId":"20147700","StateId":"20171489","CountyId":"20172627","CityId":"20172649","DistrictId":"20172660","PlaceId":"1410193157"}}},{"Relevance":1.0,"Distance":32.8,"MatchLevel":"houseNumber","MatchQuality":{"Country":1.0,"State":1.0,"County":1.0,"City":1.0,"District":1.0,"Street":[1.0],"HouseNumber":1.0,"PostalCode":1.0},"MatchType":"interpolated","Location":{"LocationId":"NT_6VzfLnbsx6TcVEwjf0SRWC_xA","LocationType":"point","DisplayPosition":{"Latitude":49.13041,"Longitude":10.05579},"MapView":{"TopLeft":{"Latitude":49.1315342,"Longitude":10.054072},"BottomRight":{"Latitude":49.1292858,"Longitude":10.057508}},"Address":{"Label":"Zur Flügelau 1, 74564 Crailsheim, Deutschland","Country":"DEU","State":"Baden-Württemberg","County":"Schwäbisch Hall","City":"Crailsheim","District":"Crailsheim","Street":"Zur Flügelau","HouseNumber":"1","PostalCode":"74564","AdditionalData":[{"value":"Deutschland","key":"CountryName"},{"value":"Baden-Württemberg","key":"StateName"},{"value":"Schwäbisch Hall","key":"CountyName"}]},"MapReference":{"ReferenceId":"540851135","Spot":0.68,"SideOfStreet":"left","CountryId":"20147700","StateId":"20171489","CountyId":"20172627","CityId":"20172649","DistrictId":"20172660","AddressId":"178204682","RoadLinkId":"38328288"}}},{"Relevance":1.0,"Distance":34.0,"MatchLevel":"houseNumber","MatchQuality":{"Country":1.0,"State":1.0,"County":1.0,"City":1.0,"District":1.0,"Street":[1.0],"HouseNumber":1.0,"PostalCode":1.0},"MatchType":"interpolated","Location":{"LocationId":"NT_.HSUXo1fRNdquK1duqFAuA_3UD","LocationType":"point","DisplayPosition":{"Latitude":49.12991,"Longitude":10.05636},"MapView":{"TopLeft":{"Latitude":49.1310342,"Longitude":10.054642},"BottomRight":{"Latitude":49.1287858,"Longitude":10.058078}},"Address":{"Label":"Gaildorfer Straße 75, 74564 Crailsheim, Deutschland","Country":"DEU","State":"Baden-Württemberg","County":"Schwäbisch Hall","City":"Crailsheim","District":"Crailsheim","Street":"Gaildorfer Straße","HouseNumber":"75","PostalCode":"74564","AdditionalData":[{"value":"Deutschland","key":"CountryName"},{"value":"Baden-Württemberg","key":"StateName"},{"value":"Schwäbisch Hall","key":"CountyName"}]},"MapReference":{"ReferenceId":"1198279853","Spot":0.15,"SideOfStreet":"right","CountryId":"20147700","StateId":"20171489","CountyId":"20172627","CityId":"20172649","DistrictId":"20172660","AddressId":"180430183","RoadLinkId":"509458895"}}},{"Relevance":1.0,"Distance":34.2,"MatchLevel":"street","MatchQuality":{"Country":1.0,"State":1.0,"County":1.0,"City":1.0,"District":1.0,"Street":[1.0],"PostalCode":1.0},"Location":{"LocationId":"NT_xu0t-D30VAHg71Yw39cssB_l_540851159_L","LocationType":"point","DisplayPosition":{"Latitude":49.12989,"Longitude":10.05634},"MapView":{"TopLeft":{"Latitude":49.12989,"Longitude":10.05634},"BottomRight":{"Latitude":49.12973,"Longitude":10.05638}},"Address":{"Label":"Gutenbergstraße, 74564 Crailsheim, Deutschland","Country":"DEU","State":"Baden-Württemberg","County":"Schwäbisch Hall","City":"Crailsheim","District":"Crailsheim","Street":"Gutenbergstraße","PostalCode":"74564","AdditionalData":[{"value":"Deutschland","key":"CountryName"},{"value":"Baden-Württemberg","key":"StateName"},{"value":"Schwäbisch Hall","key":"CountyName"}]},"MapReference":{"ReferenceId":"540851159","Spot":1.0,"SideOfStreet":"left","CountryId":"20147700","StateId":"20171489","CountyId":"20172627","CityId":"20172649","DistrictId":"20172660"}}},{"Relevance":1.0,"Distance":53.5,"MatchLevel":"street","MatchQuality":{"Country":1.0,"State":1.0,"County":1.0,"City":1.0,"District":1.0,"Street":[1.0],"PostalCode":1.0},"Location":{"LocationId":"NT_t4lrLbjgcymITrTF8wO7-A_l_540851160_L","LocationType":"point","DisplayPosition":{"Latitude":49.13026,"Longitude":10.05667},"MapView":{"TopLeft":{"Latitude":49.13026,"Longitude":10.05667},"BottomRight":{"Latitude":49.13015,"Longitude":10.05696}},"Address":{"Label":"Reinthalerstraße, 74564 Crailsheim, Deutschland","Country":"DEU","State":"Baden-Württemberg","County":"Schwäbisch Hall","City":"Crailsheim","District":"Crailsheim","Street":"Reinthalerstraße","PostalCode":"74564","AdditionalData":[{"value":"Deutschland","key":"CountryName"},{"value":"Baden-Württemberg","key":"StateName"},{"value":"Schwäbisch Hall","key":"CountyName"}]},"MapReference":{"ReferenceId":"540851160","Spot":1.0,"SideOfStreet":"left","CountryId":"20147700","StateId":"20171489","CountyId":"20172627","CityId":"20172649","DistrictId":"20172660"}}},{"Relevance":1.0,"Distance":53.5,"MatchLevel":"street","MatchQuality":{"Country":1.0,"State":1.0,"County":1.0,"City":1.0,"District":1.0,"Street":[1.0],"PostalCode":1.0},"Location":{"LocationId":"NT_eNB7oTG2ZzhumfR9NToiIC_l_1198274206_L","LocationType":"point","DisplayPosition":{"Latitude":49.13026,"Longitude":10.05667},"MapView":{"TopLeft":{"Latitude":49.13071,"Longitude":10.05667},"BottomRight":{"Latitude":49.13026,"Longitude":10.05675}},"Address":{"Label":"Gaildorfer Straße, 74564 Crailsheim, Deutschland","Country":"DEU","State":"Baden-Württemberg","County":"Schwäbisch Hall","City":"Crailsheim","District":"Crailsheim","Street":"Gaildorfer Straße","PostalCode":"74564","AdditionalData":[{"value":"Deutschland","key":"CountryName"},{"value":"Baden-Württemberg","key":"StateName"},{"value":"Schwäbisch Hall","key":"CountyName"}]},"MapReference":{"ReferenceId":"1198274206","Spot":0.0,"SideOfStreet":"left","CountryId":"20147700","StateId":"20171489","CountyId":"20172627","CityId":"20172649","DistrictId":"20172660"}}},{"Relevance":1.0,"Distance":54.9,"MatchLevel":"houseNumber","MatchQuality":{"Country":1.0,"State":1.0,"County":1.0,"City":1.0,"District":1.0,"Street":[1.0],"HouseNumber":1.0,"PostalCode":1.0},"MatchType":"interpolated","Location":{"LocationId":"NT_R4UTYEo2WxAXB7x33MYYmD_1A","LocationType":"point","DisplayPosition":{"Latitude":49.12973,"Longitude":10.0565},"MapView":{"TopLeft":{"Latitude":49.1308542,"Longitude":10.054782},"BottomRight":{"Latitude":49.1286058,"Longitude":10.058218}},"Address":{"Label":"Bachweg 5, 74564 Crailsheim, Deutschland","Country":"DEU","State":"Baden-Württemberg","County":"Schwäbisch Hall","City":"Crailsheim","District":"Crailsheim","Street":"Bachweg","HouseNumber":"5","PostalCode":"74564","AdditionalData":[{"value":"Deutschland","key":"CountryName"},{"value":"Baden-Württemberg","key":"StateName"},{"value":"Schwäbisch Hall","key":"CountyName"}]},"MapReference":{"ReferenceId":"540851188","Spot":0.12,"SideOfStreet":"right","CountryId":"20147700","StateId":"20171489","CountyId":"20172627","CityId":"20172649","DistrictId":"20172660","AddressId":"177535351","RoadLinkId":"38340690"}}}]}]}}