{"Response":{"MetaInfo":{"Timestamp":"2020-03-28T11:45:04.064+0000","NextPageInformation":"2"},"View":[{"_type":"SearchResultsViewType","ViewId":0,"Result":[{"Relevance":1.0,"Distance":0.0,"Direction":0.0,"MatchLevel":"district","MatchQuality":{"Country":1.0,"State":1.0,"County":1.0,"City":1.0,"District":1.0,"PostalCode":1.0},"Location":{"LocationId":"NT_fepLV8KvF8LSSzwwy2MQ.B","LocationType":"point","DisplayPosition":{"Latitude":49.1983518,"Longitude":13.0489335},"MapView":{"TopLeft":{"Latitude":49.20598,"Longitude":13.04212},"BottomRight":{"Latitude":49.185,"Longitude":13.05797}},"Address":{"Label":"Lam, Bayern, Deutschland","Country":"DEU","State":"Bayern","County":"Cham","City":"Lam","District":"Lam","PostalCode":"93462","AdditionalData":[{"value":"Deutschland","key":"CountryName"},{"value":"Bayern","key":"StateName"},{"value":"Cham","key":"CountyName"}]},"MapReference":{"ReferenceId":"1187284337","SideOfStreet":"neither","CountryId":"20147700","StateId":"20177250","CountyId":"20180962","CityId":"20181023","DistrictId":"20181025"}}},{"Relevance":1.0,"Distance":10.5,"MatchLevel":"houseNumber","MatchQuality":{"Country":1.0,"State":1.0,"County":1.0,"City":1.0,"District":1.0,"Street":[1.0],"HouseNumber":1.0,"PostalCode":1.0},"MatchType":"interpolated","Location":{"LocationId":"NT_t-zwVhalMiXtY.ifZG2JNA_yMD","LocationType":"point","DisplayPosition":{"Latitude":49.19842,"Longitude":13.04908},"MapView":{"TopLeft":{"Latitude":49.1995442,"Longitude":13.0473596},"BottomRight":{"Latitude":49.1972958,"Longitude":13.0508004}},"Address":{"Label":"Marktplatz 23, 93462 Lam, Deutschland","Country":"DEU","State":"Bayern","County":"Cham","City":"Lam","District":"Lam","Street":"Marktplatz","HouseNumber":"23","PostalCode":"93462","AdditionalData":[{"value":"Deutschland","key":"CountryName"},{"value":"Bayern","key":"StateName"},{"value":"Cham","key":"CountyName"}]},"MapReference":{"ReferenceId":"554314657","Spot":0.51,"SideOfStreet":"left","CountryId":"20147700","StateId":"20177250","CountyId":"20180962","CityId":"20181023","DistrictId":"20181025","AddressId":"183158256","RoadLinkId":"33710616"}}},{"Relevance":1.0,"Distance":24.9,"MatchLevel":"street","MatchQuality":{"Country":1.0,"State":1.0,"County":1.0,"City":1.0,"District":1.0,"Street":[1.0],"PostalCode":1.0},"Location":{"LocationId":"NT_uVJ1MN9V3LZtlqnCXvt6UA_l_554314659_L","LocationType":"point","DisplayPosition":{"Latitude":49.19824,"Longitude":13.04923},"MapView":{"TopLeft":{"Latitude":49.19834,"Longitude":13.04923},"BottomRight":{"Latitude":49.19824,"Longitude":13.04951}},"Address":{"Label":"Rosengasse, 93462 Lam, Deutschland","Country":"DEU","State":"Bayern","County":"Cham","City":"Lam","District":"Lam","Street":"Rosengasse","PostalCode":"93462","AdditionalData":[{"value":"Deutschland","key":"CountryName"},{"value":"Bayern","key":"StateName"},{"value":"Cham","key":"CountyName"}]},"MapReference":{"ReferenceId":"554314659","Spot":0.0,"SideOfStreet":"left","CountryId":"20147700","StateId":"20177250","CountyId":"20180962","CityId":"20181023","DistrictId":"20181025"}}},{"Relevance":1.0,"Distance":29.7,"MatchLevel":"houseNumber","MatchQuality":{"Country":1.0,"State":1.0,"County":1.0,"City":1.0,"District":1.0,"Street":[1.0],"HouseNumber":1.0,"PostalCode":1.0},"MatchType":"interpolated","Location":{"LocationId":"NT_t-zwVhalMiXtY.ifZG2JNA_yED","LocationType":"point","DisplayPosition":{"Latitude":49.19817,"Longitude":13.04928},"MapView":{"TopLeft":{"Latitude":49.1992942,"Longitude":13.0475597},"BottomRight":{"Latitude":49.1970458,"Longitude":13.0510003}},"Address":{"Label":"Marktplatz 21, 93462 Lam, Deutschland","Country":"DEU","State":"Bayern","County":"Cham","City":"Lam","District":"Lam","Street":"Marktplatz","HouseNumber":"21","PostalCode":"93462","AdditionalData":[{"value":"Deutschland","key":"CountryName"},{"value":"Bayern","key":"StateName"},{"value":"Cham","key":"CountyName"}]},"MapReference":{"ReferenceId":"554314656","Spot":0.92,"SideOfStreet":"left","CountryId":"20147700","StateId":"20177250","CountyId":"20180962","CityId":"20181023","DistrictId":"20181025","AddressId":"182738623","RoadLinkId":"32638320"}}},{"Relevance":1.0,"Distance":31.1,"MatchLevel":"houseNumber","MatchQuality":{"Country":1.0,"State":1.0,"County":1.0,"City":1.0,"District":1.0,"Street":[1.0],"HouseNumber":1.0,"PostalCode":1.0},"MatchType":"interpolated","Location":{"LocationId":"NT_t-zwVhalMiXtY.ifZG2JNA_xA","LocationType":"point","DisplayPosition":{"Latitude":49.19846,"Longitude":13.04943},"MapView":{"TopLeft":{"Latitude":49.1995842,"Longitude":13.0477096},"BottomRight":{"Latitude":49.1973358,"Longitude":13.0511504}},"Address":{"Label":"Marktplatz 1, 93462 Lam, Deutschland","Country":"DEU","State":"Bayern","County":"Cham","City":"Lam","District":"Lam","Street":"Marktplatz","HouseNumber":"1","PostalCode":"93462","AdditionalData":[{"value":"Deutschland","key":"CountryName"},{"value":"Bayern","key":"StateName"},{"value":"Cham","key":"CountyName"}]},"MapReference":{"ReferenceId":"554314662","Spot":0.56,"SideOfStreet":"left","CountryId":"20147700","StateId":"20177250","CountyId":"20180962","CityId":"20181023","DistrictId":"20181025","AddressId":"183082754","RoadLinkId":"32527730"}}},{"Relevance":1.0,"Distance":34.1,"MatchLevel":"houseNumber","MatchQuality":{"Country":1.0,"State":1.0,"County":1.0,"City":1.0,"District":1.0,"Street":[1.0],"HouseNumber":1.0,"PostalCode":1.0},"MatchType":"interpolated","Location":{"LocationId":"NT_FlWkhI9DuhH.4uZOyKUkNC_1A","LocationType":"point","DisplayPosition":{"Latitude":49.19862,"Longitude":13.04916},"MapView":{"TopLeft":{"Latitude":49.1997442,"Longitude":13.0474396},"BottomRight":{"Latitude":49.1974958,"Longitude":13.0508804}},"Address":{"Label":"Arberstraße 5, 93462 Lam, Deutschland","Country":"DEU","State":"Bayern","County":"Cham","City":"Lam","District":"Lam","Street":"Arberstraße","HouseNumber":"5","PostalCode":"93462","AdditionalData":[{"value":"Deutschland","key":"CountryName"},{"value":"Bayern","key":"StateName"},{"value":"Cham","key":"CountyName"}]},"MapReference":{"ReferenceId":"920458412","Spot":0.39,"SideOfStreet":"right","CountryId":"20147700","StateId":"20177250","CountyId":"20180962","CityId":"20181023","DistrictId":"20181025","AddressId":"183145107","RoadLinkId":"277356398"}}},{"Relevance":1.0,"Distance":34.3,"MatchLevel":"street","MatchQuality":{"Country":1.0,"State":1.0,"County":1.0,"City":1.0,"District":1.0,"Street":[1.0],"PostalCode":1.0},"Location":{"LocationId":"NT_bO.v-Wqn-rxurBBcBO2lBB_l_545116781_L","LocationType":"point","DisplayPosition":{"Latitude":49.19864,"Longitude":13.0491},"MapView":{"TopLeft":{"Latitude":49.19924,"Longitude":13.0491},"BottomRight":{"Latitude":49.19864,"Longitude":13.04932}},"Address":{"Label":"Lambacher Straße, 93462 Lam, Deutschland","Country":"DEU","State":"Bayern","County":"Cham","City":"Lam","District":"Lam","Street":"Lambacher Straße","PostalCode":"93462","AdditionalData":[{"value":"Deutschland","key":"CountryName"},{"value":"Bayern","key":"StateName"},{"value":"Cham","key":"CountyName"}]},"MapReference":{"ReferenceId":"545116781","Spot":0.0,"SideOfStreet":"left","CountryId":"20147700","StateId":"20177250","CountyId":"20180962","CityId":"20181023","DistrictId":"20181025"}}},{"Relevance":1.0,"Distance":34.6,"MatchLevel":"street","MatchQuality":{"Country":1.0,"State":1.0,"County":1.0,"City":1.0,"District":1.0,"Street":[1.0],"PostalCode":1.0},"Location":{"LocationId":"NT_FlWkhI9DuhH.4uZOyKUkNC_l_920458411_L","LocationType":"point","DisplayPosition":{"Latitude":49.19861,"Longitude":13.0492},"MapView":{"TopLeft":{"Latitude":49.19861,"Longitude":13.0492},"BottomRight":{"Latitude":49.19856,"Longitude":13.04938}},"Address":{"Label":"Arberstraße, 93462 Lam, Deutschland","Country":"DEU","State":"Bayern","County":"Cham","City":"Lam","District":"Lam","Street":"Arberstraße","PostalCode":"93462","AdditionalData":[{"value":"Deutschland","key":"CountryName"},{"value":"Bayern","key":"StateName"},{"value":"Cham","key":"CountyName"}]},"MapReference":{"ReferenceId":"920458411","Spot":1.0,"SideOfStreet":"left","CountryId":"20147700","StateId":"20177250","CountyId":"20180962","CityId":"20181023","DistrictId":"20181025"}}},{"Relevance":1.0,"Distance":43.7,"MatchLevel":"houseNumber","MatchQuality":{"Country":1.0,"State":1.0,"County":1.0,"City":1.0,"District":1.0,"Street":[1.0],"HouseNumber":1.0,"PostalCode":1.0},"MatchType":"interpolated","Location":{"LocationId":"NT_FlWkhI9DuhH.4uZOyKUkNC_3A","LocationType":"point","DisplayPosition":{"Latitude":49.19853,"Longitude":13.04947},"MapView":{"TopLeft":{"Latitude":49.1996542,"Longitude":13.0477496},"BottomRight":{"Latitude":49.1974058,"Longitude":13.0511904}},"Address":{"Label":"Arberstraße 7, 93462 Lam, Deutschland","Country":"DEU","State":"Bayern","County":"Cham","City":"Lam","District":"Lam","Street":"Arberstraße","HouseNumber":"7","PostalCode":"93462","AdditionalData":[{"value":"Deutschland","key":"CountryName"},{"value":"Bayern","key":"StateName"},{"value":"Cham","key":"CountyName"}]},"MapReference":{"ReferenceId":"1187284337","Spot":0.54,"SideOfStreet":"right","CountryId":"20147700","StateId":"20177250","CountyId":"20180962","CityId":"20181023","DistrictId":"20181025","AddressId":"184648131","RoadLinkId":"495955029"}}},{"Relevance":1.0,"Distance":56.9,"MatchLevel":"houseNumber","MatchQuality":{"Country":1.0,"State":1.0,"County":1.0,"City":1.0,"District":1.0,"Street":[1.0],"HouseNumber":1.0,"PostalCode":1.0},"MatchType":"interpolated","Location":{"LocationId":"NT_uVJ1MN9V3LZtlqnCXvt6UA_xgD","LocationType":"point","DisplayPosition":{"Latitude":49.19822,"Longitude":13.04969},"MapView":{"TopLeft":{"Latitude":49.1993442,"Longitude":13.0479697},"BottomRight":{"Latitude":49.1970958,"Longitude":13.0514103}},"Address":{"Label":"Rosengasse 18, 93462 Lam, Deutschland","Country":"DEU","State":"Bayern","County":"Cham","City":"Lam","District":"Lam","Street":"Rosengasse","HouseNumber":"18","PostalCode":"93462","AdditionalData":[{"value":"Deutschland","key":"CountryName"},{"value":"Bayern","key":"StateName"},{"value":"Cham","key":"CountyName"}]},"MapReference":{"ReferenceId":"554314658","Spot":0.68,"SideOfStreet":"right","CountryId":"20147700","StateId":"20177250","CountyId":"20180962","CityId":"20181023","DistrictId":"20181025","AddressId":"183104671","RoadLinkId":"32786118"}}}]}]}}