{"Response":{"MetaInfo":{"Timestamp":"2020-03-28T11:40:18.113+0000","NextPageInformation":"2"},"View":[{"_type":"SearchResultsViewType","ViewId":0,"Result":[{"Relevance":1.0,"Distance":0.0,"Direction":0.0,"MatchLevel":"district","MatchQuality":{"Country":1.0,"State":1.0,"County":1.0,"City":1.0,"District":1.0,"PostalCode":1.0},"Location":{"LocationId":"NT_eBlZmEqUZxH7XijH4qcjyC","LocationType":"point","DisplayPosition":{"Latitude":49.1534497,"Longitude":7.5500958},"MapView":{"TopLeft":{"Latitude":49.16431,"Longitude":7.54157},"BottomRight":{"Latitude":49.15037,"Longitude":7.56004}},"Address":{"Label":"Vinningen, Rheinland-Pfalz, Deutschland","Country":"DEU","State":"Rheinland-Pfalz","County":"Südwestpfalz","City":"Vinningen","District":"Vinningen","PostalCode":"66957","AdditionalData":[{"value":"Deutschland","key":"CountryName"},{"value":"Rheinland-Pfalz","key":"StateName"},{"value":"Südwestpfalz","key":"CountyName"}]},"MapReference":{"ReferenceId":"548192100","SideOfStreet":"neither","CountryId":"20147700","StateId":"20164001","CountyId":"20171222","CityId":"20171381","DistrictId":"20171383"}}},{"Relevance":1.0,"Distance":10.3,"MatchLevel":"houseNumber","MatchQuality":{"Country":1.0,"State":1.0,"County":1.0,"City":1.0,"District":1.0,"Street":[1.0],"HouseNumber":1.0,"PostalCode":1.0},"MatchType":"interpolated","Location":{"LocationId":"NT_2xkPGNlO1bBIzMyjL0N30D_yYD","LocationType":"point","DisplayPosition":{"Latitude":49.15327,"Longitude":7.55022},"MapView":{"TopLeft":{"Latitude":49.1543942,"Longitude":7.5485012},"BottomRight":{"Latitude":49.1521458,"Longitude":7.5519388}},"Address":{"Label":"Pirmasenser Straße 26, 66957 Vinningen, Deutschland","Country":"DEU","State":"Rheinland-Pfalz","County":"Südwestpfalz","City":"Vinningen","District":"Vinningen","Street":"Pirmasenser Straße","HouseNumber":"26","PostalCode":"66957","AdditionalData":[{"value":"Deutschland","key":"CountryName"},{"value":"Rheinland-Pfalz","key":"StateName"},{"value":"Südwestpfalz","key":"CountyName"}]},"MapReference":{"ReferenceId":"548192101","Spot":0.23,"SideOfStreet":"left","CountryId":"20147700","StateId":"20164001","CountyId":"20171222","CityId":"20171381","DistrictId":"20171383","AddressId":"187855204","RoadLinkId":"33933882"}}},{"Relevance":1.0,"Distance":45.7,"MatchLevel":"houseNumber","MatchQuality":{"Country":1.0,"State":1.0,"County":1.0,"City":1.0,"District":1.0,"Street":[1.0],"HouseNumber":1.0,"PostalCode":1.0},"MatchType":"interpolated","Location":{"LocationId":"NT_GtWWF8sGThRfA3lpOK.nsC_yME","LocationType":"point","DisplayPosition":{"Latitude":49.15379,"Longitude":7.54942},"MapView":{"TopLeft":{"Latitude":49.1549142,"Longitude":7.5477012},"BottomRight":{"Latitude":49.1526658,"Longitude":7.5511388}},"Address":{"Label":"Marktstraße 2C, 66957 Vinningen, Deutschland","Country":"DEU","State":"Rheinland-Pfalz","County":"Südwestpfalz","City":"Vinningen","District":"Vinningen","Street":"Marktstraße","HouseNumber":"2C","PostalCode":"66957","AdditionalData":[{"value":"Deutschland","key":"CountryName"},{"value":"Rheinland-Pfalz","key":"StateName"},{"value":"Südwestpfalz","key":"CountyName"}]},"MapReference":{"ReferenceId":"548184938","Spot":0.51,"SideOfStreet":"right","CountryId":"20147700","StateId":"20164001","CountyId":"20171222","CityId":"20171381","DistrictId":"20171383","AddressId":"188027223","RoadLinkId":"34352620"}}},{"Relevance":1.0,"Distance":58.1,"MatchLevel":"houseNumber","MatchQuality":{"Country":1.0,"State":1.0,"County":1.0,"City":1.0,"District":1.0,"Street":[1.0],"HouseNumber":1.0,"PostalCode":1.0},"MatchType":"interpolated","Location":{"LocationId":"NT_2xkPGNlO1bBIzMyjL0N30D_zAD","LocationType":"point","DisplayPosition":{"Latitude":49.15317,"Longitude":7.54937},"MapView":{"TopLeft":{"Latitude":49.1542942,"Longitude":7.5476512},"BottomRight":{"Latitude":49.1520458,"Longitude":7.5510888}},"Address":{"Label":"Pirmasenser Straße 30, 66957 Vinningen, Deutschland","Country":"DEU","State":"Rheinland-Pfalz","County":"Südwestpfalz","City":"Vinningen","District":"Vinningen","Street":"Pirmasenser Straße","HouseNumber":"30","PostalCode":"66957","AdditionalData":[{"value":"Deutschland","key":"CountryName"},{"value":"Rheinland-Pfalz","key":"StateName"},{"value":"Südwestpfalz","key":"CountyName"}]},"MapReference":{"ReferenceId":"548192100","Spot":0.92,"SideOfStreet":"left","CountryId":"20147700","StateId":"20164001","CountyId":"20171222","CityId":"20171381","DistrictId":"20171383","AddressId":"187939721","RoadLinkId":"33891357"}}},{"Relevance":1.0,"Distance":63.8,"MatchLevel":"houseNumber","MatchQuality":{"Country":1.0,"State":1.0,"County":1.0,"City":1.0,"District":1.0,"Street":[1.0],"HouseNumber":1.0,"PostalCode":1.0},"MatchType":"interpolated","Location":{"LocationId":"NT_iADeNKsubAjn7OWBkDGBEA_xMD","LocationType":"point","DisplayPosition":{"Latitude":49.1545,"Longitude":7.55046},"MapView":{"TopLeft":{"Latitude":49.1556242,"Longitude":7.5487412},"BottomRight":{"Latitude":49.1533758,"Longitude":7.5521788}},"Address":{"Label":"Kirchgartenstraße 13, 66957 Vinningen, Deutschland","Country":"DEU","State":"Rheinland-Pfalz","County":"Südwestpfalz","City":"Vinningen","District":"Vinningen","Street":"Kirchgartenstraße","HouseNumber":"13","PostalCode":"66957","AdditionalData":[{"value":"Deutschland","key":"CountryName"},{"value":"Rheinland-Pfalz","key":"StateName"},{"value":"Südwestpfalz","key":"CountyName"}]},"MapReference":{"ReferenceId":"548184896","Spot":0.97,"SideOfStreet":"right","CountryId":"20147700","StateId":"20164001","CountyId":"20171222","CityId":"20171381","DistrictId":"20171383","AddressId":"188151423","RoadLinkId":"33937016"}}},{"Relevance":1.0,"Distance":116.0,"MatchLevel":"houseNumber","MatchQuality":{"Country":1.0,"State":1.0,"County":1.0,"City":1.0,"District":1.0,"Street":[1.0],"HouseNumber":1.0,"PostalCode":1.0},"MatchType":"interpolated","Location":{"LocationId":"NT_iADeNKsubAjn7OWBkDGBEA_yED","LocationType":"point","DisplayPosition":{"Latitude":49.15435,"Longitude":7.549},"MapView":{"TopLeft":{"Latitude":49.1554742,"Longitude":7.5472812},"BottomRight":{"Latitude":49.1532258,"Longitude":7.5507188}},"Address":{"Label":"Kirchgartenstraße 21, 66957 Vinningen, Deutschland","Country":"DEU","State":"Rheinland-Pfalz","County":"Südwestpfalz","City":"Vinningen","District":"Vinningen","Street":"Kirchgartenstraße","HouseNumber":"21","PostalCode":"66957","AdditionalData":[{"value":"Deutschland","key":"CountryName"},{"value":"Rheinland-Pfalz","key":"StateName"},{"value":"Südwestpfalz","key":"CountyName"}]},"MapReference":{"ReferenceId":"548192097","Spot":0.7,"SideOfStreet":"right","CountryId":"20147700","StateId":"20164001","CountyId":"20171222","CityId":"20171381","DistrictId":"20171383","AddressId":"187910956","RoadLinkId":"34209527"}}},{"Relevance":1.0,"Distance":120.9,"MatchLevel":"houseNumber","MatchQuality":{"Country":1.0,"State":1.0,"County":1.0,"City":1.0,"District":1.0,"Street":[1.0],"HouseNumber":1.0,"PostalCode":1.0},"MatchType":"interpolated","Location":{"LocationId":"NT_iADeNKsubAjn7OWBkDGBEA_xED","LocationType":"point","DisplayPosition":{"Latitude":49.15452,"Longitude":7.55069},"MapView":{"TopLeft":{"Latitude":49.1556442,"Longitude":7.5489712},"BottomRight":{"Latitude":49.1533958,"Longitude":7.5524088}},"Address":{"Label":"Kirchgartenstraße 11, 66957 Vinningen, Deutschland","Country":"DEU","State":"Rheinland-Pfalz","County":"Südwestpfalz","City":"Vinningen","District":"Vinningen","Street":"Kirchgartenstraße","HouseNumber":"11","PostalCode":"66957","AdditionalData":[{"value":"Deutschland","key":"CountryName"},{"value":"Rheinland-Pfalz","key":"StateName"},{"value":"Südwestpfalz","key":"CountyName"}]},"MapReference":{"ReferenceId":"548184968","Spot":0.16,"SideOfStreet":"right","CountryId":"20147700","StateId":"20164001","CountyId":"20171222","CityId":"20171381","DistrictId":"20171383","AddressId":"622190445","RoadLinkId":"34670953"}}},{"Relevance":1.0,"Distance":131.2,"MatchLevel":"houseNumber","MatchQuality":{"Country":1.0,"State":1.0,"County":1.0,"City":1.0,"District":1.0,"Street":[1.0],"HouseNumber":1.0,"PostalCode":1.0},"MatchType":"interpolated","Location":{"LocationId":"NT_UfhiH.8TK00my8HrLovUIA_xA","LocationType":"point","DisplayPosition":{"Latitude":49.15464,"Longitude":7.55045},"MapView":{"TopLeft":{"Latitude":49.1557642,"Longitude":7.5487312},"BottomRight":{"Latitude":49.1535158,"Longitude":7.5521688}},"Address":{"Label":"Flurstraße 1, 66957 Vinningen, Deutschland","Country":"DEU","State":"Rheinland-Pfalz","County":"Südwestpfalz","City":"Vinningen","District":"Vinningen","Street":"Flurstraße","HouseNumber":"1","PostalCode":"66957","AdditionalData":[{"value":"Deutschland","key":"CountryName"},{"value":"Rheinland-Pfalz","key":"StateName"},{"value":"Südwestpfalz","key":"CountyName"}]},"MapReference":{"ReferenceId":"548184970","Spot":0.1,"SideOfStreet":"left","CountryId":"20147700","StateId":"20164001","CountyId":"20171222","CityId":"20171381","DistrictId":"20171383","AddressId":"188863754","RoadLinkId":"34839319"}}},{"Relevance":1.0,"Distance":132.1,"MatchLevel":"houseNumber","MatchQuality":{"Country":1.0,"State":1.0,"County":1.0,"City":1.0,"District":1.0,"Street":[1.0],"HouseNumber":1.0,"PostalCode":1.0},"MatchType":"interpolated","Location":{"LocationId":"NT_GtWWF8sGThRfA3lpOK.nsC_0A","LocationType":"point","DisplayPosition":{"Latitude":49.15452,"Longitude":7.54923},"MapView":{"TopLeft":{"Latitude":49.1556442,"Longitude":7.5475112},"BottomRight":{"Latitude":49.1533958,"Longitude":7.5509488}},"Address":{"Label":"Marktstraße 4, 66957 Vinningen, Deutschland","Country":"DEU","State":"Rheinland-Pfalz","County":"Südwestpfalz","City":"Vinningen","District":"Vinningen","Street":"Marktstraße","HouseNumber":"4","PostalCode":"66957","AdditionalData":[{"value":"Deutschland","key":"CountryName"},{"value":"Rheinland-Pfalz","key":"StateName"},{"value":"Südwestpfalz","key":"CountyName"}]},"MapReference":{"ReferenceId":"548184900","Spot":0.12,"SideOfStreet":"right","CountryId":"20147700","StateId":"20164001","CountyId":"20171222","CityId":"20171381","DistrictId":"20171383","AddressId":"188785412","RoadLinkId":"34494664"}}},{"Relevance":1.0,"Distance":155.6,"MatchLevel":"houseNumber","MatchQuality":{"Country":1.0,"State":1.0,"County":1.0,"City":1.0,"District":1.0,"Street":[1.0],"HouseNumber":1.0,"PostalCode":1.0},"MatchType":"interpolated","Location":{"LocationId":"NT_iADeNKsubAjn7OWBkDGBEA_yUD","LocationType":"point","DisplayPosition":{"Latitude":49.15431,"Longitude":7.5483},"MapView":{"TopLeft":{"Latitude":49.1554342,"Longitude":7.5465812},"BottomRight":{"Latitude":49.1531858,"Longitude":7.5500188}},"Address":{"Label":"Kirchgartenstraße 25, 66957 Vinningen, Deutschland","Country":"DEU","State":"Rheinland-Pfalz","County":"Südwestpfalz","City":"Vinningen","District":"Vinningen","Street":"Kirchgartenstraße","HouseNumber":"25","PostalCode":"66957","AdditionalData":[{"value":"Deutschland","key":"CountryName"},{"value":"Rheinland-Pfalz","key":"StateName"},{"value":"Südwestpfalz","key":"CountyName"}]},"MapReference":{"ReferenceId":"548192096","Spot":0.97,"SideOfStreet":"right","CountryId":"20147700","StateId":"20164001","CountyId":"20171222","CityId":"20171381","DistrictId":"20171383","AddressId":"188190848","RoadLinkId":"34299438"}}}]}]}}