{"Response":{"MetaInfo":{"Timestamp":"2020-03-28T11:36:57.254+0000","NextPageInformation":"2"},"View":[{"_type":"SearchResultsViewType","ViewId":0,"Result":[{"Relevance":1.0,"Distance":0.0,"Direction":0.0,"MatchLevel":"district","MatchQuality":{"Country":1.0,"State":1.0,"County":1.0,"City":1.0,"District":1.0,"PostalCode":1.0},"Location":{"LocationId":"NT_BxdGSdpBl7EnUhoBLGR4XC","LocationType":"point","DisplayPosition":{"Latitude":49.1327402,"Longitude":20.4280176},"MapView":{"TopLeft":{"Latitude":49.15517,"Longitude":20.40871},"BottomRight":{"Latitude":49.1238,"Longitude":20.44786}},"Address":{"Label":"Kežmarok, Prešovský kraj, Slovenská Republika","Country":"SVK","State":"Prešovský kraj","County":"Kežmarok","City":"Kežmarok","District":"Kežmarok","PostalCode":"060 01","AdditionalData":[{"value":"Slovenská Republika","key":"CountryName"},{"value":"Prešovský kraj","key":"StateName"},{"value":"Kežmarok","key":"CountyName"}]},"MapReference":{"ReferenceId":"1191199559","SideOfStreet":"neither","CountryId":"20428682","StateId":"20490226","CountyId":"20490525","CityId":"20490548","DistrictId":"22187104"}}},{"Relevance":1.0,"Distance":20.9,"MatchLevel":"landmark","MatchQuality":{"Country":1.0,"State":1.0,"County":1.0,"City":1.0,"District":1.0,"Street":[1.0],"PostalCode":1.0,"Name":1.0},"Location":{"LocationId":"NT_OhYyWlTFXklU-J9vHbEXxA_p_MWKcH1oLRXN1jGmbAm8qnC","LocationType":"park","Name":"Park Kežmarok","DisplayPosition":{"Latitude":49.13318,"Longitude":20.4288},"MapView":{"TopLeft":{"Latitude":49.13403,"Longitude":20.42726},"BottomRight":{"Latitude":49.13286,"Longitude":20.42897}},"Address":{"Label":"Hviezdoslavova, 060 01 Kežmarok, Slovenská Republika","Country":"SVK","State":"Prešovský kraj","County":"Kežmarok","City":"Kežmarok","District":"Kežmarok","Street":"Hviezdoslavova","PostalCode":"060 01","AdditionalData":[{"value":"Slovenská Republika","key":"CountryName"},{"value":"Prešovský kraj","key":"StateName"},{"value":"Kežmarok","key":"CountyName"}]},"MapReference":{"CountryId":"20428682","StateId":"20490226","CountyId":"20490525","CityId":"20490548","DistrictId":"22187104","PlaceId":"1112600993"}}},{"Relevance":1.0,"Distance":21.7,"MatchLevel":"houseNumber","MatchQuality":{"Country":1.0,"State":1.0,"County":1.0,"City":1.0,"District":1.0,"Street":[1.0],"HouseNumber":1.0,"PostalCode":1.0},"MatchType":"interpolated","Location":{"LocationId":"NT_9GR5Wr1mkci5nr1Pm5h8HD_zIzNvEDO","LocationType":"point","DisplayPosition":{"Latitude":49.13287,"Longitude":20.42824},"MapView":{"TopLeft":{"Latitude":49.1339942,"Longitude":20.4265219},"BottomRight":{"Latitude":49.1317458,"Longitude":20.4299581}},"Address":{"Label":"Hviezdoslavova 327/18, 060 01 Kežmarok, Slovenská Republika","Country":"SVK","State":"Prešovský kraj","County":"Kežmarok","City":"Kežmarok","District":"Kežmarok","Street":"Hviezdoslavova","HouseNumber":"327/18","PostalCode":"060 01","AdditionalData":[{"value":"Slovenská Republika","key":"CountryName"},{"value":"Prešovský kraj","key":"StateName"},{"value":"Kežmarok","key":"CountyName"}]},"MapReference":{"ReferenceId":"943605381","Spot":0.05,"SideOfStreet":"left","CountryId":"20428682","StateId":"20490226","CountyId":"20490525","CityId":"20490548","DistrictId":"22187104","AddressId":"299690901","RoadLinkId":"293176677"}}},{"Relevance":1.0,"Distance":30.1,"MatchLevel":"houseNumber","MatchQuality":{"Country":1.0,"State":1.0,"County":1.0,"City":1.0,"District":1.0,"Street":[1.0],"HouseNumber":1.0,"PostalCode":1.0},"MatchType":"interpolated","Location":{"LocationId":"NT_9GR5Wr1mkci5nr1Pm5h8HD_yUzMvIzN","LocationType":"point","DisplayPosition":{"Latitude":49.1326,"Longitude":20.42768},"MapView":{"TopLeft":{"Latitude":49.1337242,"Longitude":20.4259619},"BottomRight":{"Latitude":49.1314758,"Longitude":20.4293981}},"Address":{"Label":"Hviezdoslavova 253/27, 060 01 Kežmarok, Slovenská Republika","Country":"SVK","State":"Prešovský kraj","County":"Kežmarok","City":"Kežmarok","District":"Kežmarok","Street":"Hviezdoslavova","HouseNumber":"253/27","PostalCode":"060 01","AdditionalData":[{"value":"Slovenská Republika","key":"CountryName"},{"value":"Prešovský kraj","key":"StateName"},{"value":"Kežmarok","key":"CountyName"}]},"MapReference":{"ReferenceId":"943605380","Spot":0.53,"SideOfStreet":"right","CountryId":"20428682","StateId":"20490226","CountyId":"20490525","CityId":"20490548","DistrictId":"22187104","AddressId":"299690899","RoadLinkId":"293176676"}}},{"Relevance":1.0,"Distance":62.9,"MatchLevel":"street","MatchQuality":{"Country":1.0,"State":1.0,"County":1.0,"City":1.0,"District":1.0,"Street":[1.0],"PostalCode":1.0},"Location":{"LocationId":"NT_M1GihU8Zi-pmcWq9pmnpaB_l_943605398_L","LocationType":"point","DisplayPosition":{"Latitude":49.13245,"Longitude":20.42876},"MapView":{"TopLeft":{"Latitude":49.13292,"Longitude":20.42876},"BottomRight":{"Latitude":49.13245,"Longitude":20.42916}},"Address":{"Label":"J. Kraya, 060 01 Kežmarok, Slovenská Republika","Country":"SVK","State":"Prešovský kraj","County":"Kežmarok","City":"Kežmarok","District":"Kežmarok","Street":"J. Kraya","PostalCode":"060 01","AdditionalData":[{"value":"Slovenská Republika","key":"CountryName"},{"value":"Prešovský kraj","key":"StateName"},{"value":"Kežmarok","key":"CountyName"}]},"MapReference":{"ReferenceId":"943605398","Spot":0.0,"SideOfStreet":"left","CountryId":"20428682","StateId":"20490226","CountyId":"20490525","CityId":"20490548","DistrictId":"22187104"}}},{"Relevance":1.0,"Distance":75.6,"MatchLevel":"street","MatchQuality":{"Country":1.0,"State":1.0,"County":1.0,"City":1.0,"District":1.0,"Street":[1.0],"PostalCode":1.0},"Location":{"LocationId":"NT_9GR5Wr1mkci5nr1Pm5h8HD_l_949095583_L","LocationType":"point","DisplayPosition":{"Latitude":49.13318,"Longitude":20.42881},"MapView":{"TopLeft":{"Latitude":49.13333,"Longitude":20.42881},"BottomRight":{"Latitude":49.13318,"Longitude":20.42897}},"Address":{"Label":"Hviezdoslavova, 060 01 Kežmarok, Slovenská Republika","Country":"SVK","State":"Prešovský kraj","County":"Kežmarok","City":"Kežmarok","District":"Kežmarok","Street":"Hviezdoslavova","PostalCode":"060 01","AdditionalData":[{"value":"Slovenská Republika","key":"CountryName"},{"value":"Prešovský kraj","key":"StateName"},{"value":"Kežmarok","key":"CountyName"}]},"MapReference":{"ReferenceId":"949095583","Spot":0.0,"SideOfStreet":"left","CountryId":"20428682","StateId":"20490226","CountyId":"20490525","CityId":"20490548","DistrictId":"22187104"}}},{"Relevance":1.0,"Distance":75.6,"MatchLevel":"street","MatchQuality":{"Country":1.0,"State":1.0,"County":1.0,"City":1.0,"District":1.0,"Street":[1.0],"PostalCode":1.0},"Location":{"LocationId":"NT_M1GihU8Zi-pmcWq9pmnpaB_l_943605397_L","LocationType":"point","DisplayPosition":{"Latitude":49.13318,"Longitude":20.42881},"MapView":{"TopLeft":{"Latitude":49.13318,"Longitude":20.42881},"BottomRight":{"Latitude":49.13292,"Longitude":20.42916}},"Address":{"Label":"J. Kraya, 060 01 Kežmarok, Slovenská Republika","Country":"SVK","State":"Prešovský kraj","County":"Kežmarok","City":"Kežmarok","District":"Kežmarok","Street":"J. Kraya","PostalCode":"060 01","AdditionalData":[{"value":"Slovenská Republika","key":"CountryName"},{"value":"Prešovský kraj","key":"StateName"},{"value":"Kežmarok","key":"CountyName"}]},"MapReference":{"ReferenceId":"943605397","Spot":1.0,"SideOfStreet":"left","CountryId":"20428682","StateId":"20490226","CountyId":"20490525","CityId":"20490548","DistrictId":"22187104"}}},{"Relevance":1.0,"Distance":83.3,"MatchLevel":"street","MatchQuality":{"Country":1.0,"State":1.0,"County":1.0,"City":1.0,"District":1.0,"Street":[1.0],"PostalCode":1.0},"Location":{"LocationId":"NT_VRgrJr4pDTUVS-NfZCPhrC_l_949010911_R","LocationType":"point","DisplayPosition":{"Latitude":49.13231,"Longitude":20.42708},"MapView":{"TopLeft":{"Latitude":49.13267,"Longitude":20.4265},"BottomRight":{"Latitude":49.13231,"Longitude":20.42708}},"Address":{"Label":"Dr. Daniela Fischera, 060 01 Kežmarok, Slovenská Republika","Country":"SVK","State":"Prešovský kraj","County":"Kežmarok","City":"Kežmarok","District":"Kežmarok","Street":"Dr. Daniela Fischera","PostalCode":"060 01","AdditionalData":[{"value":"Slovenská Republika","key":"CountryName"},{"value":"Prešovský kraj","key":"StateName"},{"value":"Kežmarok","key":"CountyName"}]},"MapReference":{"ReferenceId":"949010911","Spot":0.0,"SideOfStreet":"right","CountryId":"20428682","StateId":"20490226","CountyId":"20490525","CityId":"20490548","DistrictId":"22187104"}}},{"Relevance":1.0,"Distance":86.8,"MatchLevel":"houseNumber","MatchQuality":{"Country":1.0,"State":1.0,"County":1.0,"City":1.0,"District":1.0,"Street":[1.0],"HouseNumber":1.0,"PostalCode":1.0},"MatchType":"interpolated","Location":{"LocationId":"NT_VRgrJr4pDTUVS-NfZCPhrC_yIzMx8SNhB","LocationType":"point","DisplayPosition":{"Latitude":49.1316,"Longitude":20.42819},"MapView":{"TopLeft":{"Latitude":49.1327242,"Longitude":20.426472},"BottomRight":{"Latitude":49.1304758,"Longitude":20.429908}},"Address":{"Label":"Dr. Daniela Fischera 2231/5a, 060 01 Kežmarok, Slovenská Republika","Country":"SVK","State":"Prešovský kraj","County":"Kežmarok","City":"Kežmarok","District":"Kežmarok","Street":"Dr. Daniela Fischera","HouseNumber":"2231/5a","PostalCode":"060 01","AdditionalData":[{"value":"Slovenská Republika","key":"CountryName"},{"value":"Prešovský kraj","key":"StateName"},{"value":"Kežmarok","key":"CountyName"}]},"MapReference":{"ReferenceId":"708202179","Spot":0.68,"SideOfStreet":"right","CountryId":"20428682","StateId":"20490226","CountyId":"20490525","CityId":"20490548","DistrictId":"22187104","AddressId":"299871191","RoadLinkId":"113468286"}}},{"Relevance":1.0,"Distance":88.1,"MatchLevel":"houseNumber","MatchQuality":{"Country":1.0,"State":1.0,"County":1.0,"City":1.0,"District":1.0,"Street":[1.0],"HouseNumber":1.0,"PostalCode":1.0},"MatchType":"interpolated","Location":{"LocationId":"NT_VRgrJr4pDTUVS-NfZCPhrC_3kTMvED","LocationType":"point","DisplayPosition":{"Latitude":49.13189,"Longitude":20.42771},"MapView":{"TopLeft":{"Latitude":49.1330142,"Longitude":20.425992},"BottomRight":{"Latitude":49.1307658,"Longitude":20.429428}},"Address":{"Label":"Dr. Daniela Fischera 791/1, 060 01 Kežmarok, Slovenská Republika","Country":"SVK","State":"Prešovský kraj","County":"Kežmarok","City":"Kežmarok","District":"Kežmarok","Street":"Dr. Daniela Fischera","HouseNumber":"791/1","PostalCode":"060 01","AdditionalData":[{"value":"Slovenská Republika","key":"CountryName"},{"value":"Prešovský kraj","key":"StateName"},{"value":"Kežmarok","key":"CountyName"}]},"MapReference":{"ReferenceId":"708202178","Spot":0.03,"SideOfStreet":"right","CountryId":"20428682","StateId":"20490226","CountyId":"20490525","CityId":"20490548","DistrictId":"22187104","AddressId":"299518640","RoadLinkId":"113468285"}}}]}]}}