{"Response":{"MetaInfo":{"Timestamp":"2020-03-28T10:16:28.580+0000","NextPageInformation":"2"},"View":[{"_type":"SearchResultsViewType","ViewId":0,"Result":[{"Relevance":1.0,"Distance":0.0,"Direction":0.0,"MatchLevel":"district","MatchQuality":{"Country":1.0,"State":1.0,"County":1.0,"City":1.0,"District":1.0,"PostalCode":1.0},"Location":{"LocationId":"NT_4mBVbQJB4CjGTKOxTvMoYC","LocationType":"point","DisplayPosition":{"Latitude":49.1912044,"Longitude":16.5783408},"MapView":{"TopLeft":{"Latitude":49.2009,"Longitude":16.54444},"BottomRight":{"Latitude":49.17781,"Longitude":16.58779}},"Address":{"Label":"Pisárky, Brno, Jihomoravský kraj, Česká Republika","Country":"CZE","State":"Jihomoravský kraj","County":"Brno-město","City":"Brno","District":"Pisárky","PostalCode":"603 00","AdditionalData":[{"value":"Česká Republika","key":"CountryName"},{"value":"Jihomoravský kraj","key":"StateName"},{"value":"Brno-město","key":"CountyName"}]},"MapReference":{"ReferenceId":"851459328","SideOfStreet":"neither","CountryId":"20427915","StateId":"20429227","CountyId":"20429835","CityId":"20429836"}}},{"Relevance":1.0,"Distance":13.7,"MatchLevel":"houseNumber","MatchQuality":{"Country":1.0,"State":1.0,"County":1.0,"City":1.0,"District":1.0,"Street":[1.0],"HouseNumber":1.0,"PostalCode":1.0},"MatchType":"interpolated","Location":{"LocationId":"NT_HTU.9z7yDR-qCW0h2PdnlA_0kzLxIjN","LocationType":"point","DisplayPosition":{"Latitude":49.19104,"Longitude":16.57811},"MapView":{"TopLeft":{"Latitude":49.1921642,"Longitude":16.5763899},"BottomRight":{"Latitude":49.1899158,"Longitude":16.5798301}},"Address":{"Label":"Hlinky 49/126, 603 00 Brno, Česká Republika","Country":"CZE","State":"Jihomoravský kraj","County":"Brno-město","City":"Brno","District":"Pisárky","Street":"Hlinky","HouseNumber":"49/126","PostalCode":"603 00","AdditionalData":[{"value":"Česká Republika","key":"CountryName"},{"value":"Jihomoravský kraj","key":"StateName"},{"value":"Brno-město","key":"CountyName"}]},"MapReference":{"ReferenceId":"1047639294","Spot":0.19,"SideOfStreet":"right","CountryId":"20427915","StateId":"20429227","CountyId":"20429835","CityId":"20429836","AddressId":"240923366","RoadLinkId":"367790093"}}},{"Relevance":1.0,"Distance":22.0,"MatchLevel":"houseNumber","MatchQuality":{"Country":1.0,"State":1.0,"County":1.0,"City":1.0,"District":1.0,"Street":[1.0],"HouseNumber":1.0,"PostalCode":1.0},"MatchType":"interpolated","Location":{"LocationId":"NT_HTU.9z7yDR-qCW0h2PdnlA_0gzLxIjM","LocationType":"point","DisplayPosition":{"Latitude":49.19093,"Longitude":16.57845},"MapView":{"TopLeft":{"Latitude":49.1920542,"Longitude":16.5767299},"BottomRight":{"Latitude":49.1898058,"Longitude":16.5801701}},"Address":{"Label":"Hlinky 48/122, 603 00 Brno, Česká Republika","Country":"CZE","State":"Jihomoravský kraj","County":"Brno-město","City":"Brno","District":"Pisárky","Street":"Hlinky","HouseNumber":"48/122","PostalCode":"603 00","AdditionalData":[{"value":"Česká Republika","key":"CountryName"},{"value":"Jihomoravský kraj","key":"StateName"},{"value":"Brno-město","key":"CountyName"}]},"MapReference":{"ReferenceId":"1004220497","Spot":0.94,"SideOfStreet":"right","CountryId":"20427915","StateId":"20429227","CountyId":"20429835","CityId":"20429836","AddressId":"240096192","RoadLinkId":"330026124"}}},{"Relevance":1.0,"Distance":75.2,"MatchLevel":"street","MatchQuality":{"Country":1.0,"State":1.0,"County":1.0,"City":1.0,"District":1.0,"Street":[1.0],"PostalCode":1.0},"Location":{"LocationId":"NT_c-cebiEo.GtVpI6qJ7hSdB_l_851864855_R","LocationType":"point","DisplayPosition":{"Latitude":49.1905357,"Longitude":16.5781822},"MapView":{"TopLeft":{"Latitude":49.19065,"Longitude":16.5777},"BottomRight":{"Latitude":49.19019,"Longitude":16.57964}},"Address":{"Label":"Výstaviště, 603 00 Brno, Česká Republika","Country":"CZE","State":"Jihomoravský kraj","County":"Brno-město","City":"Brno","District":"Pisárky","Street":"Výstaviště","PostalCode":"603 00","AdditionalData":[{"value":"Česká Republika","key":"CountryName"},{"value":"Jihomoravský kraj","key":"StateName"},{"value":"Brno-město","key":"CountyName"}]},"MapReference":{"ReferenceId":"851864855","Spot":0.75,"SideOfStreet":"right","CountryId":"20427915","StateId":"20429227","CountyId":"20429835","CityId":"20429836"}}},{"Relevance":1.0,"Distance":77.3,"MatchLevel":"street","MatchQuality":{"Country":1.0,"State":1.0,"County":1.0,"City":1.0,"District":1.0,"Street":[1.0],"PostalCode":1.0},"Location":{"LocationId":"NT_c-cebiEo.GtVpI6qJ7hSdB_l_851864876_R","LocationType":"point","DisplayPosition":{"Latitude":49.19065,"Longitude":16.5777},"MapView":{"TopLeft":{"Latitude":49.19095,"Longitude":16.5768},"BottomRight":{"Latitude":49.19065,"Longitude":16.5777}},"Address":{"Label":"Výstaviště, 603 00 Brno, Česká Republika","Country":"CZE","State":"Jihomoravský kraj","County":"Brno-město","City":"Brno","District":"Pisárky","Street":"Výstaviště","PostalCode":"603 00","AdditionalData":[{"value":"Česká Republika","key":"CountryName"},{"value":"Jihomoravský kraj","key":"StateName"},{"value":"Brno-město","key":"CountyName"}]},"MapReference":{"ReferenceId":"851864876","Spot":0.0,"SideOfStreet":"right","CountryId":"20427915","StateId":"20429227","CountyId":"20429835","CityId":"20429836"}}},{"Relevance":1.0,"Distance":77.3,"MatchLevel":"street","MatchQuality":{"Country":1.0,"State":1.0,"County":1.0,"City":1.0,"District":1.0,"PostalCode":1.0},"Location":{"LocationId":"NT_NE.sMIB6JWMIdEi45rLlfB_l_851864863_R","LocationType":"point","DisplayPosition":{"Latitude":49.19065,"Longitude":16.5777},"MapView":{"TopLeft":{"Latitude":49.19065,"Longitude":16.57737},"BottomRight":{"Latitude":49.19006,"Longitude":16.5777}},"Address":{"Label":"603 00 Brno, Česká Republika","Country":"CZE","State":"Jihomoravský kraj","County":"Brno-město","City":"Brno","District":"Pisárky","PostalCode":"603 00","AdditionalData":[{"value":"Česká Republika","key":"CountryName"},{"value":"Jihomoravský kraj","key":"StateName"},{"value":"Brno-město","key":"CountyName"}]},"MapReference":{"ReferenceId":"851864863","Spot":1.0,"SideOfStreet":"right","CountryId":"20427915","StateId":"20429227","CountyId":"20429835","CityId":"20429836"}}},{"Relevance":1.0,"Distance":96.4,"MatchLevel":"houseNumber","MatchQuality":{"Country":1.0,"State":1.0,"County":1.0,"City":1.0,"District":1.0,"Street":[1.0],"HouseNumber":1.0,"PostalCode":1.0},"MatchType":"interpolated","Location":{"LocationId":"NT_QgCsx4kbB9IbTAt.P0KWhD_1IjNvETN","LocationType":"point","DisplayPosition":{"Latitude":49.19223,"Longitude":16.57852},"MapView":{"TopLeft":{"Latitude":49.1933542,"Longitude":16.5767999},"BottomRight":{"Latitude":49.1911058,"Longitude":16.5802401}},"Address":{"Label":"Vinařská 526/15, 603 00 Brno, Česká Republika","Country":"CZE","State":"Jihomoravský kraj","County":"Brno-město","City":"Brno","District":"Pisárky","Street":"Vinařská","HouseNumber":"526/15","PostalCode":"603 00","AdditionalData":[{"value":"Česká Republika","key":"CountryName"},{"value":"Jihomoravský kraj","key":"StateName"},{"value":"Brno-město","key":"CountyName"}]},"MapReference":{"ReferenceId":"570306540","Spot":0.66,"SideOfStreet":"left","CountryId":"20427915","StateId":"20429227","CountyId":"20429835","CityId":"20429836","AddressId":"241234978","RoadLinkId":"190493789"}}},{"Relevance":1.0,"Distance":98.7,"MatchLevel":"street","MatchQuality":{"Country":1.0,"State":1.0,"County":1.0,"City":1.0,"District":1.0,"Street":[1.0],"PostalCode":1.0},"Location":{"LocationId":"NT_QgCsx4kbB9IbTAt.P0KWhD_l_1047639296_R","LocationType":"point","DisplayPosition":{"Latitude":49.19188,"Longitude":16.57746},"MapView":{"TopLeft":{"Latitude":49.19198,"Longitude":16.57692},"BottomRight":{"Latitude":49.19143,"Longitude":16.57746}},"Address":{"Label":"Vinařská, 603 00 Brno, Česká Republika","Country":"CZE","State":"Jihomoravský kraj","County":"Brno-město","City":"Brno","District":"Pisárky","Street":"Vinařská","PostalCode":"603 00","AdditionalData":[{"value":"Česká Republika","key":"CountryName"},{"value":"Jihomoravský kraj","key":"StateName"},{"value":"Brno-město","key":"CountyName"}]},"MapReference":{"ReferenceId":"1047639296","Spot":1.0,"SideOfStreet":"right","CountryId":"20427915","StateId":"20429227","CountyId":"20429835","CityId":"20429836"}}},{"Relevance":1.0,"Distance":99.0,"MatchLevel":"houseNumber","MatchQuality":{"Country":1.0,"State":1.0,"County":1.0,"City":1.0,"District":1.0,"Street":[1.0],"HouseNumber":1.0,"PostalCode":1.0},"MatchType":"interpolated","Location":{"LocationId":"NT_QgCsx4kbB9IbTAt.P0KWhD_1MzMvETM","LocationType":"point","DisplayPosition":{"Latitude":49.192,"Longitude":16.57928},"MapView":{"TopLeft":{"Latitude":49.1931242,"Longitude":16.5775599},"BottomRight":{"Latitude":49.1908758,"Longitude":16.5810001}},"Address":{"Label":"Vinařská 533/11, 603 00 Brno, Česká Republika","Country":"CZE","State":"Jihomoravský kraj","County":"Brno-město","City":"Brno","District":"Pisárky","Street":"Vinařská","HouseNumber":"533/11","PostalCode":"603 00","AdditionalData":[{"value":"Česká Republika","key":"CountryName"},{"value":"Jihomoravský kraj","key":"StateName"},{"value":"Brno-město","key":"CountyName"}]},"MapReference":{"ReferenceId":"570306575","Spot":0.79,"SideOfStreet":"left","CountryId":"20427915","StateId":"20429227","CountyId":"20429835","CityId":"20429836","AddressId":"240627269","RoadLinkId":"190493797"}}},{"Relevance":1.0,"Distance":115.5,"MatchLevel":"street","MatchQuality":{"Country":1.0,"State":1.0,"County":1.0,"City":1.0,"District":1.0,"Street":[1.0],"PostalCode":1.0},"Location":{"LocationId":"NT_c-cebiEo.GtVpI6qJ7hSdB_l_851864877_R","LocationType":"point","DisplayPosition":{"Latitude":49.19095,"Longitude":16.5768},"MapView":{"TopLeft":{"Latitude":49.19122,"Longitude":16.57595},"BottomRight":{"Latitude":49.19095,"Longitude":16.5768}},"Address":{"Label":"Výstaviště, 603 00 Brno, Česká Republika","Country":"CZE","State":"Jihomoravský kraj","County":"Brno-město","City":"Brno","District":"Pisárky","Street":"Výstaviště","PostalCode":"603 00","AdditionalData":[{"value":"Česká Republika","key":"CountryName"},{"value":"Jihomoravský kraj","key":"StateName"},{"value":"Brno-město","key":"CountyName"}]},"MapReference":{"ReferenceId":"851864877","Spot":0.0,"SideOfStreet":"right","CountryId":"20427915","StateId":"20429227","CountyId":"20429835","CityId":"20429836"}}}]}]}}