{"Response":{"MetaInfo":{"Timestamp":"2020-03-28T10:02:08.823+0000","NextPageInformation":"2"},"View":[{"_type":"SearchResultsViewType","ViewId":0,"Result":[{"Relevance":1.0,"Distance":0.0,"Direction":0.0,"MatchLevel":"district","MatchQuality":{"Country":1.0,"State":1.0,"County":1.0,"City":1.0,"District":1.0,"PostalCode":1.0},"Location":{"LocationId":"NT_I6DtSIDI9Ji2bBcOMRHLEA","LocationType":"point","DisplayPosition":{"Latitude":49.2191867,"Longitude":16.622101},"MapView":{"TopLeft":{"Latitude":49.22215,"Longitude":16.60444},"BottomRight":{"Latitude":49.19967,"Longitude":16.63011}},"Address":{"Label":"Černá Pole, Brno, Jihomoravský kraj, Česká Republika","Country":"CZE","State":"Jihomoravský kraj","County":"Brno-město","City":"Brno","District":"Černá Pole","PostalCode":"613 00","AdditionalData":[{"value":"Česká Republika","key":"CountryName"},{"value":"Jihomoravský kraj","key":"StateName"},{"value":"Brno-město","key":"CountyName"}]},"MapReference":{"ReferenceId":"570307000","SideOfStreet":"neither","CountryId":"20427915","StateId":"20429227","CountyId":"20429835","CityId":"20429836"}}},{"Relevance":1.0,"Distance":6.7,"MatchLevel":"houseNumber","MatchQuality":{"Country":1.0,"State":1.0,"County":1.0,"City":1.0,"District":1.0,"Street":[1.0],"HouseNumber":1.0,"PostalCode":1.0},"MatchType":"interpolated","Location":{"LocationId":"NT_N5k3es1o6Bx5CgtYi2lccB_1cTOvQD","LocationType":"point","DisplayPosition":{"Latitude":49.21903,"Longitude":16.62272},"MapView":{"TopLeft":{"Latitude":49.2201542,"Longitude":16.6209989},"BottomRight":{"Latitude":49.2179058,"Longitude":16.6244411}},"Address":{"Label":"Janouškova 579/4, 613 00 Brno, Česká Republika","Country":"CZE","State":"Jihomoravský kraj","County":"Brno-město","City":"Brno","District":"Černá Pole","Street":"Janouškova","HouseNumber":"579/4","PostalCode":"613 00","AdditionalData":[{"value":"Česká Republika","key":"CountryName"},{"value":"Jihomoravský kraj","key":"StateName"},{"value":"Brno-město","key":"CountyName"}]},"MapReference":{"ReferenceId":"570307090","Spot":0.71,"SideOfStreet":"left","CountryId":"20427915","StateId":"20429227","CountyId":"20429835","CityId":"20429836","AddressId":"240271785","RoadLinkId":"40495085"}}},{"Relevance":1.0,"Distance":31.3,"MatchLevel":"street","MatchQuality":{"Country":1.0,"State":1.0,"County":1.0,"City":1.0,"District":1.0,"Street":[1.0],"PostalCode":1.0},"Location":{"LocationId":"NT_TXIXYkajDIilVfTpyIeyAC_l_576946589_L","LocationType":"point","DisplayPosition":{"Latitude":49.2194635,"Longitude":16.622181},"MapView":{"TopLeft":{"Latitude":49.21951,"Longitude":16.62202},"BottomRight":{"Latitude":49.21938,"Longitude":16.62247}},"Address":{"Label":"Fügnerova, 613 00 Brno, Česká Republika","Country":"CZE","State":"Jihomoravský kraj","County":"Brno-město","City":"Brno","District":"Černá Pole","Street":"Fügnerova","PostalCode":"613 00","AdditionalData":[{"value":"Česká Republika","key":"CountryName"},{"value":"Jihomoravský kraj","key":"StateName"},{"value":"Brno-město","key":"CountyName"}]},"MapReference":{"ReferenceId":"576946589","Spot":0.64,"SideOfStreet":"left","CountryId":"20427915","StateId":"20429227","CountyId":"20429835","CityId":"20429836"}}},{"Relevance":1.0,"Distance":34.4,"MatchLevel":"street","MatchQuality":{"Country":1.0,"State":1.0,"County":1.0,"City":1.0,"District":1.0,"Street":[1.0],"PostalCode":1.0},"Location":{"LocationId":"NT_TXIXYkajDIilVfTpyIeyAC_l_570307066_L","LocationType":"point","DisplayPosition":{"Latitude":49.21938,"Longitude":16.62247},"MapView":{"TopLeft":{"Latitude":49.21938,"Longitude":16.62247},"BottomRight":{"Latitude":49.21928,"Longitude":16.62287}},"Address":{"Label":"Fügnerova, 613 00 Brno, Česká Republika","Country":"CZE","State":"Jihomoravský kraj","County":"Brno-město","City":"Brno","District":"Černá Pole","Street":"Fügnerova","PostalCode":"613 00","AdditionalData":[{"value":"Česká Republika","key":"CountryName"},{"value":"Jihomoravský kraj","key":"StateName"},{"value":"Brno-město","key":"CountyName"}]},"MapReference":{"ReferenceId":"570307066","Spot":1.0,"SideOfStreet":"left","CountryId":"20427915","StateId":"20429227","CountyId":"20429835","CityId":"20429836"}}},{"Relevance":1.0,"Distance":54.6,"MatchLevel":"houseNumber","MatchQuality":{"Country":1.0,"State":1.0,"County":1.0,"City":1.0,"District":1.0,"Street":[1.0],"HouseNumber":1.0,"PostalCode":1.0},"MatchType":"interpolated","Location":{"LocationId":"NT_7oV-JcSQFBHeYvqgPiBrBB_xEzM58yMxA","LocationType":"point","DisplayPosition":{"Latitude":49.21859,"Longitude":16.62169},"MapView":{"TopLeft":{"Latitude":49.2197142,"Longitude":16.6199689},"BottomRight":{"Latitude":49.2174658,"Longitude":16.6234111}},"Address":{"Label":"náměstí SNP 1139/31, 613 00 Brno, Česká Republika","Country":"CZE","State":"Jihomoravský kraj","County":"Brno-město","City":"Brno","District":"Černá Pole","Street":"náměstí SNP","HouseNumber":"1139/31","PostalCode":"613 00","AdditionalData":[{"value":"Česká Republika","key":"CountryName"},{"value":"Jihomoravský kraj","key":"StateName"},{"value":"Brno-město","key":"CountyName"}]},"MapReference":{"ReferenceId":"570307080","Spot":0.82,"SideOfStreet":"right","CountryId":"20427915","StateId":"20429227","CountyId":"20429835","CityId":"20429836","AddressId":"240685162","RoadLinkId":"40162607"}}},{"Relevance":1.0,"Distance":55.2,"MatchLevel":"houseNumber","MatchQuality":{"Country":1.0,"State":1.0,"County":1.0,"City":1.0,"District":1.0,"Street":[1.0],"HouseNumber":1.0,"PostalCode":1.0},"MatchType":"interpolated","Location":{"LocationId":"NT_TXIXYkajDIilVfTpyIeyAC_0YjNvMTO","LocationType":"point","DisplayPosition":{"Latitude":49.2196,"Longitude":16.62168},"MapView":{"TopLeft":{"Latitude":49.2207242,"Longitude":16.6199589},"BottomRight":{"Latitude":49.2184758,"Longitude":16.6234011}},"Address":{"Label":"Fügnerova 466/39, 613 00 Brno, Česká Republika","Country":"CZE","State":"Jihomoravský kraj","County":"Brno-město","City":"Brno","District":"Černá Pole","Street":"Fügnerova","HouseNumber":"466/39","PostalCode":"613 00","AdditionalData":[{"value":"Česká Republika","key":"CountryName"},{"value":"Jihomoravský kraj","key":"StateName"},{"value":"Brno-město","key":"CountyName"}]},"MapReference":{"ReferenceId":"784083839","Spot":0.53,"SideOfStreet":"left","CountryId":"20427915","StateId":"20429227","CountyId":"20429835","CityId":"20429836","AddressId":"241214426","RoadLinkId":"176967910"}}},{"Relevance":1.0,"Distance":58.9,"MatchLevel":"houseNumber","MatchQuality":{"Country":1.0,"State":1.0,"County":1.0,"City":1.0,"District":1.0,"Street":[1.0],"HouseNumber":1.0,"PostalCode":1.0},"MatchType":"interpolated","Location":{"LocationId":"NT_7oV-JcSQFBHeYvqgPiBrBB_xEzM48yMwA","LocationType":"point","DisplayPosition":{"Latitude":49.21866,"Longitude":16.62143},"MapView":{"TopLeft":{"Latitude":49.2197842,"Longitude":16.6197089},"BottomRight":{"Latitude":49.2175358,"Longitude":16.6231511}},"Address":{"Label":"náměstí SNP 1138/30, 613 00 Brno, Česká Republika","Country":"CZE","State":"Jihomoravský kraj","County":"Brno-město","City":"Brno","District":"Černá Pole","Street":"náměstí SNP","HouseNumber":"1138/30","PostalCode":"613 00","AdditionalData":[{"value":"Česká Republika","key":"CountryName"},{"value":"Jihomoravský kraj","key":"StateName"},{"value":"Brno-město","key":"CountyName"}]},"MapReference":{"ReferenceId":"1198425375","Spot":0.07,"SideOfStreet":"right","CountryId":"20427915","StateId":"20429227","CountyId":"20429835","CityId":"20429836","AddressId":"241086501","RoadLinkId":"509706254"}}},{"Relevance":1.0,"Distance":72.7,"MatchLevel":"houseNumber","MatchQuality":{"Country":1.0,"State":1.0,"County":1.0,"City":1.0,"District":1.0,"Street":[1.0],"HouseNumber":1.0,"PostalCode":1.0},"MatchType":"interpolated","Location":{"LocationId":"NT_N5k3es1o6Bx5CgtYi2lccB_1czNvID","LocationType":"point","DisplayPosition":{"Latitude":49.21971,"Longitude":16.62266},"MapView":{"TopLeft":{"Latitude":49.2208342,"Longitude":16.6209389},"BottomRight":{"Latitude":49.2185858,"Longitude":16.6243811}},"Address":{"Label":"Janouškova 577/2, 613 00 Brno, Česká Republika","Country":"CZE","State":"Jihomoravský kraj","County":"Brno-město","City":"Brno","District":"Černá Pole","Street":"Janouškova","HouseNumber":"577/2","PostalCode":"613 00","AdditionalData":[{"value":"Česká Republika","key":"CountryName"},{"value":"Jihomoravský kraj","key":"StateName"},{"value":"Brno-město","key":"CountyName"}]},"MapReference":{"ReferenceId":"570307009","Spot":0.33,"SideOfStreet":"left","CountryId":"20427915","StateId":"20429227","CountyId":"20429835","CityId":"20429836","AddressId":"676960454","RoadLinkId":"367702566"}}},{"Relevance":1.0,"Distance":73.7,"MatchLevel":"street","MatchQuality":{"Country":1.0,"State":1.0,"County":1.0,"City":1.0,"District":1.0,"Street":[1.0],"PostalCode":1.0},"Location":{"LocationId":"NT_7oV-JcSQFBHeYvqgPiBrBB_l_1167833226_R","LocationType":"point","DisplayPosition":{"Latitude":49.21863,"Longitude":16.62155},"MapView":{"TopLeft":{"Latitude":49.21863,"Longitude":16.6214},"BottomRight":{"Latitude":49.21844,"Longitude":16.62155}},"Address":{"Label":"náměstí SNP, 613 00 Brno, Česká Republika","Country":"CZE","State":"Jihomoravský kraj","County":"Brno-město","City":"Brno","District":"Černá Pole","Street":"náměstí SNP","PostalCode":"613 00","AdditionalData":[{"value":"Česká Republika","key":"CountryName"},{"value":"Jihomoravský kraj","key":"StateName"},{"value":"Brno-město","key":"CountyName"}]},"MapReference":{"ReferenceId":"1167833226","Spot":1.0,"SideOfStreet":"right","CountryId":"20427915","StateId":"20429227","CountyId":"20429835","CityId":"20429836"}}},{"Relevance":1.0,"Distance":75.8,"MatchLevel":"street","MatchQuality":{"Country":1.0,"State":1.0,"County":1.0,"City":1.0,"District":1.0,"Street":[1.0],"PostalCode":1.0},"Location":{"LocationId":"NT_TXIXYkajDIilVfTpyIeyAC_l_1167965529_L","LocationType":"point","DisplayPosition":{"Latitude":49.21968,"Longitude":16.62138},"MapView":{"TopLeft":{"Latitude":49.21973,"Longitude":16.62117},"BottomRight":{"Latitude":49.21968,"Longitude":16.62138}},"Address":{"Label":"Fügnerova, 613 00 Brno, Česká Republika","Country":"CZE","State":"Jihomoravský kraj","County":"Brno-město","City":"Brno","District":"Černá Pole","Street":"Fügnerova","PostalCode":"613 00","AdditionalData":[{"value":"Česká Republika","key":"CountryName"},{"value":"Jihomoravský kraj","key":"StateName"},{"value":"Brno-město","key":"CountyName"}]},"MapReference":{"ReferenceId":"1167965529","Spot":0.0,"SideOfStreet":"left","CountryId":"20427915","StateId":"20429227","CountyId":"20429835","CityId":"20429836"}}}]}]}}