{"Response":{"MetaInfo":{"Timestamp":"2020-03-28T11:13:25.245+0000","NextPageInformation":"2"},"View":[{"_type":"SearchResultsViewType","ViewId":0,"Result":[{"Relevance":1.0,"Distance":0.0,"Direction":0.0,"MatchLevel":"city","MatchQuality":{"Country":1.0,"State":1.0,"County":1.0,"City":1.0,"PostalCode":1.0},"Location":{"LocationId":"NT_01ndYRUKuEnVdp1NWAsUXB","LocationType":"point","DisplayPosition":{"Latitude":49.22484,"Longitude":6.01192},"MapView":{"TopLeft":{"Latitude":49.24311,"Longitude":5.99749},"BottomRight":{"Latitude":49.22149,"Longitude":6.03088}},"Address":{"Label":"Joeuf, Grand Est, France","Country":"FRA","State":"Grand Est","County":"Meurthe-et-Moselle","City":"Joeuf","PostalCode":"54240","AdditionalData":[{"value":"France","key":"CountryName"},{"value":"Grand Est","key":"StateName"},{"value":"Meurthe-et-Moselle","key":"CountyName"}]},"MapReference":{"ReferenceId":"61412884","SideOfStreet":"neither","CountryId":"20000001","StateId":"20002047","CountyId":"20019877","CityId":"20020714"}}},{"Relevance":1.0,"Distance":4.3,"MatchLevel":"houseNumber","MatchQuality":{"Country":1.0,"State":1.0,"County":1.0,"City":1.0,"Street":[1.0],"HouseNumber":1.0,"PostalCode":1.0},"MatchType":"interpolated","Location":{"LocationId":"NT_t7BXaiHBpwGwPVRmjVeV1A_zEjQ","LocationType":"point","DisplayPosition":{"Latitude":49.22487,"Longitude":6.01208},"MapView":{"TopLeft":{"Latitude":49.2259942,"Longitude":6.0103587},"BottomRight":{"Latitude":49.2237458,"Longitude":6.0138013}},"Address":{"Label":"31B Rue Saint-Charles, 54240 Joeuf, France","Country":"FRA","State":"Grand Est","County":"Meurthe-et-Moselle","City":"Joeuf","Street":"Rue Saint-Charles","HouseNumber":"31B","PostalCode":"54240","AdditionalData":[{"value":"France","key":"CountryName"},{"value":"Grand Est","key":"StateName"},{"value":"Meurthe-et-Moselle","key":"CountyName"}]},"MapReference":{"ReferenceId":"61413078","Spot":0.94,"SideOfStreet":"left","CountryId":"20000001","StateId":"20002047","CountyId":"20019877","CityId":"20020714","AddressId":"371208322","RoadLinkId":"44070634"}}},{"Relevance":1.0,"Distance":9.7,"MatchLevel":"houseNumber","MatchQuality":{"Country":1.0,"State":1.0,"County":1.0,"City":1.0,"Street":[1.0],"HouseNumber":1.0,"PostalCode":1.0},"MatchType":"interpolated","Location":{"LocationId":"NT_VXi8Z6zCIoibT1Tp8ij6IB_yYjQ","LocationType":"point","DisplayPosition":{"Latitude":49.22447,"Longitude":6.01138},"MapView":{"TopLeft":{"Latitude":49.2255942,"Longitude":6.0096587},"BottomRight":{"Latitude":49.2233458,"Longitude":6.0131013}},"Address":{"Label":"26B Rue de Goprez, 54240 Joeuf, France","Country":"FRA","State":"Grand Est","County":"Meurthe-et-Moselle","City":"Joeuf","Street":"Rue de Goprez","HouseNumber":"26B","PostalCode":"54240","AdditionalData":[{"value":"France","key":"CountryName"},{"value":"Grand Est","key":"StateName"},{"value":"Meurthe-et-Moselle","key":"CountyName"}]},"MapReference":{"ReferenceId":"61413093","Spot":0.44,"SideOfStreet":"right","CountryId":"20000001","StateId":"20002047","CountyId":"20019877","CityId":"20020714","AddressId":"317692680","RoadLinkId":"44081526"}}},{"Relevance":1.0,"Distance":9.7,"MatchLevel":"houseNumber","MatchQuality":{"Country":1.0,"State":1.0,"County":1.0,"City":1.0,"Street":[1.0],"HouseNumber":1.0,"PostalCode":1.0},"MatchType":"interpolated","Location":{"LocationId":"NT_gV3Ar2CjxKom0z7RIpBPbA_yUD","LocationType":"point","DisplayPosition":{"Latitude":49.22522,"Longitude":6.01142},"MapView":{"TopLeft":{"Latitude":49.2263442,"Longitude":6.0096987},"BottomRight":{"Latitude":49.2240958,"Longitude":6.0131413}},"Address":{"Label":"25 Rue Saint-Robert, 54240 Joeuf, France","Country":"FRA","State":"Grand Est","County":"Meurthe-et-Moselle","City":"Joeuf","Street":"Rue Saint-Robert","HouseNumber":"25","PostalCode":"54240","AdditionalData":[{"value":"France","key":"CountryName"},{"value":"Grand Est","key":"StateName"},{"value":"Meurthe-et-Moselle","key":"CountyName"}]},"MapReference":{"ReferenceId":"61413936","Spot":0.44,"SideOfStreet":"right","CountryId":"20000001","StateId":"20002047","CountyId":"20019877","CityId":"20020714","AddressId":"379623793","RoadLinkId":"44880847"}}},{"Relevance":1.0,"Distance":36.9,"MatchLevel":"houseNumber","MatchQuality":{"Country":1.0,"State":1.0,"County":1.0,"City":1.0,"Street":[1.0],"HouseNumber":1.0,"PostalCode":1.0},"MatchType":"interpolated","Location":{"LocationId":"NT_.KnjhUo.jsvajqPf8.mdjD_yMD","LocationType":"point","DisplayPosition":{"Latitude":49.22508,"Longitude":6.01227},"MapView":{"TopLeft":{"Latitude":49.2262042,"Longitude":6.0105487},"BottomRight":{"Latitude":49.2239558,"Longitude":6.0139913}},"Address":{"Label":"23 Rue Saint-Joseph, 54240 Joeuf, France","Country":"FRA","State":"Grand Est","County":"Meurthe-et-Moselle","City":"Joeuf","Street":"Rue Saint-Joseph","HouseNumber":"23","PostalCode":"54240","AdditionalData":[{"value":"France","key":"CountryName"},{"value":"Grand Est","key":"StateName"},{"value":"Meurthe-et-Moselle","key":"CountyName"}]},"MapReference":{"ReferenceId":"61413068","Spot":0.21,"SideOfStreet":"left","CountryId":"20000001","StateId":"20002047","CountyId":"20019877","CityId":"20020714","AddressId":"317602722","RoadLinkId":"43999235"}}},{"Relevance":1.0,"Distance":67.2,"MatchLevel":"houseNumber","MatchQuality":{"Country":1.0,"State":1.0,"County":1.0,"City":1.0,"Street":[1.0],"HouseNumber":1.0,"PostalCode":1.0},"MatchType":"interpolated","Location":{"LocationId":"NT_t7BXaiHBpwGwPVRmjVeV1A_yMD","LocationType":"point","DisplayPosition":{"Latitude":49.22473,"Longitude":6.01285},"MapView":{"TopLeft":{"Latitude":49.2258542,"Longitude":6.0111287},"BottomRight":{"Latitude":49.2236058,"Longitude":6.0145713}},"Address":{"Label":"23 Rue Saint-Charles, 54240 Joeuf, France","Country":"FRA","State":"Grand Est","County":"Meurthe-et-Moselle","City":"Joeuf","Street":"Rue Saint-Charles","HouseNumber":"23","PostalCode":"54240","AdditionalData":[{"value":"France","key":"CountryName"},{"value":"Grand Est","key":"StateName"},{"value":"Meurthe-et-Moselle","key":"CountyName"}]},"MapReference":{"ReferenceId":"61413074","Spot":0.07,"SideOfStreet":"left","CountryId":"20000001","StateId":"20002047","CountyId":"20019877","CityId":"20020714","AddressId":"317689851","RoadLinkId":"43979316"}}},{"Relevance":1.0,"Distance":91.5,"MatchLevel":"street","MatchQuality":{"Country":1.0,"State":1.0,"County":1.0,"City":1.0,"Street":[1.0],"PostalCode":1.0},"Location":{"LocationId":"NT_9qCvipKJPt7ipNXZK0yPiB_l_61413102_L","LocationType":"point","DisplayPosition":{"Latitude":49.22412,"Longitude":6.01253},"MapView":{"TopLeft":{"Latitude":49.22412,"Longitude":6.01253},"BottomRight":{"Latitude":49.22383,"Longitude":6.0126}},"Address":{"Label":"Rue de Goprez, 54240 Joeuf, France","Country":"FRA","State":"Grand Est","County":"Meurthe-et-Moselle","City":"Joeuf","Street":"Rue de Goprez","PostalCode":"54240","AdditionalData":[{"value":"France","key":"CountryName"},{"value":"Grand Est","key":"StateName"},{"value":"Meurthe-et-Moselle","key":"CountyName"}]},"MapReference":{"ReferenceId":"61413102","Spot":1.0,"SideOfStreet":"left","CountryId":"20000001","StateId":"20002047","CountyId":"20019877","CityId":"20020714"}}},{"Relevance":1.0,"Distance":93.1,"MatchLevel":"houseNumber","MatchQuality":{"Country":1.0,"State":1.0,"County":1.0,"City":1.0,"Street":[1.0],"HouseNumber":1.0,"PostalCode":1.0},"MatchType":"interpolated","Location":{"LocationId":"NT_-F-C5WkzqwKaWNFKUq5RDD_l_61413103_R_xUD","LocationType":"point","DisplayPosition":{"Latitude":49.22404,"Longitude":6.0111},"MapView":{"TopLeft":{"Latitude":49.2251642,"Longitude":6.0093787},"BottomRight":{"Latitude":49.2229159,"Longitude":6.0128212}},"Address":{"Label":"15 Rue des Jardins, 54240 Joeuf, France","Country":"FRA","State":"Grand Est","County":"Meurthe-et-Moselle","City":"Joeuf","Street":"Rue des Jardins","HouseNumber":"15","PostalCode":"54240","AdditionalData":[{"value":"France","key":"CountryName"},{"value":"Grand Est","key":"StateName"},{"value":"Meurthe-et-Moselle","key":"CountyName"}]},"MapReference":{"ReferenceId":"61413103","Spot":0.05,"SideOfStreet":"right","CountryId":"20000001","StateId":"20002047","CountyId":"20019877","CityId":"20020714"}}},{"Relevance":1.0,"Distance":97.4,"MatchLevel":"houseNumber","MatchQuality":{"Country":1.0,"State":1.0,"County":1.0,"City":1.0,"Street":[1.0],"HouseNumber":1.0,"PostalCode":1.0},"MatchType":"interpolated","Location":{"LocationId":"NT_m.DnhH3YjkPP6oE23CQaxB_yUD","LocationType":"point","DisplayPosition":{"Latitude":49.2245,"Longitude":6.0132},"MapView":{"TopLeft":{"Latitude":49.2256242,"Longitude":6.0114787},"BottomRight":{"Latitude":49.2233758,"Longitude":6.0149213}},"Address":{"Label":"25 Rue Saint-Eugène, 54240 Joeuf, France","Country":"FRA","State":"Grand Est","County":"Meurthe-et-Moselle","City":"Joeuf","Street":"Rue Saint-Eugène","HouseNumber":"25","PostalCode":"54240","AdditionalData":[{"value":"France","key":"CountryName"},{"value":"Grand Est","key":"StateName"},{"value":"Meurthe-et-Moselle","key":"CountyName"}]},"MapReference":{"ReferenceId":"61413075","Spot":0.43,"SideOfStreet":"right","CountryId":"20000001","StateId":"20002047","CountyId":"20019877","CityId":"20020714","AddressId":"317555427","RoadLinkId":"45035586"}}},{"Relevance":1.0,"Distance":103.3,"MatchLevel":"houseNumber","MatchQuality":{"Country":1.0,"State":1.0,"County":1.0,"City":1.0,"Street":[1.0],"HouseNumber":1.0,"PostalCode":1.0},"MatchType":"interpolated","Location":{"LocationId":"NT_VXi8Z6zCIoibT1Tp8ij6IB_4MjQ","LocationType":"point","DisplayPosition":{"Latitude":49.22406,"Longitude":6.01277},"MapView":{"TopLeft":{"Latitude":49.2251842,"Longitude":6.0110488},"BottomRight":{"Latitude":49.2229358,"Longitude":6.0144912}},"Address":{"Label":"83B Rue de Goprez, 54240 Joeuf, France","Country":"FRA","State":"Grand Est","County":"Meurthe-et-Moselle","City":"Joeuf","Street":"Rue de Goprez","HouseNumber":"83B","PostalCode":"54240","AdditionalData":[{"value":"France","key":"CountryName"},{"value":"Grand Est","key":"StateName"},{"value":"Meurthe-et-Moselle","key":"CountyName"}]},"MapReference":{"ReferenceId":"61413096","Spot":0.6,"SideOfStreet":"right","CountryId":"20000001","StateId":"20002047","CountyId":"20019877","CityId":"20020714","AddressId":"571546351","RoadLinkId":"45070675"}}}]}]}}