{"Response":{"MetaInfo":{"Timestamp":"2020-03-28T11:08:17.598+0000","NextPageInformation":"2"},"View":[{"_type":"SearchResultsViewType","ViewId":0,"Result":[{"Relevance":1.0,"Distance":-0.9,"MatchLevel":"landmark","MatchQuality":{"Country":1.0,"State":1.0,"County":1.0,"City":1.0,"PostalCode":1.0,"Name":1.0},"Location":{"LocationId":"NT_d-6GU-BJjY.SY2IR2CovdA_p_DLOze6T0AbQY6sKTJ8sccA","LocationType":"hospital","Name":"CH de Gisors","DisplayPosition":{"Latitude":49.27965,"Longitude":1.76042},"MapView":{"TopLeft":{"Latitude":49.28288,"Longitude":1.75758},"BottomRight":{"Latitude":49.27949,"Longitude":1.761}},"Address":{"Label":"27140 Gisors, France","Country":"FRA","State":"Normandie","County":"Eure","City":"Gisors","PostalCode":"27140","AdditionalData":[{"value":"France","key":"CountryName"},{"value":"Normandie","key":"StateName"},{"value":"Eure","key":"CountyName"}]},"MapReference":{"CountryId":"20000001","StateId":"20057204","CountyId":"20002109","CityId":"20062154","PlaceId":"75641609"}}},{"Relevance":1.0,"Distance":0.0,"Direction":0.0,"MatchLevel":"city","MatchQuality":{"Country":1.0,"State":1.0,"County":1.0,"City":1.0,"PostalCode":1.0},"Location":{"LocationId":"NT_yMkPkk2xqoGbbpRP9yKjiD","LocationType":"point","DisplayPosition":{"Latitude":49.2828514,"Longitude":1.7576147},"MapView":{"TopLeft":{"Latitude":49.30834,"Longitude":1.72555},"BottomRight":{"Latitude":49.24701,"Longitude":1.80256}},"Address":{"Label":"Gisors, Normandie, France","Country":"FRA","State":"Normandie","County":"Eure","City":"Gisors","PostalCode":"27140","AdditionalData":[{"value":"France","key":"CountryName"},{"value":"Normandie","key":"StateName"},{"value":"Eure","key":"CountyName"}]},"MapReference":{"ReferenceId":"57040490","SideOfStreet":"neither","CountryId":"20000001","StateId":"20057204","CountyId":"20002109","CityId":"20062154"}}},{"Relevance":1.0,"Distance":111.2,"MatchLevel":"street","MatchQuality":{"Country":1.0,"State":1.0,"County":1.0,"City":1.0,"PostalCode":1.0},"Location":{"LocationId":"NT_HSO.VuDiA-I6UbYfwZ3PDD_l_1068076434_L","LocationType":"point","DisplayPosition":{"Latitude":49.28212,"Longitude":1.75866},"MapView":{"TopLeft":{"Latitude":49.28235,"Longitude":1.75809},"BottomRight":{"Latitude":49.28119,"Longitude":1.75908}},"Address":{"Label":"27140 Gisors, France","Country":"FRA","State":"Normandie","County":"Eure","City":"Gisors","PostalCode":"27140","AdditionalData":[{"value":"France","key":"CountryName"},{"value":"Normandie","key":"StateName"},{"value":"Eure","key":"CountyName"}]},"MapReference":{"ReferenceId":"1068076434","Spot":0.71,"SideOfStreet":"left","CountryId":"20000001","StateId":"20057204","CountyId":"20002109","CityId":"20062154"}}},{"Relevance":1.0,"Distance":187.9,"MatchLevel":"street","MatchQuality":{"Country":1.0,"State":1.0,"County":1.0,"City":1.0,"PostalCode":1.0},"Location":{"LocationId":"NT_HSO.VuDiA-I6UbYfwZ3PDD_l_1068076435_R","LocationType":"point","DisplayPosition":{"Latitude":49.28119,"Longitude":1.75809},"MapView":{"TopLeft":{"Latitude":49.28212,"Longitude":1.75809},"BottomRight":{"Latitude":49.28109,"Longitude":1.76095}},"Address":{"Label":"27140 Gisors, France","Country":"FRA","State":"Normandie","County":"Eure","City":"Gisors","PostalCode":"27140","AdditionalData":[{"value":"France","key":"CountryName"},{"value":"Normandie","key":"StateName"},{"value":"Eure","key":"CountyName"}]},"MapReference":{"ReferenceId":"1068076435","Spot":1.0,"SideOfStreet":"right","CountryId":"20000001","StateId":"20057204","CountyId":"20002109","CityId":"20062154"}}},{"Relevance":1.0,"Distance":187.9,"MatchLevel":"street","MatchQuality":{"Country":1.0,"State":1.0,"County":1.0,"City":1.0,"PostalCode":1.0},"Location":{"LocationId":"NT_HSO.VuDiA-I6UbYfwZ3PDD_l_1068076433_L","LocationType":"point","DisplayPosition":{"Latitude":49.28119,"Longitude":1.75809},"MapView":{"TopLeft":{"Latitude":49.28119,"Longitude":1.7579},"BottomRight":{"Latitude":49.28021,"Longitude":1.75963}},"Address":{"Label":"27140 Gisors, France","Country":"FRA","State":"Normandie","County":"Eure","City":"Gisors","PostalCode":"27140","AdditionalData":[{"value":"France","key":"CountryName"},{"value":"Normandie","key":"StateName"},{"value":"Eure","key":"CountyName"}]},"MapReference":{"ReferenceId":"1068076433","Spot":1.0,"SideOfStreet":"left","CountryId":"20000001","StateId":"20057204","CountyId":"20002109","CityId":"20062154"}}},{"Relevance":1.0,"Distance":206.2,"MatchLevel":"street","MatchQuality":{"Country":1.0,"State":1.0,"County":1.0,"City":1.0,"Street":[1.0],"PostalCode":1.0},"Location":{"LocationId":"NT_KAZcQSvBZ68AvB.fln5OyD_l_545548157_L","LocationType":"point","DisplayPosition":{"Latitude":49.28306,"Longitude":1.76044},"MapView":{"TopLeft":{"Latitude":49.28306,"Longitude":1.76044},"BottomRight":{"Latitude":49.28296,"Longitude":1.7607}},"Address":{"Label":"Rue Albert Einstein, 27140 Gisors, France","Country":"FRA","State":"Normandie","County":"Eure","City":"Gisors","Street":"Rue Albert Einstein","PostalCode":"27140","AdditionalData":[{"value":"France","key":"CountryName"},{"value":"Normandie","key":"StateName"},{"value":"Eure","key":"CountyName"}]},"MapReference":{"ReferenceId":"545548157","Spot":1.0,"SideOfStreet":"left","CountryId":"20000001","StateId":"20057204","CountyId":"20002109","CityId":"20062154"}}},{"Relevance":1.0,"Distance":209.0,"MatchLevel":"street","MatchQuality":{"Country":1.0,"State":1.0,"County":1.0,"City":1.0,"Street":[1.0],"PostalCode":1.0},"Location":{"LocationId":"NT_zILEQtl4BZGpHK6NMsU34A_l_1230552387_R","LocationType":"point","DisplayPosition":{"Latitude":49.28429,"Longitude":1.75576},"MapView":{"TopLeft":{"Latitude":49.28429,"Longitude":1.75335},"BottomRight":{"Latitude":49.2808,"Longitude":1.75576}},"Address":{"Label":"D15 B, 27830 Neaufles-Saint-Martin, France","Country":"FRA","State":"Normandie","County":"Eure","City":"Neaufles-Saint-Martin","Street":"D15 B","PostalCode":"27830","AdditionalData":[{"value":"France","key":"CountryName"},{"value":"Normandie","key":"StateName"},{"value":"Eure","key":"CountyName"}]},"MapReference":{"ReferenceId":"1230552387","Spot":1.0,"SideOfStreet":"right","CountryId":"20000001","StateId":"20057204","CountyId":"20002109","CityId":"20062573"}}},{"Relevance":1.0,"Distance":216.3,"MatchLevel":"street","MatchQuality":{"Country":1.0,"State":1.0,"County":1.0,"City":1.0,"Street":[1.0],"PostalCode":1.0},"Location":{"LocationId":"NT_zILEQtl4BZGpHK6NMsU34A_l_1230222567_R","LocationType":"point","DisplayPosition":{"Latitude":49.2844444,"Longitude":1.7559037},"MapView":{"TopLeft":{"Latitude":49.28532,"Longitude":1.75576},"BottomRight":{"Latitude":49.28429,"Longitude":1.7568}},"Address":{"Label":"D15 B, 27830 Neaufles-Saint-Martin, France","Country":"FRA","State":"Normandie","County":"Eure","City":"Neaufles-Saint-Martin","Street":"D15 B","PostalCode":"27830","AdditionalData":[{"value":"France","key":"CountryName"},{"value":"Normandie","key":"StateName"},{"value":"Eure","key":"CountyName"}]},"MapReference":{"ReferenceId":"1230222567","Spot":0.14,"SideOfStreet":"right","CountryId":"20000001","StateId":"20057204","CountyId":"20002109","CityId":"20062573"}}},{"Relevance":1.0,"Distance":217.3,"MatchLevel":"houseNumber","MatchQuality":{"Country":1.0,"State":1.0,"County":1.0,"City":1.0,"Street":[1.0],"HouseNumber":1.0,"PostalCode":1.0},"MatchType":"interpolated","Location":{"LocationId":"NT_KAZcQSvBZ68AvB.fln5OyD_yUD","LocationType":"point","DisplayPosition":{"Latitude":49.2829,"Longitude":1.76071},"MapView":{"TopLeft":{"Latitude":49.2840242,"Longitude":1.7589867},"BottomRight":{"Latitude":49.2817758,"Longitude":1.7624333}},"Address":{"Label":"25 Rue Albert Einstein, 27140 Gisors, France","Country":"FRA","State":"Normandie","County":"Eure","City":"Gisors","Street":"Rue Albert Einstein","HouseNumber":"25","PostalCode":"27140","AdditionalData":[{"value":"France","key":"CountryName"},{"value":"Normandie","key":"StateName"},{"value":"Eure","key":"CountyName"}]},"MapReference":{"ReferenceId":"545548164","Spot":0.94,"SideOfStreet":"left","CountryId":"20000001","StateId":"20057204","CountyId":"20002109","CityId":"20062154","AddressId":"371039157","RoadLinkId":"47336088"}}},{"Relevance":1.0,"Distance":222.5,"MatchLevel":"houseNumber","MatchQuality":{"Country":1.0,"State":1.0,"County":1.0,"City":1.0,"Street":[1.0],"HouseNumber":1.0,"PostalCode":1.0},"MatchType":"interpolated","Location":{"LocationId":"NT_hPVqTUIMDNMOkPTKyhJC0C_ygD","LocationType":"point","DisplayPosition":{"Latitude":49.28298,"Longitude":1.76073},"MapView":{"TopLeft":{"Latitude":49.2841042,"Longitude":1.7590067},"BottomRight":{"Latitude":49.2818558,"Longitude":1.7624533}},"Address":{"Label":"28 Rue du Docteur Ladevie, 27140 Gisors, France","Country":"FRA","State":"Normandie","County":"Eure","City":"Gisors","Street":"Rue du Docteur Ladevie","HouseNumber":"28","PostalCode":"27140","AdditionalData":[{"value":"France","key":"CountryName"},{"value":"Normandie","key":"StateName"},{"value":"Eure","key":"CountyName"}]},"MapReference":{"ReferenceId":"545548175","Spot":0.03,"SideOfStreet":"left","CountryId":"20000001","StateId":"20057204","CountyId":"20002109","CityId":"20062154","AddressId":"361026299","RoadLinkId":"46576925"}}}]}]}}