{"Response":{"MetaInfo":{"Timestamp":"2020-03-28T10:18:15.364+0000","NextPageInformation":"2"},"View":[{"_type":"SearchResultsViewType","ViewId":0,"Result":[{"Relevance":1.0,"Distance":0.0,"Direction":0.0,"MatchLevel":"district","MatchQuality":{"Country":1.0,"State":1.0,"County":1.0,"City":1.0,"District":1.0,"PostalCode":1.0},"Location":{"LocationId":"NT_0Bmb6jGyLhDeSvUaj7kpDC","LocationType":"point","DisplayPosition":{"Latitude":49.2677718,"Longitude":11.0704672},"MapView":{"TopLeft":{"Latitude":49.27384,"Longitude":11.03497},"BottomRight":{"Latitude":49.26075,"Longitude":11.07431}},"Address":{"Label":"Büchenbach, Bayern, Deutschland","Country":"DEU","State":"Bayern","County":"Roth","City":"Büchenbach","District":"Büchenbach","PostalCode":"91186","AdditionalData":[{"value":"Deutschland","key":"CountryName"},{"value":"Bayern","key":"StateName"},{"value":"Roth","key":"CountyName"}]},"MapReference":{"ReferenceId":"541659859","SideOfStreet":"neither","CountryId":"20147700","StateId":"20177250","CountyId":"20183712","CityId":"20183722","DistrictId":"20183724"}}},{"Relevance":1.0,"Distance":8.4,"MatchLevel":"houseNumber","MatchQuality":{"Country":1.0,"State":1.0,"County":1.0,"City":1.0,"District":1.0,"Street":[1.0],"HouseNumber":1.0,"PostalCode":1.0},"MatchType":"interpolated","Location":{"LocationId":"NT_Jdx4W-oT25hmNMvI.CrupB_yAD","LocationType":"point","DisplayPosition":{"Latitude":49.2676,"Longitude":11.07034},"MapView":{"TopLeft":{"Latitude":49.2687242,"Longitude":11.0686172},"BottomRight":{"Latitude":49.2664758,"Longitude":11.0720628}},"Address":{"Label":"Untere Bahnhofstraße 20, 91186 Büchenbach, Deutschland","Country":"DEU","State":"Bayern","County":"Roth","City":"Büchenbach","District":"Büchenbach","Street":"Untere Bahnhofstraße","HouseNumber":"20","PostalCode":"91186","AdditionalData":[{"value":"Deutschland","key":"CountryName"},{"value":"Bayern","key":"StateName"},{"value":"Roth","key":"CountyName"}]},"MapReference":{"ReferenceId":"541659695","Spot":0.53,"SideOfStreet":"right","CountryId":"20147700","StateId":"20177250","CountyId":"20183712","CityId":"20183722","DistrictId":"20183724","AddressId":"182989183","RoadLinkId":"32892196"}}},{"Relevance":1.0,"Distance":20.3,"MatchLevel":"houseNumber","MatchQuality":{"Country":1.0,"State":1.0,"County":1.0,"City":1.0,"District":1.0,"Street":[1.0],"HouseNumber":1.0,"PostalCode":1.0},"MatchType":"interpolated","Location":{"LocationId":"NT_SEdM.tJGPi8liqfwNY3x4D_2kD","LocationType":"point","DisplayPosition":{"Latitude":49.26807,"Longitude":11.07024},"MapView":{"TopLeft":{"Latitude":49.2691942,"Longitude":11.0685172},"BottomRight":{"Latitude":49.2669458,"Longitude":11.0719628}},"Address":{"Label":"Ringstraße 69, 91186 Büchenbach, Deutschland","Country":"DEU","State":"Bayern","County":"Roth","City":"Büchenbach","District":"Büchenbach","Street":"Ringstraße","HouseNumber":"69","PostalCode":"91186","AdditionalData":[{"value":"Deutschland","key":"CountryName"},{"value":"Bayern","key":"StateName"},{"value":"Roth","key":"CountyName"}]},"MapReference":{"ReferenceId":"541659708","Spot":0.38,"SideOfStreet":"right","CountryId":"20147700","StateId":"20177250","CountyId":"20183712","CityId":"20183722","DistrictId":"20183724","AddressId":"186188213","RoadLinkId":"33024074"}}},{"Relevance":1.0,"Distance":23.1,"MatchLevel":"houseNumber","MatchQuality":{"Country":1.0,"State":1.0,"County":1.0,"City":1.0,"District":1.0,"Street":[1.0],"HouseNumber":1.0,"PostalCode":1.0},"MatchType":"interpolated","Location":{"LocationId":"NT_Jdx4W-oT25hmNMvI.CrupB_xYD","LocationType":"point","DisplayPosition":{"Latitude":49.26754,"Longitude":11.07072},"MapView":{"TopLeft":{"Latitude":49.2686642,"Longitude":11.0689972},"BottomRight":{"Latitude":49.2664158,"Longitude":11.0724428}},"Address":{"Label":"Untere Bahnhofstraße 16, 91186 Büchenbach, Deutschland","Country":"DEU","State":"Bayern","County":"Roth","City":"Büchenbach","District":"Büchenbach","Street":"Untere Bahnhofstraße","HouseNumber":"16","PostalCode":"91186","AdditionalData":[{"value":"Deutschland","key":"CountryName"},{"value":"Bayern","key":"StateName"},{"value":"Roth","key":"CountyName"}]},"MapReference":{"ReferenceId":"888130789","Spot":0.78,"SideOfStreet":"right","CountryId":"20147700","StateId":"20177250","CountyId":"20183712","CityId":"20183722","DistrictId":"20183724","AddressId":"183006893","RoadLinkId":"254263446"}}},{"Relevance":1.0,"Distance":31.5,"MatchLevel":"street","MatchQuality":{"Country":1.0,"State":1.0,"County":1.0,"City":1.0,"District":1.0,"Street":[1.0],"PostalCode":1.0},"Location":{"LocationId":"NT_SEdM.tJGPi8liqfwNY3x4D_l_541659748_R","LocationType":"point","DisplayPosition":{"Latitude":49.2677439,"Longitude":11.0700352},"MapView":{"TopLeft":{"Latitude":49.26798,"Longitude":11.07002},"BottomRight":{"Latitude":49.26767,"Longitude":11.07004}},"Address":{"Label":"Ringstraße, 91186 Büchenbach, Deutschland","Country":"DEU","State":"Bayern","County":"Roth","City":"Büchenbach","District":"Büchenbach","Street":"Ringstraße","PostalCode":"91186","AdditionalData":[{"value":"Deutschland","key":"CountryName"},{"value":"Bayern","key":"StateName"},{"value":"Roth","key":"CountyName"}]},"MapReference":{"ReferenceId":"541659748","Spot":0.24,"SideOfStreet":"right","CountryId":"20147700","StateId":"20177250","CountyId":"20183712","CityId":"20183722","DistrictId":"20183724"}}},{"Relevance":1.0,"Distance":33.0,"MatchLevel":"street","MatchQuality":{"Country":1.0,"State":1.0,"County":1.0,"City":1.0,"District":1.0,"Street":[1.0],"PostalCode":1.0},"Location":{"LocationId":"NT_Jdx4W-oT25hmNMvI.CrupB_l_576310913_R","LocationType":"point","DisplayPosition":{"Latitude":49.26767,"Longitude":11.07004},"MapView":{"TopLeft":{"Latitude":49.26776,"Longitude":11.06923},"BottomRight":{"Latitude":49.26767,"Longitude":11.07004}},"Address":{"Label":"Untere Bahnhofstraße, 91186 Büchenbach, Deutschland","Country":"DEU","State":"Bayern","County":"Roth","City":"Büchenbach","District":"Büchenbach","Street":"Untere Bahnhofstraße","PostalCode":"91186","AdditionalData":[{"value":"Deutschland","key":"CountryName"},{"value":"Bayern","key":"StateName"},{"value":"Roth","key":"CountyName"}]},"MapReference":{"ReferenceId":"576310913","Spot":0.0,"SideOfStreet":"right","CountryId":"20147700","StateId":"20177250","CountyId":"20183712","CityId":"20183722","DistrictId":"20183724"}}},{"Relevance":1.0,"Distance":33.2,"MatchLevel":"street","MatchQuality":{"Country":1.0,"State":1.0,"County":1.0,"City":1.0,"District":1.0,"Street":[1.0],"PostalCode":1.0},"Location":{"LocationId":"NT_SEdM.tJGPi8liqfwNY3x4D_l_541659726_L","LocationType":"point","DisplayPosition":{"Latitude":49.2679957,"Longitude":11.070769},"MapView":{"TopLeft":{"Latitude":49.26821,"Longitude":11.07061},"BottomRight":{"Latitude":49.2679,"Longitude":11.07084}},"Address":{"Label":"Ringstraße, 91186 Büchenbach, Deutschland","Country":"DEU","State":"Bayern","County":"Roth","City":"Büchenbach","District":"Büchenbach","Street":"Ringstraße","PostalCode":"91186","AdditionalData":[{"value":"Deutschland","key":"CountryName"},{"value":"Bayern","key":"StateName"},{"value":"Roth","key":"CountyName"}]},"MapReference":{"ReferenceId":"541659726","Spot":0.31,"SideOfStreet":"left","CountryId":"20147700","StateId":"20177250","CountyId":"20183712","CityId":"20183722","DistrictId":"20183724"}}},{"Relevance":1.0,"Distance":42.6,"MatchLevel":"houseNumber","MatchQuality":{"Country":1.0,"State":1.0,"County":1.0,"City":1.0,"District":1.0,"Street":[1.0],"HouseNumber":1.0,"PostalCode":1.0},"MatchType":"interpolated","Location":{"LocationId":"NT_Jdx4W-oT25hmNMvI.CrupB_xED","LocationType":"point","DisplayPosition":{"Latitude":49.26752,"Longitude":11.07091},"MapView":{"TopLeft":{"Latitude":49.2686442,"Longitude":11.0691872},"BottomRight":{"Latitude":49.2663958,"Longitude":11.0726328}},"Address":{"Label":"Untere Bahnhofstraße 11, 91186 Büchenbach, Deutschland","Country":"DEU","State":"Bayern","County":"Roth","City":"Büchenbach","District":"Büchenbach","Street":"Untere Bahnhofstraße","HouseNumber":"11","PostalCode":"91186","AdditionalData":[{"value":"Deutschland","key":"CountryName"},{"value":"Bayern","key":"StateName"},{"value":"Roth","key":"CountyName"}]},"MapReference":{"ReferenceId":"888130788","Spot":0.08,"SideOfStreet":"right","CountryId":"20147700","StateId":"20177250","CountyId":"20183712","CityId":"20183722","DistrictId":"20183724","AddressId":"182278838","RoadLinkId":"254263445"}}},{"Relevance":1.0,"Distance":49.8,"MatchLevel":"street","MatchQuality":{"Country":1.0,"State":1.0,"County":1.0,"City":1.0,"District":1.0,"Street":[1.0],"PostalCode":1.0},"Location":{"LocationId":"NT_SEdM.tJGPi8liqfwNY3x4D_l_541659727_R","LocationType":"point","DisplayPosition":{"Latitude":49.26821,"Longitude":11.07061},"MapView":{"TopLeft":{"Latitude":49.26834,"Longitude":11.07061},"BottomRight":{"Latitude":49.26821,"Longitude":11.07098}},"Address":{"Label":"Ringstraße, 91186 Büchenbach, Deutschland","Country":"DEU","State":"Bayern","County":"Roth","City":"Büchenbach","District":"Büchenbach","Street":"Ringstraße","PostalCode":"91186","AdditionalData":[{"value":"Deutschland","key":"CountryName"},{"value":"Bayern","key":"StateName"},{"value":"Roth","key":"CountyName"}]},"MapReference":{"ReferenceId":"541659727","Spot":0.0,"SideOfStreet":"right","CountryId":"20147700","StateId":"20177250","CountyId":"20183712","CityId":"20183722","DistrictId":"20183724"}}},{"Relevance":1.0,"Distance":52.5,"MatchLevel":"houseNumber","MatchQuality":{"Country":1.0,"State":1.0,"County":1.0,"City":1.0,"District":1.0,"Street":[1.0],"HouseNumber":1.0,"PostalCode":1.0},"MatchType":"interpolated","Location":{"LocationId":"NT_KJDkugJ04u6oYByyos7SiB_yA","LocationType":"point","DisplayPosition":{"Latitude":49.26733,"Longitude":11.07067},"MapView":{"TopLeft":{"Latitude":49.2684542,"Longitude":11.0689472},"BottomRight":{"Latitude":49.2662058,"Longitude":11.0723928}},"Address":{"Label":"Wiesenstraße 2, 91186 Büchenbach, Deutschland","Country":"DEU","State":"Bayern","County":"Roth","City":"Büchenbach","District":"Büchenbach","Street":"Wiesenstraße","HouseNumber":"2","PostalCode":"91186","AdditionalData":[{"value":"Deutschland","key":"CountryName"},{"value":"Bayern","key":"StateName"},{"value":"Roth","key":"CountyName"}]},"MapReference":{"ReferenceId":"541659765","Spot":0.48,"SideOfStreet":"left","CountryId":"20147700","StateId":"20177250","CountyId":"20183712","CityId":"20183722","DistrictId":"20183724","AddressId":"184747565","RoadLinkId":"32452758"}}}]}]}}