{"Response":{"MetaInfo":{"Timestamp":"2020-03-28T11:14:47.261+0000","NextPageInformation":"2"},"View":[{"_type":"SearchResultsViewType","ViewId":0,"Result":[{"Relevance":1.0,"Distance":0.0,"Direction":0.0,"MatchLevel":"city","MatchQuality":{"Country":1.0,"State":1.0,"County":1.0,"City":1.0,"PostalCode":1.0},"Location":{"LocationId":"NT_5TMCMLpdcytSHsdyEYp87B","LocationType":"point","DisplayPosition":{"Latitude":49.2081827,"Longitude":6.6891522},"MapView":{"TopLeft":{"Latitude":49.24614,"Longitude":6.62568},"BottomRight":{"Latitude":49.17673,"Longitude":6.73124}},"Address":{"Label":"Creutzwald, Grand Est, France","Country":"FRA","State":"Grand Est","County":"Moselle","City":"Creutzwald","PostalCode":"57150","AdditionalData":[{"value":"France","key":"CountryName"},{"value":"Grand Est","key":"StateName"},{"value":"Moselle","key":"CountyName"}]},"MapReference":{"ReferenceId":"1215956595","SideOfStreet":"neither","CountryId":"20000001","StateId":"20002047","CountyId":"20023153","CityId":"20023609"}}},{"Relevance":1.0,"Distance":53.1,"MatchLevel":"houseNumber","MatchQuality":{"Country":1.0,"State":1.0,"County":1.0,"City":1.0,"Street":[1.0],"HouseNumber":1.0,"PostalCode":1.0},"MatchType":"interpolated","Location":{"LocationId":"NT_3Fr8SzFnHOYQRKYajCB0QA_1A","LocationType":"point","DisplayPosition":{"Latitude":49.20871,"Longitude":6.68856},"MapView":{"TopLeft":{"Latitude":49.2098342,"Longitude":6.6868393},"BottomRight":{"Latitude":49.2075858,"Longitude":6.6902807}},"Address":{"Label":"5 Rue des Lupins, 57150 Creutzwald, France","Country":"FRA","State":"Grand Est","County":"Moselle","City":"Creutzwald","Street":"Rue des Lupins","HouseNumber":"5","PostalCode":"57150","AdditionalData":[{"value":"France","key":"CountryName"},{"value":"Grand Est","key":"StateName"},{"value":"Moselle","key":"CountyName"}]},"MapReference":{"ReferenceId":"1045789151","Spot":0.9,"SideOfStreet":"right","CountryId":"20000001","StateId":"20002047","CountyId":"20023153","CityId":"20023609","AddressId":"605671263","RoadLinkId":"365798246"}}},{"Relevance":1.0,"Distance":58.6,"MatchLevel":"houseNumber","MatchQuality":{"Country":1.0,"State":1.0,"County":1.0,"City":1.0,"Street":[1.0],"HouseNumber":1.0,"PostalCode":1.0},"MatchType":"interpolated","Location":{"LocationId":"NT_b7YdkPiRY42AS-e2Zqp5-A_xgD","LocationType":"point","DisplayPosition":{"Latitude":49.20824,"Longitude":6.68835},"MapView":{"TopLeft":{"Latitude":49.2093642,"Longitude":6.6866293},"BottomRight":{"Latitude":49.2071158,"Longitude":6.6900707}},"Address":{"Label":"18 Rue de la Mine, 57150 Creutzwald, France","Country":"FRA","State":"Grand Est","County":"Moselle","City":"Creutzwald","Street":"Rue de la Mine","HouseNumber":"18","PostalCode":"57150","AdditionalData":[{"value":"France","key":"CountryName"},{"value":"Grand Est","key":"StateName"},{"value":"Moselle","key":"CountyName"}]},"MapReference":{"ReferenceId":"1045789149","Spot":0.79,"SideOfStreet":"right","CountryId":"20000001","StateId":"20002047","CountyId":"20023153","CityId":"20023609","AddressId":"317744836","RoadLinkId":"365798244"}}},{"Relevance":1.0,"Distance":78.0,"MatchLevel":"street","MatchQuality":{"Country":1.0,"State":1.0,"County":1.0,"City":1.0,"Street":[1.0],"PostalCode":1.0},"Location":{"LocationId":"NT_b7YdkPiRY42AS-e2Zqp5-A_l_1045789150_R","LocationType":"point","DisplayPosition":{"Latitude":49.20848,"Longitude":6.68818},"MapView":{"TopLeft":{"Latitude":49.20886,"Longitude":6.68775},"BottomRight":{"Latitude":49.20848,"Longitude":6.68818}},"Address":{"Label":"Rue de la Mine, 57150 Creutzwald, France","Country":"FRA","State":"Grand Est","County":"Moselle","City":"Creutzwald","Street":"Rue de la Mine","PostalCode":"57150","AdditionalData":[{"value":"France","key":"CountryName"},{"value":"Grand Est","key":"StateName"},{"value":"Moselle","key":"CountyName"}]},"MapReference":{"ReferenceId":"1045789150","Spot":0.0,"SideOfStreet":"right","CountryId":"20000001","StateId":"20002047","CountyId":"20023153","CityId":"20023609"}}},{"Relevance":1.0,"Distance":103.7,"MatchLevel":"houseNumber","MatchQuality":{"Country":1.0,"State":1.0,"County":1.0,"City":1.0,"Street":[1.0],"HouseNumber":1.0,"PostalCode":1.0},"MatchType":"interpolated","Location":{"LocationId":"NT_b7YdkPiRY42AS-e2Zqp5-A_0ID","LocationType":"point","DisplayPosition":{"Latitude":49.20721,"Longitude":6.68914},"MapView":{"TopLeft":{"Latitude":49.2083342,"Longitude":6.6874193},"BottomRight":{"Latitude":49.2060858,"Longitude":6.6908607}},"Address":{"Label":"42 Rue de la Mine, 57150 Creutzwald, France","Country":"FRA","State":"Grand Est","County":"Moselle","City":"Creutzwald","Street":"Rue de la Mine","HouseNumber":"42","PostalCode":"57150","AdditionalData":[{"value":"France","key":"CountryName"},{"value":"Grand Est","key":"StateName"},{"value":"Moselle","key":"CountyName"}]},"MapReference":{"ReferenceId":"80854559","Spot":0.93,"SideOfStreet":"right","CountryId":"20000001","StateId":"20002047","CountyId":"20023153","CityId":"20023609","AddressId":"590601439","RoadLinkId":"44055758"}}},{"Relevance":1.0,"Distance":126.7,"MatchLevel":"street","MatchQuality":{"Country":1.0,"State":1.0,"County":1.0,"City":1.0,"Street":[1.0],"PostalCode":1.0},"Location":{"LocationId":"NT_b7YdkPiRY42AS-e2Zqp5-A_l_836626463_R","LocationType":"point","DisplayPosition":{"Latitude":49.20886,"Longitude":6.68775},"MapView":{"TopLeft":{"Latitude":49.21033,"Longitude":6.68563},"BottomRight":{"Latitude":49.20886,"Longitude":6.68775}},"Address":{"Label":"Rue de la Mine, 57150 Creutzwald, France","Country":"FRA","State":"Grand Est","County":"Moselle","City":"Creutzwald","Street":"Rue de la Mine","PostalCode":"57150","AdditionalData":[{"value":"France","key":"CountryName"},{"value":"Grand Est","key":"StateName"},{"value":"Moselle","key":"CountyName"}]},"MapReference":{"ReferenceId":"836626463","Spot":0.0,"SideOfStreet":"right","CountryId":"20000001","StateId":"20002047","CountyId":"20023153","CityId":"20023609"}}},{"Relevance":1.0,"Distance":126.7,"MatchLevel":"street","MatchQuality":{"Country":1.0,"State":1.0,"County":1.0,"City":1.0,"PostalCode":1.0},"Location":{"LocationId":"NT_PYw5a8f7N.vAn4pxduq2cB_l_1157893863_R","LocationType":"point","DisplayPosition":{"Latitude":49.20886,"Longitude":6.68775},"MapView":{"TopLeft":{"Latitude":49.20886,"Longitude":6.68624},"BottomRight":{"Latitude":49.20874,"Longitude":6.68775}},"Address":{"Label":"57150 Creutzwald, France","Country":"FRA","State":"Grand Est","County":"Moselle","City":"Creutzwald","PostalCode":"57150","AdditionalData":[{"value":"France","key":"CountryName"},{"value":"Grand Est","key":"StateName"},{"value":"Moselle","key":"CountyName"}]},"MapReference":{"ReferenceId":"1157893863","Spot":1.0,"SideOfStreet":"right","CountryId":"20000001","StateId":"20002047","CountyId":"20023153","CityId":"20023609"}}},{"Relevance":1.0,"Distance":149.9,"MatchLevel":"houseNumber","MatchQuality":{"Country":1.0,"State":1.0,"County":1.0,"City":1.0,"Street":[1.0],"HouseNumber":1.0,"PostalCode":1.0},"MatchType":"interpolated","Location":{"LocationId":"NT_hp3-xHEjXIh9e1U5brZ8TB_xAD","LocationType":"point","DisplayPosition":{"Latitude":49.2094,"Longitude":6.69004},"MapView":{"TopLeft":{"Latitude":49.2105242,"Longitude":6.6883193},"BottomRight":{"Latitude":49.2082758,"Longitude":6.6917607}},"Address":{"Label":"10 Rue des Anémones, 57150 Creutzwald, France","Country":"FRA","State":"Grand Est","County":"Moselle","City":"Creutzwald","Street":"Rue des Anémones","HouseNumber":"10","PostalCode":"57150","AdditionalData":[{"value":"France","key":"CountryName"},{"value":"Grand Est","key":"StateName"},{"value":"Moselle","key":"CountyName"}]},"MapReference":{"ReferenceId":"82950340","Spot":0.13,"SideOfStreet":"right","CountryId":"20000001","StateId":"20002047","CountyId":"20023153","CityId":"20023609","AddressId":"379628409","RoadLinkId":"44399292"}}},{"Relevance":1.0,"Distance":156.7,"MatchLevel":"street","MatchQuality":{"Country":1.0,"State":1.0,"County":1.0,"City":1.0,"Street":[1.0],"PostalCode":1.0},"Location":{"LocationId":"NT_hp3-xHEjXIh9e1U5brZ8TB_l_80854770_L","LocationType":"point","DisplayPosition":{"Latitude":49.20938,"Longitude":6.69029},"MapView":{"TopLeft":{"Latitude":49.20938,"Longitude":6.69029},"BottomRight":{"Latitude":49.20937,"Longitude":6.69129}},"Address":{"Label":"Rue des Anémones, 57150 Creutzwald, France","Country":"FRA","State":"Grand Est","County":"Moselle","City":"Creutzwald","Street":"Rue des Anémones","PostalCode":"57150","AdditionalData":[{"value":"France","key":"CountryName"},{"value":"Grand Est","key":"StateName"},{"value":"Moselle","key":"CountyName"}]},"MapReference":{"ReferenceId":"80854770","Spot":1.0,"SideOfStreet":"left","CountryId":"20000001","StateId":"20002047","CountyId":"20023153","CityId":"20023609"}}},{"Relevance":1.0,"Distance":157.8,"MatchLevel":"houseNumber","MatchQuality":{"Country":1.0,"State":1.0,"County":1.0,"City":1.0,"Street":[1.0],"HouseNumber":1.0,"PostalCode":1.0},"MatchType":"interpolated","Location":{"LocationId":"NT_3Fr8SzFnHOYQRKYajCB0QA_xMD","LocationType":"point","DisplayPosition":{"Latitude":49.20873,"Longitude":6.69125},"MapView":{"TopLeft":{"Latitude":49.2098542,"Longitude":6.6895293},"BottomRight":{"Latitude":49.2076058,"Longitude":6.6929707}},"Address":{"Label":"13 Rue des Lupins, 57150 Creutzwald, France","Country":"FRA","State":"Grand Est","County":"Moselle","City":"Creutzwald","Street":"Rue des Lupins","HouseNumber":"13","PostalCode":"57150","AdditionalData":[{"value":"France","key":"CountryName"},{"value":"Grand Est","key":"StateName"},{"value":"Moselle","key":"CountyName"}]},"MapReference":{"ReferenceId":"80854524","Spot":0.72,"SideOfStreet":"left","CountryId":"20000001","StateId":"20002047","CountyId":"20023153","CityId":"20023609","AddressId":"362172317","RoadLinkId":"44414733"}}}]}]}}