{"Response":{"MetaInfo":{"Timestamp":"2020-03-28T11:53:28.513+0000","NextPageInformation":"2"},"View":[{"_type":"SearchResultsViewType","ViewId":0,"Result":[{"Relevance":1.0,"Distance":0.0,"Direction":0.0,"MatchLevel":"city","MatchQuality":{"Country":1.0,"State":1.0,"County":1.0,"City":1.0,"PostalCode":1.0},"Location":{"LocationId":"NT_A-b1M.1cPsz4twj1PvXS1A","LocationType":"point","DisplayPosition":{"Latitude":49.286747,"Longitude":1.009441},"MapView":{"TopLeft":{"Latitude":49.30389,"Longitude":0.94919},"BottomRight":{"Latitude":49.25077,"Longitude":1.04534}},"Address":{"Label":"Elbeuf, Normandie, France","Country":"FRA","State":"Normandie","County":"Seine-Maritime","City":"Elbeuf","PostalCode":"76500","AdditionalData":[{"value":"France","key":"CountryName"},{"value":"Normandie","key":"StateName"},{"value":"Seine-Maritime","key":"CountyName"}]},"MapReference":{"ReferenceId":"545582013","SideOfStreet":"neither","CountryId":"20000001","StateId":"20057204","CountyId":"20038936","CityId":"20078481"}}},{"Relevance":1.0,"Distance":3.0,"MatchLevel":"houseNumber","MatchQuality":{"Country":1.0,"State":1.0,"County":1.0,"City":1.0,"Street":[1.0],"HouseNumber":1.0,"PostalCode":1.0},"MatchType":"interpolated","Location":{"LocationId":"NT_KKSdYp7N4JDYrYvgt4TweC_1ED","LocationType":"point","DisplayPosition":{"Latitude":49.28671,"Longitude":1.00942},"MapView":{"TopLeft":{"Latitude":49.2878342,"Longitude":1.0076966},"BottomRight":{"Latitude":49.2855858,"Longitude":1.0111434}},"Address":{"Label":"51 Rue du Général de Gaulle, 76500 Elbeuf, France","Country":"FRA","State":"Normandie","County":"Seine-Maritime","City":"Elbeuf","Street":"Rue du Général de Gaulle","HouseNumber":"51","PostalCode":"76500","AdditionalData":[{"value":"France","key":"CountryName"},{"value":"Normandie","key":"StateName"},{"value":"Seine-Maritime","key":"CountyName"}]},"MapReference":{"ReferenceId":"945298907","Spot":0.79,"SideOfStreet":"right","CountryId":"20000001","StateId":"20057204","CountyId":"20038936","CityId":"20078481","AddressId":"570965712","RoadLinkId":"293733674"}}},{"Relevance":1.0,"Distance":19.3,"MatchLevel":"houseNumber","MatchQuality":{"Country":1.0,"State":1.0,"County":1.0,"City":1.0,"Street":[1.0],"HouseNumber":1.0,"PostalCode":1.0},"MatchType":"interpolated","Location":{"LocationId":"NT_8kRQMAjmrtocprn9WhXxvD_2kD","LocationType":"point","DisplayPosition":{"Latitude":49.28701,"Longitude":1.00942},"MapView":{"TopLeft":{"Latitude":49.2881342,"Longitude":1.0076966},"BottomRight":{"Latitude":49.2858858,"Longitude":1.0111434}},"Address":{"Label":"69 Cours Carnot, 76500 Elbeuf, France","Country":"FRA","State":"Normandie","County":"Seine-Maritime","City":"Elbeuf","Street":"Cours Carnot","HouseNumber":"69","PostalCode":"76500","AdditionalData":[{"value":"France","key":"CountryName"},{"value":"Normandie","key":"StateName"},{"value":"Seine-Maritime","key":"CountyName"}]},"MapReference":{"ReferenceId":"851469614","Spot":0.75,"SideOfStreet":"left","CountryId":"20000001","StateId":"20057204","CountyId":"20038936","CityId":"20078481","AddressId":"316630623","RoadLinkId":"230770767"}}},{"Relevance":1.0,"Distance":27.4,"MatchLevel":"houseNumber","MatchQuality":{"Country":1.0,"State":1.0,"County":1.0,"City":1.0,"Street":[1.0],"HouseNumber":1.0,"PostalCode":1.0},"MatchType":"interpolated","Location":{"LocationId":"NT_8kRQMAjmrtocprn9WhXxvD_2cD","LocationType":"point","DisplayPosition":{"Latitude":49.28701,"Longitude":1.0097},"MapView":{"TopLeft":{"Latitude":49.2881342,"Longitude":1.0079766},"BottomRight":{"Latitude":49.2858858,"Longitude":1.0114234}},"Address":{"Label":"67 Cours Carnot, 76500 Elbeuf, France","Country":"FRA","State":"Normandie","County":"Seine-Maritime","City":"Elbeuf","Street":"Cours Carnot","HouseNumber":"67","PostalCode":"76500","AdditionalData":[{"value":"France","key":"CountryName"},{"value":"Normandie","key":"StateName"},{"value":"Seine-Maritime","key":"CountyName"}]},"MapReference":{"ReferenceId":"1221273009","Spot":0.18,"SideOfStreet":"right","CountryId":"20000001","StateId":"20057204","CountyId":"20038936","CityId":"20078481","AddressId":"316787864","RoadLinkId":"538637815"}}},{"Relevance":1.0,"Distance":31.1,"MatchLevel":"street","MatchQuality":{"Country":1.0,"State":1.0,"County":1.0,"City":1.0,"Street":[1.0],"PostalCode":1.0},"Location":{"LocationId":"NT_8kRQMAjmrtocprn9WhXxvD_l_851469615_L","LocationType":"point","DisplayPosition":{"Latitude":49.28702,"Longitude":1.00935},"MapView":{"TopLeft":{"Latitude":49.28703,"Longitude":1.00914},"BottomRight":{"Latitude":49.28702,"Longitude":1.00935}},"Address":{"Label":"Cours Carnot, 76500 Elbeuf, France","Country":"FRA","State":"Normandie","County":"Seine-Maritime","City":"Elbeuf","Street":"Cours Carnot","PostalCode":"76500","AdditionalData":[{"value":"France","key":"CountryName"},{"value":"Normandie","key":"StateName"},{"value":"Seine-Maritime","key":"CountyName"}]},"MapReference":{"ReferenceId":"851469615","Spot":0.0,"SideOfStreet":"left","CountryId":"20000001","StateId":"20057204","CountyId":"20038936","CityId":"20078481"}}},{"Relevance":1.0,"Distance":31.5,"MatchLevel":"houseNumber","MatchQuality":{"Country":1.0,"State":1.0,"County":1.0,"City":1.0,"Street":[1.0],"HouseNumber":1.0,"PostalCode":1.0},"MatchType":"interpolated","Location":{"LocationId":"NT_WPpRaCZW5mypMnASkOv-2D_xA","LocationType":"point","DisplayPosition":{"Latitude":49.28672,"Longitude":1.00894},"MapView":{"TopLeft":{"Latitude":49.2878442,"Longitude":1.0072166},"BottomRight":{"Latitude":49.2855958,"Longitude":1.0106634}},"Address":{"Label":"1 Rue du Neubourg, 76500 Elbeuf, France","Country":"FRA","State":"Normandie","County":"Seine-Maritime","City":"Elbeuf","Street":"Rue du Neubourg","HouseNumber":"1","PostalCode":"76500","AdditionalData":[{"value":"France","key":"CountryName"},{"value":"Normandie","key":"StateName"},{"value":"Seine-Maritime","key":"CountyName"}]},"MapReference":{"ReferenceId":"1068820585","Spot":0.7,"SideOfStreet":"right","CountryId":"20000001","StateId":"20057204","CountyId":"20038936","CityId":"20078481","AddressId":"316688464","RoadLinkId":"391133706"}}},{"Relevance":1.0,"Distance":33.0,"MatchLevel":"street","MatchQuality":{"Country":1.0,"State":1.0,"County":1.0,"City":1.0,"Street":[1.0],"PostalCode":1.0},"Location":{"LocationId":"NT_exl6NBCyC1SihZi119vo-D_l_57039933_R","LocationType":"point","DisplayPosition":{"Latitude":49.28695,"Longitude":1.00911},"MapView":{"TopLeft":{"Latitude":49.28695,"Longitude":1.00898},"BottomRight":{"Latitude":49.28692,"Longitude":1.00911}},"Address":{"Label":"Place du Calvaire, 76500 Elbeuf, France","Country":"FRA","State":"Normandie","County":"Seine-Maritime","City":"Elbeuf","Street":"Place du Calvaire","PostalCode":"76500","AdditionalData":[{"value":"France","key":"CountryName"},{"value":"Normandie","key":"StateName"},{"value":"Seine-Maritime","key":"CountyName"}]},"MapReference":{"ReferenceId":"57039933","Spot":1.0,"SideOfStreet":"right","CountryId":"20000001","StateId":"20057204","CountyId":"20038936","CityId":"20078481"}}},{"Relevance":1.0,"Distance":33.0,"MatchLevel":"street","MatchQuality":{"Country":1.0,"State":1.0,"County":1.0,"City":1.0,"Street":[1.0],"PostalCode":1.0},"Location":{"LocationId":"NT_exl6NBCyC1SihZi119vo-D_l_57039932_R","LocationType":"point","DisplayPosition":{"Latitude":49.28695,"Longitude":1.00911},"MapView":{"TopLeft":{"Latitude":49.28703,"Longitude":1.00911},"BottomRight":{"Latitude":49.28695,"Longitude":1.00914}},"Address":{"Label":"Place du Calvaire, 76500 Elbeuf, France","Country":"FRA","State":"Normandie","County":"Seine-Maritime","City":"Elbeuf","Street":"Place du Calvaire","PostalCode":"76500","AdditionalData":[{"value":"France","key":"CountryName"},{"value":"Normandie","key":"StateName"},{"value":"Seine-Maritime","key":"CountyName"}]},"MapReference":{"ReferenceId":"57039932","Spot":0.0,"SideOfStreet":"right","CountryId":"20000001","StateId":"20057204","CountyId":"20038936","CityId":"20078481"}}},{"Relevance":1.0,"Distance":38.3,"MatchLevel":"street","MatchQuality":{"Country":1.0,"State":1.0,"County":1.0,"City":1.0,"Street":[1.0],"PostalCode":1.0},"Location":{"LocationId":"NT_exl6NBCyC1SihZi119vo-D_l_57039924_R","LocationType":"point","DisplayPosition":{"Latitude":49.28703,"Longitude":1.00914},"MapView":{"TopLeft":{"Latitude":49.28711,"Longitude":1.00901},"BottomRight":{"Latitude":49.28703,"Longitude":1.00914}},"Address":{"Label":"Place du Calvaire, 76500 Elbeuf, France","Country":"FRA","State":"Normandie","County":"Seine-Maritime","City":"Elbeuf","Street":"Place du Calvaire","PostalCode":"76500","AdditionalData":[{"value":"France","key":"CountryName"},{"value":"Normandie","key":"StateName"},{"value":"Seine-Maritime","key":"CountyName"}]},"MapReference":{"ReferenceId":"57039924","Spot":0.0,"SideOfStreet":"right","CountryId":"20000001","StateId":"20057204","CountyId":"20038936","CityId":"20078481"}}},{"Relevance":1.0,"Distance":38.6,"MatchLevel":"street","MatchQuality":{"Country":1.0,"State":1.0,"County":1.0,"City":1.0,"Street":[1.0],"PostalCode":1.0},"Location":{"LocationId":"NT_exl6NBCyC1SihZi119vo-D_l_57039934_L","LocationType":"point","DisplayPosition":{"Latitude":49.28692,"Longitude":1.00898},"MapView":{"TopLeft":{"Latitude":49.28699,"Longitude":1.00886},"BottomRight":{"Latitude":49.28692,"Longitude":1.00898}},"Address":{"Label":"Place du Calvaire, 76500 Elbeuf, France","Country":"FRA","State":"Normandie","County":"Seine-Maritime","City":"Elbeuf","Street":"Place du Calvaire","PostalCode":"76500","AdditionalData":[{"value":"France","key":"CountryName"},{"value":"Normandie","key":"StateName"},{"value":"Seine-Maritime","key":"CountyName"}]},"MapReference":{"ReferenceId":"57039934","Spot":0.0,"SideOfStreet":"left","CountryId":"20000001","StateId":"20057204","CountyId":"20038936","CityId":"20078481"}}}]}]}}