{"Response":{"MetaInfo":{"Timestamp":"2020-03-28T09:34:28.272+0000","NextPageInformation":"2"},"View":[{"_type":"SearchResultsViewType","ViewId":0,"Result":[{"Relevance":1.0,"Distance":0.0,"Direction":0.0,"MatchLevel":"district","MatchQuality":{"Country":1.0,"State":1.0,"County":1.0,"City":1.0,"District":1.0,"PostalCode":1.0},"Location":{"LocationId":"NT_sYb72RL39wug5waFqVNXnD","LocationType":"point","DisplayPosition":{"Latitude":49.209583,"Longitude":16.1501797},"MapView":{"TopLeft":{"Latitude":49.2148,"Longitude":16.12974},"BottomRight":{"Latitude":49.19998,"Longitude":16.1644}},"Address":{"Label":"Náměšť nad Oslavou, Vysočina, Česká Republika","Country":"CZE","State":"Vysočina","County":"Třebíč","City":"Náměšť nad Oslavou","District":"Náměšť nad Oslavou","PostalCode":"675 71","AdditionalData":[{"value":"Česká Republika","key":"CountryName"},{"value":"Vysočina","key":"StateName"},{"value":"Třebíč","key":"CountyName"}]},"MapReference":{"ReferenceId":"576964921","SideOfStreet":"neither","CountryId":"20427915","StateId":"20433061","CountyId":"20434148","CityId":"20434440","DistrictId":"20434441"}}},{"Relevance":1.0,"Distance":8.9,"MatchLevel":"houseNumber","MatchQuality":{"Country":1.0,"State":1.0,"County":1.0,"City":1.0,"District":1.0,"Street":[1.0],"HouseNumber":1.0,"PostalCode":1.0},"MatchType":"interpolated","Location":{"LocationId":"NT_lQO1dxuNpDWs0VDo-dvnpD_4kDO","LocationType":"point","DisplayPosition":{"Latitude":49.20983,"Longitude":16.15027},"MapView":{"TopLeft":{"Latitude":49.2109542,"Longitude":16.1485492},"BottomRight":{"Latitude":49.2087058,"Longitude":16.1519908}},"Address":{"Label":"Husova 898, 675 71 Náměšť nad Oslavou, Česká Republika","Country":"CZE","State":"Vysočina","County":"Třebíč","City":"Náměšť nad Oslavou","District":"Náměšť nad Oslavou","Street":"Husova","HouseNumber":"898","PostalCode":"675 71","AdditionalData":[{"value":"Česká Republika","key":"CountryName"},{"value":"Vysočina","key":"StateName"},{"value":"Třebíč","key":"CountyName"}]},"MapReference":{"ReferenceId":"705030875","Spot":0.48,"SideOfStreet":"left","CountryId":"20427915","StateId":"20433061","CountyId":"20434148","CityId":"20434440","DistrictId":"20434441","AddressId":"240436701","RoadLinkId":"111578861"}}},{"Relevance":1.0,"Distance":32.4,"MatchLevel":"houseNumber","MatchQuality":{"Country":1.0,"State":1.0,"County":1.0,"City":1.0,"District":1.0,"Street":[1.0],"HouseNumber":1.0,"PostalCode":1.0},"MatchType":"interpolated","Location":{"LocationId":"NT_fwfgKuWLWWyMd.0gNJehcD_zcDO","LocationType":"point","DisplayPosition":{"Latitude":49.20937,"Longitude":16.15073},"MapView":{"TopLeft":{"Latitude":49.2104942,"Longitude":16.1490093},"BottomRight":{"Latitude":49.2082458,"Longitude":16.1524507}},"Address":{"Label":"Havlíčkova 378, 675 71 Náměšť nad Oslavou, Česká Republika","Country":"CZE","State":"Vysočina","County":"Třebíč","City":"Náměšť nad Oslavou","District":"Náměšť nad Oslavou","Street":"Havlíčkova","HouseNumber":"378","PostalCode":"675 71","AdditionalData":[{"value":"Česká Republika","key":"CountryName"},{"value":"Vysočina","key":"StateName"},{"value":"Třebíč","key":"CountyName"}]},"MapReference":{"ReferenceId":"705030872","Spot":0.72,"SideOfStreet":"left","CountryId":"20427915","StateId":"20433061","CountyId":"20434148","CityId":"20434440","DistrictId":"20434441","AddressId":"240047730","RoadLinkId":"111578858"}}},{"Relevance":1.0,"Distance":55.3,"MatchLevel":"houseNumber","MatchQuality":{"Country":1.0,"State":1.0,"County":1.0,"City":1.0,"District":1.0,"Street":[1.0],"HouseNumber":1.0,"PostalCode":1.0},"MatchType":"interpolated","Location":{"LocationId":"NT_EzmVtZ22Wxg7yhfynawZtA_0ATM","LocationType":"point","DisplayPosition":{"Latitude":49.20992,"Longitude":16.14947},"MapView":{"TopLeft":{"Latitude":49.2110442,"Longitude":16.1477492},"BottomRight":{"Latitude":49.2087958,"Longitude":16.1511908}},"Address":{"Label":"Na Křemelkách 401, 675 71 Náměšť nad Oslavou, Česká Republika","Country":"CZE","State":"Vysočina","County":"Třebíč","City":"Náměšť nad Oslavou","District":"Náměšť nad Oslavou","Street":"Na Křemelkách","HouseNumber":"401","PostalCode":"675 71","AdditionalData":[{"value":"Česká Republika","key":"CountryName"},{"value":"Vysočina","key":"StateName"},{"value":"Třebíč","key":"CountyName"}]},"MapReference":{"ReferenceId":"748824770","Spot":0.8,"SideOfStreet":"right","CountryId":"20427915","StateId":"20433061","CountyId":"20434148","CityId":"20434440","DistrictId":"20434441","AddressId":"240798884","RoadLinkId":"145649703"}}},{"Relevance":1.0,"Distance":57.6,"MatchLevel":"houseNumber","MatchQuality":{"Country":1.0,"State":1.0,"County":1.0,"City":1.0,"District":1.0,"Street":[1.0],"HouseNumber":1.0,"PostalCode":1.0},"MatchType":"interpolated","Location":{"LocationId":"NT_lQO1dxuNpDWs0VDo-dvnpD_zgDN","LocationType":"point","DisplayPosition":{"Latitude":49.20953,"Longitude":16.15102},"MapView":{"TopLeft":{"Latitude":49.2106542,"Longitude":16.1492993},"BottomRight":{"Latitude":49.2084058,"Longitude":16.1527407}},"Address":{"Label":"Husova 384, 675 71 Náměšť nad Oslavou, Česká Republika","Country":"CZE","State":"Vysočina","County":"Třebíč","City":"Náměšť nad Oslavou","District":"Náměšť nad Oslavou","Street":"Husova","HouseNumber":"384","PostalCode":"675 71","AdditionalData":[{"value":"Česká Republika","key":"CountryName"},{"value":"Vysočina","key":"StateName"},{"value":"Třebíč","key":"CountyName"}]},"MapReference":{"ReferenceId":"705030824","Spot":0.91,"SideOfStreet":"left","CountryId":"20427915","StateId":"20433061","CountyId":"20434148","CityId":"20434440","DistrictId":"20434441","AddressId":"241200861","RoadLinkId":"111578810"}}},{"Relevance":1.0,"Distance":61.4,"MatchLevel":"houseNumber","MatchQuality":{"Country":1.0,"State":1.0,"County":1.0,"City":1.0,"District":1.0,"Street":[1.0],"HouseNumber":1.0,"PostalCode":1.0},"MatchType":"interpolated","Location":{"LocationId":"NT_fwfgKuWLWWyMd.0gNJehcD_xATN1A","LocationType":"point","DisplayPosition":{"Latitude":49.2098,"Longitude":16.15106},"MapView":{"TopLeft":{"Latitude":49.2109242,"Longitude":16.1493392},"BottomRight":{"Latitude":49.2086758,"Longitude":16.1527808}},"Address":{"Label":"Havlíčkova 1055, 675 71 Náměšť nad Oslavou, Česká Republika","Country":"CZE","State":"Vysočina","County":"Třebíč","City":"Náměšť nad Oslavou","District":"Náměšť nad Oslavou","Street":"Havlíčkova","HouseNumber":"1055","PostalCode":"675 71","AdditionalData":[{"value":"Česká Republika","key":"CountryName"},{"value":"Vysočina","key":"StateName"},{"value":"Třebíč","key":"CountyName"}]},"MapReference":{"ReferenceId":"705030877","Spot":0.23,"SideOfStreet":"left","CountryId":"20427915","StateId":"20433061","CountyId":"20434148","CityId":"20434440","DistrictId":"20434441","AddressId":"589461072","RoadLinkId":"111578863"}}},{"Relevance":1.0,"Distance":81.5,"MatchLevel":"houseNumber","MatchQuality":{"Country":1.0,"State":1.0,"County":1.0,"City":1.0,"District":1.0,"Street":[1.0],"HouseNumber":1.0,"PostalCode":1.0},"MatchType":"interpolated","Location":{"LocationId":"NT_fwfgKuWLWWyMd.0gNJehcD_yMTN","LocationType":"point","DisplayPosition":{"Latitude":49.2088,"Longitude":16.1503},"MapView":{"TopLeft":{"Latitude":49.2099242,"Longitude":16.1485793},"BottomRight":{"Latitude":49.2076758,"Longitude":16.1520207}},"Address":{"Label":"Havlíčkova 235, 675 71 Náměšť nad Oslavou, Česká Republika","Country":"CZE","State":"Vysočina","County":"Třebíč","City":"Náměšť nad Oslavou","District":"Náměšť nad Oslavou","Street":"Havlíčkova","HouseNumber":"235","PostalCode":"675 71","AdditionalData":[{"value":"Česká Republika","key":"CountryName"},{"value":"Vysočina","key":"StateName"},{"value":"Třebíč","key":"CountyName"}]},"MapReference":{"ReferenceId":"705030874","Spot":0.96,"SideOfStreet":"left","CountryId":"20427915","StateId":"20433061","CountyId":"20434148","CityId":"20434440","DistrictId":"20434441","AddressId":"241333082","RoadLinkId":"111578860"}}},{"Relevance":1.0,"Distance":85.5,"MatchLevel":"houseNumber","MatchQuality":{"Country":1.0,"State":1.0,"County":1.0,"City":1.0,"District":1.0,"Street":[1.0],"HouseNumber":1.0,"PostalCode":1.0},"MatchType":"interpolated","Location":{"LocationId":"NT_16NaH848e-I35jYYQ6qqaA_1MDM","LocationType":"point","DisplayPosition":{"Latitude":49.20921,"Longitude":16.14892},"MapView":{"TopLeft":{"Latitude":49.2103342,"Longitude":16.1471993},"BottomRight":{"Latitude":49.2080858,"Longitude":16.1506407}},"Address":{"Label":"Jar. Ježka 530, 675 71 Náměšť nad Oslavou, Česká Republika","Country":"CZE","State":"Vysočina","County":"Třebíč","City":"Náměšť nad Oslavou","District":"Náměšť nad Oslavou","Street":"Jar. Ježka","HouseNumber":"530","PostalCode":"675 71","AdditionalData":[{"value":"Česká Republika","key":"CountryName"},{"value":"Vysočina","key":"StateName"},{"value":"Třebíč","key":"CountyName"}]},"MapReference":{"ReferenceId":"748824769","Spot":0.0,"SideOfStreet":"right","CountryId":"20427915","StateId":"20433061","CountyId":"20434148","CityId":"20434440","DistrictId":"20434441","AddressId":"589459454","RoadLinkId":"145649702"}}},{"Relevance":1.0,"Distance":96.5,"MatchLevel":"houseNumber","MatchQuality":{"Country":1.0,"State":1.0,"County":1.0,"City":1.0,"District":1.0,"Street":[1.0],"HouseNumber":1.0,"PostalCode":1.0},"MatchType":"interpolated","Location":{"LocationId":"NT_EzmVtZ22Wxg7yhfynawZtA_3YDO","LocationType":"point","DisplayPosition":{"Latitude":49.21051,"Longitude":16.14991},"MapView":{"TopLeft":{"Latitude":49.2116342,"Longitude":16.1481892},"BottomRight":{"Latitude":49.2093858,"Longitude":16.1516308}},"Address":{"Label":"Na Křemelkách 768, 675 71 Náměšť nad Oslavou, Česká Republika","Country":"CZE","State":"Vysočina","County":"Třebíč","City":"Náměšť nad Oslavou","District":"Náměšť nad Oslavou","Street":"Na Křemelkách","HouseNumber":"768","PostalCode":"675 71","AdditionalData":[{"value":"Česká Republika","key":"CountryName"},{"value":"Vysočina","key":"StateName"},{"value":"Třebíč","key":"CountyName"}]},"MapReference":{"ReferenceId":"705030837","Spot":0.42,"SideOfStreet":"right","CountryId":"20427915","StateId":"20433061","CountyId":"20434148","CityId":"20434440","DistrictId":"20434441","AddressId":"239573122","RoadLinkId":"111578823"}}},{"Relevance":1.0,"Distance":99.1,"MatchLevel":"houseNumber","MatchQuality":{"Country":1.0,"State":1.0,"County":1.0,"City":1.0,"District":1.0,"Street":[1.0],"HouseNumber":1.0,"PostalCode":1.0},"MatchType":"interpolated","Location":{"LocationId":"NT_0o7Nm8-dkjJUl-KCPz2InB_zkDO","LocationType":"point","DisplayPosition":{"Latitude":49.20867,"Longitude":16.15074},"MapView":{"TopLeft":{"Latitude":49.2097942,"Longitude":16.1490193},"BottomRight":{"Latitude":49.2075458,"Longitude":16.1524607}},"Address":{"Label":"Na Vyhlídce 398, 675 71 Náměšť nad Oslavou, Česká Republika","Country":"CZE","State":"Vysočina","County":"Třebíč","City":"Náměšť nad Oslavou","District":"Náměšť nad Oslavou","Street":"Na Vyhlídce","HouseNumber":"398","PostalCode":"675 71","AdditionalData":[{"value":"Česká Republika","key":"CountryName"},{"value":"Vysočina","key":"StateName"},{"value":"Třebíč","key":"CountyName"}]},"MapReference":{"ReferenceId":"705030873","Spot":0.72,"SideOfStreet":"right","CountryId":"20427915","StateId":"20433061","CountyId":"20434148","CityId":"20434440","DistrictId":"20434441","AddressId":"240068877","RoadLinkId":"111578859"}}}]}]}}