{"Response":{"MetaInfo":{"Timestamp":"2020-03-28T11:40:19.610+0000","NextPageInformation":"2"},"View":[{"_type":"SearchResultsViewType","ViewId":0,"Result":[{"Relevance":1.0,"Distance":0.0,"Direction":0.0,"MatchLevel":"district","MatchQuality":{"Country":1.0,"State":1.0,"County":1.0,"City":1.0,"District":1.0,"PostalCode":1.0},"Location":{"LocationId":"NT_UuaqNRcbPCho9t7uE82v0D","LocationType":"point","DisplayPosition":{"Latitude":49.2975662,"Longitude":9.9738901},"MapView":{"TopLeft":{"Latitude":49.30508,"Longitude":9.95613},"BottomRight":{"Latitude":49.29057,"Longitude":9.98187}},"Address":{"Label":"Blaufelden, Baden-Württemberg, Deutschland","Country":"DEU","State":"Baden-Württemberg","County":"Schwäbisch Hall","City":"Blaufelden","District":"Blaufelden","PostalCode":"74572","AdditionalData":[{"value":"Deutschland","key":"CountryName"},{"value":"Baden-Württemberg","key":"StateName"},{"value":"Schwäbisch Hall","key":"CountyName"}]},"MapReference":{"ReferenceId":"540906337","SideOfStreet":"neither","CountryId":"20147700","StateId":"20171489","CountyId":"20172627","CityId":"20172628","DistrictId":"20172632"}}},{"Relevance":1.0,"Distance":15.3,"MatchLevel":"houseNumber","MatchQuality":{"Country":1.0,"State":1.0,"County":1.0,"City":1.0,"District":1.0,"Street":[1.0],"HouseNumber":1.0,"PostalCode":1.0},"MatchType":"interpolated","Location":{"LocationId":"NT_RSQ9dTJUDYP9T6s-.WrX4B_0A","LocationType":"point","DisplayPosition":{"Latitude":49.29743,"Longitude":9.97416},"MapView":{"TopLeft":{"Latitude":49.2985542,"Longitude":9.9724362},"BottomRight":{"Latitude":49.2963058,"Longitude":9.9758838}},"Address":{"Label":"Hauptstraße 4, 74572 Blaufelden, Deutschland","Country":"DEU","State":"Baden-Württemberg","County":"Schwäbisch Hall","City":"Blaufelden","District":"Blaufelden","Street":"Hauptstraße","HouseNumber":"4","PostalCode":"74572","AdditionalData":[{"value":"Deutschland","key":"CountryName"},{"value":"Baden-Württemberg","key":"StateName"},{"value":"Schwäbisch Hall","key":"CountyName"}]},"MapReference":{"ReferenceId":"537947578","Spot":0.36,"SideOfStreet":"left","CountryId":"20147700","StateId":"20171489","CountyId":"20172627","CityId":"20172628","DistrictId":"20172632","AddressId":"180106842","RoadLinkId":"38669215"}}},{"Relevance":1.0,"Distance":25.7,"MatchLevel":"houseNumber","MatchQuality":{"Country":1.0,"State":1.0,"County":1.0,"City":1.0,"District":1.0,"Street":[1.0],"HouseNumber":1.0,"PostalCode":1.0},"MatchType":"interpolated","Location":{"LocationId":"NT_52KZQ5bxzaHHeqGAq7Bz1B_yMD","LocationType":"point","DisplayPosition":{"Latitude":49.29739,"Longitude":9.97346},"MapView":{"TopLeft":{"Latitude":49.2985142,"Longitude":9.9717362},"BottomRight":{"Latitude":49.2962658,"Longitude":9.9751838}},"Address":{"Label":"Nonnengasse 23, 74572 Blaufelden, Deutschland","Country":"DEU","State":"Baden-Württemberg","County":"Schwäbisch Hall","City":"Blaufelden","District":"Blaufelden","Street":"Nonnengasse","HouseNumber":"23","PostalCode":"74572","AdditionalData":[{"value":"Deutschland","key":"CountryName"},{"value":"Baden-Württemberg","key":"StateName"},{"value":"Schwäbisch Hall","key":"CountyName"}]},"MapReference":{"ReferenceId":"537951250","Spot":0.5,"SideOfStreet":"left","CountryId":"20147700","StateId":"20171489","CountyId":"20172627","CityId":"20172628","DistrictId":"20172632","AddressId":"180091700","RoadLinkId":"38516223"}}},{"Relevance":1.0,"Distance":32.3,"MatchLevel":"street","MatchQuality":{"Country":1.0,"State":1.0,"County":1.0,"City":1.0,"District":1.0,"Street":[1.0],"PostalCode":1.0},"Location":{"LocationId":"NT_RSQ9dTJUDYP9T6s-.WrX4B_l_906610946_L","LocationType":"point","DisplayPosition":{"Latitude":49.2973,"Longitude":9.97407},"MapView":{"TopLeft":{"Latitude":49.2973,"Longitude":9.97404},"BottomRight":{"Latitude":49.29724,"Longitude":9.97407}},"Address":{"Label":"Hauptstraße, 74572 Blaufelden, Deutschland","Country":"DEU","State":"Baden-Württemberg","County":"Schwäbisch Hall","City":"Blaufelden","District":"Blaufelden","Street":"Hauptstraße","PostalCode":"74572","AdditionalData":[{"value":"Deutschland","key":"CountryName"},{"value":"Baden-Württemberg","key":"StateName"},{"value":"Schwäbisch Hall","key":"CountyName"}]},"MapReference":{"ReferenceId":"906610946","Spot":1.0,"SideOfStreet":"left","CountryId":"20147700","StateId":"20171489","CountyId":"20172627","CityId":"20172628","DistrictId":"20172632"}}},{"Relevance":1.0,"Distance":36.7,"MatchLevel":"street","MatchQuality":{"Country":1.0,"State":1.0,"County":1.0,"City":1.0,"District":1.0,"Street":[1.0],"PostalCode":1.0},"Location":{"LocationId":"NT_v3NMyXmdMCTYWsD1fYsKqB_l_840784472_L","LocationType":"point","DisplayPosition":{"Latitude":49.2976764,"Longitude":9.9743677},"MapView":{"TopLeft":{"Latitude":49.29771,"Longitude":9.97436},"BottomRight":{"Latitude":49.29758,"Longitude":9.97439}},"Address":{"Label":"Rothenburger Straße, 74572 Blaufelden, Deutschland","Country":"DEU","State":"Baden-Württemberg","County":"Schwäbisch Hall","City":"Blaufelden","District":"Blaufelden","Street":"Rothenburger Straße","PostalCode":"74572","AdditionalData":[{"value":"Deutschland","key":"CountryName"},{"value":"Baden-Württemberg","key":"StateName"},{"value":"Schwäbisch Hall","key":"CountyName"}]},"MapReference":{"ReferenceId":"840784472","Spot":0.74,"SideOfStreet":"left","CountryId":"20147700","StateId":"20171489","CountyId":"20172627","CityId":"20172628","DistrictId":"20172632"}}},{"Relevance":1.0,"Distance":37.6,"MatchLevel":"street","MatchQuality":{"Country":1.0,"State":1.0,"County":1.0,"City":1.0,"District":1.0,"Street":[1.0],"PostalCode":1.0},"Location":{"LocationId":"NT_v3NMyXmdMCTYWsD1fYsKqB_l_840784473_L","LocationType":"point","DisplayPosition":{"Latitude":49.29771,"Longitude":9.97436},"MapView":{"TopLeft":{"Latitude":49.29784,"Longitude":9.97436},"BottomRight":{"Latitude":49.29771,"Longitude":9.97436}},"Address":{"Label":"Rothenburger Straße, 74572 Blaufelden, Deutschland","Country":"DEU","State":"Baden-Württemberg","County":"Schwäbisch Hall","City":"Blaufelden","District":"Blaufelden","Street":"Rothenburger Straße","PostalCode":"74572","AdditionalData":[{"value":"Deutschland","key":"CountryName"},{"value":"Baden-Württemberg","key":"StateName"},{"value":"Schwäbisch Hall","key":"CountyName"}]},"MapReference":{"ReferenceId":"840784473","Spot":0.0,"SideOfStreet":"left","CountryId":"20147700","StateId":"20171489","CountyId":"20172627","CityId":"20172628","DistrictId":"20172632"}}},{"Relevance":1.0,"Distance":38.4,"MatchLevel":"street","MatchQuality":{"Country":1.0,"State":1.0,"County":1.0,"City":1.0,"District":1.0,"Street":[1.0],"PostalCode":1.0},"Location":{"LocationId":"NT_0Z0k5ggJueDFfLrv2339MD_l_537951249_L","LocationType":"point","DisplayPosition":{"Latitude":49.29788,"Longitude":9.97411},"MapView":{"TopLeft":{"Latitude":49.29788,"Longitude":9.97411},"BottomRight":{"Latitude":49.29784,"Longitude":9.97436}},"Address":{"Label":"Schulstraße, 74572 Blaufelden, Deutschland","Country":"DEU","State":"Baden-Württemberg","County":"Schwäbisch Hall","City":"Blaufelden","District":"Blaufelden","Street":"Schulstraße","PostalCode":"74572","AdditionalData":[{"value":"Deutschland","key":"CountryName"},{"value":"Baden-Württemberg","key":"StateName"},{"value":"Schwäbisch Hall","key":"CountyName"}]},"MapReference":{"ReferenceId":"537951249","Spot":1.0,"SideOfStreet":"left","CountryId":"20147700","StateId":"20171489","CountyId":"20172627","CityId":"20172628","DistrictId":"20172632"}}},{"Relevance":1.0,"Distance":44.7,"MatchLevel":"houseNumber","MatchQuality":{"Country":1.0,"State":1.0,"County":1.0,"City":1.0,"District":1.0,"Street":[1.0],"HouseNumber":1.0,"PostalCode":1.0},"MatchType":"interpolated","Location":{"LocationId":"NT_dhdwetzLQKccgdrbKSn9lA_xA","LocationType":"point","DisplayPosition":{"Latitude":49.29724,"Longitude":9.97425},"MapView":{"TopLeft":{"Latitude":49.2983642,"Longitude":9.9725262},"BottomRight":{"Latitude":49.2961158,"Longitude":9.9759738}},"Address":{"Label":"Rosengasse 1, 74572 Blaufelden, Deutschland","Country":"DEU","State":"Baden-Württemberg","County":"Schwäbisch Hall","City":"Blaufelden","District":"Blaufelden","Street":"Rosengasse","HouseNumber":"1","PostalCode":"74572","AdditionalData":[{"value":"Deutschland","key":"CountryName"},{"value":"Baden-Württemberg","key":"StateName"},{"value":"Schwäbisch Hall","key":"CountyName"}]},"MapReference":{"ReferenceId":"537950801","Spot":0.86,"SideOfStreet":"right","CountryId":"20147700","StateId":"20171489","CountyId":"20172627","CityId":"20172628","DistrictId":"20172632","AddressId":"180286596","RoadLinkId":"38362613"}}},{"Relevance":1.0,"Distance":46.1,"MatchLevel":"houseNumber","MatchQuality":{"Country":1.0,"State":1.0,"County":1.0,"City":1.0,"District":1.0,"Street":[1.0],"HouseNumber":1.0,"PostalCode":1.0},"MatchType":"interpolated","Location":{"LocationId":"NT_RSQ9dTJUDYP9T6s-.WrX4B_2A","LocationType":"point","DisplayPosition":{"Latitude":49.2971,"Longitude":9.97396},"MapView":{"TopLeft":{"Latitude":49.2982242,"Longitude":9.9722362},"BottomRight":{"Latitude":49.2959758,"Longitude":9.9756838}},"Address":{"Label":"Hauptstraße 6, 74572 Blaufelden, Deutschland","Country":"DEU","State":"Baden-Württemberg","County":"Schwäbisch Hall","City":"Blaufelden","District":"Blaufelden","Street":"Hauptstraße","HouseNumber":"6","PostalCode":"74572","AdditionalData":[{"value":"Deutschland","key":"CountryName"},{"value":"Baden-Württemberg","key":"StateName"},{"value":"Schwäbisch Hall","key":"CountyName"}]},"MapReference":{"ReferenceId":"906610945","Spot":0.74,"SideOfStreet":"left","CountryId":"20147700","StateId":"20171489","CountyId":"20172627","CityId":"20172628","DistrictId":"20172632","AddressId":"179679107","RoadLinkId":"267221324"}}},{"Relevance":1.0,"Distance":46.4,"MatchLevel":"houseNumber","MatchQuality":{"Country":1.0,"State":1.0,"County":1.0,"City":1.0,"District":1.0,"Street":[1.0],"HouseNumber":1.0,"PostalCode":1.0},"MatchType":"interpolated","Location":{"LocationId":"NT_GOT-ZKCfkN7ArLbpyCE4nD_1A","LocationType":"point","DisplayPosition":{"Latitude":49.29777,"Longitude":9.97327},"MapView":{"TopLeft":{"Latitude":49.2988942,"Longitude":9.9715462},"BottomRight":{"Latitude":49.2966458,"Longitude":9.9749938}},"Address":{"Label":"Grabenstraße 5, 74572 Blaufelden, Deutschland","Country":"DEU","State":"Baden-Württemberg","County":"Schwäbisch Hall","City":"Blaufelden","District":"Blaufelden","Street":"Grabenstraße","HouseNumber":"5","PostalCode":"74572","AdditionalData":[{"value":"Deutschland","key":"CountryName"},{"value":"Baden-Württemberg","key":"StateName"},{"value":"Schwäbisch Hall","key":"CountyName"}]},"MapReference":{"ReferenceId":"537947566","Spot":0.58,"SideOfStreet":"right","CountryId":"20147700","StateId":"20171489","CountyId":"20172627","CityId":"20172628","DistrictId":"20172632","AddressId":"179248062","RoadLinkId":"38654376"}}}]}]}}