{"Response":{"MetaInfo":{"Timestamp":"2020-03-28T10:27:31.414+0000","NextPageInformation":"2"},"View":[{"_type":"SearchResultsViewType","ViewId":0,"Result":[{"Relevance":1.0,"Distance":0.0,"Direction":0.0,"MatchLevel":"city","MatchQuality":{"Country":1.0,"State":1.0,"County":1.0,"City":1.0,"PostalCode":1.0},"Location":{"LocationId":"NT_EeaXE11SerwlODhZVUIIkA","LocationType":"point","DisplayPosition":{"Latitude":49.2565567,"Longitude":2.4365971},"MapView":{"TopLeft":{"Latitude":49.28123,"Longitude":2.40019},"BottomRight":{"Latitude":49.24436,"Longitude":2.46036}},"Address":{"Label":"Montataire, Hauts-de-France, France","Country":"FRA","State":"Hauts-de-France","County":"Oise","City":"Montataire","PostalCode":"60160","AdditionalData":[{"value":"France","key":"CountryName"},{"value":"Hauts-de-France","key":"StateName"},{"value":"Oise","key":"CountyName"}]},"MapReference":{"ReferenceId":"563286779","SideOfStreet":"neither","CountryId":"20000001","StateId":"20000002","CountyId":"20002123","CityId":"20029283"}}},{"Relevance":1.0,"Distance":13.5,"MatchLevel":"houseNumber","MatchQuality":{"Country":1.0,"State":1.0,"County":1.0,"City":1.0,"Street":[1.0],"HouseNumber":1.0,"PostalCode":1.0},"MatchType":"interpolated","Location":{"LocationId":"NT_ABuLq8Wco561T.3Q4ki6YB_4QD","LocationType":"point","DisplayPosition":{"Latitude":49.25671,"Longitude":2.43653},"MapView":{"TopLeft":{"Latitude":49.2578342,"Longitude":2.4348076},"BottomRight":{"Latitude":49.2555858,"Longitude":2.4382524}},"Address":{"Label":"84 Rue Jean Jaurès, 60160 Montataire, France","Country":"FRA","State":"Hauts-de-France","County":"Oise","City":"Montataire","Street":"Rue Jean Jaurès","HouseNumber":"84","PostalCode":"60160","AdditionalData":[{"value":"France","key":"CountryName"},{"value":"Hauts-de-France","key":"StateName"},{"value":"Oise","key":"CountyName"}]},"MapReference":{"ReferenceId":"913678588","Spot":0.39,"SideOfStreet":"left","CountryId":"20000001","StateId":"20000002","CountyId":"20002123","CityId":"20029283","AddressId":"674407619","RoadLinkId":"271445475"}}},{"Relevance":1.0,"Distance":72.4,"MatchLevel":"houseNumber","MatchQuality":{"Country":1.0,"State":1.0,"County":1.0,"City":1.0,"Street":[1.0],"HouseNumber":1.0,"PostalCode":1.0},"MatchType":"interpolated","Location":{"LocationId":"NT_i7Ny210ozNR77lFZXXk6qB_xMjM","LocationType":"point","DisplayPosition":{"Latitude":49.25734,"Longitude":2.43646},"MapView":{"TopLeft":{"Latitude":49.2584642,"Longitude":2.4347376},"BottomRight":{"Latitude":49.2562158,"Longitude":2.4381824}},"Address":{"Label":"132 Rue Jean-Dominique Faure, 60160 Montataire, France","Country":"FRA","State":"Hauts-de-France","County":"Oise","City":"Montataire","Street":"Rue Jean-Dominique Faure","HouseNumber":"132","PostalCode":"60160","AdditionalData":[{"value":"France","key":"CountryName"},{"value":"Hauts-de-France","key":"StateName"},{"value":"Oise","key":"CountyName"}]},"MapReference":{"ReferenceId":"563286792","Spot":0.78,"SideOfStreet":"left","CountryId":"20000001","StateId":"20000002","CountyId":"20002123","CityId":"20029283","AddressId":"321116743","RoadLinkId":"44044706"}}},{"Relevance":1.0,"Distance":78.7,"MatchLevel":"street","MatchQuality":{"Country":1.0,"State":1.0,"County":1.0,"City":1.0,"PostalCode":1.0},"Location":{"LocationId":"NT_L7Zb..AF4jFBxtt21YDFcB_l_913678590_L","LocationType":"point","DisplayPosition":{"Latitude":49.2560705,"Longitude":2.4373846},"MapView":{"TopLeft":{"Latitude":49.25663,"Longitude":2.43702},"BottomRight":{"Latitude":49.25548,"Longitude":2.43773}},"Address":{"Label":"60160 Montataire, France","Country":"FRA","State":"Hauts-de-France","County":"Oise","City":"Montataire","PostalCode":"60160","AdditionalData":[{"value":"France","key":"CountryName"},{"value":"Hauts-de-France","key":"StateName"},{"value":"Oise","key":"CountyName"}]},"MapReference":{"ReferenceId":"913678590","Spot":0.51,"SideOfStreet":"left","CountryId":"20000001","StateId":"20000002","CountyId":"20002123","CityId":"20029283"}}},{"Relevance":1.0,"Distance":83.9,"MatchLevel":"street","MatchQuality":{"Country":1.0,"State":1.0,"County":1.0,"City":1.0,"Street":[1.0],"PostalCode":1.0},"Location":{"LocationId":"NT_x18kkhc5W1XC7pYq4zZogB_l_585168828_R","LocationType":"point","DisplayPosition":{"Latitude":49.25594,"Longitude":2.43593},"MapView":{"TopLeft":{"Latitude":49.25594,"Longitude":2.43585},"BottomRight":{"Latitude":49.25567,"Longitude":2.43593}},"Address":{"Label":"Rue Robert Trin, 60160 Montataire, France","Country":"FRA","State":"Hauts-de-France","County":"Oise","City":"Montataire","Street":"Rue Robert Trin","PostalCode":"60160","AdditionalData":[{"value":"France","key":"CountryName"},{"value":"Hauts-de-France","key":"StateName"},{"value":"Oise","key":"CountyName"}]},"MapReference":{"ReferenceId":"585168828","Spot":1.0,"SideOfStreet":"right","CountryId":"20000001","StateId":"20000002","CountyId":"20002123","CityId":"20029283"}}},{"Relevance":1.0,"Distance":93.2,"MatchLevel":"houseNumber","MatchQuality":{"Country":1.0,"State":1.0,"County":1.0,"City":1.0,"Street":[1.0],"HouseNumber":1.0,"PostalCode":1.0},"MatchType":"interpolated","Location":{"LocationId":"NT_ABuLq8Wco561T.3Q4ki6YB_5QD","LocationType":"point","DisplayPosition":{"Latitude":49.2566,"Longitude":2.4379},"MapView":{"TopLeft":{"Latitude":49.2577242,"Longitude":2.4361776},"BottomRight":{"Latitude":49.2554758,"Longitude":2.4396224}},"Address":{"Label":"94 Rue Jean Jaurès, 60160 Montataire, France","Country":"FRA","State":"Hauts-de-France","County":"Oise","City":"Montataire","Street":"Rue Jean Jaurès","HouseNumber":"94","PostalCode":"60160","AdditionalData":[{"value":"France","key":"CountryName"},{"value":"Hauts-de-France","key":"StateName"},{"value":"Oise","key":"CountyName"}]},"MapReference":{"ReferenceId":"913678587","Spot":0.63,"SideOfStreet":"left","CountryId":"20000001","StateId":"20000002","CountyId":"20002123","CityId":"20029283","AddressId":"379836753","RoadLinkId":"271445474"}}},{"Relevance":1.0,"Distance":103.1,"MatchLevel":"street","MatchQuality":{"Country":1.0,"State":1.0,"County":1.0,"City":1.0,"Street":[1.0],"PostalCode":1.0},"Location":{"LocationId":"NT_x18kkhc5W1XC7pYq4zZogB_l_913678592_R","LocationType":"point","DisplayPosition":{"Latitude":49.2556306,"Longitude":2.436531},"MapView":{"TopLeft":{"Latitude":49.25566,"Longitude":2.43612},"BottomRight":{"Latitude":49.25554,"Longitude":2.43698}},"Address":{"Label":"Rue Robert Trin, 60160 Montataire, France","Country":"FRA","State":"Hauts-de-France","County":"Oise","City":"Montataire","Street":"Rue Robert Trin","PostalCode":"60160","AdditionalData":[{"value":"France","key":"CountryName"},{"value":"Hauts-de-France","key":"StateName"},{"value":"Oise","key":"CountyName"}]},"MapReference":{"ReferenceId":"913678592","Spot":0.53,"SideOfStreet":"right","CountryId":"20000001","StateId":"20000002","CountyId":"20002123","CityId":"20029283"}}},{"Relevance":1.0,"Distance":105.5,"MatchLevel":"street","MatchQuality":{"Country":1.0,"State":1.0,"County":1.0,"City":1.0,"Street":[1.0],"PostalCode":1.0},"Location":{"LocationId":"NT_x18kkhc5W1XC7pYq4zZogB_l_585168824_R","LocationType":"point","DisplayPosition":{"Latitude":49.25566,"Longitude":2.43612},"MapView":{"TopLeft":{"Latitude":49.25567,"Longitude":2.43585},"BottomRight":{"Latitude":49.25566,"Longitude":2.43612}},"Address":{"Label":"Rue Robert Trin, 60160 Montataire, France","Country":"FRA","State":"Hauts-de-France","County":"Oise","City":"Montataire","Street":"Rue Robert Trin","PostalCode":"60160","AdditionalData":[{"value":"France","key":"CountryName"},{"value":"Hauts-de-France","key":"StateName"},{"value":"Oise","key":"CountyName"}]},"MapReference":{"ReferenceId":"585168824","Spot":0.0,"SideOfStreet":"right","CountryId":"20000001","StateId":"20000002","CountyId":"20002123","CityId":"20029283"}}},{"Relevance":1.0,"Distance":116.4,"MatchLevel":"street","MatchQuality":{"Country":1.0,"State":1.0,"County":1.0,"City":1.0,"Street":[1.0],"PostalCode":1.0},"Location":{"LocationId":"NT_x18kkhc5W1XC7pYq4zZogB_l_913678591_R","LocationType":"point","DisplayPosition":{"Latitude":49.25554,"Longitude":2.43698},"MapView":{"TopLeft":{"Latitude":49.25554,"Longitude":2.43698},"BottomRight":{"Latitude":49.25548,"Longitude":2.43702}},"Address":{"Label":"Rue Robert Trin, 60160 Montataire, France","Country":"FRA","State":"Hauts-de-France","County":"Oise","City":"Montataire","Street":"Rue Robert Trin","PostalCode":"60160","AdditionalData":[{"value":"France","key":"CountryName"},{"value":"Hauts-de-France","key":"StateName"},{"value":"Oise","key":"CountyName"}]},"MapReference":{"ReferenceId":"913678591","Spot":1.0,"SideOfStreet":"right","CountryId":"20000001","StateId":"20000002","CountyId":"20002123","CityId":"20029283"}}},{"Relevance":1.0,"Distance":122.6,"MatchLevel":"houseNumber","MatchQuality":{"Country":1.0,"State":1.0,"County":1.0,"City":1.0,"Street":[1.0],"HouseNumber":1.0,"PostalCode":1.0},"MatchType":"interpolated","Location":{"LocationId":"NT_i7Ny210ozNR77lFZXXk6qB_xEjMCB","LocationType":"point","DisplayPosition":{"Latitude":49.25751,"Longitude":2.43565},"MapView":{"TopLeft":{"Latitude":49.2586342,"Longitude":2.4339276},"BottomRight":{"Latitude":49.2563858,"Longitude":2.4373724}},"Address":{"Label":"112B Rue Jean-Dominique Faure, 60160 Montataire, France","Country":"FRA","State":"Hauts-de-France","County":"Oise","City":"Montataire","Street":"Rue Jean-Dominique Faure","HouseNumber":"112B","PostalCode":"60160","AdditionalData":[{"value":"France","key":"CountryName"},{"value":"Hauts-de-France","key":"StateName"},{"value":"Oise","key":"CountyName"}]},"MapReference":{"ReferenceId":"966847703","Spot":0.5,"SideOfStreet":"left","CountryId":"20000001","StateId":"20000002","CountyId":"20002123","CityId":"20029283","AddressId":"573067636","RoadLinkId":"305207457"}}}]}]}}