{"Response":{"MetaInfo":{"Timestamp":"2020-03-28T11:51:29.144+0000","NextPageInformation":"2"},"View":[{"_type":"SearchResultsViewType","ViewId":0,"Result":[{"Relevance":1.0,"Distance":0.0,"Direction":0.0,"MatchLevel":"city","MatchQuality":{"Country":1.0,"State":1.0,"County":1.0,"City":1.0,"PostalCode":1.0},"Location":{"LocationId":"NT_N9gPZPE4Cht0uITUmZBxKD","LocationType":"point","DisplayPosition":{"Latitude":49.289051,"Longitude":-0.710613},"MapView":{"TopLeft":{"Latitude":49.29359,"Longitude":-0.72755},"BottomRight":{"Latitude":49.26083,"Longitude":-0.67594}},"Address":{"Label":"Bayeux, Normandie, France","Country":"FRA","State":"Normandie","County":"Calvados","City":"Bayeux","PostalCode":"14400","AdditionalData":[{"value":"France","key":"CountryName"},{"value":"Normandie","key":"StateName"},{"value":"Calvados","key":"CountyName"}]},"MapReference":{"ReferenceId":"545572966","SideOfStreet":"neither","CountryId":"20000001","StateId":"20057204","CountyId":"20057205","CityId":"20057337"}}},{"Relevance":1.0,"Distance":15.3,"MatchLevel":"houseNumber","MatchQuality":{"Country":1.0,"State":1.0,"County":1.0,"City":1.0,"Street":[1.0],"HouseNumber":1.0,"PostalCode":1.0},"MatchType":"interpolated","Location":{"LocationId":"NT_-KzELuNAtPEfbrtk6sHSfA_0ED","LocationType":"point","DisplayPosition":{"Latitude":49.28909,"Longitude":-0.71037},"MapView":{"TopLeft":{"Latitude":49.2902142,"Longitude":-0.7120935},"BottomRight":{"Latitude":49.2879658,"Longitude":-0.7086465}},"Address":{"Label":"41 Rue de Beauvais, 14400 Bayeux, France","Country":"FRA","State":"Normandie","County":"Calvados","City":"Bayeux","Street":"Rue de Beauvais","HouseNumber":"41","PostalCode":"14400","AdditionalData":[{"value":"France","key":"CountryName"},{"value":"Normandie","key":"StateName"},{"value":"Calvados","key":"CountyName"}]},"MapReference":{"ReferenceId":"545571028","Spot":0.87,"SideOfStreet":"left","CountryId":"20000001","StateId":"20057204","CountyId":"20057205","CityId":"20057337","AddressId":"570144744","RoadLinkId":"47863302"}}},{"Relevance":1.0,"Distance":18.7,"MatchLevel":"houseNumber","MatchQuality":{"Country":1.0,"State":1.0,"County":1.0,"City":1.0,"Street":[1.0],"HouseNumber":1.0,"PostalCode":1.0},"MatchType":"interpolated","Location":{"LocationId":"NT_-KzELuNAtPEfbrtk6sHSfA_0MD","LocationType":"point","DisplayPosition":{"Latitude":49.28918,"Longitude":-0.7104},"MapView":{"TopLeft":{"Latitude":49.2903042,"Longitude":-0.7121235},"BottomRight":{"Latitude":49.2880558,"Longitude":-0.7086765}},"Address":{"Label":"43 Rue de Beauvais, 14400 Bayeux, France","Country":"FRA","State":"Normandie","County":"Calvados","City":"Bayeux","Street":"Rue de Beauvais","HouseNumber":"43","PostalCode":"14400","AdditionalData":[{"value":"France","key":"CountryName"},{"value":"Normandie","key":"StateName"},{"value":"Calvados","key":"CountyName"}]},"MapReference":{"ReferenceId":"545571027","Spot":0.09,"SideOfStreet":"left","CountryId":"20000001","StateId":"20057204","CountyId":"20057205","CityId":"20057337","AddressId":"570142164","RoadLinkId":"46981085"}}},{"Relevance":1.0,"Distance":38.6,"MatchLevel":"street","MatchQuality":{"Country":1.0,"State":1.0,"County":1.0,"City":1.0,"PostalCode":1.0},"Location":{"LocationId":"NT_aIph3pLNjFmdp2Dim1broB_l_546200058_R","LocationType":"point","DisplayPosition":{"Latitude":49.28939,"Longitude":-0.7105},"MapView":{"TopLeft":{"Latitude":49.2894,"Longitude":-0.7105},"BottomRight":{"Latitude":49.28939,"Longitude":-0.70955}},"Address":{"Label":"14400 Bayeux, France","Country":"FRA","State":"Normandie","County":"Calvados","City":"Bayeux","PostalCode":"14400","AdditionalData":[{"value":"France","key":"CountryName"},{"value":"Normandie","key":"StateName"},{"value":"Calvados","key":"CountyName"}]},"MapReference":{"ReferenceId":"546200058","Spot":0.0,"SideOfStreet":"right","CountryId":"20000001","StateId":"20057204","CountyId":"20057205","CityId":"20057337"}}},{"Relevance":1.0,"Distance":41.9,"MatchLevel":"street","MatchQuality":{"Country":1.0,"State":1.0,"County":1.0,"City":1.0,"Street":[1.0],"PostalCode":1.0},"Location":{"LocationId":"NT_vLNKMRc3HBBBfbzRr6m4cA_l_545572643_R","LocationType":"point","DisplayPosition":{"Latitude":49.2887379,"Longitude":-0.7109342},"MapView":{"TopLeft":{"Latitude":49.289,"Longitude":-0.71224},"BottomRight":{"Latitude":49.28859,"Longitude":-0.71024}},"Address":{"Label":"Rue Joachim Langlois, 14400 Bayeux, France","Country":"FRA","State":"Normandie","County":"Calvados","City":"Bayeux","Street":"Rue Joachim Langlois","PostalCode":"14400","AdditionalData":[{"value":"France","key":"CountryName"},{"value":"Normandie","key":"StateName"},{"value":"Calvados","key":"CountyName"}]},"MapReference":{"ReferenceId":"545572643","Spot":0.35,"SideOfStreet":"right","CountryId":"20000001","StateId":"20057204","CountyId":"20057205","CityId":"20057337"}}},{"Relevance":1.0,"Distance":47.0,"MatchLevel":"houseNumber","MatchQuality":{"Country":1.0,"State":1.0,"County":1.0,"City":1.0,"Street":[1.0],"HouseNumber":1.0,"PostalCode":1.0},"MatchType":"interpolated","Location":{"LocationId":"NT_-KzELuNAtPEfbrtk6sHSfA_l_545571026_L_0cD","LocationType":"point","DisplayPosition":{"Latitude":49.2894903,"Longitude":-0.7105106},"MapView":{"TopLeft":{"Latitude":49.2906144,"Longitude":-0.7122341},"BottomRight":{"Latitude":49.2883661,"Longitude":-0.708787}},"Address":{"Label":"47 Rue de Beauvais, 14400 Bayeux, France","Country":"FRA","State":"Normandie","County":"Calvados","City":"Bayeux","Street":"Rue de Beauvais","HouseNumber":"47","PostalCode":"14400","AdditionalData":[{"value":"France","key":"CountryName"},{"value":"Normandie","key":"StateName"},{"value":"Calvados","key":"CountyName"}]},"MapReference":{"ReferenceId":"545571026","Spot":0.53,"SideOfStreet":"left","CountryId":"20000001","StateId":"20057204","CountyId":"20057205","CityId":"20057337"}}},{"Relevance":1.0,"Distance":54.1,"MatchLevel":"street","MatchQuality":{"Country":1.0,"State":1.0,"County":1.0,"City":1.0,"PostalCode":1.0},"Location":{"LocationId":"NT_aIph3pLNjFmdp2Dim1broB_l_996250993_L","LocationType":"point","DisplayPosition":{"Latitude":49.28863,"Longitude":-0.71024},"MapView":{"TopLeft":{"Latitude":49.28864,"Longitude":-0.71024},"BottomRight":{"Latitude":49.28863,"Longitude":-0.70989}},"Address":{"Label":"14400 Bayeux, France","Country":"FRA","State":"Normandie","County":"Calvados","City":"Bayeux","PostalCode":"14400","AdditionalData":[{"value":"France","key":"CountryName"},{"value":"Normandie","key":"StateName"},{"value":"Calvados","key":"CountyName"}]},"MapReference":{"ReferenceId":"996250993","Spot":0.0,"SideOfStreet":"left","CountryId":"20000001","StateId":"20057204","CountyId":"20057205","CityId":"20057337"}}},{"Relevance":1.0,"Distance":59.2,"MatchLevel":"street","MatchQuality":{"Country":1.0,"State":1.0,"County":1.0,"City":1.0,"PostalCode":1.0},"Location":{"LocationId":"NT_aIph3pLNjFmdp2Dim1broB_l_545572637_R","LocationType":"point","DisplayPosition":{"Latitude":49.28958,"Longitude":-0.71052},"MapView":{"TopLeft":{"Latitude":49.28965,"Longitude":-0.71052},"BottomRight":{"Latitude":49.28958,"Longitude":-0.71}},"Address":{"Label":"14400 Bayeux, France","Country":"FRA","State":"Normandie","County":"Calvados","City":"Bayeux","PostalCode":"14400","AdditionalData":[{"value":"France","key":"CountryName"},{"value":"Normandie","key":"StateName"},{"value":"Calvados","key":"CountyName"}]},"MapReference":{"ReferenceId":"545572637","Spot":0.0,"SideOfStreet":"right","CountryId":"20000001","StateId":"20057204","CountyId":"20057205","CityId":"20057337"}}},{"Relevance":1.0,"Distance":68.8,"MatchLevel":"houseNumber","MatchQuality":{"Country":1.0,"State":1.0,"County":1.0,"City":1.0,"Street":[1.0],"HouseNumber":1.0,"PostalCode":1.0},"MatchType":"interpolated","Location":{"LocationId":"NT_-KzELuNAtPEfbrtk6sHSfA_0cD","LocationType":"point","DisplayPosition":{"Latitude":49.28968,"Longitude":-0.71055},"MapView":{"TopLeft":{"Latitude":49.2908042,"Longitude":-0.7122735},"BottomRight":{"Latitude":49.2885558,"Longitude":-0.7088265}},"Address":{"Label":"47 Rue de Beauvais, 14400 Bayeux, France","Country":"FRA","State":"Normandie","County":"Calvados","City":"Bayeux","Street":"Rue de Beauvais","HouseNumber":"47","PostalCode":"14400","AdditionalData":[{"value":"France","key":"CountryName"},{"value":"Normandie","key":"StateName"},{"value":"Calvados","key":"CountyName"}]},"MapReference":{"ReferenceId":"545571025","Spot":0.22,"SideOfStreet":"left","CountryId":"20000001","StateId":"20057204","CountyId":"20057205","CityId":"20057337","AddressId":"570188924","RoadLinkId":"46529545"}}},{"Relevance":1.0,"Distance":80.1,"MatchLevel":"street","MatchQuality":{"Country":1.0,"State":1.0,"County":1.0,"City":1.0,"PostalCode":1.0},"Location":{"LocationId":"NT_aIph3pLNjFmdp2Dim1broB_l_546200047_L","LocationType":"point","DisplayPosition":{"Latitude":49.28965,"Longitude":-0.71},"MapView":{"TopLeft":{"Latitude":49.29006,"Longitude":-0.71015},"BottomRight":{"Latitude":49.28965,"Longitude":-0.71}},"Address":{"Label":"14400 Bayeux, France","Country":"FRA","State":"Normandie","County":"Calvados","City":"Bayeux","PostalCode":"14400","AdditionalData":[{"value":"France","key":"CountryName"},{"value":"Normandie","key":"StateName"},{"value":"Calvados","key":"CountyName"}]},"MapReference":{"ReferenceId":"546200047","Spot":0.0,"SideOfStreet":"left","CountryId":"20000001","StateId":"20057204","CountyId":"20057205","CityId":"20057337"}}}]}]}}