{"Response":{"MetaInfo":{"Timestamp":"2020-03-28T11:13:07.919+0000","NextPageInformation":"2"},"View":[{"_type":"SearchResultsViewType","ViewId":0,"Result":[{"Relevance":1.0,"Distance":0.0,"Direction":0.0,"MatchLevel":"city","MatchQuality":{"Country":1.0,"State":1.0,"County":1.0,"City":1.0,"PostalCode":1.0},"Location":{"LocationId":"NT_DKS8gFaUoJfz3AH9fRzcYB","LocationType":"point","DisplayPosition":{"Latitude":49.2464724,"Longitude":1.394938},"MapView":{"TopLeft":{"Latitude":49.27846,"Longitude":1.36789},"BottomRight":{"Latitude":49.19995,"Longitude":1.47952}},"Address":{"Label":"Les Andelys, Normandie, France","Country":"FRA","State":"Normandie","County":"Eure","City":"Les Andelys","PostalCode":"27700","AdditionalData":[{"value":"France","key":"CountryName"},{"value":"Normandie","key":"StateName"},{"value":"Eure","key":"CountyName"}]},"MapReference":{"ReferenceId":"546892605","SideOfStreet":"neither","CountryId":"20000001","StateId":"20057204","CountyId":"20002109","CityId":"20061375"}}},{"Relevance":1.0,"Distance":9.8,"MatchLevel":"street","MatchQuality":{"Country":1.0,"State":1.0,"County":1.0,"City":1.0,"Street":[1.0],"PostalCode":1.0},"Location":{"LocationId":"NT_gO8u810UOtNVGxba20LIBC_l_1050327814_L","LocationType":"point","DisplayPosition":{"Latitude":49.2465582,"Longitude":1.3949661},"MapView":{"TopLeft":{"Latitude":49.2467,"Longitude":1.39447},"BottomRight":{"Latitude":49.24617,"Longitude":1.39604}},"Address":{"Label":"Route des Falaises, 27700 Les Andelys, France","Country":"FRA","State":"Normandie","County":"Eure","City":"Les Andelys","Street":"Route des Falaises","PostalCode":"27700","AdditionalData":[{"value":"France","key":"CountryName"},{"value":"Normandie","key":"StateName"},{"value":"Eure","key":"CountyName"}]},"MapReference":{"ReferenceId":"1050327814","Spot":0.69,"SideOfStreet":"left","CountryId":"20000001","StateId":"20057204","CountyId":"20002109","CityId":"20061375"}}},{"Relevance":1.0,"Distance":71.7,"MatchLevel":"street","MatchQuality":{"Country":1.0,"State":1.0,"County":1.0,"City":1.0,"Street":[1.0],"PostalCode":1.0},"Location":{"LocationId":"NT_08Zs7BRdOnZotOc9m1latA_l_546892651_R","LocationType":"point","DisplayPosition":{"Latitude":49.2458674,"Longitude":1.3945961},"MapView":{"TopLeft":{"Latitude":49.24703,"Longitude":1.39256},"BottomRight":{"Latitude":49.2454,"Longitude":1.39562}},"Address":{"Label":"Quai Enguerrand de Marigny, 27700 Les Andelys, France","Country":"FRA","State":"Normandie","County":"Eure","City":"Les Andelys","Street":"Quai Enguerrand de Marigny","PostalCode":"27700","AdditionalData":[{"value":"France","key":"CountryName"},{"value":"Normandie","key":"StateName"},{"value":"Eure","key":"CountyName"}]},"MapReference":{"ReferenceId":"546892651","Spot":0.32,"SideOfStreet":"right","CountryId":"20000001","StateId":"20057204","CountyId":"20002109","CityId":"20061375"}}},{"Relevance":1.0,"Distance":82.2,"MatchLevel":"street","MatchQuality":{"Country":1.0,"State":1.0,"County":1.0,"City":1.0,"PostalCode":1.0},"Location":{"LocationId":"NT_m9HxxmHP5uvwerpVfgnP3A_l_546893657_L","LocationType":"point","DisplayPosition":{"Latitude":49.2470467,"Longitude":1.395651},"MapView":{"TopLeft":{"Latitude":49.24928,"Longitude":1.39112},"BottomRight":{"Latitude":49.24588,"Longitude":1.39818}},"Address":{"Label":"27700 Les Andelys, France","Country":"FRA","State":"Normandie","County":"Eure","City":"Les Andelys","PostalCode":"27700","AdditionalData":[{"value":"France","key":"CountryName"},{"value":"Normandie","key":"StateName"},{"value":"Eure","key":"CountyName"}]},"MapReference":{"ReferenceId":"546893657","Spot":0.34,"SideOfStreet":"left","CountryId":"20000001","StateId":"20057204","CountyId":"20002109","CityId":"20061375"}}},{"Relevance":1.0,"Distance":86.8,"MatchLevel":"street","MatchQuality":{"Country":1.0,"State":1.0,"County":1.0,"City":1.0,"Street":[1.0],"PostalCode":1.0},"Location":{"LocationId":"NT_4Tvj7XfrDihN8qc9edR0hB_l_1050327813_L","LocationType":"point","DisplayPosition":{"Latitude":49.24617,"Longitude":1.39604},"MapView":{"TopLeft":{"Latitude":49.24617,"Longitude":1.39604},"BottomRight":{"Latitude":49.24601,"Longitude":1.39638}},"Address":{"Label":"Route des Falaises, 27700 Les Andelys, France","Country":"FRA","State":"Normandie","County":"Eure","City":"Les Andelys","Street":"Route des Falaises","PostalCode":"27700","AdditionalData":[{"value":"France","key":"CountryName"},{"value":"Normandie","key":"StateName"},{"value":"Eure","key":"CountyName"}]},"MapReference":{"ReferenceId":"1050327813","Spot":1.0,"SideOfStreet":"left","CountryId":"20000001","StateId":"20057204","CountyId":"20002109","CityId":"20061375"}}},{"Relevance":1.0,"Distance":109.4,"MatchLevel":"landmark","MatchQuality":{"Country":1.0,"State":1.0,"County":1.0,"Name":1.0},"Location":{"LocationId":"NT_Msi9X508mZma3y-U31iOWB","LocationType":"river","Name":"La Seine","DisplayPosition":{"Latitude":49.2276,"Longitude":1.31879},"MapView":{"TopLeft":{"Latitude":49.25345,"Longitude":1.22526},"BottomRight":{"Latitude":49.20175,"Longitude":1.39984}},"Address":{"Label":"France","Country":"FRA","State":"Normandie","County":"Eure","AdditionalData":[{"value":"France","key":"CountryName"},{"value":"Normandie","key":"StateName"},{"value":"Eure","key":"CountyName"}]},"MapReference":{"CountryId":"20000001","StateId":"20057204","CountyId":"20002109","PlaceId":"73495695"}}},{"Relevance":1.0,"Distance":114.6,"MatchLevel":"street","MatchQuality":{"Country":1.0,"State":1.0,"County":1.0,"City":1.0,"Street":[1.0],"PostalCode":1.0},"Location":{"LocationId":"NT_jZDf17G9uRPMCYYhjTvDSA_l_548940667_L","LocationType":"point","DisplayPosition":{"Latitude":49.24582,"Longitude":1.39616},"MapView":{"TopLeft":{"Latitude":49.24601,"Longitude":1.39616},"BottomRight":{"Latitude":49.24582,"Longitude":1.39638}},"Address":{"Label":"Rue de l'Hôpital, 27700 Les Andelys, France","Country":"FRA","State":"Normandie","County":"Eure","City":"Les Andelys","Street":"Rue de l'Hôpital","PostalCode":"27700","AdditionalData":[{"value":"France","key":"CountryName"},{"value":"Normandie","key":"StateName"},{"value":"Eure","key":"CountyName"}]},"MapReference":{"ReferenceId":"548940667","Spot":0.0,"SideOfStreet":"left","CountryId":"20000001","StateId":"20057204","CountyId":"20002109","CityId":"20061375"}}},{"Relevance":1.0,"Distance":116.6,"MatchLevel":"street","MatchQuality":{"Country":1.0,"State":1.0,"County":1.0,"City":1.0,"Street":[1.0],"PostalCode":1.0},"Location":{"LocationId":"NT_gO8u810UOtNVGxba20LIBC_l_546892560_L","LocationType":"point","DisplayPosition":{"Latitude":49.24601,"Longitude":1.39638},"MapView":{"TopLeft":{"Latitude":49.24601,"Longitude":1.39638},"BottomRight":{"Latitude":49.24577,"Longitude":1.39698}},"Address":{"Label":"Route des Falaises, 27700 Les Andelys, France","Country":"FRA","State":"Normandie","County":"Eure","City":"Les Andelys","Street":"Route des Falaises","PostalCode":"27700","AdditionalData":[{"value":"France","key":"CountryName"},{"value":"Normandie","key":"StateName"},{"value":"Eure","key":"CountyName"}]},"MapReference":{"ReferenceId":"546892560","Spot":1.0,"SideOfStreet":"left","CountryId":"20000001","StateId":"20057204","CountyId":"20002109","CityId":"20061375"}}},{"Relevance":1.0,"Distance":117.7,"MatchLevel":"street","MatchQuality":{"Country":1.0,"State":1.0,"County":1.0,"City":1.0,"Street":[1.0],"PostalCode":1.0},"Location":{"LocationId":"NT_jZDf17G9uRPMCYYhjTvDSA_l_548940668_L","LocationType":"point","DisplayPosition":{"Latitude":49.24556,"Longitude":1.39576},"MapView":{"TopLeft":{"Latitude":49.24582,"Longitude":1.39562},"BottomRight":{"Latitude":49.2454,"Longitude":1.39616}},"Address":{"Label":"Rue de l'Hôpital, 27700 Les Andelys, France","Country":"FRA","State":"Normandie","County":"Eure","City":"Les Andelys","Street":"Rue de l'Hôpital","PostalCode":"27700","AdditionalData":[{"value":"France","key":"CountryName"},{"value":"Normandie","key":"StateName"},{"value":"Eure","key":"CountyName"}]},"MapReference":{"ReferenceId":"548940668","Spot":0.31,"SideOfStreet":"left","CountryId":"20000001","StateId":"20057204","CountyId":"20002109","CityId":"20061375"}}},{"Relevance":1.0,"Distance":129.1,"MatchLevel":"street","MatchQuality":{"Country":1.0,"State":1.0,"County":1.0,"City":1.0,"Street":[1.0],"PostalCode":1.0},"Location":{"LocationId":"NT_7WkFbKMdDTN22Ote.ZreMC_l_546892552_R","LocationType":"point","DisplayPosition":{"Latitude":49.2454,"Longitude":1.39562},"MapView":{"TopLeft":{"Latitude":49.2454,"Longitude":1.39562},"BottomRight":{"Latitude":49.24529,"Longitude":1.39592}},"Address":{"Label":"Rue de Penthièvre, 27700 Les Andelys, France","Country":"FRA","State":"Normandie","County":"Eure","City":"Les Andelys","Street":"Rue de Penthièvre","PostalCode":"27700","AdditionalData":[{"value":"France","key":"CountryName"},{"value":"Normandie","key":"StateName"},{"value":"Eure","key":"CountyName"}]},"MapReference":{"ReferenceId":"546892552","Spot":1.0,"SideOfStreet":"right","CountryId":"20000001","StateId":"20057204","CountyId":"20002109","CityId":"20061375"}}}]}]}}