{"Response":{"MetaInfo":{"Timestamp":"2020-03-28T11:51:56.868+0000","NextPageInformation":"2"},"View":[{"_type":"SearchResultsViewType","ViewId":0,"Result":[{"Relevance":1.0,"Distance":0.0,"Direction":0.0,"MatchLevel":"district","MatchQuality":{"Country":1.0,"State":1.0,"County":1.0,"City":1.0,"District":1.0,"PostalCode":1.0},"Location":{"LocationId":"NT_ag0HzYwlNRYbPnWumDtoQB","LocationType":"point","DisplayPosition":{"Latitude":49.2389795,"Longitude":4.0306569},"MapView":{"TopLeft":{"Latitude":49.24571,"Longitude":4.01337},"BottomRight":{"Latitude":49.22499,"Longitude":4.04202}},"Address":{"Label":"Ste Anne - Maison Blanche - Wilson, Reims, Grand Est, France","Country":"FRA","State":"Grand Est","County":"Marne","City":"Reims","District":"Ste Anne - Maison Blanche - Wilson","PostalCode":"51100","AdditionalData":[{"value":"France","key":"CountryName"},{"value":"Grand Est","key":"StateName"},{"value":"Marne","key":"CountyName"}]},"MapReference":{"ReferenceId":"931658063","SideOfStreet":"neither","CountryId":"20000001","StateId":"20002047","CountyId":"20002120","CityId":"20017991"}}},{"Relevance":1.0,"Distance":12.0,"MatchLevel":"houseNumber","MatchQuality":{"Country":1.0,"State":1.0,"County":1.0,"City":1.0,"District":1.0,"Street":[1.0],"HouseNumber":1.0,"PostalCode":1.0},"MatchType":"interpolated","Location":{"LocationId":"NT_ClEGPQmwB23S1ysspXBrGB_yIE","LocationType":"point","DisplayPosition":{"Latitude":49.23886,"Longitude":4.03076},"MapView":{"TopLeft":{"Latitude":49.2399842,"Longitude":4.0290382},"BottomRight":{"Latitude":49.2377358,"Longitude":4.0324818}},"Address":{"Label":"2B Rue de la Maison Blanche, 51100 Reims, France","Country":"FRA","State":"Grand Est","County":"Marne","City":"Reims","District":"Ste Anne - Maison Blanche - Wilson","Street":"Rue de la Maison Blanche","HouseNumber":"2B","PostalCode":"51100","AdditionalData":[{"value":"France","key":"CountryName"},{"value":"Grand Est","key":"StateName"},{"value":"Marne","key":"CountyName"}]},"MapReference":{"ReferenceId":"58878421","Spot":0.15,"SideOfStreet":"left","CountryId":"20000001","StateId":"20002047","CountyId":"20002120","CityId":"20017991","AddressId":"316597760","RoadLinkId":"44102345"}}},{"Relevance":1.0,"Distance":16.7,"MatchLevel":"houseNumber","MatchQuality":{"Country":1.0,"State":1.0,"County":1.0,"City":1.0,"District":1.0,"Street":[1.0],"HouseNumber":1.0,"PostalCode":1.0},"MatchType":"interpolated","Location":{"LocationId":"NT_ClEGPQmwB23S1ysspXBrGB_0A","LocationType":"point","DisplayPosition":{"Latitude":49.2388,"Longitude":4.03066},"MapView":{"TopLeft":{"Latitude":49.2399242,"Longitude":4.0289382},"BottomRight":{"Latitude":49.2376758,"Longitude":4.0323818}},"Address":{"Label":"4 Rue de la Maison Blanche, 51100 Reims, France","Country":"FRA","State":"Grand Est","County":"Marne","City":"Reims","District":"Ste Anne - Maison Blanche - Wilson","Street":"Rue de la Maison Blanche","HouseNumber":"4","PostalCode":"51100","AdditionalData":[{"value":"France","key":"CountryName"},{"value":"Grand Est","key":"StateName"},{"value":"Marne","key":"CountyName"}]},"MapReference":{"ReferenceId":"932877854","Spot":0.97,"SideOfStreet":"left","CountryId":"20000001","StateId":"20002047","CountyId":"20002120","CityId":"20017991","AddressId":"316482962","RoadLinkId":"286734258"}}},{"Relevance":1.0,"Distance":18.0,"MatchLevel":"street","MatchQuality":{"Country":1.0,"State":1.0,"County":1.0,"City":1.0,"District":1.0,"PostalCode":1.0},"Location":{"LocationId":"NT_2KjYxUbYLH9zj6Xu9GJIBB_l_58878431_R","LocationType":"point","DisplayPosition":{"Latitude":49.23882,"Longitude":4.0307},"MapView":{"TopLeft":{"Latitude":49.23882,"Longitude":4.0307},"BottomRight":{"Latitude":49.23874,"Longitude":4.03089}},"Address":{"Label":"51100 Reims, France","Country":"FRA","State":"Grand Est","County":"Marne","City":"Reims","District":"Ste Anne - Maison Blanche - Wilson","PostalCode":"51100","AdditionalData":[{"value":"France","key":"CountryName"},{"value":"Grand Est","key":"StateName"},{"value":"Marne","key":"CountyName"}]},"MapReference":{"ReferenceId":"58878431","Spot":1.0,"SideOfStreet":"right","CountryId":"20000001","StateId":"20002047","CountyId":"20002120","CityId":"20017991"}}},{"Relevance":1.0,"Distance":18.7,"MatchLevel":"houseNumber","MatchQuality":{"Country":1.0,"State":1.0,"County":1.0,"City":1.0,"District":1.0,"Street":[1.0],"HouseNumber":1.0,"PostalCode":1.0},"MatchType":"interpolated","Location":{"LocationId":"NT_lDO9-2yxT8T0RhYN1ZQJmD_ygzN","LocationType":"point","DisplayPosition":{"Latitude":49.23905,"Longitude":4.03089},"MapView":{"TopLeft":{"Latitude":49.2401742,"Longitude":4.0291682},"BottomRight":{"Latitude":49.2379258,"Longitude":4.0326118}},"Address":{"Label":"287 Rue de Courlancy, 51100 Reims, France","Country":"FRA","State":"Grand Est","County":"Marne","City":"Reims","District":"Ste Anne - Maison Blanche - Wilson","Street":"Rue de Courlancy","HouseNumber":"287","PostalCode":"51100","AdditionalData":[{"value":"France","key":"CountryName"},{"value":"Grand Est","key":"StateName"},{"value":"Marne","key":"CountyName"}]},"MapReference":{"ReferenceId":"1156075052","Spot":0.23,"SideOfStreet":"left","CountryId":"20000001","StateId":"20002047","CountyId":"20002120","CityId":"20017991","AddressId":"371006926","RoadLinkId":"462314515"}}},{"Relevance":1.0,"Distance":28.2,"MatchLevel":"houseNumber","MatchQuality":{"Country":1.0,"State":1.0,"County":1.0,"City":1.0,"District":1.0,"Street":[1.0],"HouseNumber":1.0,"PostalCode":1.0},"MatchType":"interpolated","Location":{"LocationId":"NT_lDO9-2yxT8T0RhYN1ZQJmD_xMjN","LocationType":"point","DisplayPosition":{"Latitude":49.23912,"Longitude":4.03031},"MapView":{"TopLeft":{"Latitude":49.2402442,"Longitude":4.0285882},"BottomRight":{"Latitude":49.2379958,"Longitude":4.0320318}},"Address":{"Label":"136 Rue de Courlancy, 51100 Reims, France","Country":"FRA","State":"Grand Est","County":"Marne","City":"Reims","District":"Ste Anne - Maison Blanche - Wilson","Street":"Rue de Courlancy","HouseNumber":"136","PostalCode":"51100","AdditionalData":[{"value":"France","key":"CountryName"},{"value":"Grand Est","key":"StateName"},{"value":"Marne","key":"CountyName"}]},"MapReference":{"ReferenceId":"1156075053","Spot":0.49,"SideOfStreet":"left","CountryId":"20000001","StateId":"20002047","CountyId":"20002120","CityId":"20017991","AddressId":"316555138","RoadLinkId":"462314516"}}},{"Relevance":1.0,"Distance":29.8,"MatchLevel":"houseNumber","MatchQuality":{"Country":1.0,"State":1.0,"County":1.0,"City":1.0,"District":1.0,"Street":[1.0],"HouseNumber":1.0,"PostalCode":1.0},"MatchType":"interpolated","Location":{"LocationId":"NT_vt7A-d9X3x8NBz54yzLbWD_zA","LocationType":"point","DisplayPosition":{"Latitude":49.23893,"Longitude":4.03106},"MapView":{"TopLeft":{"Latitude":49.2400542,"Longitude":4.0293382},"BottomRight":{"Latitude":49.2378058,"Longitude":4.0327818}},"Address":{"Label":"3 Rue d'Estienne d'Orves, 51100 Reims, France","Country":"FRA","State":"Grand Est","County":"Marne","City":"Reims","District":"Ste Anne - Maison Blanche - Wilson","Street":"Rue d'Estienne d'Orves","HouseNumber":"3","PostalCode":"51100","AdditionalData":[{"value":"France","key":"CountryName"},{"value":"Grand Est","key":"StateName"},{"value":"Marne","key":"CountyName"}]},"MapReference":{"ReferenceId":"58878430","Spot":0.65,"SideOfStreet":"right","CountryId":"20000001","StateId":"20002047","CountyId":"20002120","CityId":"20017991","AddressId":"570792344","RoadLinkId":"44374013"}}},{"Relevance":1.0,"Distance":34.9,"MatchLevel":"houseNumber","MatchQuality":{"Country":1.0,"State":1.0,"County":1.0,"City":1.0,"District":1.0,"Street":[1.0],"HouseNumber":1.0,"PostalCode":1.0},"MatchType":"interpolated","Location":{"LocationId":"NT_vt7A-d9X3x8NBz54yzLbWD_yA","LocationType":"point","DisplayPosition":{"Latitude":49.23865,"Longitude":4.03082},"MapView":{"TopLeft":{"Latitude":49.2397742,"Longitude":4.0290982},"BottomRight":{"Latitude":49.2375258,"Longitude":4.0325418}},"Address":{"Label":"2 Rue d'Estienne d'Orves, 51100 Reims, France","Country":"FRA","State":"Grand Est","County":"Marne","City":"Reims","District":"Ste Anne - Maison Blanche - Wilson","Street":"Rue d'Estienne d'Orves","HouseNumber":"2","PostalCode":"51100","AdditionalData":[{"value":"France","key":"CountryName"},{"value":"Grand Est","key":"StateName"},{"value":"Marne","key":"CountyName"}]},"MapReference":{"ReferenceId":"58878547","Spot":0.91,"SideOfStreet":"left","CountryId":"20000001","StateId":"20002047","CountyId":"20002120","CityId":"20017991","AddressId":"316523569","RoadLinkId":"44690630"}}},{"Relevance":1.0,"Distance":37.3,"MatchLevel":"houseNumber","MatchQuality":{"Country":1.0,"State":1.0,"County":1.0,"City":1.0,"District":1.0,"Street":[1.0],"HouseNumber":1.0,"PostalCode":1.0},"MatchType":"interpolated","Location":{"LocationId":"NT_lDO9-2yxT8T0RhYN1ZQJmD_ygTOCB","LocationType":"point","DisplayPosition":{"Latitude":49.23909,"Longitude":4.03119},"MapView":{"TopLeft":{"Latitude":49.2402142,"Longitude":4.0294682},"BottomRight":{"Latitude":49.2379658,"Longitude":4.0329118}},"Address":{"Label":"289B Rue de Courlancy, 51100 Reims, France","Country":"FRA","State":"Grand Est","County":"Marne","City":"Reims","District":"Ste Anne - Maison Blanche - Wilson","Street":"Rue de Courlancy","HouseNumber":"289B","PostalCode":"51100","AdditionalData":[{"value":"France","key":"CountryName"},{"value":"Grand Est","key":"StateName"},{"value":"Marne","key":"CountyName"}]},"MapReference":{"ReferenceId":"58878397","Spot":0.43,"SideOfStreet":"left","CountryId":"20000001","StateId":"20002047","CountyId":"20002120","CityId":"20017991","AddressId":"344668648","RoadLinkId":"44630052"}}},{"Relevance":1.0,"Distance":45.4,"MatchLevel":"houseNumber","MatchQuality":{"Country":1.0,"State":1.0,"County":1.0,"City":1.0,"District":1.0,"Street":[1.0],"HouseNumber":1.0,"PostalCode":1.0},"MatchType":"interpolated","Location":{"LocationId":"NT_VQ0JkRXwul8B5cTlaA-FfB_yA","LocationType":"point","DisplayPosition":{"Latitude":49.23896,"Longitude":4.03137},"MapView":{"TopLeft":{"Latitude":49.2400842,"Longitude":4.0296482},"BottomRight":{"Latitude":49.2378358,"Longitude":4.0330918}},"Address":{"Label":"2 Rue de Louvois, 51100 Reims, France","Country":"FRA","State":"Grand Est","County":"Marne","City":"Reims","District":"Ste Anne - Maison Blanche - Wilson","Street":"Rue de Louvois","HouseNumber":"2","PostalCode":"51100","AdditionalData":[{"value":"France","key":"CountryName"},{"value":"Grand Est","key":"StateName"},{"value":"Marne","key":"CountyName"}]},"MapReference":{"ReferenceId":"58878484","Spot":0.82,"SideOfStreet":"left","CountryId":"20000001","StateId":"20002047","CountyId":"20002120","CityId":"20017991","AddressId":"316602950","RoadLinkId":"45086109"}}}]}]}}