{"Response":{"MetaInfo":{"Timestamp":"2020-03-28T11:07:51.417+0000","NextPageInformation":"2"},"View":[{"_type":"SearchResultsViewType","ViewId":0,"Result":[{"Relevance":1.0,"Distance":-79.3,"MatchLevel":"landmark","MatchQuality":{"Country":1.0,"State":1.0,"County":1.0,"City":1.0,"PostalCode":1.0,"Name":1.0},"Location":{"LocationId":"NT_wqNFiFYnHLbuUew4ErMoeA_p_NXorh4QsR6p.iFgAJLV08C","LocationType":"hospital","Name":"HÃ´pital de Louviers","DisplayPosition":{"Latitude":49.21089,"Longitude":1.17564},"MapView":{"TopLeft":{"Latitude":49.21344,"Longitude":1.17318},"BottomRight":{"Latitude":49.21006,"Longitude":1.17821}},"Address":{"Label":"27400 Louviers, France","Country":"FRA","State":"Normandie","County":"Eure","City":"Louviers","PostalCode":"27400","AdditionalData":[{"value":"France","key":"CountryName"},{"value":"Normandie","key":"StateName"},{"value":"Eure","key":"CountyName"}]},"MapReference":{"CountryId":"20000001","StateId":"20057204","CountyId":"20002109","CityId":"20062420","PlaceId":"73605111"}}},{"Relevance":1.0,"Distance":0.0,"Direction":0.0,"MatchLevel":"city","MatchQuality":{"Country":1.0,"State":1.0,"County":1.0,"City":1.0,"PostalCode":1.0},"Location":{"LocationId":"NT_69mYVNZxcQKPLUcy.0kXeC","LocationType":"point","DisplayPosition":{"Latitude":49.2126878,"Longitude":1.1768487},"MapView":{"TopLeft":{"Latitude":49.25038,"Longitude":1.10575},"BottomRight":{"Latitude":49.19233,"Longitude":1.20519}},"Address":{"Label":"Louviers, Normandie, France","Country":"FRA","State":"Normandie","County":"Eure","City":"Louviers","PostalCode":"27400","AdditionalData":[{"value":"France","key":"CountryName"},{"value":"Normandie","key":"StateName"},{"value":"Eure","key":"CountyName"}]},"MapReference":{"ReferenceId":"844938869","SideOfStreet":"neither","CountryId":"20000001","StateId":"20057204","CountyId":"20002109","CityId":"20062420"}}},{"Relevance":1.0,"Distance":2.2,"MatchLevel":"street","MatchQuality":{"Country":1.0,"State":1.0,"County":1.0,"City":1.0,"PostalCode":1.0},"Location":{"LocationId":"NT_qofiFpQBvzhySylQBBx3eA_l_569956602_L","LocationType":"point","DisplayPosition":{"Latitude":49.2126682,"Longitude":1.1768444},"MapView":{"TopLeft":{"Latitude":49.21274,"Longitude":1.17652},"BottomRight":{"Latitude":49.21249,"Longitude":1.17765}},"Address":{"Label":"27400 Louviers, France","Country":"FRA","State":"Normandie","County":"Eure","City":"Louviers","PostalCode":"27400","AdditionalData":[{"value":"France","key":"CountryName"},{"value":"Normandie","key":"StateName"},{"value":"Eure","key":"CountyName"}]},"MapReference":{"ReferenceId":"569956602","Spot":0.71,"SideOfStreet":"neither","CountryId":"20000001","StateId":"20057204","CountyId":"20002109","CityId":"20062420"}}},{"Relevance":1.0,"Distance":24.6,"MatchLevel":"street","MatchQuality":{"Country":1.0,"State":1.0,"County":1.0,"City":1.0,"PostalCode":1.0},"Location":{"LocationId":"NT_qofiFpQBvzhySylQBBx3eA_l_569956615_R","LocationType":"point","DisplayPosition":{"Latitude":49.21274,"Longitude":1.17652},"MapView":{"TopLeft":{"Latitude":49.21274,"Longitude":1.17601},"BottomRight":{"Latitude":49.2121,"Longitude":1.17652}},"Address":{"Label":"27400 Louviers, France","Country":"FRA","State":"Normandie","County":"Eure","City":"Louviers","PostalCode":"27400","AdditionalData":[{"value":"France","key":"CountryName"},{"value":"Normandie","key":"StateName"},{"value":"Eure","key":"CountyName"}]},"MapReference":{"ReferenceId":"569956615","Spot":1.0,"SideOfStreet":"right","CountryId":"20000001","StateId":"20057204","CountyId":"20002109","CityId":"20062420"}}},{"Relevance":1.0,"Distance":66.6,"MatchLevel":"street","MatchQuality":{"Country":1.0,"State":1.0,"County":1.0,"City":1.0,"PostalCode":1.0},"Location":{"LocationId":"NT_qofiFpQBvzhySylQBBx3eA_l_569956605_L","LocationType":"point","DisplayPosition":{"Latitude":49.2122907,"Longitude":1.1775346},"MapView":{"TopLeft":{"Latitude":49.21249,"Longitude":1.1762},"BottomRight":{"Latitude":49.21145,"Longitude":1.17765}},"Address":{"Label":"27400 Louviers, France","Country":"FRA","State":"Normandie","County":"Eure","City":"Louviers","PostalCode":"27400","AdditionalData":[{"value":"France","key":"CountryName"},{"value":"Normandie","key":"StateName"},{"value":"Eure","key":"CountyName"}]},"MapReference":{"ReferenceId":"569956605","Spot":0.88,"SideOfStreet":"left","CountryId":"20000001","StateId":"20057204","CountyId":"20002109","CityId":"20062420"}}},{"Relevance":1.0,"Distance":79.4,"MatchLevel":"landmark","MatchQuality":{"Country":1.0,"State":1.0,"County":1.0,"City":1.0,"PostalCode":1.0,"Name":1.0},"Location":{"LocationId":"NT_h4p.MYwsj2zVBTRUczkXQD","LocationType":"industrialComplex","Name":"Z.I. de l'Eure","DisplayPosition":{"Latitude":49.21373,"Longitude":1.17594},"MapView":{"TopLeft":{"Latitude":49.21607,"Longitude":1.17264},"BottomRight":{"Latitude":49.21139,"Longitude":1.17972}},"Address":{"Label":"27400 Louviers, France","Country":"FRA","State":"Normandie","County":"Eure","City":"Louviers","PostalCode":"27400","AdditionalData":[{"value":"France","key":"CountryName"},{"value":"Normandie","key":"StateName"},{"value":"Eure","key":"CountyName"}]},"MapReference":{"CountryId":"20000001","StateId":"20057204","CountyId":"20002109","CityId":"20062420","PlaceId":"75435240"}}},{"Relevance":1.0,"Distance":79.4,"MatchLevel":"landmark","MatchQuality":{"Country":1.0,"State":1.0,"County":1.0,"City":1.0,"PostalCode":1.0,"Name":1.0},"Location":{"LocationId":"NT_yXWKwjF87A3eVEOHuynEkD","LocationType":"river","Name":"L'Eure","DisplayPosition":{"Latitude":49.21403,"Longitude":1.17604},"MapView":{"TopLeft":{"Latitude":49.21474,"Longitude":1.17344},"BottomRight":{"Latitude":49.21332,"Longitude":1.17874}},"Address":{"Label":"27400 Louviers, France","Country":"FRA","State":"Normandie","County":"Eure","City":"Louviers","PostalCode":"27400","AdditionalData":[{"value":"France","key":"CountryName"},{"value":"Normandie","key":"StateName"},{"value":"Eure","key":"CountyName"}]},"MapReference":{"CountryId":"20000001","StateId":"20057204","CountyId":"20002109","CityId":"20062420","PlaceId":"1450867831"}}},{"Relevance":1.0,"Distance":79.7,"MatchLevel":"street","MatchQuality":{"Country":1.0,"State":1.0,"County":1.0,"City":1.0,"PostalCode":1.0},"Location":{"LocationId":"NT_qofiFpQBvzhySylQBBx3eA_l_569956614_R","LocationType":"point","DisplayPosition":{"Latitude":49.21201,"Longitude":1.17649},"MapView":{"TopLeft":{"Latitude":49.2121,"Longitude":1.17601},"BottomRight":{"Latitude":49.21201,"Longitude":1.17649}},"Address":{"Label":"27400 Louviers, France","Country":"FRA","State":"Normandie","County":"Eure","City":"Louviers","PostalCode":"27400","AdditionalData":[{"value":"France","key":"CountryName"},{"value":"Normandie","key":"StateName"},{"value":"Eure","key":"CountyName"}]},"MapReference":{"ReferenceId":"569956614","Spot":0.0,"SideOfStreet":"right","CountryId":"20000001","StateId":"20057204","CountyId":"20002109","CityId":"20062420"}}},{"Relevance":1.0,"Distance":79.7,"MatchLevel":"street","MatchQuality":{"Country":1.0,"State":1.0,"County":1.0,"City":1.0,"PostalCode":1.0},"Location":{"LocationId":"NT_qofiFpQBvzhySylQBBx3eA_l_569956603_R","LocationType":"point","DisplayPosition":{"Latitude":49.21201,"Longitude":1.17649},"MapView":{"TopLeft":{"Latitude":49.21201,"Longitude":1.1762},"BottomRight":{"Latitude":49.21145,"Longitude":1.17649}},"Address":{"Label":"27400 Louviers, France","Country":"FRA","State":"Normandie","County":"Eure","City":"Louviers","PostalCode":"27400","AdditionalData":[{"value":"France","key":"CountryName"},{"value":"Normandie","key":"StateName"},{"value":"Eure","key":"CountyName"}]},"MapReference":{"ReferenceId":"569956603","Spot":1.0,"SideOfStreet":"right","CountryId":"20000001","StateId":"20057204","CountyId":"20002109","CityId":"20062420"}}},{"Relevance":1.0,"Distance":89.4,"MatchLevel":"street","MatchQuality":{"Country":1.0,"State":1.0,"County":1.0,"City":1.0,"PostalCode":1.0},"Location":{"LocationId":"NT_qofiFpQBvzhySylQBBx3eA_l_569956607_R","LocationType":"point","DisplayPosition":{"Latitude":49.2121,"Longitude":1.17601},"MapView":{"TopLeft":{"Latitude":49.2121,"Longitude":1.17558},"BottomRight":{"Latitude":49.21158,"Longitude":1.17601}},"Address":{"Label":"27400 Louviers, France","Country":"FRA","State":"Normandie","County":"Eure","City":"Louviers","PostalCode":"27400","AdditionalData":[{"value":"France","key":"CountryName"},{"value":"Normandie","key":"StateName"},{"value":"Eure","key":"CountyName"}]},"MapReference":{"ReferenceId":"569956607","Spot":1.0,"SideOfStreet":"right","CountryId":"20000001","StateId":"20057204","CountyId":"20002109","CityId":"20062420"}}}]}]}}