{"Response":{"MetaInfo":{"Timestamp":"2020-03-28T11:37:11.717+0000","NextPageInformation":"2"},"View":[{"_type":"SearchResultsViewType","ViewId":0,"Result":[{"Relevance":1.0,"Distance":0.0,"Direction":0.0,"MatchLevel":"district","MatchQuality":{"Country":1.0,"State":1.0,"County":1.0,"City":1.0,"District":1.0,"PostalCode":1.0},"Location":{"LocationId":"NT_D0U2Z-uosXeqJZHlgxDAHA","LocationType":"point","DisplayPosition":{"Latitude":49.2976998,"Longitude":20.6880224},"MapView":{"TopLeft":{"Latitude":49.32008,"Longitude":20.66165},"BottomRight":{"Latitude":49.28573,"Longitude":20.70081}},"Address":{"Label":"Stará Ľubovňa, Prešovský kraj, Slovenská Republika","Country":"SVK","State":"Prešovský kraj","County":"Stará Ľubovňa","City":"Stará Ľubovňa","District":"Stará Ľubovňa","PostalCode":"064 01","AdditionalData":[{"value":"Slovenská Republika","key":"CountryName"},{"value":"Prešovský kraj","key":"StateName"},{"value":"Stará Ľubovňa","key":"CountyName"}]},"MapReference":{"ReferenceId":"895589116","SideOfStreet":"neither","CountryId":"20428682","StateId":"20490226","CountyId":"20491122","CityId":"20491193","DistrictId":"22187457"}}},{"Relevance":1.0,"Distance":2.5,"MatchLevel":"street","MatchQuality":{"Country":1.0,"State":1.0,"County":1.0,"City":1.0,"District":1.0,"Street":[1.0],"PostalCode":1.0},"Location":{"LocationId":"NT_o5v37NuTtbPStUfp4suYkA_l_948838443_L","LocationType":"point","DisplayPosition":{"Latitude":49.29768,"Longitude":20.68804},"MapView":{"TopLeft":{"Latitude":49.29768,"Longitude":20.68804},"BottomRight":{"Latitude":49.29755,"Longitude":20.68815}},"Address":{"Label":"Obrancov mieru, 064 01 Stará Ľubovňa, Slovenská Republika","Country":"SVK","State":"Prešovský kraj","County":"Stará Ľubovňa","City":"Stará Ľubovňa","District":"Stará Ľubovňa","Street":"Obrancov mieru","PostalCode":"064 01","AdditionalData":[{"value":"Slovenská Republika","key":"CountryName"},{"value":"Prešovský kraj","key":"StateName"},{"value":"Stará Ľubovňa","key":"CountyName"}]},"MapReference":{"ReferenceId":"948838443","Spot":1.0,"SideOfStreet":"neither","CountryId":"20428682","StateId":"20490226","CountyId":"20491122","CityId":"20491193","DistrictId":"22187457"}}},{"Relevance":1.0,"Distance":2.6,"MatchLevel":"landmark","MatchQuality":{"Country":1.0,"State":1.0,"County":1.0,"City":1.0,"District":1.0,"Street":[1.0],"HouseNumber":1.0,"PostalCode":1.0,"Name":1.0},"Location":{"LocationId":"NT_wlVWCP89f03zLMhZcpr2wC_p_yJP4eFayEBQrzORXtxvEjD","LocationType":"hospital","Name":"Ľubovnianska nemocnica","DisplayPosition":{"Latitude":49.29753,"Longitude":20.68761},"MapView":{"TopLeft":{"Latitude":49.2986542,"Longitude":20.6858862},"BottomRight":{"Latitude":49.2964058,"Longitude":20.6893338}},"Address":{"Label":"Obrancov mieru 3, 064 01 Stará Ľubovňa, Slovenská Republika","Country":"SVK","State":"Prešovský kraj","County":"Stará Ľubovňa","City":"Stará Ľubovňa","District":"Stará Ľubovňa","Street":"Obrancov mieru","HouseNumber":"3","PostalCode":"064 01","AdditionalData":[{"value":"Slovenská Republika","key":"CountryName"},{"value":"Prešovský kraj","key":"StateName"},{"value":"Stará Ľubovňa","key":"CountyName"}]},"MapReference":{"CountryId":"20428682","StateId":"20490226","CountyId":"20491122","CityId":"20491193","DistrictId":"22187457","PlaceId":"800683684"}}},{"Relevance":1.0,"Distance":12.9,"MatchLevel":"houseNumber","MatchQuality":{"Country":1.0,"State":1.0,"County":1.0,"City":1.0,"District":1.0,"Street":[1.0],"HouseNumber":1.0,"PostalCode":1.0},"MatchType":"interpolated","Location":{"LocationId":"NT_o5v37NuTtbPStUfp4suYkA_1EzMvEDM","LocationType":"point","DisplayPosition":{"Latitude":49.29763,"Longitude":20.68788},"MapView":{"TopLeft":{"Latitude":49.2987542,"Longitude":20.6861562},"BottomRight":{"Latitude":49.2965058,"Longitude":20.6896038}},"Address":{"Label":"Obrancov mieru 513/10, 064 01 Stará Ľubovňa, Slovenská Republika","Country":"SVK","State":"Prešovský kraj","County":"Stará Ľubovňa","City":"Stará Ľubovňa","District":"Stará Ľubovňa","Street":"Obrancov mieru","HouseNumber":"513/10","PostalCode":"064 01","AdditionalData":[{"value":"Slovenská Republika","key":"CountryName"},{"value":"Prešovský kraj","key":"StateName"},{"value":"Stará Ľubovňa","key":"CountyName"}]},"MapReference":{"ReferenceId":"708205961","Spot":0.82,"SideOfStreet":"left","CountryId":"20428682","StateId":"20490226","CountyId":"20491122","CityId":"20491193","DistrictId":"22187457","AddressId":"300181887","RoadLinkId":"115132088"}}},{"Relevance":1.0,"Distance":19.1,"MatchLevel":"street","MatchQuality":{"Country":1.0,"State":1.0,"County":1.0,"City":1.0,"District":1.0,"Street":[1.0],"PostalCode":1.0},"Location":{"LocationId":"NT_o5v37NuTtbPStUfp4suYkA_l_1183428979_R","LocationType":"point","DisplayPosition":{"Latitude":49.29755,"Longitude":20.68815},"MapView":{"TopLeft":{"Latitude":49.29755,"Longitude":20.68815},"BottomRight":{"Latitude":49.29746,"Longitude":20.68823}},"Address":{"Label":"Obrancov mieru, 064 01 Stará Ľubovňa, Slovenská Republika","Country":"SVK","State":"Prešovský kraj","County":"Stará Ľubovňa","City":"Stará Ľubovňa","District":"Stará Ľubovňa","Street":"Obrancov mieru","PostalCode":"064 01","AdditionalData":[{"value":"Slovenská Republika","key":"CountryName"},{"value":"Prešovský kraj","key":"StateName"},{"value":"Stará Ľubovňa","key":"CountyName"}]},"MapReference":{"ReferenceId":"1183428979","Spot":1.0,"SideOfStreet":"right","CountryId":"20428682","StateId":"20490226","CountyId":"20491122","CityId":"20491193","DistrictId":"22187457"}}},{"Relevance":1.0,"Distance":19.1,"MatchLevel":"street","MatchQuality":{"Country":1.0,"State":1.0,"County":1.0,"City":1.0,"District":1.0,"PostalCode":1.0},"Location":{"LocationId":"NT_aoojS6ZoJyixXOydcB2XGD_l_1183394216_L","LocationType":"point","DisplayPosition":{"Latitude":49.29755,"Longitude":20.68815},"MapView":{"TopLeft":{"Latitude":49.29772,"Longitude":20.68815},"BottomRight":{"Latitude":49.29755,"Longitude":20.68863}},"Address":{"Label":"064 01 Stará Ľubovňa, Slovenská Republika","Country":"SVK","State":"Prešovský kraj","County":"Stará Ľubovňa","City":"Stará Ľubovňa","District":"Stará Ľubovňa","PostalCode":"064 01","AdditionalData":[{"value":"Slovenská Republika","key":"CountryName"},{"value":"Prešovský kraj","key":"StateName"},{"value":"Stará Ľubovňa","key":"CountyName"}]},"MapReference":{"ReferenceId":"1183394216","Spot":0.0,"SideOfStreet":"left","CountryId":"20428682","StateId":"20490226","CountyId":"20491122","CityId":"20491193","DistrictId":"22187457"}}},{"Relevance":1.0,"Distance":24.0,"MatchLevel":"houseNumber","MatchQuality":{"Country":1.0,"State":1.0,"County":1.0,"City":1.0,"District":1.0,"Street":[1.0],"HouseNumber":1.0,"PostalCode":1.0},"MatchType":"interpolated","Location":{"LocationId":"NT_3rzMgvYUiluuHFkUEJAywA_xYDOy8SMwA","LocationType":"point","DisplayPosition":{"Latitude":49.29788,"Longitude":20.68784},"MapView":{"TopLeft":{"Latitude":49.2990042,"Longitude":20.6861162},"BottomRight":{"Latitude":49.2967558,"Longitude":20.6895638}},"Address":{"Label":"Sládkovičova 1682/10, 064 01 Stará Ľubovňa, Slovenská Republika","Country":"SVK","State":"Prešovský kraj","County":"Stará Ľubovňa","City":"Stará Ľubovňa","District":"Stará Ľubovňa","Street":"Sládkovičova","HouseNumber":"1682/10","PostalCode":"064 01","AdditionalData":[{"value":"Slovenská Republika","key":"CountryName"},{"value":"Prešovský kraj","key":"StateName"},{"value":"Stará Ľubovňa","key":"CountyName"}]},"MapReference":{"ReferenceId":"708205960","Spot":0.95,"SideOfStreet":"right","CountryId":"20428682","StateId":"20490226","CountyId":"20491122","CityId":"20491193","DistrictId":"22187457","AddressId":"589579264","RoadLinkId":"148851970"}}},{"Relevance":1.0,"Distance":25.3,"MatchLevel":"street","MatchQuality":{"Country":1.0,"State":1.0,"County":1.0,"City":1.0,"District":1.0,"Street":[1.0],"PostalCode":1.0},"Location":{"LocationId":"NT_3rzMgvYUiluuHFkUEJAywA_l_948838438_L","LocationType":"point","DisplayPosition":{"Latitude":49.29789,"Longitude":20.68783},"MapView":{"TopLeft":{"Latitude":49.29798,"Longitude":20.68762},"BottomRight":{"Latitude":49.29789,"Longitude":20.68783}},"Address":{"Label":"Sládkovičova, 064 01 Stará Ľubovňa, Slovenská Republika","Country":"SVK","State":"Prešovský kraj","County":"Stará Ľubovňa","City":"Stará Ľubovňa","District":"Stará Ľubovňa","Street":"Sládkovičova","PostalCode":"064 01","AdditionalData":[{"value":"Slovenská Republika","key":"CountryName"},{"value":"Prešovský kraj","key":"StateName"},{"value":"Stará Ľubovňa","key":"CountyName"}]},"MapReference":{"ReferenceId":"948838438","Spot":0.0,"SideOfStreet":"left","CountryId":"20428682","StateId":"20490226","CountyId":"20491122","CityId":"20491193","DistrictId":"22187457"}}},{"Relevance":1.0,"Distance":30.6,"MatchLevel":"street","MatchQuality":{"Country":1.0,"State":1.0,"County":1.0,"City":1.0,"District":1.0,"Street":[1.0],"PostalCode":1.0},"Location":{"LocationId":"NT_o5v37NuTtbPStUfp4suYkA_l_1183428981_R","LocationType":"point","DisplayPosition":{"Latitude":49.29746,"Longitude":20.68823},"MapView":{"TopLeft":{"Latitude":49.29746,"Longitude":20.68823},"BottomRight":{"Latitude":49.2973,"Longitude":20.68837}},"Address":{"Label":"Obrancov mieru, 064 01 Stará Ľubovňa, Slovenská Republika","Country":"SVK","State":"Prešovský kraj","County":"Stará Ľubovňa","City":"Stará Ľubovňa","District":"Stará Ľubovňa","Street":"Obrancov mieru","PostalCode":"064 01","AdditionalData":[{"value":"Slovenská Republika","key":"CountryName"},{"value":"Prešovský kraj","key":"StateName"},{"value":"Stará Ľubovňa","key":"CountyName"}]},"MapReference":{"ReferenceId":"1183428981","Spot":1.0,"SideOfStreet":"right","CountryId":"20428682","StateId":"20490226","CountyId":"20491122","CityId":"20491193","DistrictId":"22187457"}}},{"Relevance":1.0,"Distance":32.1,"MatchLevel":"street","MatchQuality":{"Country":1.0,"State":1.0,"County":1.0,"City":1.0,"District":1.0,"Street":[1.0],"PostalCode":1.0},"Location":{"LocationId":"NT_o5v37NuTtbPStUfp4suYkA_l_1183428978_L","LocationType":"point","DisplayPosition":{"Latitude":49.2974226,"Longitude":20.6881466},"MapView":{"TopLeft":{"Latitude":49.29746,"Longitude":20.68794},"BottomRight":{"Latitude":49.29712,"Longitude":20.68823}},"Address":{"Label":"Obrancov mieru, 064 01 Stará Ľubovňa, Slovenská Republika","Country":"SVK","State":"Prešovský kraj","County":"Stará Ľubovňa","City":"Stará Ľubovňa","District":"Stará Ľubovňa","Street":"Obrancov mieru","PostalCode":"064 01","AdditionalData":[{"value":"Slovenská Republika","key":"CountryName"},{"value":"Prešovský kraj","key":"StateName"},{"value":"Stará Ľubovňa","key":"CountyName"}]},"MapReference":{"ReferenceId":"1183428978","Spot":0.85,"SideOfStreet":"left","CountryId":"20428682","StateId":"20490226","CountyId":"20491122","CityId":"20491193","DistrictId":"22187457"}}}]}]}}