{"Response":{"MetaInfo":{"Timestamp":"2020-03-28T10:06:07.653+0000","NextPageInformation":"2"},"View":[{"_type":"SearchResultsViewType","ViewId":0,"Result":[{"Relevance":1.0,"Distance":0.0,"Direction":0.0,"MatchLevel":"district","MatchQuality":{"Country":1.0,"State":1.0,"County":1.0,"City":1.0,"District":1.0,"PostalCode":1.0},"Location":{"LocationId":"NT_UuaqNRcbPCho9t7uE82v0D","LocationType":"point","DisplayPosition":{"Latitude":49.2968987,"Longitude":9.968482},"MapView":{"TopLeft":{"Latitude":49.30508,"Longitude":9.95613},"BottomRight":{"Latitude":49.29057,"Longitude":9.98187}},"Address":{"Label":"Blaufelden, Baden-Württemberg, Deutschland","Country":"DEU","State":"Baden-Württemberg","County":"Schwäbisch Hall","City":"Blaufelden","District":"Blaufelden","PostalCode":"74572","AdditionalData":[{"value":"Deutschland","key":"CountryName"},{"value":"Baden-Württemberg","key":"StateName"},{"value":"Schwäbisch Hall","key":"CountyName"}]},"MapReference":{"ReferenceId":"540906337","SideOfStreet":"neither","CountryId":"20147700","StateId":"20171489","CountyId":"20172627","CityId":"20172628","DistrictId":"20172632"}}},{"Relevance":1.0,"Distance":10.1,"MatchLevel":"houseNumber","MatchQuality":{"Country":1.0,"State":1.0,"County":1.0,"City":1.0,"District":1.0,"Street":[1.0],"HouseNumber":1.0,"PostalCode":1.0},"MatchType":"interpolated","Location":{"LocationId":"NT_35gzemyhcYIi2xBu9grMdA_1A","LocationType":"point","DisplayPosition":{"Latitude":49.29705,"Longitude":9.9685},"MapView":{"TopLeft":{"Latitude":49.2981742,"Longitude":9.9667762},"BottomRight":{"Latitude":49.2959258,"Longitude":9.9702238}},"Address":{"Label":"Kaiserstraße 5, 74572 Blaufelden, Deutschland","Country":"DEU","State":"Baden-Württemberg","County":"Schwäbisch Hall","City":"Blaufelden","District":"Blaufelden","Street":"Kaiserstraße","HouseNumber":"5","PostalCode":"74572","AdditionalData":[{"value":"Deutschland","key":"CountryName"},{"value":"Baden-Württemberg","key":"StateName"},{"value":"Schwäbisch Hall","key":"CountyName"}]},"MapReference":{"ReferenceId":"537950893","Spot":0.4,"SideOfStreet":"left","CountryId":"20147700","StateId":"20171489","CountyId":"20172627","CityId":"20172628","DistrictId":"20172632","AddressId":"179641837","RoadLinkId":"38844029"}}},{"Relevance":1.0,"Distance":26.1,"MatchLevel":"houseNumber","MatchQuality":{"Country":1.0,"State":1.0,"County":1.0,"City":1.0,"District":1.0,"Street":[1.0],"HouseNumber":1.0,"PostalCode":1.0},"MatchType":"interpolated","Location":{"LocationId":"NT_NJopAyeuZ0MJw7uvb4JjdB_0A","LocationType":"point","DisplayPosition":{"Latitude":49.29651,"Longitude":9.96857},"MapView":{"TopLeft":{"Latitude":49.2976342,"Longitude":9.9668462},"BottomRight":{"Latitude":49.2953858,"Longitude":9.9702938}},"Address":{"Label":"Bahnhofstraße 4, 74572 Blaufelden, Deutschland","Country":"DEU","State":"Baden-Württemberg","County":"Schwäbisch Hall","City":"Blaufelden","District":"Blaufelden","Street":"Bahnhofstraße","HouseNumber":"4","PostalCode":"74572","AdditionalData":[{"value":"Deutschland","key":"CountryName"},{"value":"Baden-Württemberg","key":"StateName"},{"value":"Schwäbisch Hall","key":"CountyName"}]},"MapReference":{"ReferenceId":"537947556","Spot":0.43,"SideOfStreet":"left","CountryId":"20147700","StateId":"20171489","CountyId":"20172627","CityId":"20172628","DistrictId":"20172632","AddressId":"178697205","RoadLinkId":"38476405"}}},{"Relevance":1.0,"Distance":45.5,"MatchLevel":"houseNumber","MatchQuality":{"Country":1.0,"State":1.0,"County":1.0,"City":1.0,"District":1.0,"Street":[1.0],"HouseNumber":1.0,"PostalCode":1.0},"MatchType":"interpolated","Location":{"LocationId":"NT_NJopAyeuZ0MJw7uvb4JjdB_4A","LocationType":"point","DisplayPosition":{"Latitude":49.29675,"Longitude":9.96772},"MapView":{"TopLeft":{"Latitude":49.2978742,"Longitude":9.9659962},"BottomRight":{"Latitude":49.2956258,"Longitude":9.9694438}},"Address":{"Label":"Bahnhofstraße 8, 74572 Blaufelden, Deutschland","Country":"DEU","State":"Baden-Württemberg","County":"Schwäbisch Hall","City":"Blaufelden","District":"Blaufelden","Street":"Bahnhofstraße","HouseNumber":"8","PostalCode":"74572","AdditionalData":[{"value":"Deutschland","key":"CountryName"},{"value":"Baden-Württemberg","key":"StateName"},{"value":"Schwäbisch Hall","key":"CountyName"}]},"MapReference":{"ReferenceId":"537951247","Spot":0.35,"SideOfStreet":"right","CountryId":"20147700","StateId":"20171489","CountyId":"20172627","CityId":"20172628","DistrictId":"20172632","AddressId":"177463009","RoadLinkId":"38317542"}}},{"Relevance":1.0,"Distance":64.8,"MatchLevel":"houseNumber","MatchQuality":{"Country":1.0,"State":1.0,"County":1.0,"City":1.0,"District":1.0,"Street":[1.0],"HouseNumber":1.0,"PostalCode":1.0},"MatchType":"interpolated","Location":{"LocationId":"NT_RSQ9dTJUDYP9T6s-.WrX4B_0YD","LocationType":"point","DisplayPosition":{"Latitude":49.29668,"Longitude":9.96931},"MapView":{"TopLeft":{"Latitude":49.2978042,"Longitude":9.9675862},"BottomRight":{"Latitude":49.2955558,"Longitude":9.9710338}},"Address":{"Label":"Hauptstraße 46, 74572 Blaufelden, Deutschland","Country":"DEU","State":"Baden-Württemberg","County":"Schwäbisch Hall","City":"Blaufelden","District":"Blaufelden","Street":"Hauptstraße","HouseNumber":"46","PostalCode":"74572","AdditionalData":[{"value":"Deutschland","key":"CountryName"},{"value":"Baden-Württemberg","key":"StateName"},{"value":"Schwäbisch Hall","key":"CountyName"}]},"MapReference":{"ReferenceId":"537950894","Spot":0.52,"SideOfStreet":"right","CountryId":"20147700","StateId":"20171489","CountyId":"20172627","CityId":"20172628","DistrictId":"20172632","AddressId":"179869067","RoadLinkId":"174353941"}}},{"Relevance":1.0,"Distance":81.2,"MatchLevel":"street","MatchQuality":{"Country":1.0,"State":1.0,"County":1.0,"City":1.0,"District":1.0,"Street":[1.0],"PostalCode":1.0},"Location":{"LocationId":"NT_HnXeuxuIruBBLdH35VZarB_l_840783153_L","LocationType":"point","DisplayPosition":{"Latitude":49.29648,"Longitude":9.9694},"MapView":{"TopLeft":{"Latitude":49.29659,"Longitude":9.9694},"BottomRight":{"Latitude":49.29648,"Longitude":9.96951}},"Address":{"Label":"Langenburger Straße, 74572 Blaufelden, Deutschland","Country":"DEU","State":"Baden-Württemberg","County":"Schwäbisch Hall","City":"Blaufelden","District":"Blaufelden","Street":"Langenburger Straße","PostalCode":"74572","AdditionalData":[{"value":"Deutschland","key":"CountryName"},{"value":"Baden-Württemberg","key":"StateName"},{"value":"Schwäbisch Hall","key":"CountyName"}]},"MapReference":{"ReferenceId":"840783153","Spot":0.0,"SideOfStreet":"left","CountryId":"20147700","StateId":"20171489","CountyId":"20172627","CityId":"20172628","DistrictId":"20172632"}}},{"Relevance":1.0,"Distance":88.2,"MatchLevel":"houseNumber","MatchQuality":{"Country":1.0,"State":1.0,"County":1.0,"City":1.0,"District":1.0,"Street":[1.0],"HouseNumber":1.0,"PostalCode":1.0},"MatchType":"interpolated","Location":{"LocationId":"NT_HnXeuxuIruBBLdH35VZarB_0A","LocationType":"point","DisplayPosition":{"Latitude":49.29628,"Longitude":9.96931},"MapView":{"TopLeft":{"Latitude":49.2974042,"Longitude":9.9675862},"BottomRight":{"Latitude":49.2951558,"Longitude":9.9710338}},"Address":{"Label":"Langenburger Straße 4, 74572 Blaufelden, Deutschland","Country":"DEU","State":"Baden-Württemberg","County":"Schwäbisch Hall","City":"Blaufelden","District":"Blaufelden","Street":"Langenburger Straße","HouseNumber":"4","PostalCode":"74572","AdditionalData":[{"value":"Deutschland","key":"CountryName"},{"value":"Baden-Württemberg","key":"StateName"},{"value":"Schwäbisch Hall","key":"CountyName"}]},"MapReference":{"ReferenceId":"840783152","Spot":0.84,"SideOfStreet":"left","CountryId":"20147700","StateId":"20171489","CountyId":"20172627","CityId":"20172628","DistrictId":"20172632","AddressId":"180001780","RoadLinkId":"222755182"}}},{"Relevance":1.0,"Distance":93.3,"MatchLevel":"houseNumber","MatchQuality":{"Country":1.0,"State":1.0,"County":1.0,"City":1.0,"District":1.0,"Street":[1.0],"HouseNumber":1.0,"PostalCode":1.0},"MatchType":"interpolated","Location":{"LocationId":"NT_NJopAyeuZ0MJw7uvb4JjdB_3A","LocationType":"point","DisplayPosition":{"Latitude":49.29601,"Longitude":9.96829},"MapView":{"TopLeft":{"Latitude":49.2971342,"Longitude":9.9665662},"BottomRight":{"Latitude":49.2948858,"Longitude":9.9700138}},"Address":{"Label":"Bahnhofstraße 7, 74572 Blaufelden, Deutschland","Country":"DEU","State":"Baden-Württemberg","County":"Schwäbisch Hall","City":"Blaufelden","District":"Blaufelden","Street":"Bahnhofstraße","HouseNumber":"7","PostalCode":"74572","AdditionalData":[{"value":"Deutschland","key":"CountryName"},{"value":"Baden-Württemberg","key":"StateName"},{"value":"Schwäbisch Hall","key":"CountyName"}]},"MapReference":{"ReferenceId":"537947562","Spot":0.79,"SideOfStreet":"right","CountryId":"20147700","StateId":"20171489","CountyId":"20172627","CityId":"20172628","DistrictId":"20172632","AddressId":"179641383","RoadLinkId":"38478895"}}},{"Relevance":1.0,"Distance":94.6,"MatchLevel":"houseNumber","MatchQuality":{"Country":1.0,"State":1.0,"County":1.0,"City":1.0,"District":1.0,"Street":[1.0],"HouseNumber":1.0,"PostalCode":1.0},"MatchType":"interpolated","Location":{"LocationId":"NT_RSQ9dTJUDYP9T6s-.WrX4B_0ID","LocationType":"point","DisplayPosition":{"Latitude":49.29652,"Longitude":9.96965},"MapView":{"TopLeft":{"Latitude":49.2976442,"Longitude":9.9679262},"BottomRight":{"Latitude":49.2953958,"Longitude":9.9713738}},"Address":{"Label":"Hauptstraße 42, 74572 Blaufelden, Deutschland","Country":"DEU","State":"Baden-Württemberg","County":"Schwäbisch Hall","City":"Blaufelden","District":"Blaufelden","Street":"Hauptstraße","HouseNumber":"42","PostalCode":"74572","AdditionalData":[{"value":"Deutschland","key":"CountryName"},{"value":"Baden-Württemberg","key":"StateName"},{"value":"Schwäbisch Hall","key":"CountyName"}]},"MapReference":{"ReferenceId":"724651888","Spot":0.22,"SideOfStreet":"right","CountryId":"20147700","StateId":"20171489","CountyId":"20172627","CityId":"20172628","DistrictId":"20172632","AddressId":"177459261","RoadLinkId":"127714512"}}},{"Relevance":1.0,"Distance":98.2,"MatchLevel":"street","MatchQuality":{"Country":1.0,"State":1.0,"County":1.0,"City":1.0,"District":1.0,"Street":[1.0],"PostalCode":1.0},"Location":{"LocationId":"NT_LBmTNF90FB2YboAjtqOaLC_l_1090252907_L","LocationType":"point","DisplayPosition":{"Latitude":49.2965,"Longitude":9.96969},"MapView":{"TopLeft":{"Latitude":49.2965,"Longitude":9.96969},"BottomRight":{"Latitude":49.2964,"Longitude":9.9699}},"Address":{"Label":"Hauptstraße, 74572 Blaufelden, Deutschland","Country":"DEU","State":"Baden-Württemberg","County":"Schwäbisch Hall","City":"Blaufelden","District":"Blaufelden","Street":"Hauptstraße","PostalCode":"74572","AdditionalData":[{"value":"Deutschland","key":"CountryName"},{"value":"Baden-Württemberg","key":"StateName"},{"value":"Schwäbisch Hall","key":"CountyName"}]},"MapReference":{"ReferenceId":"1090252907","Spot":1.0,"SideOfStreet":"left","CountryId":"20147700","StateId":"20171489","CountyId":"20172627","CityId":"20172628","DistrictId":"20172632"}}}]}]}}