{"Response":{"MetaInfo":{"Timestamp":"2020-03-28T11:54:04.229+0000","NextPageInformation":"2"},"View":[{"_type":"SearchResultsViewType","ViewId":0,"Result":[{"Relevance":1.0,"Distance":-465.9,"MatchLevel":"landmark","MatchQuality":{"Country":1.0,"State":1.0,"Name":1.0},"Location":{"LocationId":"NT_6su2l00beSlXwUlYRySHIB","LocationType":"park","Name":"P.N.R. Boucles de la Seine Normande","DisplayPosition":{"Latitude":49.47633,"Longitude":0.77841},"MapView":{"TopLeft":{"Latitude":49.63447,"Longitude":0.30373},"BottomRight":{"Latitude":49.31818,"Longitude":1.05186}},"Address":{"Label":"France","Country":"FRA","State":"Normandie","AdditionalData":[{"value":"France","key":"CountryName"},{"value":"Normandie","key":"StateName"}]},"MapReference":{"CountryId":"20000001","StateId":"20057204","PlaceId":"1512262610"}}},{"Relevance":1.0,"Distance":0.0,"Direction":0.0,"MatchLevel":"city","MatchQuality":{"Country":1.0,"State":1.0,"County":1.0,"City":1.0,"PostalCode":1.0},"Location":{"LocationId":"NT_R8oVAuGryVABLw6zLp9ZMB","LocationType":"point","DisplayPosition":{"Latitude":49.3532946,"Longitude":0.5129031},"MapView":{"TopLeft":{"Latitude":49.36692,"Longitude":0.46194},"BottomRight":{"Latitude":49.32817,"Longitude":0.58988}},"Address":{"Label":"Pont-Audemer, Normandie, France","Country":"FRA","State":"Normandie","County":"Eure","City":"Pont-Audemer","PostalCode":"27500","AdditionalData":[{"value":"France","key":"CountryName"},{"value":"Normandie","key":"StateName"},{"value":"Eure","key":"CountyName"}]},"MapReference":{"ReferenceId":"1205164779","SideOfStreet":"neither","CountryId":"20000001","StateId":"20057204","CountyId":"20002109","CityId":"20062688"}}},{"Relevance":1.0,"Distance":3.9,"MatchLevel":"houseNumber","MatchQuality":{"Country":1.0,"State":1.0,"County":1.0,"City":1.0,"Street":[1.0],"HouseNumber":1.0,"PostalCode":1.0},"MatchType":"interpolated","Location":{"LocationId":"NT_WCiNa56ynSuEaToU3K1VNA_xED","LocationType":"point","DisplayPosition":{"Latitude":49.35343,"Longitude":0.51284},"MapView":{"TopLeft":{"Latitude":49.3545542,"Longitude":0.5111142},"BottomRight":{"Latitude":49.3523058,"Longitude":0.5145658}},"Address":{"Label":"11 Place du Pot d'Étain, 27500 Pont-Audemer, France","Country":"FRA","State":"Normandie","County":"Eure","City":"Pont-Audemer","Street":"Place du Pot d'Étain","HouseNumber":"11","PostalCode":"27500","AdditionalData":[{"value":"France","key":"CountryName"},{"value":"Normandie","key":"StateName"},{"value":"Eure","key":"CountyName"}]},"MapReference":{"ReferenceId":"545566254","Spot":0.84,"SideOfStreet":"right","CountryId":"20000001","StateId":"20057204","CountyId":"20002109","CityId":"20062688","AddressId":"361005017","RoadLinkId":"47979683"}}},{"Relevance":1.0,"Distance":18.6,"MatchLevel":"houseNumber","MatchQuality":{"Country":1.0,"State":1.0,"County":1.0,"City":1.0,"Street":[1.0],"HouseNumber":1.0,"PostalCode":1.0},"MatchType":"interpolated","Location":{"LocationId":"NT_luLLs-u4zWl7kR83oakR1D_yED","LocationType":"point","DisplayPosition":{"Latitude":49.35348,"Longitude":0.51303},"MapView":{"TopLeft":{"Latitude":49.3546042,"Longitude":0.5113042},"BottomRight":{"Latitude":49.3523558,"Longitude":0.5147558}},"Address":{"Label":"21 Rue des Carmélites, 27500 Pont-Audemer, France","Country":"FRA","State":"Normandie","County":"Eure","City":"Pont-Audemer","Street":"Rue des Carmélites","HouseNumber":"21","PostalCode":"27500","AdditionalData":[{"value":"France","key":"CountryName"},{"value":"Normandie","key":"StateName"},{"value":"Eure","key":"CountyName"}]},"MapReference":{"ReferenceId":"546198396","Spot":0.16,"SideOfStreet":"right","CountryId":"20000001","StateId":"20057204","CountyId":"20002109","CityId":"20062688","AddressId":"571091519","RoadLinkId":"407269261"}}},{"Relevance":1.0,"Distance":21.2,"MatchLevel":"houseNumber","MatchQuality":{"Country":1.0,"State":1.0,"County":1.0,"City":1.0,"Street":[1.0],"HouseNumber":1.0,"PostalCode":1.0},"MatchType":"interpolated","Location":{"LocationId":"NT_Su5XyYCj48vpqyoqN6.Y5D_l_546198177_L_xMD","LocationType":"point","DisplayPosition":{"Latitude":49.3536,"Longitude":0.51282},"MapView":{"TopLeft":{"Latitude":49.3547242,"Longitude":0.5110942},"BottomRight":{"Latitude":49.3524759,"Longitude":0.5145457}},"Address":{"Label":"13 Rue du Pot d'Étain, 27500 Pont-Audemer, France","Country":"FRA","State":"Normandie","County":"Eure","City":"Pont-Audemer","Street":"Rue du Pot d'Étain","HouseNumber":"13","PostalCode":"27500","AdditionalData":[{"value":"France","key":"CountryName"},{"value":"Normandie","key":"StateName"},{"value":"Eure","key":"CountyName"}]},"MapReference":{"ReferenceId":"546198177","Spot":0.0,"SideOfStreet":"left","CountryId":"20000001","StateId":"20057204","CountyId":"20002109","CityId":"20062688"}}},{"Relevance":1.0,"Distance":22.9,"MatchLevel":"houseNumber","MatchQuality":{"Country":1.0,"State":1.0,"County":1.0,"City":1.0,"Street":[1.0],"HouseNumber":1.0,"PostalCode":1.0},"MatchType":"interpolated","Location":{"LocationId":"NT_WCiNa56ynSuEaToU3K1VNA_zA","LocationType":"point","DisplayPosition":{"Latitude":49.3535,"Longitude":0.51288},"MapView":{"TopLeft":{"Latitude":49.3546242,"Longitude":0.5111542},"BottomRight":{"Latitude":49.3523758,"Longitude":0.5146058}},"Address":{"Label":"3 Place du Pot d'Étain, 27500 Pont-Audemer, France","Country":"FRA","State":"Normandie","County":"Eure","City":"Pont-Audemer","Street":"Place du Pot d'Étain","HouseNumber":"3","PostalCode":"27500","AdditionalData":[{"value":"France","key":"CountryName"},{"value":"Normandie","key":"StateName"},{"value":"Eure","key":"CountyName"}]},"MapReference":{"ReferenceId":"545566255","Spot":0.16,"SideOfStreet":"right","CountryId":"20000001","StateId":"20057204","CountyId":"20002109","CityId":"20062688","AddressId":"689766474","RoadLinkId":"304468772"}}},{"Relevance":1.0,"Distance":26.8,"MatchLevel":"street","MatchQuality":{"Country":1.0,"State":1.0,"County":1.0,"City":1.0,"PostalCode":1.0},"Location":{"LocationId":"NT_rDBf1EmKKQ2eTtDkhmE7ZC_l_546198371_L","LocationType":"point","DisplayPosition":{"Latitude":49.35319,"Longitude":0.51257},"MapView":{"TopLeft":{"Latitude":49.35321,"Longitude":0.51239},"BottomRight":{"Latitude":49.35318,"Longitude":0.51257}},"Address":{"Label":"27500 Pont-Audemer, France","Country":"FRA","State":"Normandie","County":"Eure","City":"Pont-Audemer","PostalCode":"27500","AdditionalData":[{"value":"France","key":"CountryName"},{"value":"Normandie","key":"StateName"},{"value":"Eure","key":"CountyName"}]},"MapReference":{"ReferenceId":"546198371","Spot":1.0,"SideOfStreet":"left","CountryId":"20000001","StateId":"20057204","CountyId":"20002109","CityId":"20062688"}}},{"Relevance":1.0,"Distance":27.2,"MatchLevel":"street","MatchQuality":{"Country":1.0,"State":1.0,"County":1.0,"City":1.0,"PostalCode":1.0},"Location":{"LocationId":"NT_rDBf1EmKKQ2eTtDkhmE7ZC_l_546198374_R","LocationType":"point","DisplayPosition":{"Latitude":49.35316,"Longitude":0.51259},"MapView":{"TopLeft":{"Latitude":49.35319,"Longitude":0.51257},"BottomRight":{"Latitude":49.35308,"Longitude":0.5126}},"Address":{"Label":"27500 Pont-Audemer, France","Country":"FRA","State":"Normandie","County":"Eure","City":"Pont-Audemer","PostalCode":"27500","AdditionalData":[{"value":"France","key":"CountryName"},{"value":"Normandie","key":"StateName"},{"value":"Eure","key":"CountyName"}]},"MapReference":{"ReferenceId":"546198374","Spot":0.72,"SideOfStreet":"right","CountryId":"20000001","StateId":"20057204","CountyId":"20002109","CityId":"20062688"}}},{"Relevance":1.0,"Distance":33.9,"MatchLevel":"street","MatchQuality":{"Country":1.0,"State":1.0,"County":1.0,"City":1.0,"PostalCode":1.0},"Location":{"LocationId":"NT_rDBf1EmKKQ2eTtDkhmE7ZC_l_546198373_L","LocationType":"point","DisplayPosition":{"Latitude":49.35308,"Longitude":0.51257},"MapView":{"TopLeft":{"Latitude":49.35308,"Longitude":0.51243},"BottomRight":{"Latitude":49.35306,"Longitude":0.51257}},"Address":{"Label":"27500 Pont-Audemer, France","Country":"FRA","State":"Normandie","County":"Eure","City":"Pont-Audemer","PostalCode":"27500","AdditionalData":[{"value":"France","key":"CountryName"},{"value":"Normandie","key":"StateName"},{"value":"Eure","key":"CountyName"}]},"MapReference":{"ReferenceId":"546198373","Spot":1.0,"SideOfStreet":"left","CountryId":"20000001","StateId":"20057204","CountyId":"20002109","CityId":"20062688"}}},{"Relevance":1.0,"Distance":36.2,"MatchLevel":"street","MatchQuality":{"Country":1.0,"State":1.0,"County":1.0,"City":1.0,"Street":[1.0],"PostalCode":1.0},"Location":{"LocationId":"NT_VrljVw.Syk186ztadgLP4C_l_1187369016_R","LocationType":"point","DisplayPosition":{"Latitude":49.3529893,"Longitude":0.5127287},"MapView":{"TopLeft":{"Latitude":49.35308,"Longitude":0.51257},"BottomRight":{"Latitude":49.35296,"Longitude":0.51278}},"Address":{"Label":"Rue du Président Georges Pompidou, 27500 Pont-Audemer, France","Country":"FRA","State":"Normandie","County":"Eure","City":"Pont-Audemer","Street":"Rue du Président Georges Pompidou","PostalCode":"27500","AdditionalData":[{"value":"France","key":"CountryName"},{"value":"Normandie","key":"StateName"},{"value":"Eure","key":"CountyName"}]},"MapReference":{"ReferenceId":"1187369016","Spot":0.24,"SideOfStreet":"right","CountryId":"20000001","StateId":"20057204","CountyId":"20002109","CityId":"20062688"}}}]}]}}