{"Response":{"MetaInfo":{"Timestamp":"2020-03-28T10:28:43.073+0000","NextPageInformation":"2"},"View":[{"_type":"SearchResultsViewType","ViewId":0,"Result":[{"Relevance":1.0,"Distance":0.0,"Direction":0.0,"MatchLevel":"city","MatchQuality":{"Country":1.0,"State":1.0,"County":1.0,"City":1.0,"PostalCode":1.0},"Location":{"LocationId":"NT_EHYvkOtjJhrRSMlf62jb8C","LocationType":"point","DisplayPosition":{"Latitude":49.3199223,"Longitude":2.4427944},"MapView":{"TopLeft":{"Latitude":49.32429,"Longitude":2.39694},"BottomRight":{"Latitude":49.30319,"Longitude":2.45914}},"Address":{"Label":"Cauffry, Hauts-de-France, France","Country":"FRA","State":"Hauts-de-France","County":"Oise","City":"Cauffry","PostalCode":"60290","AdditionalData":[{"value":"France","key":"CountryName"},{"value":"Hauts-de-France","key":"StateName"},{"value":"Oise","key":"CountyName"}]},"MapReference":{"ReferenceId":"70158825","SideOfStreet":"neither","CountryId":"20000001","StateId":"20000002","CountyId":"20002123","CityId":"20028455"}}},{"Relevance":1.0,"Distance":13.7,"MatchLevel":"houseNumber","MatchQuality":{"Country":1.0,"State":1.0,"County":1.0,"City":1.0,"Street":[1.0],"HouseNumber":1.0,"PostalCode":1.0},"MatchType":"interpolated","Location":{"LocationId":"NT_QBOhavL1kiU3l1IFVsYNsB_3QF","LocationType":"point","DisplayPosition":{"Latitude":49.31993,"Longitude":2.4425},"MapView":{"TopLeft":{"Latitude":49.3210542,"Longitude":2.4407754},"BottomRight":{"Latitude":49.3188058,"Longitude":2.4442246}},"Address":{"Label":"7T Avenue Henri Besse, 60290 Cauffry, France","Country":"FRA","State":"Hauts-de-France","County":"Oise","City":"Cauffry","Street":"Avenue Henri Besse","HouseNumber":"7T","PostalCode":"60290","AdditionalData":[{"value":"France","key":"CountryName"},{"value":"Hauts-de-France","key":"StateName"},{"value":"Oise","key":"CountyName"}]},"MapReference":{"ReferenceId":"976403651","Spot":0.42,"SideOfStreet":"right","CountryId":"20000001","StateId":"20000002","CountyId":"20002123","CityId":"20028455","AddressId":"321194657","RoadLinkId":"311055277"}}},{"Relevance":1.0,"Distance":40.3,"MatchLevel":"street","MatchQuality":{"Country":1.0,"State":1.0,"County":1.0,"City":1.0,"Street":[1.0],"PostalCode":1.0},"Location":{"LocationId":"NT_QBOhavL1kiU3l1IFVsYNsB_l_70157585_R","LocationType":"point","DisplayPosition":{"Latitude":49.3196,"Longitude":2.44254},"MapView":{"TopLeft":{"Latitude":49.3196,"Longitude":2.44254},"BottomRight":{"Latitude":49.31948,"Longitude":2.44255}},"Address":{"Label":"Avenue Henri Besse, 60290 Cauffry, France","Country":"FRA","State":"Hauts-de-France","County":"Oise","City":"Cauffry","Street":"Avenue Henri Besse","PostalCode":"60290","AdditionalData":[{"value":"France","key":"CountryName"},{"value":"Hauts-de-France","key":"StateName"},{"value":"Oise","key":"CountyName"}]},"MapReference":{"ReferenceId":"70157585","Spot":1.0,"SideOfStreet":"right","CountryId":"20000001","StateId":"20000002","CountyId":"20002123","CityId":"20028455"}}},{"Relevance":1.0,"Distance":52.3,"MatchLevel":"street","MatchQuality":{"Country":1.0,"State":1.0,"County":1.0,"City":1.0,"Street":[1.0],"PostalCode":1.0},"Location":{"LocationId":"NT_QBOhavL1kiU3l1IFVsYNsB_l_976504090_R","LocationType":"point","DisplayPosition":{"Latitude":49.31948,"Longitude":2.44255},"MapView":{"TopLeft":{"Latitude":49.31948,"Longitude":2.44255},"BottomRight":{"Latitude":49.31935,"Longitude":2.44256}},"Address":{"Label":"Avenue Henri Besse, 60290 Cauffry, France","Country":"FRA","State":"Hauts-de-France","County":"Oise","City":"Cauffry","Street":"Avenue Henri Besse","PostalCode":"60290","AdditionalData":[{"value":"France","key":"CountryName"},{"value":"Hauts-de-France","key":"StateName"},{"value":"Oise","key":"CountyName"}]},"MapReference":{"ReferenceId":"976504090","Spot":1.0,"SideOfStreet":"right","CountryId":"20000001","StateId":"20000002","CountyId":"20002123","CityId":"20028455"}}},{"Relevance":1.0,"Distance":59.0,"MatchLevel":"houseNumber","MatchQuality":{"Country":1.0,"State":1.0,"County":1.0,"City":1.0,"Street":[1.0],"HouseNumber":1.0,"PostalCode":1.0},"MatchType":"interpolated","Location":{"LocationId":"NT_QBOhavL1kiU3l1IFVsYNsB_1QF","LocationType":"point","DisplayPosition":{"Latitude":49.32041,"Longitude":2.44245},"MapView":{"TopLeft":{"Latitude":49.3215342,"Longitude":2.4407254},"BottomRight":{"Latitude":49.3192858,"Longitude":2.4441746}},"Address":{"Label":"5T Avenue Henri Besse, 60290 Cauffry, France","Country":"FRA","State":"Hauts-de-France","County":"Oise","City":"Cauffry","Street":"Avenue Henri Besse","HouseNumber":"5T","PostalCode":"60290","AdditionalData":[{"value":"France","key":"CountryName"},{"value":"Hauts-de-France","key":"StateName"},{"value":"Oise","key":"CountyName"}]},"MapReference":{"ReferenceId":"976403652","Spot":0.03,"SideOfStreet":"right","CountryId":"20000001","StateId":"20000002","CountyId":"20002123","CityId":"20028455","AddressId":"321194654","RoadLinkId":"311055278"}}},{"Relevance":1.0,"Distance":65.9,"MatchLevel":"street","MatchQuality":{"Country":1.0,"State":1.0,"County":1.0,"City":1.0,"Street":[1.0],"PostalCode":1.0},"Location":{"LocationId":"NT_QBOhavL1kiU3l1IFVsYNsB_l_976985544_R","LocationType":"point","DisplayPosition":{"Latitude":49.31935,"Longitude":2.44256},"MapView":{"TopLeft":{"Latitude":49.31935,"Longitude":2.44255},"BottomRight":{"Latitude":49.31915,"Longitude":2.44256}},"Address":{"Label":"Avenue Henri Besse, 60290 Cauffry, France","Country":"FRA","State":"Hauts-de-France","County":"Oise","City":"Cauffry","Street":"Avenue Henri Besse","PostalCode":"60290","AdditionalData":[{"value":"France","key":"CountryName"},{"value":"Hauts-de-France","key":"StateName"},{"value":"Oise","key":"CountyName"}]},"MapReference":{"ReferenceId":"976985544","Spot":1.0,"SideOfStreet":"right","CountryId":"20000001","StateId":"20000002","CountyId":"20002123","CityId":"20028455"}}},{"Relevance":1.0,"Distance":72.7,"MatchLevel":"houseNumber","MatchQuality":{"Country":1.0,"State":1.0,"County":1.0,"City":1.0,"Street":[1.0],"HouseNumber":1.0,"PostalCode":1.0},"MatchType":"interpolated","Location":{"LocationId":"NT_I9zgcJsQbm4EIbnSB4xA5B_yA","LocationType":"point","DisplayPosition":{"Latitude":49.3195,"Longitude":2.44198},"MapView":{"TopLeft":{"Latitude":49.3206242,"Longitude":2.4402554},"BottomRight":{"Latitude":49.3183758,"Longitude":2.4437046}},"Address":{"Label":"2 Rue Traccine, 60290 Cauffry, France","Country":"FRA","State":"Hauts-de-France","County":"Oise","City":"Cauffry","Street":"Rue Traccine","HouseNumber":"2","PostalCode":"60290","AdditionalData":[{"value":"France","key":"CountryName"},{"value":"Hauts-de-France","key":"StateName"},{"value":"Oise","key":"CountyName"}]},"MapReference":{"ReferenceId":"70161145","Spot":0.4,"SideOfStreet":"right","CountryId":"20000001","StateId":"20000002","CountyId":"20002123","CityId":"20028455","AddressId":"321253937","RoadLinkId":"44420308"}}},{"Relevance":1.0,"Distance":80.8,"MatchLevel":"houseNumber","MatchQuality":{"Country":1.0,"State":1.0,"County":1.0,"City":1.0,"Street":[1.0],"HouseNumber":1.0,"PostalCode":1.0},"MatchType":"interpolated","Location":{"LocationId":"NT_H74CQowowLcFpMH0kwff.C_xAD","LocationType":"point","DisplayPosition":{"Latitude":49.31938,"Longitude":2.44358},"MapView":{"TopLeft":{"Latitude":49.3205042,"Longitude":2.4418554},"BottomRight":{"Latitude":49.3182558,"Longitude":2.4453046}},"Address":{"Label":"10 Rue des Marronniers, 60290 Cauffry, France","Country":"FRA","State":"Hauts-de-France","County":"Oise","City":"Cauffry","Street":"Rue des Marronniers","HouseNumber":"10","PostalCode":"60290","AdditionalData":[{"value":"France","key":"CountryName"},{"value":"Hauts-de-France","key":"StateName"},{"value":"Oise","key":"CountyName"}]},"MapReference":{"ReferenceId":"70161102","Spot":0.59,"SideOfStreet":"right","CountryId":"20000001","StateId":"20000002","CountyId":"20002123","CityId":"20028455","AddressId":"379778571","RoadLinkId":"43955089"}}},{"Relevance":1.0,"Distance":87.7,"MatchLevel":"street","MatchQuality":{"Country":1.0,"State":1.0,"County":1.0,"City":1.0,"Street":[1.0],"PostalCode":1.0},"Location":{"LocationId":"NT_HtvmZ0byXKmA6mxHtaeKTD_l_976985543_R","LocationType":"point","DisplayPosition":{"Latitude":49.31915,"Longitude":2.44255},"MapView":{"TopLeft":{"Latitude":49.31915,"Longitude":2.44253},"BottomRight":{"Latitude":49.31904,"Longitude":2.44255}},"Address":{"Label":"Avenue Henri Besse, 60290 Cauffry, France","Country":"FRA","State":"Hauts-de-France","County":"Oise","City":"Cauffry","Street":"Avenue Henri Besse","PostalCode":"60290","AdditionalData":[{"value":"France","key":"CountryName"},{"value":"Hauts-de-France","key":"StateName"},{"value":"Oise","key":"CountyName"}]},"MapReference":{"ReferenceId":"976985543","Spot":1.0,"SideOfStreet":"right","CountryId":"20000001","StateId":"20000002","CountyId":"20002123","CityId":"20028455"}}},{"Relevance":1.0,"Distance":100.0,"MatchLevel":"street","MatchQuality":{"Country":1.0,"State":1.0,"County":1.0,"City":1.0,"PostalCode":1.0},"Location":{"LocationId":"NT_XxBb1NLhZd7bkb3VhRtZRA_l_846075624_L","LocationType":"point","DisplayPosition":{"Latitude":49.31904,"Longitude":2.44253},"MapView":{"TopLeft":{"Latitude":49.31905,"Longitude":2.44233},"BottomRight":{"Latitude":49.31897,"Longitude":2.44253}},"Address":{"Label":"60290 Cauffry, France","Country":"FRA","State":"Hauts-de-France","County":"Oise","City":"Cauffry","PostalCode":"60290","AdditionalData":[{"value":"France","key":"CountryName"},{"value":"Hauts-de-France","key":"StateName"},{"value":"Oise","key":"CountyName"}]},"MapReference":{"ReferenceId":"846075624","Spot":1.0,"SideOfStreet":"left","CountryId":"20000001","StateId":"20000002","CountyId":"20002123","CityId":"20028455"}}}]}]}}