{"Response":{"MetaInfo":{"Timestamp":"2020-03-28T09:34:54.935+0000","NextPageInformation":"2"},"View":[{"_type":"SearchResultsViewType","ViewId":0,"Result":[{"Relevance":1.0,"Distance":0.0,"Direction":0.0,"MatchLevel":"district","MatchQuality":{"Country":1.0,"State":1.0,"County":1.0,"City":1.0,"District":1.0,"PostalCode":1.0},"Location":{"LocationId":"NT_m4pYpYFDzWYvDDPgEUt8QA","LocationType":"point","DisplayPosition":{"Latitude":49.3142582,"Longitude":10.5669845},"MapView":{"TopLeft":{"Latitude":49.31996,"Longitude":10.53686},"BottomRight":{"Latitude":49.28585,"Longitude":10.60095}},"Address":{"Label":"Ansbach, Bayern, Deutschland","Country":"DEU","State":"Bayern","County":"Ansbach (Stadt)","City":"Ansbach","District":"Ansbach","PostalCode":"91522","AdditionalData":[{"value":"Deutschland","key":"CountryName"},{"value":"Bayern","key":"StateName"},{"value":"Ansbach (Stadt)","key":"CountyName"}]},"MapReference":{"ReferenceId":"1266125923","SideOfStreet":"neither","CountryId":"20147700","StateId":"20177250","CountyId":"20182943","CityId":"20182944","DistrictId":"20182946"}}},{"Relevance":1.0,"Distance":18.0,"MatchLevel":"houseNumber","MatchQuality":{"Country":1.0,"State":1.0,"County":1.0,"City":1.0,"District":1.0,"Street":[1.0],"HouseNumber":1.0,"PostalCode":1.0},"MatchType":"interpolated","Location":{"LocationId":"NT_fSL9nqjahy-SV2i1Yk14FD_0A","LocationType":"point","DisplayPosition":{"Latitude":49.31434,"Longitude":10.56641},"MapView":{"TopLeft":{"Latitude":49.3154642,"Longitude":10.5646856},"BottomRight":{"Latitude":49.3132158,"Longitude":10.5681344}},"Address":{"Label":"Raabstraße 4, 91522 Ansbach, Deutschland","Country":"DEU","State":"Bayern","County":"Ansbach (Stadt)","City":"Ansbach","District":"Ansbach","Street":"Raabstraße","HouseNumber":"4","PostalCode":"91522","AdditionalData":[{"value":"Deutschland","key":"CountryName"},{"value":"Bayern","key":"StateName"},{"value":"Ansbach (Stadt)","key":"CountyName"}]},"MapReference":{"ReferenceId":"812286681","Spot":0.99,"SideOfStreet":"right","CountryId":"20147700","StateId":"20177250","CountyId":"20182943","CityId":"20182944","DistrictId":"20182946","AddressId":"621765279","RoadLinkId":"199643504"}}},{"Relevance":1.0,"Distance":21.5,"MatchLevel":"houseNumber","MatchQuality":{"Country":1.0,"State":1.0,"County":1.0,"City":1.0,"District":1.0,"Street":[1.0],"HouseNumber":1.0,"PostalCode":1.0},"MatchType":"interpolated","Location":{"LocationId":"NT_ruqI-iNUt6.BKfL0IXOqsB_xA","LocationType":"point","DisplayPosition":{"Latitude":49.31414,"Longitude":10.56819},"MapView":{"TopLeft":{"Latitude":49.3152642,"Longitude":10.5664656},"BottomRight":{"Latitude":49.3130158,"Longitude":10.5699144}},"Address":{"Label":"Schwabedastraße 1, 91522 Ansbach, Deutschland","Country":"DEU","State":"Bayern","County":"Ansbach (Stadt)","City":"Ansbach","District":"Ansbach","Street":"Schwabedastraße","HouseNumber":"1","PostalCode":"91522","AdditionalData":[{"value":"Deutschland","key":"CountryName"},{"value":"Bayern","key":"StateName"},{"value":"Ansbach (Stadt)","key":"CountyName"}]},"MapReference":{"ReferenceId":"874808875","Spot":0.2,"SideOfStreet":"left","CountryId":"20147700","StateId":"20177250","CountyId":"20182943","CityId":"20182944","DistrictId":"20182946","AddressId":"182059246","RoadLinkId":"245592441"}}},{"Relevance":1.0,"Distance":41.5,"MatchLevel":"houseNumber","MatchQuality":{"Country":1.0,"State":1.0,"County":1.0,"City":1.0,"District":1.0,"Street":[1.0],"HouseNumber":1.0,"PostalCode":1.0},"MatchType":"interpolated","Location":{"LocationId":"NT_ruqI-iNUt6.BKfL0IXOqsB_1A","LocationType":"point","DisplayPosition":{"Latitude":49.31479,"Longitude":10.56744},"MapView":{"TopLeft":{"Latitude":49.3159142,"Longitude":10.5657156},"BottomRight":{"Latitude":49.3136658,"Longitude":10.5691644}},"Address":{"Label":"Schwabedastraße 5, 91522 Ansbach, Deutschland","Country":"DEU","State":"Bayern","County":"Ansbach (Stadt)","City":"Ansbach","District":"Ansbach","Street":"Schwabedastraße","HouseNumber":"5","PostalCode":"91522","AdditionalData":[{"value":"Deutschland","key":"CountryName"},{"value":"Bayern","key":"StateName"},{"value":"Ansbach (Stadt)","key":"CountyName"}]},"MapReference":{"ReferenceId":"1003592547","Spot":0.04,"SideOfStreet":"right","CountryId":"20147700","StateId":"20177250","CountyId":"20182943","CityId":"20182944","DistrictId":"20182946","AddressId":"186075178","RoadLinkId":"329416414"}}},{"Relevance":1.0,"Distance":49.8,"MatchLevel":"houseNumber","MatchQuality":{"Country":1.0,"State":1.0,"County":1.0,"City":1.0,"District":1.0,"Street":[1.0],"HouseNumber":1.0,"PostalCode":1.0},"MatchType":"interpolated","Location":{"LocationId":"NT_GSttiqm6-rUlcYXsGtZgcA_xQD","LocationType":"point","DisplayPosition":{"Latitude":49.31492,"Longitude":10.5669},"MapView":{"TopLeft":{"Latitude":49.3160442,"Longitude":10.5651756},"BottomRight":{"Latitude":49.3137958,"Longitude":10.5686244}},"Address":{"Label":"Bayreuther Straße 14, 91522 Ansbach, Deutschland","Country":"DEU","State":"Bayern","County":"Ansbach (Stadt)","City":"Ansbach","District":"Ansbach","Street":"Bayreuther Straße","HouseNumber":"14","PostalCode":"91522","AdditionalData":[{"value":"Deutschland","key":"CountryName"},{"value":"Bayern","key":"StateName"},{"value":"Ansbach (Stadt)","key":"CountyName"}]},"MapReference":{"ReferenceId":"773615794","Spot":0.42,"SideOfStreet":"left","CountryId":"20147700","StateId":"20177250","CountyId":"20182943","CityId":"20182944","DistrictId":"20182946","AddressId":"249173229","RoadLinkId":"244633864"}}},{"Relevance":1.0,"Distance":50.9,"MatchLevel":"houseNumber","MatchQuality":{"Country":1.0,"State":1.0,"County":1.0,"City":1.0,"District":1.0,"Street":[1.0],"HouseNumber":1.0,"PostalCode":1.0},"MatchType":"interpolated","Location":{"LocationId":"NT_ruqI-iNUt6.BKfL0IXOqsB_5A","LocationType":"point","DisplayPosition":{"Latitude":49.31479,"Longitude":10.56731},"MapView":{"TopLeft":{"Latitude":49.3159142,"Longitude":10.5655856},"BottomRight":{"Latitude":49.3136658,"Longitude":10.5690344}},"Address":{"Label":"Schwabedastraße 9, 91522 Ansbach, Deutschland","Country":"DEU","State":"Bayern","County":"Ansbach (Stadt)","City":"Ansbach","District":"Ansbach","Street":"Schwabedastraße","HouseNumber":"9","PostalCode":"91522","AdditionalData":[{"value":"Deutschland","key":"CountryName"},{"value":"Bayern","key":"StateName"},{"value":"Ansbach (Stadt)","key":"CountyName"}]},"MapReference":{"ReferenceId":"1003592548","Spot":0.5,"SideOfStreet":"right","CountryId":"20147700","StateId":"20177250","CountyId":"20182943","CityId":"20182944","DistrictId":"20182946","AddressId":"182904081","RoadLinkId":"329416415"}}},{"Relevance":1.0,"Distance":53.0,"MatchLevel":"houseNumber","MatchQuality":{"Country":1.0,"State":1.0,"County":1.0,"City":1.0,"District":1.0,"Street":[1.0],"HouseNumber":1.0,"PostalCode":1.0},"MatchType":"interpolated","Location":{"LocationId":"NT_xJxpUbYZe8VMBVJxQ5-XtD_5AzR","LocationType":"point","DisplayPosition":{"Latitude":49.31459,"Longitude":10.56547},"MapView":{"TopLeft":{"Latitude":49.3157142,"Longitude":10.5637456},"BottomRight":{"Latitude":49.3134658,"Longitude":10.5671944}},"Address":{"Label":"Rügländer Straße 90G, 91522 Ansbach, Deutschland","Country":"DEU","State":"Bayern","County":"Ansbach (Stadt)","City":"Ansbach","District":"Ansbach","Street":"Rügländer Straße","HouseNumber":"90G","PostalCode":"91522","AdditionalData":[{"value":"Deutschland","key":"CountryName"},{"value":"Bayern","key":"StateName"},{"value":"Ansbach (Stadt)","key":"CountyName"}]},"MapReference":{"ReferenceId":"576306663","Spot":0.79,"SideOfStreet":"right","CountryId":"20147700","StateId":"20177250","CountyId":"20182943","CityId":"20182944","DistrictId":"20182946","AddressId":"182454743","RoadLinkId":"32720965"}}},{"Relevance":1.0,"Distance":74.2,"MatchLevel":"houseNumber","MatchQuality":{"Country":1.0,"State":1.0,"County":1.0,"City":1.0,"District":1.0,"Street":[1.0],"HouseNumber":1.0,"PostalCode":1.0},"MatchType":"interpolated","Location":{"LocationId":"NT_ruqI-iNUt6.BKfL0IXOqsB_xED","LocationType":"point","DisplayPosition":{"Latitude":49.31493,"Longitude":10.56741},"MapView":{"TopLeft":{"Latitude":49.3160542,"Longitude":10.5656856},"BottomRight":{"Latitude":49.3138058,"Longitude":10.5691344}},"Address":{"Label":"Schwabedastraße 11, 91522 Ansbach, Deutschland","Country":"DEU","State":"Bayern","County":"Ansbach (Stadt)","City":"Ansbach","District":"Ansbach","Street":"Schwabedastraße","HouseNumber":"11","PostalCode":"91522","AdditionalData":[{"value":"Deutschland","key":"CountryName"},{"value":"Bayern","key":"StateName"},{"value":"Ansbach (Stadt)","key":"CountyName"}]},"MapReference":{"ReferenceId":"1003592549","Spot":0.48,"SideOfStreet":"left","CountryId":"20147700","StateId":"20177250","CountyId":"20182943","CityId":"20182944","DistrictId":"20182946","AddressId":"249195241","RoadLinkId":"329416416"}}},{"Relevance":1.0,"Distance":80.4,"MatchLevel":"houseNumber","MatchQuality":{"Country":1.0,"State":1.0,"County":1.0,"City":1.0,"District":1.0,"Street":[1.0],"HouseNumber":1.0,"PostalCode":1.0},"MatchType":"interpolated","Location":{"LocationId":"NT_GSttiqm6-rUlcYXsGtZgcA_xITQ","LocationType":"point","DisplayPosition":{"Latitude":49.31507,"Longitude":10.56675},"MapView":{"TopLeft":{"Latitude":49.3161942,"Longitude":10.5650256},"BottomRight":{"Latitude":49.3139458,"Longitude":10.5684744}},"Address":{"Label":"Bayreuther Straße 12A, 91522 Ansbach, Deutschland","Country":"DEU","State":"Bayern","County":"Ansbach (Stadt)","City":"Ansbach","District":"Ansbach","Street":"Bayreuther Straße","HouseNumber":"12A","PostalCode":"91522","AdditionalData":[{"value":"Deutschland","key":"CountryName"},{"value":"Bayern","key":"StateName"},{"value":"Ansbach (Stadt)","key":"CountyName"}]},"MapReference":{"ReferenceId":"773615796","Spot":0.23,"SideOfStreet":"left","CountryId":"20147700","StateId":"20177250","CountyId":"20182943","CityId":"20182944","DistrictId":"20182946","AddressId":"184825954","RoadLinkId":"167415529"}}},{"Relevance":1.0,"Distance":89.2,"MatchLevel":"street","MatchQuality":{"Country":1.0,"State":1.0,"County":1.0,"City":1.0,"District":1.0,"PostalCode":1.0},"Location":{"LocationId":"NT_L1EUvR.rtHGPv2QcJ6lgAC_l_773615795_R","LocationType":"point","DisplayPosition":{"Latitude":49.31506,"Longitude":10.56693},"MapView":{"TopLeft":{"Latitude":49.31535,"Longitude":10.56693},"BottomRight":{"Latitude":49.31506,"Longitude":10.56697}},"Address":{"Label":"91522 Ansbach, Deutschland","Country":"DEU","State":"Bayern","County":"Ansbach (Stadt)","City":"Ansbach","District":"Ansbach","PostalCode":"91522","AdditionalData":[{"value":"Deutschland","key":"CountryName"},{"value":"Bayern","key":"StateName"},{"value":"Ansbach (Stadt)","key":"CountyName"}]},"MapReference":{"ReferenceId":"773615795","Spot":0.0,"SideOfStreet":"right","CountryId":"20147700","StateId":"20177250","CountyId":"20182943","CityId":"20182944","DistrictId":"20182946"}}}]}]}}