{"Response":{"MetaInfo":{"Timestamp":"2020-03-28T10:56:13.091+0000","NextPageInformation":"2"},"View":[{"_type":"SearchResultsViewType","ViewId":0,"Result":[{"Relevance":1.0,"Distance":0.0,"Direction":0.0,"MatchLevel":"city","MatchQuality":{"Country":1.0,"State":1.0,"County":1.0,"City":1.0,"PostalCode":1.0},"Location":{"LocationId":"NT_LJ8GvZB6p9Knr8W6jeixRB","LocationType":"point","DisplayPosition":{"Latitude":49.3157772,"Longitude":12.8223455},"MapView":{"TopLeft":{"Latitude":49.351,"Longitude":12.74557},"BottomRight":{"Latitude":49.2514,"Longitude":12.91933}},"Address":{"Label":"Furth im Wald, Bayern, Deutschland","Country":"DEU","State":"Bayern","County":"Cham","City":"Furth im Wald","PostalCode":"93437","AdditionalData":[{"value":"Deutschland","key":"CountryName"},{"value":"Bayern","key":"StateName"},{"value":"Cham","key":"CountyName"}]},"MapReference":{"ReferenceId":"545160956","SideOfStreet":"neither","CountryId":"20147700","StateId":"20177250","CountyId":"20180962","CityId":"20181003"}}},{"Relevance":1.0,"Distance":23.6,"MatchLevel":"houseNumber","MatchQuality":{"Country":1.0,"State":1.0,"County":1.0,"City":1.0,"District":1.0,"Street":[1.0],"HouseNumber":1.0,"PostalCode":1.0},"MatchType":"interpolated","Location":{"LocationId":"NT_Lpx.ggkW0isr9oZ5XhpQaD_zcD","LocationType":"point","DisplayPosition":{"Latitude":49.31623,"Longitude":12.82333},"MapView":{"TopLeft":{"Latitude":49.3173542,"Longitude":12.8216055},"BottomRight":{"Latitude":49.3151058,"Longitude":12.8250545}},"Address":{"Label":"Eichertweg 37, 93437 Furth im Wald, Deutschland","Country":"DEU","State":"Bayern","County":"Cham","City":"Furth im Wald","District":"Furth im Wald","Street":"Eichertweg","HouseNumber":"37","PostalCode":"93437","AdditionalData":[{"value":"Deutschland","key":"CountryName"},{"value":"Bayern","key":"StateName"},{"value":"Cham","key":"CountyName"}]},"MapReference":{"ReferenceId":"545165086","Spot":0.64,"SideOfStreet":"left","CountryId":"20147700","StateId":"20177250","CountyId":"20180962","CityId":"20181003","DistrictId":"20181005","AddressId":"184548469","RoadLinkId":"32498759"}}},{"Relevance":1.0,"Distance":113.3,"MatchLevel":"houseNumber","MatchQuality":{"Country":1.0,"State":1.0,"County":1.0,"City":1.0,"District":1.0,"Street":[1.0],"HouseNumber":1.0,"PostalCode":1.0},"MatchType":"interpolated","Location":{"LocationId":"NT_Lpx.ggkW0isr9oZ5XhpQaD_zUjQ","LocationType":"point","DisplayPosition":{"Latitude":49.31504,"Longitude":12.82367},"MapView":{"TopLeft":{"Latitude":49.3161642,"Longitude":12.8219456},"BottomRight":{"Latitude":49.3139158,"Longitude":12.8253944}},"Address":{"Label":"Eichertweg 35B, 93437 Furth im Wald, Deutschland","Country":"DEU","State":"Bayern","County":"Cham","City":"Furth im Wald","District":"Furth im Wald","Street":"Eichertweg","HouseNumber":"35B","PostalCode":"93437","AdditionalData":[{"value":"Deutschland","key":"CountryName"},{"value":"Bayern","key":"StateName"},{"value":"Cham","key":"CountyName"}]},"MapReference":{"ReferenceId":"586898308","Spot":0.39,"SideOfStreet":"left","CountryId":"20147700","StateId":"20177250","CountyId":"20180962","CityId":"20181003","DistrictId":"20181005","AddressId":"184206404","RoadLinkId":"33319313"}}},{"Relevance":1.0,"Distance":114.0,"MatchLevel":"houseNumber","MatchQuality":{"Country":1.0,"State":1.0,"County":1.0,"City":1.0,"District":1.0,"Street":[1.0],"HouseNumber":1.0,"PostalCode":1.0},"MatchType":"interpolated","Location":{"LocationId":"NT_9l32C.4uW5bu1Xs3518.CC_0A","LocationType":"point","DisplayPosition":{"Latitude":49.31479,"Longitude":12.82277},"MapView":{"TopLeft":{"Latitude":49.3159142,"Longitude":12.8210456},"BottomRight":{"Latitude":49.3136658,"Longitude":12.8244944}},"Address":{"Label":"Osserstraße 4, 93437 Furth im Wald, Deutschland","Country":"DEU","State":"Bayern","County":"Cham","City":"Furth im Wald","District":"Furth im Wald","Street":"Osserstraße","HouseNumber":"4","PostalCode":"93437","AdditionalData":[{"value":"Deutschland","key":"CountryName"},{"value":"Bayern","key":"StateName"},{"value":"Cham","key":"CountyName"}]},"MapReference":{"ReferenceId":"586898317","Spot":0.87,"SideOfStreet":"right","CountryId":"20147700","StateId":"20177250","CountyId":"20180962","CityId":"20181003","DistrictId":"20181005","AddressId":"184959624","RoadLinkId":"32629056"}}},{"Relevance":1.0,"Distance":117.6,"MatchLevel":"houseNumber","MatchQuality":{"Country":1.0,"State":1.0,"County":1.0,"City":1.0,"District":1.0,"Street":[1.0],"HouseNumber":1.0,"PostalCode":1.0},"MatchType":"interpolated","Location":{"LocationId":"NT_1m7YgYWmLPt4PyV9QyXvhC_yA","LocationType":"point","DisplayPosition":{"Latitude":49.31455,"Longitude":12.82199},"MapView":{"TopLeft":{"Latitude":49.3156742,"Longitude":12.8202656},"BottomRight":{"Latitude":49.3134258,"Longitude":12.8237144}},"Address":{"Label":"Hohenbogenstraße 2, 93437 Furth im Wald, Deutschland","Country":"DEU","State":"Bayern","County":"Cham","City":"Furth im Wald","District":"Furth im Wald","Street":"Hohenbogenstraße","HouseNumber":"2","PostalCode":"93437","AdditionalData":[{"value":"Deutschland","key":"CountryName"},{"value":"Bayern","key":"StateName"},{"value":"Cham","key":"CountyName"}]},"MapReference":{"ReferenceId":"586898311","Spot":0.2,"SideOfStreet":"right","CountryId":"20147700","StateId":"20177250","CountyId":"20180962","CityId":"20181003","DistrictId":"20181005","AddressId":"186147266","RoadLinkId":"33784564"}}},{"Relevance":1.0,"Distance":139.3,"MatchLevel":"houseNumber","MatchQuality":{"Country":1.0,"State":1.0,"County":1.0,"City":1.0,"District":1.0,"Street":[1.0],"HouseNumber":1.0,"PostalCode":1.0},"MatchType":"interpolated","Location":{"LocationId":"NT_9l32C.4uW5bu1Xs3518.CC_yA","LocationType":"point","DisplayPosition":{"Latitude":49.31455,"Longitude":12.82298},"MapView":{"TopLeft":{"Latitude":49.3156742,"Longitude":12.8212556},"BottomRight":{"Latitude":49.3134258,"Longitude":12.8247044}},"Address":{"Label":"Osserstraße 2, 93437 Furth im Wald, Deutschland","Country":"DEU","State":"Bayern","County":"Cham","City":"Furth im Wald","District":"Furth im Wald","Street":"Osserstraße","HouseNumber":"2","PostalCode":"93437","AdditionalData":[{"value":"Deutschland","key":"CountryName"},{"value":"Bayern","key":"StateName"},{"value":"Cham","key":"CountyName"}]},"MapReference":{"ReferenceId":"586898309","Spot":0.1,"SideOfStreet":"left","CountryId":"20147700","StateId":"20177250","CountyId":"20180962","CityId":"20181003","DistrictId":"20181005","AddressId":"184728333","RoadLinkId":"32681486"}}},{"Relevance":1.0,"Distance":147.5,"MatchLevel":"houseNumber","MatchQuality":{"Country":1.0,"State":1.0,"County":1.0,"City":1.0,"District":1.0,"Street":[1.0],"HouseNumber":1.0,"PostalCode":1.0},"MatchType":"interpolated","Location":{"LocationId":"NT_9l32C.4uW5bu1Xs3518.CC_zA","LocationType":"point","DisplayPosition":{"Latitude":49.31447,"Longitude":12.82269},"MapView":{"TopLeft":{"Latitude":49.3155942,"Longitude":12.8209656},"BottomRight":{"Latitude":49.3133458,"Longitude":12.8244144}},"Address":{"Label":"Osserstraße 3, 93437 Furth im Wald, Deutschland","Country":"DEU","State":"Bayern","County":"Cham","City":"Furth im Wald","District":"Furth im Wald","Street":"Osserstraße","HouseNumber":"3","PostalCode":"93437","AdditionalData":[{"value":"Deutschland","key":"CountryName"},{"value":"Bayern","key":"StateName"},{"value":"Cham","key":"CountyName"}]},"MapReference":{"ReferenceId":"586898310","Spot":0.67,"SideOfStreet":"right","CountryId":"20147700","StateId":"20177250","CountyId":"20180962","CityId":"20181003","DistrictId":"20181005","AddressId":"208405162","RoadLinkId":"32500155"}}},{"Relevance":1.0,"Distance":161.4,"MatchLevel":"street","MatchQuality":{"Country":1.0,"State":1.0,"County":1.0,"City":1.0,"District":1.0,"Street":[1.0],"PostalCode":1.0},"Location":{"LocationId":"NT_Lpx.ggkW0isr9oZ5XhpQaD_l_1256787727_L","LocationType":"point","DisplayPosition":{"Latitude":49.31463,"Longitude":12.82371},"MapView":{"TopLeft":{"Latitude":49.31463,"Longitude":12.82371},"BottomRight":{"Latitude":49.31445,"Longitude":12.82376}},"Address":{"Label":"Eichertweg, 93437 Furth im Wald, Deutschland","Country":"DEU","State":"Bayern","County":"Cham","City":"Furth im Wald","District":"Furth im Wald","Street":"Eichertweg","PostalCode":"93437","AdditionalData":[{"value":"Deutschland","key":"CountryName"},{"value":"Bayern","key":"StateName"},{"value":"Cham","key":"CountyName"}]},"MapReference":{"ReferenceId":"1256787727","Spot":1.0,"SideOfStreet":"left","CountryId":"20147700","StateId":"20177250","CountyId":"20180962","CityId":"20181003","DistrictId":"20181005"}}},{"Relevance":1.0,"Distance":165.8,"MatchLevel":"houseNumber","MatchQuality":{"Country":1.0,"State":1.0,"County":1.0,"City":1.0,"District":1.0,"Street":[1.0],"HouseNumber":1.0,"PostalCode":1.0},"MatchType":"interpolated","Location":{"LocationId":"NT_9l32C.4uW5bu1Xs3518.CC_1A","LocationType":"point","DisplayPosition":{"Latitude":49.31429,"Longitude":12.82219},"MapView":{"TopLeft":{"Latitude":49.3154142,"Longitude":12.8204656},"BottomRight":{"Latitude":49.3131658,"Longitude":12.8239144}},"Address":{"Label":"Osserstraße 5, 93437 Furth im Wald, Deutschland","Country":"DEU","State":"Bayern","County":"Cham","City":"Furth im Wald","District":"Furth im Wald","Street":"Osserstraße","HouseNumber":"5","PostalCode":"93437","AdditionalData":[{"value":"Deutschland","key":"CountryName"},{"value":"Bayern","key":"StateName"},{"value":"Cham","key":"CountyName"}]},"MapReference":{"ReferenceId":"586898315","Spot":0.44,"SideOfStreet":"right","CountryId":"20147700","StateId":"20177250","CountyId":"20180962","CityId":"20181003","DistrictId":"20181005","AddressId":"185425615","RoadLinkId":"32906100"}}},{"Relevance":1.0,"Distance":181.0,"MatchLevel":"houseNumber","MatchQuality":{"Country":1.0,"State":1.0,"County":1.0,"City":1.0,"District":1.0,"Street":[1.0],"HouseNumber":1.0,"PostalCode":1.0},"MatchType":"interpolated","Location":{"LocationId":"NT_9l32C.4uW5bu1Xs3518.CC_xED","LocationType":"point","DisplayPosition":{"Latitude":49.31415,"Longitude":12.8223},"MapView":{"TopLeft":{"Latitude":49.3152742,"Longitude":12.8205756},"BottomRight":{"Latitude":49.3130258,"Longitude":12.8240244}},"Address":{"Label":"Osserstraße 11, 93437 Furth im Wald, Deutschland","Country":"DEU","State":"Bayern","County":"Cham","City":"Furth im Wald","District":"Furth im Wald","Street":"Osserstraße","HouseNumber":"11","PostalCode":"93437","AdditionalData":[{"value":"Deutschland","key":"CountryName"},{"value":"Bayern","key":"StateName"},{"value":"Cham","key":"CountyName"}]},"MapReference":{"ReferenceId":"586898316","Spot":0.74,"SideOfStreet":"left","CountryId":"20147700","StateId":"20177250","CountyId":"20180962","CityId":"20181003","DistrictId":"20181005","AddressId":"182846132","RoadLinkId":"33445964"}}}]}]}}