{"Response":{"MetaInfo":{"Timestamp":"2020-03-28T10:02:11.338+0000","NextPageInformation":"2"},"View":[{"_type":"SearchResultsViewType","ViewId":0,"Result":[{"Relevance":1.0,"Distance":0.0,"Direction":0.0,"MatchLevel":"district","MatchQuality":{"Country":1.0,"State":1.0,"County":1.0,"City":1.0,"District":1.0,"PostalCode":1.0},"Location":{"LocationId":"NT_9JLrcRBTgF4GlSH1NLiWaC","LocationType":"point","DisplayPosition":{"Latitude":49.3913768,"Longitude":15.5782923},"MapView":{"TopLeft":{"Latitude":49.43469,"Longitude":15.54244},"BottomRight":{"Latitude":49.37232,"Longitude":15.63613}},"Address":{"Label":"Jihlava, Vysočina, Česká Republika","Country":"CZE","State":"Vysočina","County":"Jihlava","City":"Jihlava","District":"Jihlava","PostalCode":"586 01","AdditionalData":[{"value":"Česká Republika","key":"CountryName"},{"value":"Vysočina","key":"StateName"},{"value":"Jihlava","key":"CountyName"}]},"MapReference":{"ReferenceId":"792577174","SideOfStreet":"neither","CountryId":"20427915","StateId":"20433061","CountyId":"20433423","CityId":"20433529","DistrictId":"20433530"}}},{"Relevance":1.0,"Distance":5.8,"MatchLevel":"houseNumber","MatchQuality":{"Country":1.0,"State":1.0,"County":1.0,"City":1.0,"District":1.0,"Street":[1.0],"HouseNumber":1.0,"PostalCode":1.0},"MatchType":"interpolated","Location":{"LocationId":"NT_nRjQGOd9jN-SVSZnK35OyB_xgzM08SN","LocationType":"point","DisplayPosition":{"Latitude":49.39141,"Longitude":15.57864},"MapView":{"TopLeft":{"Latitude":49.3925342,"Longitude":15.5769129},"BottomRight":{"Latitude":49.3902858,"Longitude":15.5803671}},"Address":{"Label":"Bratří Čapků 1834/5, 586 01 Jihlava, Česká Republika","Country":"CZE","State":"Vysočina","County":"Jihlava","City":"Jihlava","District":"Jihlava","Street":"Bratří Čapků","HouseNumber":"1834/5","PostalCode":"586 01","AdditionalData":[{"value":"Česká Republika","key":"CountryName"},{"value":"Vysočina","key":"StateName"},{"value":"Jihlava","key":"CountyName"}]},"MapReference":{"ReferenceId":"1203834219","Spot":0.6,"SideOfStreet":"left","CountryId":"20427915","StateId":"20433061","CountyId":"20433423","CityId":"20433529","DistrictId":"20433530","AddressId":"239837005","RoadLinkId":"516956045"}}},{"Relevance":1.0,"Distance":8.9,"MatchLevel":"houseNumber","MatchQuality":{"Country":1.0,"State":1.0,"County":1.0,"City":1.0,"District":1.0,"Street":[1.0],"HouseNumber":1.0,"PostalCode":1.0},"MatchType":"interpolated","Location":{"LocationId":"NT_7HmsPKa8cgYcfCLI9PKstB_xgDN38iNzA","LocationType":"point","DisplayPosition":{"Latitude":49.3914,"Longitude":15.57817},"MapView":{"TopLeft":{"Latitude":49.3925242,"Longitude":15.5764429},"BottomRight":{"Latitude":49.3902758,"Longitude":15.5798971}},"Address":{"Label":"Seifertova 1847/63, 586 01 Jihlava, Česká Republika","Country":"CZE","State":"Vysočina","County":"Jihlava","City":"Jihlava","District":"Jihlava","Street":"Seifertova","HouseNumber":"1847/63","PostalCode":"586 01","AdditionalData":[{"value":"Česká Republika","key":"CountryName"},{"value":"Vysočina","key":"StateName"},{"value":"Jihlava","key":"CountyName"}]},"MapReference":{"ReferenceId":"705682649","Spot":0.7,"SideOfStreet":"right","CountryId":"20427915","StateId":"20433061","CountyId":"20433423","CityId":"20433529","DistrictId":"20433530","AddressId":"240616835","RoadLinkId":"111865514"}}},{"Relevance":1.0,"Distance":30.0,"MatchLevel":"houseNumber","MatchQuality":{"Country":1.0,"State":1.0,"County":1.0,"City":1.0,"District":1.0,"Street":[1.0],"HouseNumber":1.0,"PostalCode":1.0},"MatchType":"interpolated","Location":{"LocationId":"NT_nRjQGOd9jN-SVSZnK35OyB_xgDN58SO","LocationType":"point","DisplayPosition":{"Latitude":49.39173,"Longitude":15.57839},"MapView":{"TopLeft":{"Latitude":49.3928542,"Longitude":15.5766629},"BottomRight":{"Latitude":49.3906058,"Longitude":15.5801171}},"Address":{"Label":"Bratří Čapků 1849/9, 586 01 Jihlava, Česká Republika","Country":"CZE","State":"Vysočina","County":"Jihlava","City":"Jihlava","District":"Jihlava","Street":"Bratří Čapků","HouseNumber":"1849/9","PostalCode":"586 01","AdditionalData":[{"value":"Česká Republika","key":"CountryName"},{"value":"Vysočina","key":"StateName"},{"value":"Jihlava","key":"CountyName"}]},"MapReference":{"ReferenceId":"705682645","Spot":0.47,"SideOfStreet":"left","CountryId":"20427915","StateId":"20433061","CountyId":"20433423","CityId":"20433529","DistrictId":"20433530","AddressId":"239986074","RoadLinkId":"111865510"}}},{"Relevance":1.0,"Distance":31.3,"MatchLevel":"houseNumber","MatchQuality":{"Country":1.0,"State":1.0,"County":1.0,"City":1.0,"District":1.0,"Street":[1.0],"HouseNumber":1.0,"PostalCode":1.0},"MatchType":"interpolated","Location":{"LocationId":"NT_nRjQGOd9jN-SVSZnK35OyB_xgzM18yM","LocationType":"point","DisplayPosition":{"Latitude":49.39117,"Longitude":15.57875},"MapView":{"TopLeft":{"Latitude":49.3922942,"Longitude":15.5770229},"BottomRight":{"Latitude":49.3900458,"Longitude":15.5804771}},"Address":{"Label":"Bratří Čapků 1835/3, 586 01 Jihlava, Česká Republika","Country":"CZE","State":"Vysočina","County":"Jihlava","City":"Jihlava","District":"Jihlava","Street":"Bratří Čapků","HouseNumber":"1835/3","PostalCode":"586 01","AdditionalData":[{"value":"Česká Republika","key":"CountryName"},{"value":"Vysočina","key":"StateName"},{"value":"Jihlava","key":"CountyName"}]},"MapReference":{"ReferenceId":"1203834218","Spot":0.96,"SideOfStreet":"left","CountryId":"20427915","StateId":"20433061","CountyId":"20433423","CityId":"20433529","DistrictId":"20433530","AddressId":"239837007","RoadLinkId":"516956044"}}},{"Relevance":1.0,"Distance":35.6,"MatchLevel":"houseNumber","MatchQuality":{"Country":1.0,"State":1.0,"County":1.0,"City":1.0,"District":1.0,"Street":[1.0],"HouseNumber":1.0,"PostalCode":1.0},"MatchType":"interpolated","Location":{"LocationId":"NT_7HmsPKa8cgYcfCLI9PKstB_xgzMz8SN5A","LocationType":"point","DisplayPosition":{"Latitude":49.39159,"Longitude":15.57866},"MapView":{"TopLeft":{"Latitude":49.3927142,"Longitude":15.5769329},"BottomRight":{"Latitude":49.3904658,"Longitude":15.5803871}},"Address":{"Label":"Seifertova 1833/59, 586 01 Jihlava, Česká Republika","Country":"CZE","State":"Vysočina","County":"Jihlava","City":"Jihlava","District":"Jihlava","Street":"Seifertova","HouseNumber":"1833/59","PostalCode":"586 01","AdditionalData":[{"value":"Česká Republika","key":"CountryName"},{"value":"Vysočina","key":"StateName"},{"value":"Jihlava","key":"CountyName"}]},"MapReference":{"ReferenceId":"1203834083","Spot":0.3,"SideOfStreet":"right","CountryId":"20427915","StateId":"20433061","CountyId":"20433423","CityId":"20433529","DistrictId":"20433530","AddressId":"240102456","RoadLinkId":"516955851"}}},{"Relevance":1.0,"Distance":50.5,"MatchLevel":"houseNumber","MatchQuality":{"Country":1.0,"State":1.0,"County":1.0,"City":1.0,"District":1.0,"Street":[1.0],"HouseNumber":1.0,"PostalCode":1.0},"MatchType":"interpolated","Location":{"LocationId":"NT_EMM.z9ugUmyeJzcdbM3oND_xgzM38CO2A","LocationType":"point","DisplayPosition":{"Latitude":49.39074,"Longitude":15.5785},"MapView":{"TopLeft":{"Latitude":49.3918642,"Longitude":15.5767729},"BottomRight":{"Latitude":49.3896158,"Longitude":15.5802271}},"Address":{"Label":"Telečská 1837/86, 586 01 Jihlava, Česká Republika","Country":"CZE","State":"Vysočina","County":"Jihlava","City":"Jihlava","District":"Jihlava","Street":"Telečská","HouseNumber":"1837/86","PostalCode":"586 01","AdditionalData":[{"value":"Česká Republika","key":"CountryName"},{"value":"Vysočina","key":"StateName"},{"value":"Jihlava","key":"CountyName"}]},"MapReference":{"ReferenceId":"920621720","Spot":0.72,"SideOfStreet":"left","CountryId":"20427915","StateId":"20433061","CountyId":"20433423","CityId":"20433529","DistrictId":"20433530","AddressId":"240469242","RoadLinkId":"277548465"}}},{"Relevance":1.0,"Distance":60.3,"MatchLevel":"houseNumber","MatchQuality":{"Country":1.0,"State":1.0,"County":1.0,"City":1.0,"District":1.0,"Street":[1.0],"HouseNumber":1.0,"PostalCode":1.0},"MatchType":"interpolated","Location":{"LocationId":"NT_7HmsPKa8cgYcfCLI9PKstB_xgzMy8SN3A","LocationType":"point","DisplayPosition":{"Latitude":49.39171,"Longitude":15.57895},"MapView":{"TopLeft":{"Latitude":49.3928342,"Longitude":15.5772229},"BottomRight":{"Latitude":49.3905858,"Longitude":15.5806771}},"Address":{"Label":"Seifertova 1832/57, 586 01 Jihlava, Česká Republika","Country":"CZE","State":"Vysočina","County":"Jihlava","City":"Jihlava","District":"Jihlava","Street":"Seifertova","HouseNumber":"1832/57","PostalCode":"586 01","AdditionalData":[{"value":"Česká Republika","key":"CountryName"},{"value":"Vysočina","key":"StateName"},{"value":"Jihlava","key":"CountyName"}]},"MapReference":{"ReferenceId":"1203834084","Spot":0.04,"SideOfStreet":"right","CountryId":"20427915","StateId":"20433061","CountyId":"20433423","CityId":"20433529","DistrictId":"20433530","AddressId":"241231602","RoadLinkId":"516955852"}}},{"Relevance":1.0,"Distance":61.9,"MatchLevel":"street","MatchQuality":{"Country":1.0,"State":1.0,"County":1.0,"City":1.0,"District":1.0,"Street":[1.0],"PostalCode":1.0},"Location":{"LocationId":"NT_nRjQGOd9jN-SVSZnK35OyB_l_1169811244_R","LocationType":"point","DisplayPosition":{"Latitude":49.39193,"Longitude":15.5782},"MapView":{"TopLeft":{"Latitude":49.39199,"Longitude":15.5782},"BottomRight":{"Latitude":49.39193,"Longitude":15.57832}},"Address":{"Label":"Bratří Čapků, 586 01 Jihlava, Česká Republika","Country":"CZE","State":"Vysočina","County":"Jihlava","City":"Jihlava","District":"Jihlava","Street":"Bratří Čapků","PostalCode":"586 01","AdditionalData":[{"value":"Česká Republika","key":"CountryName"},{"value":"Vysočina","key":"StateName"},{"value":"Jihlava","key":"CountyName"}]},"MapReference":{"ReferenceId":"1169811244","Spot":0.0,"SideOfStreet":"right","CountryId":"20427915","StateId":"20433061","CountyId":"20433423","CityId":"20433529","DistrictId":"20433530"}}},{"Relevance":1.0,"Distance":65.5,"MatchLevel":"houseNumber","MatchQuality":{"Country":1.0,"State":1.0,"County":1.0,"City":1.0,"District":1.0,"Street":[1.0],"HouseNumber":1.0,"PostalCode":1.0},"MatchType":"interpolated","Location":{"LocationId":"NT_nRjQGOd9jN-SVSZnK35OyB_lZnLgQcjuASO3ED","LocationType":"point","DisplayPosition":{"Latitude":49.39196,"Longitude":15.57817},"MapView":{"TopLeft":{"Latitude":49.3930842,"Longitude":15.5764429},"BottomRight":{"Latitude":49.3908358,"Longitude":15.5798971}},"Address":{"Label":"Bratří Čapků ev. č. 971, 586 01 Jihlava, Česká Republika","Country":"CZE","State":"Vysočina","County":"Jihlava","City":"Jihlava","District":"Jihlava","Street":"Bratří Čapků","HouseNumber":"ev. č. 971","PostalCode":"586 01","AdditionalData":[{"value":"Česká Republika","key":"CountryName"},{"value":"Vysočina","key":"StateName"},{"value":"Jihlava","key":"CountyName"}]},"MapReference":{"ReferenceId":"705682643","Spot":0.04,"SideOfStreet":"left","CountryId":"20427915","StateId":"20433061","CountyId":"20433423","CityId":"20433529","DistrictId":"20433530","AddressId":"589415853","RoadLinkId":"111865508"}}}]}]}}