{"Response":{"MetaInfo":{"Timestamp":"2020-03-28T11:49:19.963+0000","NextPageInformation":"2"},"View":[{"_type":"SearchResultsViewType","ViewId":0,"Result":[{"Relevance":1.0,"Distance":-1129.3,"MatchLevel":"landmark","MatchQuality":{"Country":1.0,"State":1.0,"County":1.0,"Name":1.0},"Location":{"LocationId":"NT_TPRltbDJUBB6DQOXnrh8TB","LocationType":"park","Name":"P.N.R. Oise-Pays de France","DisplayPosition":{"Latitude":49.20933,"Longitude":2.57558},"MapView":{"TopLeft":{"Latitude":49.33917,"Longitude":2.31949},"BottomRight":{"Latitude":49.07948,"Longitude":2.76743}},"Address":{"Label":"France","Country":"FRA","State":"Hauts-de-France","County":"Oise","AdditionalData":[{"value":"France","key":"CountryName"},{"value":"Hauts-de-France","key":"StateName"},{"value":"Oise","key":"CountyName"}]},"MapReference":{"CountryId":"20000001","StateId":"20000002","CountyId":"20002123","PlaceId":"1507925598"}}},{"Relevance":1.0,"Distance":0.0,"Direction":0.0,"MatchLevel":"city","MatchQuality":{"Country":1.0,"State":1.0,"County":1.0,"City":1.0,"PostalCode":1.0},"Location":{"LocationId":"NT_0wwbikBcqs1-GwLJxSDi3B","LocationType":"point","DisplayPosition":{"Latitude":49.300335,"Longitude":2.626954},"MapView":{"TopLeft":{"Latitude":49.32308,"Longitude":2.6111},"BottomRight":{"Latitude":49.27775,"Longitude":2.68864}},"Address":{"Label":"Pontpoint, Hauts-de-France, France","Country":"FRA","State":"Hauts-de-France","County":"Oise","City":"Pontpoint","PostalCode":"60700","AdditionalData":[{"value":"France","key":"CountryName"},{"value":"Hauts-de-France","key":"StateName"},{"value":"Oise","key":"CountyName"}]},"MapReference":{"ReferenceId":"932673492","SideOfStreet":"neither","CountryId":"20000001","StateId":"20000002","CountyId":"20002123","CityId":"20029559"}}},{"Relevance":1.0,"Distance":23.8,"MatchLevel":"houseNumber","MatchQuality":{"Country":1.0,"State":1.0,"County":1.0,"City":1.0,"Street":[1.0],"HouseNumber":1.0,"PostalCode":1.0},"MatchType":"interpolated","Location":{"LocationId":"NT_xG01OWKT6RBqKCbXSIFACB_1QzN","LocationType":"point","DisplayPosition":{"Latitude":49.30013,"Longitude":2.62711},"MapView":{"TopLeft":{"Latitude":49.3012542,"Longitude":2.6253861},"BottomRight":{"Latitude":49.2990058,"Longitude":2.6288339}},"Address":{"Label":"547 Rue Saint-Paterne, 60700 Pontpoint, France","Country":"FRA","State":"Hauts-de-France","County":"Oise","City":"Pontpoint","Street":"Rue Saint-Paterne","HouseNumber":"547","PostalCode":"60700","AdditionalData":[{"value":"France","key":"CountryName"},{"value":"Hauts-de-France","key":"StateName"},{"value":"Oise","key":"CountyName"}]},"MapReference":{"ReferenceId":"70177230","Spot":0.38,"SideOfStreet":"right","CountryId":"20000001","StateId":"20000002","CountyId":"20002123","CityId":"20029559","AddressId":"321304628","RoadLinkId":"44880806"}}},{"Relevance":1.0,"Distance":49.0,"MatchLevel":"houseNumber","MatchQuality":{"Country":1.0,"State":1.0,"County":1.0,"City":1.0,"Street":[1.0],"HouseNumber":1.0,"PostalCode":1.0},"MatchType":"interpolated","Location":{"LocationId":"NT_Kmmr9aI6u3k-CH5olgaZIB_zgD","LocationType":"point","DisplayPosition":{"Latitude":49.30081,"Longitude":2.62684},"MapView":{"TopLeft":{"Latitude":49.3019342,"Longitude":2.6251161},"BottomRight":{"Latitude":49.2996858,"Longitude":2.6285639}},"Address":{"Label":"38 Rue des Mazurettes, 60700 Pontpoint, France","Country":"FRA","State":"Hauts-de-France","County":"Oise","City":"Pontpoint","Street":"Rue des Mazurettes","HouseNumber":"38","PostalCode":"60700","AdditionalData":[{"value":"France","key":"CountryName"},{"value":"Hauts-de-France","key":"StateName"},{"value":"Oise","key":"CountyName"}]},"MapReference":{"ReferenceId":"70180478","Spot":0.49,"SideOfStreet":"right","CountryId":"20000001","StateId":"20000002","CountyId":"20002123","CityId":"20029559","AddressId":"321121329","RoadLinkId":"44261807"}}},{"Relevance":1.0,"Distance":53.5,"MatchLevel":"houseNumber","MatchQuality":{"Country":1.0,"State":1.0,"County":1.0,"City":1.0,"Street":[1.0],"HouseNumber":1.0,"PostalCode":1.0},"MatchType":"interpolated","Location":{"LocationId":"NT_Kmmr9aI6u3k-CH5olgaZIB_xEjM","LocationType":"point","DisplayPosition":{"Latitude":49.30067,"Longitude":2.62763},"MapView":{"TopLeft":{"Latitude":49.3017942,"Longitude":2.6259061},"BottomRight":{"Latitude":49.2995458,"Longitude":2.6293539}},"Address":{"Label":"112 Rue des Mazurettes, 60700 Pontpoint, France","Country":"FRA","State":"Hauts-de-France","County":"Oise","City":"Pontpoint","Street":"Rue des Mazurettes","HouseNumber":"112","PostalCode":"60700","AdditionalData":[{"value":"France","key":"CountryName"},{"value":"Hauts-de-France","key":"StateName"},{"value":"Oise","key":"CountyName"}]},"MapReference":{"ReferenceId":"70180477","Spot":0.1,"SideOfStreet":"left","CountryId":"20000001","StateId":"20000002","CountyId":"20002123","CityId":"20029559","AddressId":"321361024","RoadLinkId":"44337969"}}},{"Relevance":1.0,"Distance":55.1,"MatchLevel":"houseNumber","MatchQuality":{"Country":1.0,"State":1.0,"County":1.0,"City":1.0,"Street":[1.0],"HouseNumber":1.0,"PostalCode":1.0},"MatchType":"interpolated","Location":{"LocationId":"NT_G83B-82aMacFFhBRsCuQiC_0ID","LocationType":"point","DisplayPosition":{"Latitude":49.30057,"Longitude":2.62618},"MapView":{"TopLeft":{"Latitude":49.3016942,"Longitude":2.6244561},"BottomRight":{"Latitude":49.2994458,"Longitude":2.6279039}},"Address":{"Label":"42 Rue du Routoir, 60700 Pontpoint, France","Country":"FRA","State":"Hauts-de-France","County":"Oise","City":"Pontpoint","Street":"Rue du Routoir","HouseNumber":"42","PostalCode":"60700","AdditionalData":[{"value":"France","key":"CountryName"},{"value":"Hauts-de-France","key":"StateName"},{"value":"Oise","key":"CountyName"}]},"MapReference":{"ReferenceId":"70180479","Spot":0.6,"SideOfStreet":"right","CountryId":"20000001","StateId":"20000002","CountyId":"20002123","CityId":"20029559","AddressId":"573019173","RoadLinkId":"44544652"}}},{"Relevance":1.0,"Distance":62.0,"MatchLevel":"houseNumber","MatchQuality":{"Country":1.0,"State":1.0,"County":1.0,"City":1.0,"Street":[1.0],"HouseNumber":1.0,"PostalCode":1.0},"MatchType":"interpolated","Location":{"LocationId":"NT_G83B-82aMacFFhBRsCuQiC_xAjM","LocationType":"point","DisplayPosition":{"Latitude":49.30093,"Longitude":2.6263},"MapView":{"TopLeft":{"Latitude":49.3020542,"Longitude":2.6245761},"BottomRight":{"Latitude":49.2998058,"Longitude":2.6280239}},"Address":{"Label":"102 Rue du Routoir, 60700 Pontpoint, France","Country":"FRA","State":"Hauts-de-France","County":"Oise","City":"Pontpoint","Street":"Rue du Routoir","HouseNumber":"102","PostalCode":"60700","AdditionalData":[{"value":"France","key":"CountryName"},{"value":"Hauts-de-France","key":"StateName"},{"value":"Oise","key":"CountyName"}]},"MapReference":{"ReferenceId":"70180480","Spot":0.03,"SideOfStreet":"right","CountryId":"20000001","StateId":"20000002","CountyId":"20002123","CityId":"20029559","AddressId":"321129602","RoadLinkId":"43873974"}}},{"Relevance":1.0,"Distance":75.3,"MatchLevel":"houseNumber","MatchQuality":{"Country":1.0,"State":1.0,"County":1.0,"City":1.0,"Street":[1.0],"HouseNumber":1.0,"PostalCode":1.0},"MatchType":"interpolated","Location":{"LocationId":"NT_wKXS7fuT3glQ2nnLz6U9.B_zETN","LocationType":"point","DisplayPosition":{"Latitude":49.29966,"Longitude":2.62715},"MapView":{"TopLeft":{"Latitude":49.3007842,"Longitude":2.6254261},"BottomRight":{"Latitude":49.2985358,"Longitude":2.6288739}},"Address":{"Label":"315 Rue Vieille de Pont, 60700 Pontpoint, France","Country":"FRA","State":"Hauts-de-France","County":"Oise","City":"Pontpoint","Street":"Rue Vieille de Pont","HouseNumber":"315","PostalCode":"60700","AdditionalData":[{"value":"France","key":"CountryName"},{"value":"Hauts-de-France","key":"StateName"},{"value":"Oise","key":"CountyName"}]},"MapReference":{"ReferenceId":"772394143","Spot":0.65,"SideOfStreet":"left","CountryId":"20000001","StateId":"20000002","CountyId":"20002123","CityId":"20029559","AddressId":"321169251","RoadLinkId":"166018357"}}},{"Relevance":1.0,"Distance":80.7,"MatchLevel":"houseNumber","MatchQuality":{"Country":1.0,"State":1.0,"County":1.0,"City":1.0,"Street":[1.0],"HouseNumber":1.0,"PostalCode":1.0},"MatchType":"interpolated","Location":{"LocationId":"NT_Kmmr9aI6u3k-CH5olgaZIB_xQTM","LocationType":"point","DisplayPosition":{"Latitude":49.30097,"Longitude":2.62744},"MapView":{"TopLeft":{"Latitude":49.3020942,"Longitude":2.6257161},"BottomRight":{"Latitude":49.2998458,"Longitude":2.6291639}},"Address":{"Label":"141 Rue des Mazurettes, 60700 Pontpoint, France","Country":"FRA","State":"Hauts-de-France","County":"Oise","City":"Pontpoint","Street":"Rue des Mazurettes","HouseNumber":"141","PostalCode":"60700","AdditionalData":[{"value":"France","key":"CountryName"},{"value":"Hauts-de-France","key":"StateName"},{"value":"Oise","key":"CountyName"}]},"MapReference":{"ReferenceId":"70180481","Spot":0.03,"SideOfStreet":"left","CountryId":"20000001","StateId":"20000002","CountyId":"20002123","CityId":"20029559","AddressId":"321172548","RoadLinkId":"44349353"}}},{"Relevance":1.0,"Distance":83.1,"MatchLevel":"houseNumber","MatchQuality":{"Country":1.0,"State":1.0,"County":1.0,"City":1.0,"Street":[1.0],"HouseNumber":1.0,"PostalCode":1.0},"MatchType":"interpolated","Location":{"LocationId":"NT_xG01OWKT6RBqKCbXSIFACB_0kzN","LocationType":"point","DisplayPosition":{"Latitude":49.30015,"Longitude":2.62582},"MapView":{"TopLeft":{"Latitude":49.3012742,"Longitude":2.6240961},"BottomRight":{"Latitude":49.2990258,"Longitude":2.6275439}},"Address":{"Label":"497 Rue Saint-Paterne, 60700 Pontpoint, France","Country":"FRA","State":"Hauts-de-France","County":"Oise","City":"Pontpoint","Street":"Rue Saint-Paterne","HouseNumber":"497","PostalCode":"60700","AdditionalData":[{"value":"France","key":"CountryName"},{"value":"Hauts-de-France","key":"StateName"},{"value":"Oise","key":"CountyName"}]},"MapReference":{"ReferenceId":"966811036","Spot":0.74,"SideOfStreet":"right","CountryId":"20000001","StateId":"20000002","CountyId":"20002123","CityId":"20029559","AddressId":"321302051","RoadLinkId":"305170996"}}}]}]}}