{"Response":{"MetaInfo":{"Timestamp":"2020-03-28T10:56:28.202+0000","NextPageInformation":"2"},"View":[{"_type":"SearchResultsViewType","ViewId":0,"Result":[{"Relevance":1.0,"Distance":0.0,"Direction":0.0,"MatchLevel":"district","MatchQuality":{"Country":1.0,"State":1.0,"County":1.0,"City":1.0,"District":1.0,"PostalCode":1.0},"Location":{"LocationId":"NT_Jb0ZqQoGkg6MYR8esdv6-D","LocationType":"point","DisplayPosition":{"Latitude":49.378052,"Longitude":8.5701193},"MapView":{"TopLeft":{"Latitude":49.41663,"Longitude":8.5411},"BottomRight":{"Latitude":49.37166,"Longitude":8.59126}},"Address":{"Label":"Schwetzingen, Baden-Württemberg, Deutschland","Country":"DEU","State":"Baden-Württemberg","County":"Rhein-Neckar-Kreis","City":"Schwetzingen","District":"Schwetzingen","PostalCode":"68723","AdditionalData":[{"value":"Deutschland","key":"CountryName"},{"value":"Baden-Württemberg","key":"StateName"},{"value":"Rhein-Neckar-Kreis","key":"CountyName"}]},"MapReference":{"ReferenceId":"809200411","SideOfStreet":"neither","CountryId":"20147700","StateId":"20171489","CountyId":"20173754","CityId":"20173898","DistrictId":"20173900"}}},{"Relevance":1.0,"Distance":17.2,"MatchLevel":"street","MatchQuality":{"Country":1.0,"State":1.0,"County":1.0,"City":1.0,"District":1.0,"Street":[1.0],"PostalCode":1.0},"Location":{"LocationId":"NT_9PAFyU3pt1stcp5fUnvAdD_l_59386065_R","LocationType":"point","DisplayPosition":{"Latitude":49.3782,"Longitude":8.57005},"MapView":{"TopLeft":{"Latitude":49.37842,"Longitude":8.57005},"BottomRight":{"Latitude":49.3782,"Longitude":8.57024}},"Address":{"Label":"Bodelschwinghstraße, 68723 Schwetzingen, Deutschland","Country":"DEU","State":"Baden-Württemberg","County":"Rhein-Neckar-Kreis","City":"Schwetzingen","District":"Schwetzingen","Street":"Bodelschwinghstraße","PostalCode":"68723","AdditionalData":[{"value":"Deutschland","key":"CountryName"},{"value":"Baden-Württemberg","key":"StateName"},{"value":"Rhein-Neckar-Kreis","key":"CountyName"}]},"MapReference":{"ReferenceId":"59386065","Spot":0.0,"SideOfStreet":"right","CountryId":"20147700","StateId":"20171489","CountyId":"20173754","CityId":"20173898","DistrictId":"20173900"}}},{"Relevance":1.0,"Distance":42.0,"MatchLevel":"street","MatchQuality":{"Country":1.0,"State":1.0,"County":1.0,"City":1.0,"District":1.0,"Street":[1.0],"PostalCode":1.0},"Location":{"LocationId":"NT_9PAFyU3pt1stcp5fUnvAdD_l_59386064_L","LocationType":"point","DisplayPosition":{"Latitude":49.3784232,"Longitude":8.5702291},"MapView":{"TopLeft":{"Latitude":49.37863,"Longitude":8.56953},"BottomRight":{"Latitude":49.37842,"Longitude":8.57024}},"Address":{"Label":"Bodelschwinghstraße, 68723 Schwetzingen, Deutschland","Country":"DEU","State":"Baden-Württemberg","County":"Rhein-Neckar-Kreis","City":"Schwetzingen","District":"Schwetzingen","Street":"Bodelschwinghstraße","PostalCode":"68723","AdditionalData":[{"value":"Deutschland","key":"CountryName"},{"value":"Baden-Württemberg","key":"StateName"},{"value":"Rhein-Neckar-Kreis","key":"CountyName"}]},"MapReference":{"ReferenceId":"59386064","Spot":0.02,"SideOfStreet":"left","CountryId":"20147700","StateId":"20171489","CountyId":"20173754","CityId":"20173898","DistrictId":"20173900"}}},{"Relevance":1.0,"Distance":48.3,"MatchLevel":"houseNumber","MatchQuality":{"Country":1.0,"State":1.0,"County":1.0,"City":1.0,"District":1.0,"Street":[1.0],"HouseNumber":1.0,"PostalCode":1.0},"MatchType":"interpolated","Location":{"LocationId":"NT_9PAFyU3pt1stcp5fUnvAdD_xAzLxA","LocationType":"point","DisplayPosition":{"Latitude":49.37834,"Longitude":8.56962},"MapView":{"TopLeft":{"Latitude":49.3794642,"Longitude":8.5678934},"BottomRight":{"Latitude":49.3772158,"Longitude":8.5713466}},"Address":{"Label":"Bodelschwinghstraße 10/1, 68723 Schwetzingen, Deutschland","Country":"DEU","State":"Baden-Württemberg","County":"Rhein-Neckar-Kreis","City":"Schwetzingen","District":"Schwetzingen","Street":"Bodelschwinghstraße","HouseNumber":"10/1","PostalCode":"68723","AdditionalData":[{"value":"Deutschland","key":"CountryName"},{"value":"Baden-Württemberg","key":"StateName"},{"value":"Rhein-Neckar-Kreis","key":"CountyName"}]},"MapReference":{"ReferenceId":"59386066","Spot":0.6,"SideOfStreet":"left","CountryId":"20147700","StateId":"20171489","CountyId":"20173754","CityId":"20173898","DistrictId":"20173900","AddressId":"208813320","RoadLinkId":"38757047"}}},{"Relevance":1.0,"Distance":48.4,"MatchLevel":"houseNumber","MatchQuality":{"Country":1.0,"State":1.0,"County":1.0,"City":1.0,"District":1.0,"Street":[1.0],"HouseNumber":1.0,"PostalCode":1.0},"MatchType":"interpolated","Location":{"LocationId":"NT_9PAFyU3pt1stcp5fUnvAdD_xAD","LocationType":"point","DisplayPosition":{"Latitude":49.3784,"Longitude":8.57052},"MapView":{"TopLeft":{"Latitude":49.3795242,"Longitude":8.5687934},"BottomRight":{"Latitude":49.3772758,"Longitude":8.5722466}},"Address":{"Label":"Bodelschwinghstraße 10, 68723 Schwetzingen, Deutschland","Country":"DEU","State":"Baden-Württemberg","County":"Rhein-Neckar-Kreis","City":"Schwetzingen","District":"Schwetzingen","Street":"Bodelschwinghstraße","HouseNumber":"10","PostalCode":"68723","AdditionalData":[{"value":"Deutschland","key":"CountryName"},{"value":"Baden-Württemberg","key":"StateName"},{"value":"Rhein-Neckar-Kreis","key":"CountyName"}]},"MapReference":{"ReferenceId":"1203496840","Spot":0.63,"SideOfStreet":"right","CountryId":"20147700","StateId":"20171489","CountyId":"20173754","CityId":"20173898","DistrictId":"20173900","AddressId":"208803639","RoadLinkId":"516533482"}}},{"Relevance":1.0,"Distance":59.2,"MatchLevel":"street","MatchQuality":{"Country":1.0,"State":1.0,"County":1.0,"City":1.0,"District":1.0,"Street":[1.0],"PostalCode":1.0},"Location":{"LocationId":"NT_9PAFyU3pt1stcp5fUnvAdD_l_1203496839_L","LocationType":"point","DisplayPosition":{"Latitude":49.37844,"Longitude":8.57068},"MapView":{"TopLeft":{"Latitude":49.37844,"Longitude":8.57068},"BottomRight":{"Latitude":49.37836,"Longitude":8.57099}},"Address":{"Label":"Bodelschwinghstraße, 68723 Schwetzingen, Deutschland","Country":"DEU","State":"Baden-Württemberg","County":"Rhein-Neckar-Kreis","City":"Schwetzingen","District":"Schwetzingen","Street":"Bodelschwinghstraße","PostalCode":"68723","AdditionalData":[{"value":"Deutschland","key":"CountryName"},{"value":"Baden-Württemberg","key":"StateName"},{"value":"Rhein-Neckar-Kreis","key":"CountyName"}]},"MapReference":{"ReferenceId":"1203496839","Spot":1.0,"SideOfStreet":"left","CountryId":"20147700","StateId":"20171489","CountyId":"20173754","CityId":"20173898","DistrictId":"20173900"}}},{"Relevance":1.0,"Distance":59.3,"MatchLevel":"street","MatchQuality":{"Country":1.0,"State":1.0,"County":1.0,"City":1.0,"District":1.0,"PostalCode":1.0},"Location":{"LocationId":"NT_marT.qN0wYFq6PsfL8fIyC_l_1203506675_L","LocationType":"point","DisplayPosition":{"Latitude":49.3785719,"Longitude":8.5702996},"MapView":{"TopLeft":{"Latitude":49.37887,"Longitude":8.56944},"BottomRight":{"Latitude":49.37844,"Longitude":8.57068}},"Address":{"Label":"68723 Schwetzingen, Deutschland","Country":"DEU","State":"Baden-Württemberg","County":"Rhein-Neckar-Kreis","City":"Schwetzingen","District":"Schwetzingen","PostalCode":"68723","AdditionalData":[{"value":"Deutschland","key":"CountryName"},{"value":"Baden-Württemberg","key":"StateName"},{"value":"Rhein-Neckar-Kreis","key":"CountyName"}]},"MapReference":{"ReferenceId":"1203506675","Spot":0.31,"SideOfStreet":"left","CountryId":"20147700","StateId":"20171489","CountyId":"20173754","CityId":"20173898","DistrictId":"20173900"}}},{"Relevance":1.0,"Distance":71.0,"MatchLevel":"street","MatchQuality":{"Country":1.0,"State":1.0,"County":1.0,"City":1.0,"District":1.0,"PostalCode":1.0},"Location":{"LocationId":"NT_marT.qN0wYFq6PsfL8fIyC_l_1203495614_L","LocationType":"point","DisplayPosition":{"Latitude":49.3786095,"Longitude":8.5705972},"MapView":{"TopLeft":{"Latitude":49.37865,"Longitude":8.57055},"BottomRight":{"Latitude":49.37829,"Longitude":8.57183}},"Address":{"Label":"68723 Schwetzingen, Deutschland","Country":"DEU","State":"Baden-Württemberg","County":"Rhein-Neckar-Kreis","City":"Schwetzingen","District":"Schwetzingen","PostalCode":"68723","AdditionalData":[{"value":"Deutschland","key":"CountryName"},{"value":"Baden-Württemberg","key":"StateName"},{"value":"Rhein-Neckar-Kreis","key":"CountyName"}]},"MapReference":{"ReferenceId":"1203495614","Spot":0.95,"SideOfStreet":"left","CountryId":"20147700","StateId":"20171489","CountyId":"20173754","CityId":"20173898","DistrictId":"20173900"}}},{"Relevance":1.0,"Distance":76.2,"MatchLevel":"houseNumber","MatchQuality":{"Country":1.0,"State":1.0,"County":1.0,"City":1.0,"District":1.0,"Street":[1.0],"HouseNumber":1.0,"PostalCode":1.0},"MatchType":"interpolated","Location":{"LocationId":"NT_9PAFyU3pt1stcp5fUnvAdD_0UD","LocationType":"point","DisplayPosition":{"Latitude":49.37868,"Longitude":8.57054},"MapView":{"TopLeft":{"Latitude":49.3798042,"Longitude":8.5688133},"BottomRight":{"Latitude":49.3775558,"Longitude":8.5722667}},"Address":{"Label":"Bodelschwinghstraße 45, 68723 Schwetzingen, Deutschland","Country":"DEU","State":"Baden-Württemberg","County":"Rhein-Neckar-Kreis","City":"Schwetzingen","District":"Schwetzingen","Street":"Bodelschwinghstraße","HouseNumber":"45","PostalCode":"68723","AdditionalData":[{"value":"Deutschland","key":"CountryName"},{"value":"Baden-Württemberg","key":"StateName"},{"value":"Rhein-Neckar-Kreis","key":"CountyName"}]},"MapReference":{"ReferenceId":"540931092","Spot":0.16,"SideOfStreet":"right","CountryId":"20147700","StateId":"20171489","CountyId":"20173754","CityId":"20173898","DistrictId":"20173900","AddressId":"178872797","RoadLinkId":"38733677"}}},{"Relevance":1.0,"Distance":77.1,"MatchLevel":"street","MatchQuality":{"Country":1.0,"State":1.0,"County":1.0,"City":1.0,"District":1.0,"Street":[1.0],"PostalCode":1.0},"Location":{"LocationId":"NT_9PAFyU3pt1stcp5fUnvAdD_l_1203505268_R","LocationType":"point","DisplayPosition":{"Latitude":49.37863,"Longitude":8.56953},"MapView":{"TopLeft":{"Latitude":49.37887,"Longitude":8.56944},"BottomRight":{"Latitude":49.37863,"Longitude":8.56953}},"Address":{"Label":"Bodelschwinghstraße, 68723 Schwetzingen, Deutschland","Country":"DEU","State":"Baden-Württemberg","County":"Rhein-Neckar-Kreis","City":"Schwetzingen","District":"Schwetzingen","Street":"Bodelschwinghstraße","PostalCode":"68723","AdditionalData":[{"value":"Deutschland","key":"CountryName"},{"value":"Baden-Württemberg","key":"StateName"},{"value":"Rhein-Neckar-Kreis","key":"CountyName"}]},"MapReference":{"ReferenceId":"1203505268","Spot":0.0,"SideOfStreet":"right","CountryId":"20147700","StateId":"20171489","CountyId":"20173754","CityId":"20173898","DistrictId":"20173900"}}}]}]}}