{"Response":{"MetaInfo":{"Timestamp":"2020-03-28T11:44:12.117+0000","NextPageInformation":"2"},"View":[{"_type":"SearchResultsViewType","ViewId":0,"Result":[{"Relevance":1.0,"Distance":0.0,"Direction":0.0,"MatchLevel":"district","MatchQuality":{"Country":1.0,"State":1.0,"County":1.0,"City":1.0,"District":1.0,"PostalCode":1.0},"Location":{"LocationId":"NT_qXwsrno9rY3jJXRtRaa7rA","LocationType":"point","DisplayPosition":{"Latitude":49.3515764,"Longitude":9.1455339},"MapView":{"TopLeft":{"Latitude":49.36875,"Longitude":9.11565},"BottomRight":{"Latitude":49.33205,"Longitude":9.17274}},"Address":{"Label":"Mosbach, Baden-Württemberg, Deutschland","Country":"DEU","State":"Baden-Württemberg","County":"Neckar-Odenwald-Kreis","City":"Mosbach","District":"Mosbach","PostalCode":"74821","AdditionalData":[{"value":"Deutschland","key":"CountryName"},{"value":"Baden-Württemberg","key":"StateName"},{"value":"Neckar-Odenwald-Kreis","key":"CountyName"}]},"MapReference":{"ReferenceId":"783150081","SideOfStreet":"neither","CountryId":"20147700","StateId":"20171489","CountyId":"20173597","CityId":"20173664","DistrictId":"20173669"}}},{"Relevance":1.0,"Distance":12.7,"MatchLevel":"houseNumber","MatchQuality":{"Country":1.0,"State":1.0,"County":1.0,"City":1.0,"District":1.0,"Street":[1.0],"HouseNumber":1.0,"PostalCode":1.0},"MatchType":"interpolated","Location":{"LocationId":"NT_DjDTSpSyKRZPpnhpOwWXrB_0AD","LocationType":"point","DisplayPosition":{"Latitude":49.35174,"Longitude":9.14544},"MapView":{"TopLeft":{"Latitude":49.3528642,"Longitude":9.1437143},"BottomRight":{"Latitude":49.3506158,"Longitude":9.1471657}},"Address":{"Label":"Hauptstraße 40, 74821 Mosbach, Deutschland","Country":"DEU","State":"Baden-Württemberg","County":"Neckar-Odenwald-Kreis","City":"Mosbach","District":"Mosbach","Street":"Hauptstraße","HouseNumber":"40","PostalCode":"74821","AdditionalData":[{"value":"Deutschland","key":"CountryName"},{"value":"Baden-Württemberg","key":"StateName"},{"value":"Neckar-Odenwald-Kreis","key":"CountyName"}]},"MapReference":{"ReferenceId":"538997045","Spot":0.52,"SideOfStreet":"right","CountryId":"20147700","StateId":"20171489","CountyId":"20173597","CityId":"20173664","DistrictId":"20173669","AddressId":"179582483","RoadLinkId":"38568827"}}},{"Relevance":1.0,"Distance":12.8,"MatchLevel":"houseNumber","MatchQuality":{"Country":1.0,"State":1.0,"County":1.0,"City":1.0,"District":1.0,"Street":[1.0],"HouseNumber":1.0,"PostalCode":1.0},"MatchType":"interpolated","Location":{"LocationId":"NT_O.7F8li.W79t61HVg5nJrC_xA","LocationType":"point","DisplayPosition":{"Latitude":49.35157,"Longitude":9.14571},"MapView":{"TopLeft":{"Latitude":49.3526942,"Longitude":9.1439843},"BottomRight":{"Latitude":49.3504458,"Longitude":9.1474357}},"Address":{"Label":"Frohndbrunnengasse 1, 74821 Mosbach, Deutschland","Country":"DEU","State":"Baden-Württemberg","County":"Neckar-Odenwald-Kreis","City":"Mosbach","District":"Mosbach","Street":"Frohndbrunnengasse","HouseNumber":"1","PostalCode":"74821","AdditionalData":[{"value":"Deutschland","key":"CountryName"},{"value":"Baden-Württemberg","key":"StateName"},{"value":"Neckar-Odenwald-Kreis","key":"CountyName"}]},"MapReference":{"ReferenceId":"538996948","Spot":0.45,"SideOfStreet":"right","CountryId":"20147700","StateId":"20171489","CountyId":"20173597","CityId":"20173664","DistrictId":"20173669","AddressId":"180112600","RoadLinkId":"38862636"}}},{"Relevance":1.0,"Distance":19.1,"MatchLevel":"houseNumber","MatchQuality":{"Country":1.0,"State":1.0,"County":1.0,"City":1.0,"District":1.0,"Street":[1.0],"HouseNumber":1.0,"PostalCode":1.0},"MatchType":"interpolated","Location":{"LocationId":"NT_blHg84UIB8gK5ny-tJfOZC_0A","LocationType":"point","DisplayPosition":{"Latitude":49.35141,"Longitude":9.14547},"MapView":{"TopLeft":{"Latitude":49.3525342,"Longitude":9.1437443},"BottomRight":{"Latitude":49.3502858,"Longitude":9.1471957}},"Address":{"Label":"Löwenbrunnengasse 4, 74821 Mosbach, Deutschland","Country":"DEU","State":"Baden-Württemberg","County":"Neckar-Odenwald-Kreis","City":"Mosbach","District":"Mosbach","Street":"Löwenbrunnengasse","HouseNumber":"4","PostalCode":"74821","AdditionalData":[{"value":"Deutschland","key":"CountryName"},{"value":"Baden-Württemberg","key":"StateName"},{"value":"Neckar-Odenwald-Kreis","key":"CountyName"}]},"MapReference":{"ReferenceId":"538996963","Spot":0.24,"SideOfStreet":"left","CountryId":"20147700","StateId":"20171489","CountyId":"20173597","CityId":"20173664","DistrictId":"20173669","AddressId":"180414044","RoadLinkId":"38336759"}}},{"Relevance":1.0,"Distance":24.2,"MatchLevel":"street","MatchQuality":{"Country":1.0,"State":1.0,"County":1.0,"City":1.0,"District":1.0,"Street":[1.0],"PostalCode":1.0},"Location":{"LocationId":"NT_blHg84UIB8gK5ny-tJfOZC_l_538996919_R","LocationType":"point","DisplayPosition":{"Latitude":49.35136,"Longitude":9.14557},"MapView":{"TopLeft":{"Latitude":49.35136,"Longitude":9.14557},"BottomRight":{"Latitude":49.35115,"Longitude":9.14577}},"Address":{"Label":"Löwenbrunnengasse, 74821 Mosbach, Deutschland","Country":"DEU","State":"Baden-Württemberg","County":"Neckar-Odenwald-Kreis","City":"Mosbach","District":"Mosbach","Street":"Löwenbrunnengasse","PostalCode":"74821","AdditionalData":[{"value":"Deutschland","key":"CountryName"},{"value":"Baden-Württemberg","key":"StateName"},{"value":"Neckar-Odenwald-Kreis","key":"CountyName"}]},"MapReference":{"ReferenceId":"538996919","Spot":1.0,"SideOfStreet":"right","CountryId":"20147700","StateId":"20171489","CountyId":"20173597","CityId":"20173664","DistrictId":"20173669"}}},{"Relevance":1.0,"Distance":29.5,"MatchLevel":"houseNumber","MatchQuality":{"Country":1.0,"State":1.0,"County":1.0,"City":1.0,"District":1.0,"Street":[1.0],"HouseNumber":1.0,"PostalCode":1.0},"MatchType":"interpolated","Location":{"LocationId":"NT_Gec2dKe08mpuAWGunM5zpA_0A","LocationType":"point","DisplayPosition":{"Latitude":49.35177,"Longitude":9.14622},"MapView":{"TopLeft":{"Latitude":49.3528942,"Longitude":9.1444943},"BottomRight":{"Latitude":49.3506458,"Longitude":9.1479457}},"Address":{"Label":"Schlossgasse 4, 74821 Mosbach, Deutschland","Country":"DEU","State":"Baden-Württemberg","County":"Neckar-Odenwald-Kreis","City":"Mosbach","District":"Mosbach","Street":"Schlossgasse","HouseNumber":"4","PostalCode":"74821","AdditionalData":[{"value":"Deutschland","key":"CountryName"},{"value":"Baden-Württemberg","key":"StateName"},{"value":"Neckar-Odenwald-Kreis","key":"CountyName"}]},"MapReference":{"ReferenceId":"538996949","Spot":0.57,"SideOfStreet":"left","CountryId":"20147700","StateId":"20171489","CountyId":"20173597","CityId":"20173664","DistrictId":"20173669","AddressId":"180262880","RoadLinkId":"38549206"}}},{"Relevance":1.0,"Distance":30.8,"MatchLevel":"houseNumber","MatchQuality":{"Country":1.0,"State":1.0,"County":1.0,"City":1.0,"District":1.0,"Street":[1.0],"HouseNumber":1.0,"PostalCode":1.0},"MatchType":"interpolated","Location":{"LocationId":"NT_DjDTSpSyKRZPpnhpOwWXrB_zQD","LocationType":"point","DisplayPosition":{"Latitude":49.35159,"Longitude":9.14507},"MapView":{"TopLeft":{"Latitude":49.3527142,"Longitude":9.1433443},"BottomRight":{"Latitude":49.3504658,"Longitude":9.1467957}},"Address":{"Label":"Hauptstraße 34, 74821 Mosbach, Deutschland","Country":"DEU","State":"Baden-Württemberg","County":"Neckar-Odenwald-Kreis","City":"Mosbach","District":"Mosbach","Street":"Hauptstraße","HouseNumber":"34","PostalCode":"74821","AdditionalData":[{"value":"Deutschland","key":"CountryName"},{"value":"Baden-Württemberg","key":"StateName"},{"value":"Neckar-Odenwald-Kreis","key":"CountyName"}]},"MapReference":{"ReferenceId":"538996964","Spot":0.7,"SideOfStreet":"right","CountryId":"20147700","StateId":"20171489","CountyId":"20173597","CityId":"20173664","DistrictId":"20173669","AddressId":"179043990","RoadLinkId":"38467100"}}},{"Relevance":1.0,"Distance":31.1,"MatchLevel":"houseNumber","MatchQuality":{"Country":1.0,"State":1.0,"County":1.0,"City":1.0,"District":1.0,"Street":[1.0],"HouseNumber":1.0,"PostalCode":1.0},"MatchType":"interpolated","Location":{"LocationId":"NT_DjDTSpSyKRZPpnhpOwWXrB_0QD","LocationType":"point","DisplayPosition":{"Latitude":49.35186,"Longitude":9.14571},"MapView":{"TopLeft":{"Latitude":49.3529842,"Longitude":9.1439843},"BottomRight":{"Latitude":49.3507358,"Longitude":9.1474357}},"Address":{"Label":"Hauptstraße 44, 74821 Mosbach, Deutschland","Country":"DEU","State":"Baden-Württemberg","County":"Neckar-Odenwald-Kreis","City":"Mosbach","District":"Mosbach","Street":"Hauptstraße","HouseNumber":"44","PostalCode":"74821","AdditionalData":[{"value":"Deutschland","key":"CountryName"},{"value":"Baden-Württemberg","key":"StateName"},{"value":"Neckar-Odenwald-Kreis","key":"CountyName"}]},"MapReference":{"ReferenceId":"538997046","Spot":0.17,"SideOfStreet":"right","CountryId":"20147700","StateId":"20171489","CountyId":"20173597","CityId":"20173664","DistrictId":"20173669","AddressId":"180063468","RoadLinkId":"38536210"}}},{"Relevance":1.0,"Distance":33.5,"MatchLevel":"houseNumber","MatchQuality":{"Country":1.0,"State":1.0,"County":1.0,"City":1.0,"District":1.0,"Street":[1.0],"HouseNumber":1.0,"PostalCode":1.0},"MatchType":"interpolated","Location":{"LocationId":"NT_O.7F8li.W79t61HVg5nJrC_0A","LocationType":"point","DisplayPosition":{"Latitude":49.35127,"Longitude":9.14538},"MapView":{"TopLeft":{"Latitude":49.3523942,"Longitude":9.1436543},"BottomRight":{"Latitude":49.3501458,"Longitude":9.1471057}},"Address":{"Label":"Frohndbrunnengasse 4, 74821 Mosbach, Deutschland","Country":"DEU","State":"Baden-Württemberg","County":"Neckar-Odenwald-Kreis","City":"Mosbach","District":"Mosbach","Street":"Frohndbrunnengasse","HouseNumber":"4","PostalCode":"74821","AdditionalData":[{"value":"Deutschland","key":"CountryName"},{"value":"Baden-Württemberg","key":"StateName"},{"value":"Neckar-Odenwald-Kreis","key":"CountyName"}]},"MapReference":{"ReferenceId":"538996788","Spot":0.76,"SideOfStreet":"left","CountryId":"20147700","StateId":"20171489","CountyId":"20173597","CityId":"20173664","DistrictId":"20173669","AddressId":"179906405","RoadLinkId":"38922811"}}},{"Relevance":1.0,"Distance":46.1,"MatchLevel":"houseNumber","MatchQuality":{"Country":1.0,"State":1.0,"County":1.0,"City":1.0,"District":1.0,"Street":[1.0],"HouseNumber":1.0,"PostalCode":1.0},"MatchType":"interpolated","Location":{"LocationId":"NT_O.7F8li.W79t61HVg5nJrC_ykD","LocationType":"point","DisplayPosition":{"Latitude":49.35113,"Longitude":9.14567},"MapView":{"TopLeft":{"Latitude":49.3522542,"Longitude":9.1439443},"BottomRight":{"Latitude":49.3500058,"Longitude":9.1473957}},"Address":{"Label":"Frohndbrunnengasse 29, 74821 Mosbach, Deutschland","Country":"DEU","State":"Baden-Württemberg","County":"Neckar-Odenwald-Kreis","City":"Mosbach","District":"Mosbach","Street":"Frohndbrunnengasse","HouseNumber":"29","PostalCode":"74821","AdditionalData":[{"value":"Deutschland","key":"CountryName"},{"value":"Baden-Württemberg","key":"StateName"},{"value":"Neckar-Odenwald-Kreis","key":"CountyName"}]},"MapReference":{"ReferenceId":"540820118","Spot":0.9,"SideOfStreet":"left","CountryId":"20147700","StateId":"20171489","CountyId":"20173597","CityId":"20173664","DistrictId":"20173669","AddressId":"179014373","RoadLinkId":"38416972"}}}]}]}}