{"Response":{"MetaInfo":{"Timestamp":"2020-03-28T11:40:32.760+0000","NextPageInformation":"2"},"View":[{"_type":"SearchResultsViewType","ViewId":0,"Result":[{"Relevance":1.0,"Distance":0.0,"Direction":0.0,"MatchLevel":"district","MatchQuality":{"Country":1.0,"State":1.0,"County":1.0,"City":1.0,"District":1.0,"PostalCode":1.0},"Location":{"LocationId":"NT_asYEIZQVtNq1YfoqmAX8TB","LocationType":"point","DisplayPosition":{"Latitude":49.3779627,"Longitude":12.7050712},"MapView":{"TopLeft":{"Latitude":49.38688,"Longitude":12.68869},"BottomRight":{"Latitude":49.36853,"Longitude":12.72437}},"Address":{"Label":"Waldmünchen, Bayern, Deutschland","Country":"DEU","State":"Bayern","County":"Cham","City":"Waldmünchen","District":"Waldmünchen","PostalCode":"93449","AdditionalData":[{"value":"Deutschland","key":"CountryName"},{"value":"Bayern","key":"StateName"},{"value":"Cham","key":"CountyName"}]},"MapReference":{"ReferenceId":"554331423","SideOfStreet":"neither","CountryId":"20147700","StateId":"20177250","CountyId":"20180962","CityId":"20181127","DistrictId":"20181129"}}},{"Relevance":1.0,"Distance":10.6,"MatchLevel":"houseNumber","MatchQuality":{"Country":1.0,"State":1.0,"County":1.0,"City":1.0,"District":1.0,"Street":[1.0],"HouseNumber":1.0,"PostalCode":1.0},"MatchType":"interpolated","Location":{"LocationId":"NT_eF4YbouJOLPNRkoRqUlORD_yA","LocationType":"point","DisplayPosition":{"Latitude":49.37787,"Longitude":12.70504},"MapView":{"TopLeft":{"Latitude":49.3789942,"Longitude":12.7033134},"BottomRight":{"Latitude":49.3767458,"Longitude":12.7067666}},"Address":{"Label":"Bahnhofstraße 2, 93449 Waldmünchen, Deutschland","Country":"DEU","State":"Bayern","County":"Cham","City":"Waldmünchen","District":"Waldmünchen","Street":"Bahnhofstraße","HouseNumber":"2","PostalCode":"93449","AdditionalData":[{"value":"Deutschland","key":"CountryName"},{"value":"Bayern","key":"StateName"},{"value":"Cham","key":"CountyName"}]},"MapReference":{"ReferenceId":"877860843","Spot":0.65,"SideOfStreet":"right","CountryId":"20147700","StateId":"20177250","CountyId":"20180962","CityId":"20181127","DistrictId":"20181129","AddressId":"255704945","RoadLinkId":"247799198"}}},{"Relevance":1.0,"Distance":31.8,"MatchLevel":"houseNumber","MatchQuality":{"Country":1.0,"State":1.0,"County":1.0,"City":1.0,"District":1.0,"Street":[1.0],"HouseNumber":1.0,"PostalCode":1.0},"MatchType":"interpolated","Location":{"LocationId":"NT_eF4YbouJOLPNRkoRqUlORD_2A","LocationType":"point","DisplayPosition":{"Latitude":49.37791,"Longitude":12.70464},"MapView":{"TopLeft":{"Latitude":49.3790342,"Longitude":12.7029134},"BottomRight":{"Latitude":49.3767858,"Longitude":12.7063666}},"Address":{"Label":"Bahnhofstraße 6, 93449 Waldmünchen, Deutschland","Country":"DEU","State":"Bayern","County":"Cham","City":"Waldmünchen","District":"Waldmünchen","Street":"Bahnhofstraße","HouseNumber":"6","PostalCode":"93449","AdditionalData":[{"value":"Deutschland","key":"CountryName"},{"value":"Bayern","key":"StateName"},{"value":"Cham","key":"CountyName"}]},"MapReference":{"ReferenceId":"554331424","Spot":0.49,"SideOfStreet":"left","CountryId":"20147700","StateId":"20177250","CountyId":"20180962","CityId":"20181127","DistrictId":"20181129","AddressId":"182316102","RoadLinkId":"33438272"}}},{"Relevance":1.0,"Distance":32.5,"MatchLevel":"houseNumber","MatchQuality":{"Country":1.0,"State":1.0,"County":1.0,"City":1.0,"District":1.0,"Street":[1.0],"HouseNumber":1.0,"PostalCode":1.0},"MatchType":"interpolated","Location":{"LocationId":"NT_MHn59lr7jrFibC.lo3DCGC_zEE","LocationType":"point","DisplayPosition":{"Latitude":49.37774,"Longitude":12.70618},"MapView":{"TopLeft":{"Latitude":49.3788642,"Longitude":12.7044534},"BottomRight":{"Latitude":49.3766158,"Longitude":12.7079066}},"Address":{"Label":"Marktplatz 3A, 93449 Waldmünchen, Deutschland","Country":"DEU","State":"Bayern","County":"Cham","City":"Waldmünchen","District":"Waldmünchen","Street":"Marktplatz","HouseNumber":"3A","PostalCode":"93449","AdditionalData":[{"value":"Deutschland","key":"CountryName"},{"value":"Bayern","key":"StateName"},{"value":"Cham","key":"CountyName"}]},"MapReference":{"ReferenceId":"970759230","Spot":0.0,"SideOfStreet":"left","CountryId":"20147700","StateId":"20177250","CountyId":"20180962","CityId":"20181127","DistrictId":"20181129","AddressId":"183504420","RoadLinkId":"307136007"}}},{"Relevance":1.0,"Distance":48.1,"MatchLevel":"street","MatchQuality":{"Country":1.0,"State":1.0,"County":1.0,"City":1.0,"District":1.0,"Street":[1.0],"PostalCode":1.0},"Location":{"LocationId":"NT_MBg6CP7NttLNS4yVDGMYuC_l_554331429_R","LocationType":"point","DisplayPosition":{"Latitude":49.37781,"Longitude":12.70445},"MapView":{"TopLeft":{"Latitude":49.37813,"Longitude":12.70412},"BottomRight":{"Latitude":49.37781,"Longitude":12.70445}},"Address":{"Label":"Allee, 93449 Waldmünchen, Deutschland","Country":"DEU","State":"Bayern","County":"Cham","City":"Waldmünchen","District":"Waldmünchen","Street":"Allee","PostalCode":"93449","AdditionalData":[{"value":"Deutschland","key":"CountryName"},{"value":"Bayern","key":"StateName"},{"value":"Cham","key":"CountyName"}]},"MapReference":{"ReferenceId":"554331429","Spot":0.0,"SideOfStreet":"right","CountryId":"20147700","StateId":"20177250","CountyId":"20180962","CityId":"20181127","DistrictId":"20181129"}}},{"Relevance":1.0,"Distance":50.2,"MatchLevel":"houseNumber","MatchQuality":{"Country":1.0,"State":1.0,"County":1.0,"City":1.0,"District":1.0,"Street":[1.0],"HouseNumber":1.0,"PostalCode":1.0},"MatchType":"interpolated","Location":{"LocationId":"NT_MHn59lr7jrFibC.lo3DCGC_xA","LocationType":"point","DisplayPosition":{"Latitude":49.3776,"Longitude":12.7059},"MapView":{"TopLeft":{"Latitude":49.3787242,"Longitude":12.7041734},"BottomRight":{"Latitude":49.3764758,"Longitude":12.7076266}},"Address":{"Label":"Marktplatz 1, 93449 Waldmünchen, Deutschland","Country":"DEU","State":"Bayern","County":"Cham","City":"Waldmünchen","District":"Waldmünchen","Street":"Marktplatz","HouseNumber":"1","PostalCode":"93449","AdditionalData":[{"value":"Deutschland","key":"CountryName"},{"value":"Bayern","key":"StateName"},{"value":"Cham","key":"CountyName"}]},"MapReference":{"ReferenceId":"545197267","Spot":0.19,"SideOfStreet":"left","CountryId":"20147700","StateId":"20177250","CountyId":"20180962","CityId":"20181127","DistrictId":"20181129","AddressId":"199014320","RoadLinkId":"33812783"}}},{"Relevance":1.0,"Distance":51.2,"MatchLevel":"houseNumber","MatchQuality":{"Country":1.0,"State":1.0,"County":1.0,"City":1.0,"District":1.0,"Street":[1.0],"HouseNumber":1.0,"PostalCode":1.0},"MatchType":"interpolated","Location":{"LocationId":"NT_UC-ai3zxXM-E9gi67EIceA_yA","LocationType":"point","DisplayPosition":{"Latitude":49.37837,"Longitude":12.7054},"MapView":{"TopLeft":{"Latitude":49.3794942,"Longitude":12.7036734},"BottomRight":{"Latitude":49.3772458,"Longitude":12.7071266}},"Address":{"Label":"Schulstraße 2, 93449 Waldmünchen, Deutschland","Country":"DEU","State":"Bayern","County":"Cham","City":"Waldmünchen","District":"Waldmünchen","Street":"Schulstraße","HouseNumber":"2","PostalCode":"93449","AdditionalData":[{"value":"Deutschland","key":"CountryName"},{"value":"Bayern","key":"StateName"},{"value":"Cham","key":"CountyName"}]},"MapReference":{"ReferenceId":"545197349","Spot":0.45,"SideOfStreet":"right","CountryId":"20147700","StateId":"20177250","CountyId":"20180962","CityId":"20181127","DistrictId":"20181129","AddressId":"184572866","RoadLinkId":"33763234"}}},{"Relevance":1.0,"Distance":55.5,"MatchLevel":"houseNumber","MatchQuality":{"Country":1.0,"State":1.0,"County":1.0,"City":1.0,"District":1.0,"Street":[1.0],"HouseNumber":1.0,"PostalCode":1.0},"MatchType":"interpolated","Location":{"LocationId":"NT_eF4YbouJOLPNRkoRqUlORD_4A","LocationType":"point","DisplayPosition":{"Latitude":49.37776,"Longitude":12.70437},"MapView":{"TopLeft":{"Latitude":49.3788842,"Longitude":12.7026434},"BottomRight":{"Latitude":49.3766358,"Longitude":12.7060966}},"Address":{"Label":"Bahnhofstraße 8, 93449 Waldmünchen, Deutschland","Country":"DEU","State":"Bayern","County":"Cham","City":"Waldmünchen","District":"Waldmünchen","Street":"Bahnhofstraße","HouseNumber":"8","PostalCode":"93449","AdditionalData":[{"value":"Deutschland","key":"CountryName"},{"value":"Bayern","key":"StateName"},{"value":"Cham","key":"CountyName"}]},"MapReference":{"ReferenceId":"554331423","Spot":0.32,"SideOfStreet":"left","CountryId":"20147700","StateId":"20177250","CountyId":"20180962","CityId":"20181127","DistrictId":"20181129","AddressId":"186125473","RoadLinkId":"32824351"}}},{"Relevance":1.0,"Distance":58.7,"MatchLevel":"houseNumber","MatchQuality":{"Country":1.0,"State":1.0,"County":1.0,"City":1.0,"District":1.0,"Street":[1.0],"HouseNumber":1.0,"PostalCode":1.0},"MatchType":"interpolated","Location":{"LocationId":"NT_eF4YbouJOLPNRkoRqUlORD_xED","LocationType":"point","DisplayPosition":{"Latitude":49.37757,"Longitude":12.70453},"MapView":{"TopLeft":{"Latitude":49.3786942,"Longitude":12.7028034},"BottomRight":{"Latitude":49.3764458,"Longitude":12.7062566}},"Address":{"Label":"Bahnhofstraße 11, 93449 Waldmünchen, Deutschland","Country":"DEU","State":"Bayern","County":"Cham","City":"Waldmünchen","District":"Waldmünchen","Street":"Bahnhofstraße","HouseNumber":"11","PostalCode":"93449","AdditionalData":[{"value":"Deutschland","key":"CountryName"},{"value":"Bayern","key":"StateName"},{"value":"Cham","key":"CountyName"}]},"MapReference":{"ReferenceId":"554331648","Spot":0.75,"SideOfStreet":"left","CountryId":"20147700","StateId":"20177250","CountyId":"20180962","CityId":"20181127","DistrictId":"20181129","AddressId":"185859860","RoadLinkId":"248042871"}}},{"Relevance":1.0,"Distance":61.4,"MatchLevel":"houseNumber","MatchQuality":{"Country":1.0,"State":1.0,"County":1.0,"City":1.0,"District":1.0,"Street":[1.0],"HouseNumber":1.0,"PostalCode":1.0},"MatchType":"interpolated","Location":{"LocationId":"NT_MHn59lr7jrFibC.lo3DCGC_yA","LocationType":"point","DisplayPosition":{"Latitude":49.37754,"Longitude":12.70557},"MapView":{"TopLeft":{"Latitude":49.3786642,"Longitude":12.7038434},"BottomRight":{"Latitude":49.3764158,"Longitude":12.7072966}},"Address":{"Label":"Marktplatz 2, 93449 Waldmünchen, Deutschland","Country":"DEU","State":"Bayern","County":"Cham","City":"Waldmünchen","District":"Waldmünchen","Street":"Marktplatz","HouseNumber":"2","PostalCode":"93449","AdditionalData":[{"value":"Deutschland","key":"CountryName"},{"value":"Bayern","key":"StateName"},{"value":"Cham","key":"CountyName"}]},"MapReference":{"ReferenceId":"877860842","Spot":0.67,"SideOfStreet":"left","CountryId":"20147700","StateId":"20177250","CountyId":"20180962","CityId":"20181127","DistrictId":"20181129","AddressId":"255747548","RoadLinkId":"247799197"}}}]}]}}