{"Response":{"MetaInfo":{"Timestamp":"2020-03-28T10:05:02.184+0000","NextPageInformation":"2"},"View":[{"_type":"SearchResultsViewType","ViewId":0,"Result":[{"Relevance":1.0,"Distance":0.0,"Direction":0.0,"MatchLevel":"district","MatchQuality":{"Country":1.0,"State":1.0,"County":1.0,"City":1.0,"District":1.0,"PostalCode":1.0},"Location":{"LocationId":"NT_5COUCpggSmUxYEI7UzD0RD","LocationType":"point","DisplayPosition":{"Latitude":49.3417682,"Longitude":11.9344054},"MapView":{"TopLeft":{"Latitude":49.34653,"Longitude":11.92928},"BottomRight":{"Latitude":49.33446,"Longitude":11.94552}},"Address":{"Label":"Ensdorf, Bayern, Deutschland","Country":"DEU","State":"Bayern","County":"Amberg-Sulzbach","City":"Ensdorf","District":"Ensdorf","PostalCode":"92266","AdditionalData":[{"value":"Deutschland","key":"CountryName"},{"value":"Bayern","key":"StateName"},{"value":"Amberg-Sulzbach","key":"CountyName"}]},"MapReference":{"ReferenceId":"871571909","SideOfStreet":"neither","CountryId":"20147700","StateId":"20177250","CountyId":"20180833","CityId":"20180857","DistrictId":"20180859"}}},{"Relevance":1.0,"Distance":10.2,"MatchLevel":"houseNumber","MatchQuality":{"Country":1.0,"State":1.0,"County":1.0,"City":1.0,"District":1.0,"Street":[1.0],"HouseNumber":1.0,"PostalCode":1.0},"MatchType":"interpolated","Location":{"LocationId":"NT_aamySl1YHV17.qwBwTfm0B_yQE","LocationType":"point","DisplayPosition":{"Latitude":49.34185,"Longitude":11.93447},"MapView":{"TopLeft":{"Latitude":49.3429742,"Longitude":11.9327446},"BottomRight":{"Latitude":49.3407258,"Longitude":11.9361954}},"Address":{"Label":"Hauptstraße 2D, 92266 Ensdorf, Deutschland","Country":"DEU","State":"Bayern","County":"Amberg-Sulzbach","City":"Ensdorf","District":"Ensdorf","Street":"Hauptstraße","HouseNumber":"2D","PostalCode":"92266","AdditionalData":[{"value":"Deutschland","key":"CountryName"},{"value":"Bayern","key":"StateName"},{"value":"Amberg-Sulzbach","key":"CountyName"}]},"MapReference":{"ReferenceId":"554348933","Spot":0.79,"SideOfStreet":"left","CountryId":"20147700","StateId":"20177250","CountyId":"20180833","CityId":"20180857","DistrictId":"20180859","AddressId":"621740979","RoadLinkId":"32794068"}}},{"Relevance":1.0,"Distance":23.6,"MatchLevel":"houseNumber","MatchQuality":{"Country":1.0,"State":1.0,"County":1.0,"City":1.0,"District":1.0,"Street":[1.0],"HouseNumber":1.0,"PostalCode":1.0},"MatchType":"interpolated","Location":{"LocationId":"NT_7jGIBQv4Rfz5He5wLnZ.VA_xATQ","LocationType":"point","DisplayPosition":{"Latitude":49.34198,"Longitude":11.9344},"MapView":{"TopLeft":{"Latitude":49.3431042,"Longitude":11.9326746},"BottomRight":{"Latitude":49.3408558,"Longitude":11.9361254}},"Address":{"Label":"Forstgasse 10A, 92266 Ensdorf, Deutschland","Country":"DEU","State":"Bayern","County":"Amberg-Sulzbach","City":"Ensdorf","District":"Ensdorf","Street":"Forstgasse","HouseNumber":"10A","PostalCode":"92266","AdditionalData":[{"value":"Deutschland","key":"CountryName"},{"value":"Bayern","key":"StateName"},{"value":"Amberg-Sulzbach","key":"CountyName"}]},"MapReference":{"ReferenceId":"554348932","Spot":0.88,"SideOfStreet":"right","CountryId":"20147700","StateId":"20177250","CountyId":"20180833","CityId":"20180857","DistrictId":"20180859","AddressId":"183069321","RoadLinkId":"33653200"}}},{"Relevance":1.0,"Distance":46.4,"MatchLevel":"houseNumber","MatchQuality":{"Country":1.0,"State":1.0,"County":1.0,"City":1.0,"District":1.0,"Street":[1.0],"HouseNumber":1.0,"PostalCode":1.0},"MatchType":"interpolated","Location":{"LocationId":"NT_aamySl1YHV17.qwBwTfm0B_zIE","LocationType":"point","DisplayPosition":{"Latitude":49.34212,"Longitude":11.93406},"MapView":{"TopLeft":{"Latitude":49.3432442,"Longitude":11.9323346},"BottomRight":{"Latitude":49.3409958,"Longitude":11.9357854}},"Address":{"Label":"Hauptstraße 3B, 92266 Ensdorf, Deutschland","Country":"DEU","State":"Bayern","County":"Amberg-Sulzbach","City":"Ensdorf","District":"Ensdorf","Street":"Hauptstraße","HouseNumber":"3B","PostalCode":"92266","AdditionalData":[{"value":"Deutschland","key":"CountryName"},{"value":"Bayern","key":"StateName"},{"value":"Amberg-Sulzbach","key":"CountyName"}]},"MapReference":{"ReferenceId":"1238830828","Spot":0.81,"SideOfStreet":"right","CountryId":"20147700","StateId":"20177250","CountyId":"20180833","CityId":"20180857","DistrictId":"20180859","AddressId":"832726699","RoadLinkId":"559740417"}}},{"Relevance":1.0,"Distance":50.9,"MatchLevel":"street","MatchQuality":{"Country":1.0,"State":1.0,"County":1.0,"City":1.0,"District":1.0,"PostalCode":1.0},"Location":{"LocationId":"NT_CM0FrrHHLHSql2z04o6mcC_l_1238830830_R","LocationType":"point","DisplayPosition":{"Latitude":49.3421518,"Longitude":11.9340218},"MapView":{"TopLeft":{"Latitude":49.3435,"Longitude":11.93127},"BottomRight":{"Latitude":49.34214,"Longitude":11.93409}},"Address":{"Label":"92266 Ensdorf, Deutschland","Country":"DEU","State":"Bayern","County":"Amberg-Sulzbach","City":"Ensdorf","District":"Ensdorf","PostalCode":"92266","AdditionalData":[{"value":"Deutschland","key":"CountryName"},{"value":"Bayern","key":"StateName"},{"value":"Amberg-Sulzbach","key":"CountyName"}]},"MapReference":{"ReferenceId":"1238830830","Spot":0.01,"SideOfStreet":"right","CountryId":"20147700","StateId":"20177250","CountyId":"20180833","CityId":"20180857","DistrictId":"20180859"}}},{"Relevance":1.0,"Distance":71.3,"MatchLevel":"houseNumber","MatchQuality":{"Country":1.0,"State":1.0,"County":1.0,"City":1.0,"District":1.0,"Street":[1.0],"HouseNumber":1.0,"PostalCode":1.0},"MatchType":"interpolated","Location":{"LocationId":"NT_zNmmKlSfk8nQiK8tq1SqQB_xA","LocationType":"point","DisplayPosition":{"Latitude":49.34123,"Longitude":11.93524},"MapView":{"TopLeft":{"Latitude":49.3423542,"Longitude":11.9335147},"BottomRight":{"Latitude":49.3401058,"Longitude":11.9369653}},"Address":{"Label":"Schwandorfer Straße 1, 92266 Ensdorf, Deutschland","Country":"DEU","State":"Bayern","County":"Amberg-Sulzbach","City":"Ensdorf","District":"Ensdorf","Street":"Schwandorfer Straße","HouseNumber":"1","PostalCode":"92266","AdditionalData":[{"value":"Deutschland","key":"CountryName"},{"value":"Bayern","key":"StateName"},{"value":"Amberg-Sulzbach","key":"CountyName"}]},"MapReference":{"ReferenceId":"554348935","Spot":0.0,"SideOfStreet":"left","CountryId":"20147700","StateId":"20177250","CountyId":"20180833","CityId":"20180857","DistrictId":"20180859","AddressId":"184891941","RoadLinkId":"33831529"}}},{"Relevance":1.0,"Distance":92.6,"MatchLevel":"houseNumber","MatchQuality":{"Country":1.0,"State":1.0,"County":1.0,"City":1.0,"District":1.0,"Street":[1.0],"HouseNumber":1.0,"PostalCode":1.0},"MatchType":"interpolated","Location":{"LocationId":"NT_7jGIBQv4Rfz5He5wLnZ.VA_xA","LocationType":"point","DisplayPosition":{"Latitude":49.34149,"Longitude":11.93561},"MapView":{"TopLeft":{"Latitude":49.3426142,"Longitude":11.9338846},"BottomRight":{"Latitude":49.3403658,"Longitude":11.9373354}},"Address":{"Label":"Forstgasse 1, 92266 Ensdorf, Deutschland","Country":"DEU","State":"Bayern","County":"Amberg-Sulzbach","City":"Ensdorf","District":"Ensdorf","Street":"Forstgasse","HouseNumber":"1","PostalCode":"92266","AdditionalData":[{"value":"Deutschland","key":"CountryName"},{"value":"Bayern","key":"StateName"},{"value":"Amberg-Sulzbach","key":"CountyName"}]},"MapReference":{"ReferenceId":"554348937","Spot":0.44,"SideOfStreet":"right","CountryId":"20147700","StateId":"20177250","CountyId":"20180833","CityId":"20180857","DistrictId":"20180859","AddressId":"184985522","RoadLinkId":"33708381"}}},{"Relevance":1.0,"Distance":96.4,"MatchLevel":"houseNumber","MatchQuality":{"Country":1.0,"State":1.0,"County":1.0,"City":1.0,"District":1.0,"Street":[1.0],"HouseNumber":1.0,"PostalCode":1.0},"MatchType":"interpolated","Location":{"LocationId":"NT_aamySl1YHV17.qwBwTfm0B_2A","LocationType":"point","DisplayPosition":{"Latitude":49.34104,"Longitude":11.9353},"MapView":{"TopLeft":{"Latitude":49.3421642,"Longitude":11.9335747},"BottomRight":{"Latitude":49.3399158,"Longitude":11.9370253}},"Address":{"Label":"Hauptstraße 6, 92266 Ensdorf, Deutschland","Country":"DEU","State":"Bayern","County":"Amberg-Sulzbach","City":"Ensdorf","District":"Ensdorf","Street":"Hauptstraße","HouseNumber":"6","PostalCode":"92266","AdditionalData":[{"value":"Deutschland","key":"CountryName"},{"value":"Bayern","key":"StateName"},{"value":"Amberg-Sulzbach","key":"CountyName"}]},"MapReference":{"ReferenceId":"1238833539","Spot":0.54,"SideOfStreet":"left","CountryId":"20147700","StateId":"20177250","CountyId":"20180833","CityId":"20180857","DistrictId":"20180859","AddressId":"249193434","RoadLinkId":"559742983"}}},{"Relevance":1.0,"Distance":105.2,"MatchLevel":"houseNumber","MatchQuality":{"Country":1.0,"State":1.0,"County":1.0,"City":1.0,"District":1.0,"Street":[1.0],"HouseNumber":1.0,"PostalCode":1.0},"MatchType":"interpolated","Location":{"LocationId":"NT_aamySl1YHV17.qwBwTfm0B_xA","LocationType":"point","DisplayPosition":{"Latitude":49.34241,"Longitude":11.93347},"MapView":{"TopLeft":{"Latitude":49.3435342,"Longitude":11.9317446},"BottomRight":{"Latitude":49.3412858,"Longitude":11.9351954}},"Address":{"Label":"Hauptstraße 1, 92266 Ensdorf, Deutschland","Country":"DEU","State":"Bayern","County":"Amberg-Sulzbach","City":"Ensdorf","District":"Ensdorf","Street":"Hauptstraße","HouseNumber":"1","PostalCode":"92266","AdditionalData":[{"value":"Deutschland","key":"CountryName"},{"value":"Bayern","key":"StateName"},{"value":"Amberg-Sulzbach","key":"CountyName"}]},"MapReference":{"ReferenceId":"1238830829","Spot":0.37,"SideOfStreet":"right","CountryId":"20147700","StateId":"20177250","CountyId":"20180833","CityId":"20180857","DistrictId":"20180859","AddressId":"185868910","RoadLinkId":"559740418"}}},{"Relevance":1.0,"Distance":106.8,"MatchLevel":"houseNumber","MatchQuality":{"Country":1.0,"State":1.0,"County":1.0,"City":1.0,"District":1.0,"Street":[1.0],"HouseNumber":1.0,"PostalCode":1.0},"MatchType":"interpolated","Location":{"LocationId":"NT_f.stO3rzRHG3PptjCP2AHA_3A","LocationType":"point","DisplayPosition":{"Latitude":49.34279,"Longitude":11.9349},"MapView":{"TopLeft":{"Latitude":49.3439142,"Longitude":11.9331746},"BottomRight":{"Latitude":49.3416658,"Longitude":11.9366254}},"Address":{"Label":"Abt-Meiler-Straße 7, 92266 Ensdorf, Deutschland","Country":"DEU","State":"Bayern","County":"Amberg-Sulzbach","City":"Ensdorf","District":"Ensdorf","Street":"Abt-Meiler-Straße","HouseNumber":"7","PostalCode":"92266","AdditionalData":[{"value":"Deutschland","key":"CountryName"},{"value":"Bayern","key":"StateName"},{"value":"Amberg-Sulzbach","key":"CountyName"}]},"MapReference":{"ReferenceId":"545077328","Spot":0.31,"SideOfStreet":"left","CountryId":"20147700","StateId":"20177250","CountyId":"20180833","CityId":"20180857","DistrictId":"20180859","AddressId":"182246032","RoadLinkId":"33117841"}}}]}]}}