{"Response":{"MetaInfo":{"Timestamp":"2020-03-28T10:24:47.177+0000","NextPageInformation":"2"},"View":[{"_type":"SearchResultsViewType","ViewId":0,"Result":[{"Relevance":1.0,"Distance":0.0,"Direction":0.0,"MatchLevel":"district","MatchQuality":{"Country":1.0,"State":1.0,"County":1.0,"City":1.0,"District":1.0,"PostalCode":1.0},"Location":{"LocationId":"NT_1xAf7dvK0e1MUAEcccT0zA","LocationType":"point","DisplayPosition":{"Latitude":49.3153645,"Longitude":6.7583942},"MapView":{"TopLeft":{"Latitude":49.32645,"Longitude":6.72811},"BottomRight":{"Latitude":49.29703,"Longitude":6.77586}},"Address":{"Label":"Saarlouis, Saarland, Deutschland","Country":"DEU","State":"Saarland","County":"Saarlouis","City":"Saarlouis","District":"Saarlouis","PostalCode":"66740","AdditionalData":[{"value":"Deutschland","key":"CountryName"},{"value":"Saarland","key":"StateName"},{"value":"Saarlouis","key":"CountyName"}]},"MapReference":{"ReferenceId":"1233398341","SideOfStreet":"neither","CountryId":"20147700","StateId":"20186904","CountyId":"20187158","CityId":"20187190","DistrictId":"20187193"}}},{"Relevance":1.0,"Distance":28.7,"MatchLevel":"street","MatchQuality":{"Country":1.0,"State":1.0,"County":1.0,"City":1.0,"District":1.0,"PostalCode":1.0},"Location":{"LocationId":"NT_Vfjw-Esn0L98-8z1Zng68D_l_1181955275_L","LocationType":"point","DisplayPosition":{"Latitude":49.31512,"Longitude":6.75852},"MapView":{"TopLeft":{"Latitude":49.31572,"Longitude":6.75852},"BottomRight":{"Latitude":49.31503,"Longitude":6.75874}},"Address":{"Label":"66740 Saarlouis, Deutschland","Country":"DEU","State":"Saarland","County":"Saarlouis","City":"Saarlouis","District":"Saarlouis","PostalCode":"66740","AdditionalData":[{"value":"Deutschland","key":"CountryName"},{"value":"Saarland","key":"StateName"},{"value":"Saarlouis","key":"CountyName"}]},"MapReference":{"ReferenceId":"1181955275","Spot":0.1,"SideOfStreet":"left","CountryId":"20147700","StateId":"20186904","CountyId":"20187158","CityId":"20187190","DistrictId":"20187193"}}},{"Relevance":1.0,"Distance":38.7,"MatchLevel":"street","MatchQuality":{"Country":1.0,"State":1.0,"County":1.0,"City":1.0,"District":1.0,"PostalCode":1.0},"Location":{"LocationId":"NT_Vfjw-Esn0L98-8z1Zng68D_l_548533343_L","LocationType":"point","DisplayPosition":{"Latitude":49.31503,"Longitude":6.75854},"MapView":{"TopLeft":{"Latitude":49.31513,"Longitude":6.75854},"BottomRight":{"Latitude":49.31503,"Longitude":6.75913}},"Address":{"Label":"66740 Saarlouis, Deutschland","Country":"DEU","State":"Saarland","County":"Saarlouis","City":"Saarlouis","District":"Saarlouis","PostalCode":"66740","AdditionalData":[{"value":"Deutschland","key":"CountryName"},{"value":"Saarland","key":"StateName"},{"value":"Saarlouis","key":"CountyName"}]},"MapReference":{"ReferenceId":"548533343","Spot":0.0,"SideOfStreet":"left","CountryId":"20147700","StateId":"20186904","CountyId":"20187158","CityId":"20187190","DistrictId":"20187193"}}},{"Relevance":1.0,"Distance":42.9,"MatchLevel":"street","MatchQuality":{"Country":1.0,"State":1.0,"County":1.0,"City":1.0,"District":1.0,"PostalCode":1.0},"Location":{"LocationId":"NT_Vfjw-Esn0L98-8z1Zng68D_l_1181951603_R","LocationType":"point","DisplayPosition":{"Latitude":49.3157491,"Longitude":6.7583515},"MapView":{"TopLeft":{"Latitude":49.31577,"Longitude":6.7572},"BottomRight":{"Latitude":49.31563,"Longitude":6.75857}},"Address":{"Label":"66740 Saarlouis, Deutschland","Country":"DEU","State":"Saarland","County":"Saarlouis","City":"Saarlouis","District":"Saarlouis","PostalCode":"66740","AdditionalData":[{"value":"Deutschland","key":"CountryName"},{"value":"Saarland","key":"StateName"},{"value":"Saarlouis","key":"CountyName"}]},"MapReference":{"ReferenceId":"1181951603","Spot":0.83,"SideOfStreet":"right","CountryId":"20147700","StateId":"20186904","CountyId":"20187158","CityId":"20187190","DistrictId":"20187193"}}},{"Relevance":1.0,"Distance":48.3,"MatchLevel":"street","MatchQuality":{"Country":1.0,"State":1.0,"County":1.0,"City":1.0,"District":1.0,"Street":[1.0],"PostalCode":1.0},"Location":{"LocationId":"NT_UeJOrGsALd5cxHitCc-.hB_l_1104615868_L","LocationType":"point","DisplayPosition":{"Latitude":49.3155593,"Longitude":6.7589895},"MapView":{"TopLeft":{"Latitude":49.31568,"Longitude":6.75895},"BottomRight":{"Latitude":49.31513,"Longitude":6.75913}},"Address":{"Label":"Hubert-Schreiner-Straße, 66740 Saarlouis, Deutschland","Country":"DEU","State":"Saarland","County":"Saarlouis","City":"Saarlouis","District":"Saarlouis","Street":"Hubert-Schreiner-Straße","PostalCode":"66740","AdditionalData":[{"value":"Deutschland","key":"CountryName"},{"value":"Saarland","key":"StateName"},{"value":"Saarlouis","key":"CountyName"}]},"MapReference":{"ReferenceId":"1104615868","Spot":0.78,"SideOfStreet":"left","CountryId":"20147700","StateId":"20186904","CountyId":"20187158","CityId":"20187190","DistrictId":"20187193"}}},{"Relevance":1.0,"Distance":53.4,"MatchLevel":"street","MatchQuality":{"Country":1.0,"State":1.0,"County":1.0,"City":1.0,"District":1.0,"Street":[1.0],"PostalCode":1.0},"Location":{"LocationId":"NT_vOZBABToJuyl4kHjnGrumD_l_1104615869_L","LocationType":"point","DisplayPosition":{"Latitude":49.31568,"Longitude":6.75895},"MapView":{"TopLeft":{"Latitude":49.31603,"Longitude":6.75879},"BottomRight":{"Latitude":49.31568,"Longitude":6.75895}},"Address":{"Label":"Hubert-Schreiner-Straße, 66740 Saarlouis, Deutschland","Country":"DEU","State":"Saarland","County":"Saarlouis","City":"Saarlouis","District":"Saarlouis","Street":"Hubert-Schreiner-Straße","PostalCode":"66740","AdditionalData":[{"value":"Deutschland","key":"CountryName"},{"value":"Saarland","key":"StateName"},{"value":"Saarlouis","key":"CountyName"}]},"MapReference":{"ReferenceId":"1104615869","Spot":0.0,"SideOfStreet":"left","CountryId":"20147700","StateId":"20186904","CountyId":"20187158","CityId":"20187190","DistrictId":"20187193"}}},{"Relevance":1.0,"Distance":59.4,"MatchLevel":"street","MatchQuality":{"Country":1.0,"State":1.0,"County":1.0,"City":1.0,"District":1.0,"Street":[1.0],"PostalCode":1.0},"Location":{"LocationId":"NT_UeJOrGsALd5cxHitCc-.hB_l_1104615864_L","LocationType":"point","DisplayPosition":{"Latitude":49.31513,"Longitude":6.75913},"MapView":{"TopLeft":{"Latitude":49.31513,"Longitude":6.75913},"BottomRight":{"Latitude":49.31488,"Longitude":6.75918}},"Address":{"Label":"Walter-Bloch-Straße, 66740 Saarlouis, Deutschland","Country":"DEU","State":"Saarland","County":"Saarlouis","City":"Saarlouis","District":"Saarlouis","Street":"Walter-Bloch-Straße","PostalCode":"66740","AdditionalData":[{"value":"Deutschland","key":"CountryName"},{"value":"Saarland","key":"StateName"},{"value":"Saarlouis","key":"CountyName"}]},"MapReference":{"ReferenceId":"1104615864","Spot":1.0,"SideOfStreet":"left","CountryId":"20147700","StateId":"20186904","CountyId":"20187158","CityId":"20187190","DistrictId":"20187193"}}},{"Relevance":1.0,"Distance":69.7,"MatchLevel":"houseNumber","MatchQuality":{"Country":1.0,"State":1.0,"County":1.0,"City":1.0,"District":1.0,"Street":[1.0],"HouseNumber":1.0,"PostalCode":1.0},"MatchType":"interpolated","Location":{"LocationId":"NT_mdkMHDNsbUdbd4KuEjQ3LA_yAD","LocationType":"point","DisplayPosition":{"Latitude":49.31473,"Longitude":6.75751},"MapView":{"TopLeft":{"Latitude":49.3158542,"Longitude":6.7557856},"BottomRight":{"Latitude":49.3136058,"Longitude":6.7592344}},"Address":{"Label":"Im Glacis 20, 66740 Saarlouis, Deutschland","Country":"DEU","State":"Saarland","County":"Saarlouis","City":"Saarlouis","District":"Saarlouis","Street":"Im Glacis","HouseNumber":"20","PostalCode":"66740","AdditionalData":[{"value":"Deutschland","key":"CountryName"},{"value":"Saarland","key":"StateName"},{"value":"Saarlouis","key":"CountyName"}]},"MapReference":{"ReferenceId":"548274896","Spot":0.75,"SideOfStreet":"right","CountryId":"20147700","StateId":"20186904","CountyId":"20187158","CityId":"20187190","DistrictId":"20187193","AddressId":"189061254","RoadLinkId":"34751546"}}},{"Relevance":1.0,"Distance":78.4,"MatchLevel":"street","MatchQuality":{"Country":1.0,"State":1.0,"County":1.0,"City":1.0,"District":1.0,"Street":[1.0],"PostalCode":1.0},"Location":{"LocationId":"NT_vY24aexu59b3xtDHNV4dIC_l_1104615865_L","LocationType":"point","DisplayPosition":{"Latitude":49.31488,"Longitude":6.75918},"MapView":{"TopLeft":{"Latitude":49.31488,"Longitude":6.75918},"BottomRight":{"Latitude":49.31466,"Longitude":6.75923}},"Address":{"Label":"Walter-Bloch-Straße, 66740 Saarlouis, Deutschland","Country":"DEU","State":"Saarland","County":"Saarlouis","City":"Saarlouis","District":"Saarlouis","Street":"Walter-Bloch-Straße","PostalCode":"66740","AdditionalData":[{"value":"Deutschland","key":"CountryName"},{"value":"Saarland","key":"StateName"},{"value":"Saarlouis","key":"CountyName"}]},"MapReference":{"ReferenceId":"1104615865","Spot":1.0,"SideOfStreet":"left","CountryId":"20147700","StateId":"20186904","CountyId":"20187158","CityId":"20187190","DistrictId":"20187193"}}},{"Relevance":1.0,"Distance":79.4,"MatchLevel":"street","MatchQuality":{"Country":1.0,"State":1.0,"County":1.0,"City":1.0,"District":1.0,"Street":[1.0],"PostalCode":1.0},"Location":{"LocationId":"NT_vOZBABToJuyl4kHjnGrumD_l_1182211163_L","LocationType":"point","DisplayPosition":{"Latitude":49.31603,"Longitude":6.75879},"MapView":{"TopLeft":{"Latitude":49.31633,"Longitude":6.75861},"BottomRight":{"Latitude":49.31603,"Longitude":6.75879}},"Address":{"Label":"Hubert-Schreiner-Straße, 66740 Saarlouis, Deutschland","Country":"DEU","State":"Saarland","County":"Saarlouis","City":"Saarlouis","District":"Saarlouis","Street":"Hubert-Schreiner-Straße","PostalCode":"66740","AdditionalData":[{"value":"Deutschland","key":"CountryName"},{"value":"Saarland","key":"StateName"},{"value":"Saarlouis","key":"CountyName"}]},"MapReference":{"ReferenceId":"1182211163","Spot":0.0,"SideOfStreet":"left","CountryId":"20147700","StateId":"20186904","CountyId":"20187158","CityId":"20187190","DistrictId":"20187193"}}}]}]}}