{"Response":{"MetaInfo":{"Timestamp":"2020-03-28T10:25:31.236+0000","NextPageInformation":"2"},"View":[{"_type":"SearchResultsViewType","ViewId":0,"Result":[{"Relevance":1.0,"Distance":0.0,"Direction":0.0,"MatchLevel":"district","MatchQuality":{"Country":1.0,"State":1.0,"County":1.0,"City":1.0,"District":1.0,"PostalCode":1.0},"Location":{"LocationId":"NT_9R.NzTwCR1TfJUyXvRMC9B","LocationType":"point","DisplayPosition":{"Latitude":49.4490434,"Longitude":8.6689128},"MapView":{"TopLeft":{"Latitude":49.45683,"Longitude":8.66119},"BottomRight":{"Latitude":49.44006,"Longitude":8.68749}},"Address":{"Label":"Dossenheim, Baden-Württemberg, Deutschland","Country":"DEU","State":"Baden-Württemberg","County":"Rhein-Neckar-Kreis","City":"Dossenheim","District":"Dossenheim","PostalCode":"69221","AdditionalData":[{"value":"Deutschland","key":"CountryName"},{"value":"Baden-Württemberg","key":"StateName"},{"value":"Rhein-Neckar-Kreis","key":"CountyName"}]},"MapReference":{"ReferenceId":"72852685","SideOfStreet":"neither","CountryId":"20147700","StateId":"20171489","CountyId":"20173754","CityId":"20173770","DistrictId":"20173772"}}},{"Relevance":1.0,"Distance":8.9,"MatchLevel":"houseNumber","MatchQuality":{"Country":1.0,"State":1.0,"County":1.0,"City":1.0,"District":1.0,"Street":[1.0],"HouseNumber":1.0,"PostalCode":1.0},"MatchType":"interpolated","Location":{"LocationId":"NT_4Oaubuwdq4XubcIrD42fJA_yYD","LocationType":"point","DisplayPosition":{"Latitude":49.44901,"Longitude":8.66909},"MapView":{"TopLeft":{"Latitude":49.4501342,"Longitude":8.6673609},"BottomRight":{"Latitude":49.4478858,"Longitude":8.6708191}},"Address":{"Label":"Bahnhofstraße 26, 69221 Dossenheim, Deutschland","Country":"DEU","State":"Baden-Württemberg","County":"Rhein-Neckar-Kreis","City":"Dossenheim","District":"Dossenheim","Street":"Bahnhofstraße","HouseNumber":"26","PostalCode":"69221","AdditionalData":[{"value":"Deutschland","key":"CountryName"},{"value":"Baden-Württemberg","key":"StateName"},{"value":"Rhein-Neckar-Kreis","key":"CountyName"}]},"MapReference":{"ReferenceId":"72852788","Spot":0.56,"SideOfStreet":"left","CountryId":"20147700","StateId":"20171489","CountyId":"20173754","CityId":"20173770","DistrictId":"20173772","AddressId":"179670095","RoadLinkId":"38570229"}}},{"Relevance":1.0,"Distance":10.0,"MatchLevel":"houseNumber","MatchQuality":{"Country":1.0,"State":1.0,"County":1.0,"City":1.0,"District":1.0,"Street":[1.0],"HouseNumber":1.0,"PostalCode":1.0},"MatchType":"interpolated","Location":{"LocationId":"NT_hhbTyg0PXVQz2lYtZ9ReaB_yA","LocationType":"point","DisplayPosition":{"Latitude":49.44897,"Longitude":8.66856},"MapView":{"TopLeft":{"Latitude":49.4500942,"Longitude":8.6668309},"BottomRight":{"Latitude":49.4478458,"Longitude":8.6702891}},"Address":{"Label":"Bergstraße 2, 69221 Dossenheim, Deutschland","Country":"DEU","State":"Baden-Württemberg","County":"Rhein-Neckar-Kreis","City":"Dossenheim","District":"Dossenheim","Street":"Bergstraße","HouseNumber":"2","PostalCode":"69221","AdditionalData":[{"value":"Deutschland","key":"CountryName"},{"value":"Baden-Württemberg","key":"StateName"},{"value":"Rhein-Neckar-Kreis","key":"CountyName"}]},"MapReference":{"ReferenceId":"1090173019","Spot":0.09,"SideOfStreet":"right","CountryId":"20147700","StateId":"20171489","CountyId":"20173754","CityId":"20173770","DistrictId":"20173772","AddressId":"180331835","RoadLinkId":"405154367"}}},{"Relevance":1.0,"Distance":18.9,"MatchLevel":"street","MatchQuality":{"Country":1.0,"State":1.0,"County":1.0,"City":1.0,"District":1.0,"Street":[1.0],"PostalCode":1.0},"Location":{"LocationId":"NT_4Oaubuwdq4XubcIrD42fJA_l_72862359_L","LocationType":"point","DisplayPosition":{"Latitude":49.44889,"Longitude":8.6688},"MapView":{"TopLeft":{"Latitude":49.44889,"Longitude":8.66872},"BottomRight":{"Latitude":49.44885,"Longitude":8.6688}},"Address":{"Label":"Bahnhofstraße, 69221 Dossenheim, Deutschland","Country":"DEU","State":"Baden-Württemberg","County":"Rhein-Neckar-Kreis","City":"Dossenheim","District":"Dossenheim","Street":"Bahnhofstraße","PostalCode":"69221","AdditionalData":[{"value":"Deutschland","key":"CountryName"},{"value":"Baden-Württemberg","key":"StateName"},{"value":"Rhein-Neckar-Kreis","key":"CountyName"}]},"MapReference":{"ReferenceId":"72862359","Spot":1.0,"SideOfStreet":"left","CountryId":"20147700","StateId":"20171489","CountyId":"20173754","CityId":"20173770","DistrictId":"20173772"}}},{"Relevance":1.0,"Distance":26.0,"MatchLevel":"houseNumber","MatchQuality":{"Country":1.0,"State":1.0,"County":1.0,"City":1.0,"District":1.0,"Street":[1.0],"HouseNumber":1.0,"PostalCode":1.0},"MatchType":"interpolated","Location":{"LocationId":"NT_hhbTyg0PXVQz2lYtZ9ReaB_zA","LocationType":"point","DisplayPosition":{"Latitude":49.44894,"Longitude":8.66859},"MapView":{"TopLeft":{"Latitude":49.4500642,"Longitude":8.6668609},"BottomRight":{"Latitude":49.4478158,"Longitude":8.6703191}},"Address":{"Label":"Bergstraße 3, 69221 Dossenheim, Deutschland","Country":"DEU","State":"Baden-Württemberg","County":"Rhein-Neckar-Kreis","City":"Dossenheim","District":"Dossenheim","Street":"Bergstraße","HouseNumber":"3","PostalCode":"69221","AdditionalData":[{"value":"Deutschland","key":"CountryName"},{"value":"Baden-Württemberg","key":"StateName"},{"value":"Rhein-Neckar-Kreis","key":"CountyName"}]},"MapReference":{"ReferenceId":"72852968","Spot":1.0,"SideOfStreet":"left","CountryId":"20147700","StateId":"20171489","CountyId":"20173754","CityId":"20173770","DistrictId":"20173772","AddressId":"621610003","RoadLinkId":"38871773"}}},{"Relevance":1.0,"Distance":31.5,"MatchLevel":"street","MatchQuality":{"Country":1.0,"State":1.0,"County":1.0,"City":1.0,"District":1.0,"Street":[1.0],"PostalCode":1.0},"Location":{"LocationId":"NT_JyrqgNQtF-Q6XlBS7MS.bB_l_72852954_L","LocationType":"point","DisplayPosition":{"Latitude":49.4492226,"Longitude":8.6692502},"MapView":{"TopLeft":{"Latitude":49.45044,"Longitude":8.66888},"BottomRight":{"Latitude":49.44911,"Longitude":8.66931}},"Address":{"Label":"Im Bangert, 69221 Dossenheim, Deutschland","Country":"DEU","State":"Baden-Württemberg","County":"Rhein-Neckar-Kreis","City":"Dossenheim","District":"Dossenheim","Street":"Im Bangert","PostalCode":"69221","AdditionalData":[{"value":"Deutschland","key":"CountryName"},{"value":"Baden-Württemberg","key":"StateName"},{"value":"Rhein-Neckar-Kreis","key":"CountyName"}]},"MapReference":{"ReferenceId":"72852954","Spot":0.09,"SideOfStreet":"left","CountryId":"20147700","StateId":"20171489","CountyId":"20173754","CityId":"20173770","DistrictId":"20173772"}}},{"Relevance":1.0,"Distance":41.8,"MatchLevel":"houseNumber","MatchQuality":{"Country":1.0,"State":1.0,"County":1.0,"City":1.0,"District":1.0,"Street":[1.0],"HouseNumber":1.0,"PostalCode":1.0},"MatchType":"interpolated","Location":{"LocationId":"NT_ZPGzFnxuwGmWMyd1jQHhwD_xA","LocationType":"point","DisplayPosition":{"Latitude":49.44867,"Longitude":8.66898},"MapView":{"TopLeft":{"Latitude":49.4497942,"Longitude":8.6672509},"BottomRight":{"Latitude":49.4475458,"Longitude":8.6707091}},"Address":{"Label":"Bahnhofsplatz 1, 69221 Dossenheim, Deutschland","Country":"DEU","State":"Baden-Württemberg","County":"Rhein-Neckar-Kreis","City":"Dossenheim","District":"Dossenheim","Street":"Bahnhofsplatz","HouseNumber":"1","PostalCode":"69221","AdditionalData":[{"value":"Deutschland","key":"CountryName"},{"value":"Baden-Württemberg","key":"StateName"},{"value":"Rhein-Neckar-Kreis","key":"CountyName"}]},"MapReference":{"ReferenceId":"1061738870","Spot":0.12,"SideOfStreet":"right","CountryId":"20147700","StateId":"20171489","CountyId":"20173754","CityId":"20173770","DistrictId":"20173772","AddressId":"178965864","RoadLinkId":"383842344"}}},{"Relevance":1.0,"Distance":46.1,"MatchLevel":"houseNumber","MatchQuality":{"Country":1.0,"State":1.0,"County":1.0,"City":1.0,"District":1.0,"Street":[1.0],"HouseNumber":1.0,"PostalCode":1.0},"MatchType":"interpolated","Location":{"LocationId":"NT_1-MHMQHA4Q9JuZ5FAM3pwA_xA","LocationType":"point","DisplayPosition":{"Latitude":49.44867,"Longitude":8.6686},"MapView":{"TopLeft":{"Latitude":49.4497942,"Longitude":8.6668709},"BottomRight":{"Latitude":49.4475458,"Longitude":8.6703291}},"Address":{"Label":"Neckarstraße 1, 69221 Dossenheim, Deutschland","Country":"DEU","State":"Baden-Württemberg","County":"Rhein-Neckar-Kreis","City":"Dossenheim","District":"Dossenheim","Street":"Neckarstraße","HouseNumber":"1","PostalCode":"69221","AdditionalData":[{"value":"Deutschland","key":"CountryName"},{"value":"Baden-Württemberg","key":"StateName"},{"value":"Rhein-Neckar-Kreis","key":"CountyName"}]},"MapReference":{"ReferenceId":"72852724","Spot":0.7,"SideOfStreet":"right","CountryId":"20147700","StateId":"20171489","CountyId":"20173754","CityId":"20173770","DistrictId":"20173772","AddressId":"179081072","RoadLinkId":"38864814"}}},{"Relevance":1.0,"Distance":52.4,"MatchLevel":"houseNumber","MatchQuality":{"Country":1.0,"State":1.0,"County":1.0,"City":1.0,"District":1.0,"Street":[1.0],"HouseNumber":1.0,"PostalCode":1.0},"MatchType":"interpolated","Location":{"LocationId":"NT_YzsNms8c36H.lk6eSvsOOA_0A","LocationType":"point","DisplayPosition":{"Latitude":49.44859,"Longitude":8.66911},"MapView":{"TopLeft":{"Latitude":49.4497142,"Longitude":8.6673809},"BottomRight":{"Latitude":49.4474658,"Longitude":8.6708391}},"Address":{"Label":"Handschuhsheimer Landstraße 4, 69221 Dossenheim, Deutschland","Country":"DEU","State":"Baden-Württemberg","County":"Rhein-Neckar-Kreis","City":"Dossenheim","District":"Dossenheim","Street":"Handschuhsheimer Landstraße","HouseNumber":"4","PostalCode":"69221","AdditionalData":[{"value":"Deutschland","key":"CountryName"},{"value":"Baden-Württemberg","key":"StateName"},{"value":"Rhein-Neckar-Kreis","key":"CountyName"}]},"MapReference":{"ReferenceId":"1090173018","Spot":0.74,"SideOfStreet":"left","CountryId":"20147700","StateId":"20171489","CountyId":"20173754","CityId":"20173770","DistrictId":"20173772","AddressId":"177851302","RoadLinkId":"405154362"}}},{"Relevance":1.0,"Distance":53.2,"MatchLevel":"houseNumber","MatchQuality":{"Country":1.0,"State":1.0,"County":1.0,"City":1.0,"District":1.0,"Street":[1.0],"HouseNumber":1.0,"PostalCode":1.0},"MatchType":"interpolated","Location":{"LocationId":"NT_VdxWrDdlwqrLnawJfOVNOC_2ETQ","LocationType":"point","DisplayPosition":{"Latitude":49.44891,"Longitude":8.6682},"MapView":{"TopLeft":{"Latitude":49.4500342,"Longitude":8.6664709},"BottomRight":{"Latitude":49.4477858,"Longitude":8.6699291}},"Address":{"Label":"Kastanienweg 61A, 69221 Dossenheim, Deutschland","Country":"DEU","State":"Baden-Württemberg","County":"Rhein-Neckar-Kreis","City":"Dossenheim","District":"Dossenheim","Street":"Kastanienweg","HouseNumber":"61A","PostalCode":"69221","AdditionalData":[{"value":"Deutschland","key":"CountryName"},{"value":"Baden-Württemberg","key":"StateName"},{"value":"Rhein-Neckar-Kreis","key":"CountyName"}]},"MapReference":{"ReferenceId":"76865260","Spot":0.53,"SideOfStreet":"right","CountryId":"20147700","StateId":"20171489","CountyId":"20173754","CityId":"20173770","DistrictId":"20173772","AddressId":"179556966","RoadLinkId":"38735401"}}}]}]}}