{"Response":{"MetaInfo":{"Timestamp":"2020-03-28T10:59:02.571+0000","NextPageInformation":"2"},"View":[{"_type":"SearchResultsViewType","ViewId":0,"Result":[{"Relevance":1.0,"Distance":0.0,"Direction":0.0,"MatchLevel":"district","MatchQuality":{"Country":1.0,"State":1.0,"County":1.0,"City":1.0,"District":1.0,"PostalCode":1.0},"Location":{"LocationId":"NT_Wr8cyusVzVBfDQNLIf2weB","LocationType":"point","DisplayPosition":{"Latitude":49.462521,"Longitude":12.4119023},"MapView":{"TopLeft":{"Latitude":49.46847,"Longitude":12.4082},"BottomRight":{"Latitude":49.45144,"Longitude":12.43647}},"Address":{"Label":"Oberviechtach, Bayern, Deutschland","Country":"DEU","State":"Bayern","County":"Schwandorf","City":"Oberviechtach","District":"Oberviechtach","PostalCode":"92526","AdditionalData":[{"value":"Deutschland","key":"CountryName"},{"value":"Bayern","key":"StateName"},{"value":"Schwandorf","key":"CountyName"}]},"MapReference":{"ReferenceId":"1195943110","SideOfStreet":"neither","CountryId":"20147700","StateId":"20177250","CountyId":"20181612","CityId":"20181683","DistrictId":"20181685"}}},{"Relevance":1.0,"Distance":20.8,"MatchLevel":"street","MatchQuality":{"Country":1.0,"State":1.0,"County":1.0,"City":1.0,"District":1.0,"Street":[1.0],"PostalCode":1.0},"Location":{"LocationId":"NT_7zhQk2E6S5tFENKId-0AmD_l_547352127_R","LocationType":"point","DisplayPosition":{"Latitude":49.4626675,"Longitude":12.4117244},"MapView":{"TopLeft":{"Latitude":49.46282,"Longitude":12.41097},"BottomRight":{"Latitude":49.46215,"Longitude":12.41185}},"Address":{"Label":"Krankenhausstraße, 92526 Oberviechtach, Deutschland","Country":"DEU","State":"Bayern","County":"Schwandorf","City":"Oberviechtach","District":"Oberviechtach","Street":"Krankenhausstraße","PostalCode":"92526","AdditionalData":[{"value":"Deutschland","key":"CountryName"},{"value":"Bayern","key":"StateName"},{"value":"Schwandorf","key":"CountyName"}]},"MapReference":{"ReferenceId":"547352127","Spot":0.82,"SideOfStreet":"right","CountryId":"20147700","StateId":"20177250","CountyId":"20181612","CityId":"20181683","DistrictId":"20181685"}}},{"Relevance":1.0,"Distance":26.3,"MatchLevel":"street","MatchQuality":{"Country":1.0,"State":1.0,"County":1.0,"City":1.0,"District":1.0,"Street":[1.0],"PostalCode":1.0},"Location":{"LocationId":"NT_Rk1wPyVP5FYn3efVQ588FB_l_545232581_L","LocationType":"point","DisplayPosition":{"Latitude":49.46274,"Longitude":12.41204},"MapView":{"TopLeft":{"Latitude":49.46274,"Longitude":12.41204},"BottomRight":{"Latitude":49.46259,"Longitude":12.4124}},"Address":{"Label":"Teunzer Straße, 92526 Oberviechtach, Deutschland","Country":"DEU","State":"Bayern","County":"Schwandorf","City":"Oberviechtach","District":"Oberviechtach","Street":"Teunzer Straße","PostalCode":"92526","AdditionalData":[{"value":"Deutschland","key":"CountryName"},{"value":"Bayern","key":"StateName"},{"value":"Schwandorf","key":"CountyName"}]},"MapReference":{"ReferenceId":"545232581","Spot":1.0,"SideOfStreet":"left","CountryId":"20147700","StateId":"20177250","CountyId":"20181612","CityId":"20181683","DistrictId":"20181685"}}},{"Relevance":1.0,"Distance":26.3,"MatchLevel":"street","MatchQuality":{"Country":1.0,"State":1.0,"County":1.0,"City":1.0,"District":1.0,"PostalCode":1.0},"Location":{"LocationId":"NT_PcHjtrWR6snovDuc2YvW.D_l_545232527_L","LocationType":"point","DisplayPosition":{"Latitude":49.46274,"Longitude":12.41204},"MapView":{"TopLeft":{"Latitude":49.46275,"Longitude":12.41204},"BottomRight":{"Latitude":49.46252,"Longitude":12.41283}},"Address":{"Label":"92526 Oberviechtach, Deutschland","Country":"DEU","State":"Bayern","County":"Schwandorf","City":"Oberviechtach","District":"Oberviechtach","PostalCode":"92526","AdditionalData":[{"value":"Deutschland","key":"CountryName"},{"value":"Bayern","key":"StateName"},{"value":"Schwandorf","key":"CountyName"}]},"MapReference":{"ReferenceId":"545232527","Spot":1.0,"SideOfStreet":"left","CountryId":"20147700","StateId":"20177250","CountyId":"20181612","CityId":"20181683","DistrictId":"20181685"}}},{"Relevance":1.0,"Distance":32.2,"MatchLevel":"houseNumber","MatchQuality":{"Country":1.0,"State":1.0,"County":1.0,"City":1.0,"District":1.0,"Street":[1.0],"HouseNumber":1.0,"PostalCode":1.0},"MatchType":"interpolated","Location":{"LocationId":"NT_zCpqaksu2PZjTVvpT2RwuA_xkD","LocationType":"point","DisplayPosition":{"Latitude":49.46281,"Longitude":12.41188},"MapView":{"TopLeft":{"Latitude":49.4639342,"Longitude":12.4101504},"BottomRight":{"Latitude":49.4616858,"Longitude":12.4136096}},"Address":{"Label":"Teunzer Straße 19, 92526 Oberviechtach, Deutschland","Country":"DEU","State":"Bayern","County":"Schwandorf","City":"Oberviechtach","District":"Oberviechtach","Street":"Teunzer Straße","HouseNumber":"19","PostalCode":"92526","AdditionalData":[{"value":"Deutschland","key":"CountryName"},{"value":"Bayern","key":"StateName"},{"value":"Schwandorf","key":"CountyName"}]},"MapReference":{"ReferenceId":"545232576","Spot":0.85,"SideOfStreet":"left","CountryId":"20147700","StateId":"20177250","CountyId":"20181612","CityId":"20181683","DistrictId":"20181685","AddressId":"185971270","RoadLinkId":"33668432"}}},{"Relevance":1.0,"Distance":33.0,"MatchLevel":"street","MatchQuality":{"Country":1.0,"State":1.0,"County":1.0,"City":1.0,"District":1.0,"PostalCode":1.0},"Location":{"LocationId":"NT_PcHjtrWR6snovDuc2YvW.D_l_1258436721_L","LocationType":"point","DisplayPosition":{"Latitude":49.4628132,"Longitude":12.4118244},"MapView":{"TopLeft":{"Latitude":49.46313,"Longitude":12.41073},"BottomRight":{"Latitude":49.46278,"Longitude":12.41185}},"Address":{"Label":"92526 Oberviechtach, Deutschland","Country":"DEU","State":"Bayern","County":"Schwandorf","City":"Oberviechtach","District":"Oberviechtach","PostalCode":"92526","AdditionalData":[{"value":"Deutschland","key":"CountryName"},{"value":"Bayern","key":"StateName"},{"value":"Schwandorf","key":"CountyName"}]},"MapReference":{"ReferenceId":"1258436721","Spot":0.02,"SideOfStreet":"left","CountryId":"20147700","StateId":"20177250","CountyId":"20181612","CityId":"20181683","DistrictId":"20181685"}}},{"Relevance":1.0,"Distance":33.5,"MatchLevel":"street","MatchQuality":{"Country":1.0,"State":1.0,"County":1.0,"City":1.0,"District":1.0,"Street":[1.0],"PostalCode":1.0},"Location":{"LocationId":"NT_9rLAxGKkNVHxndbANrF7-C_l_545250635_R","LocationType":"point","DisplayPosition":{"Latitude":49.46282,"Longitude":12.41185},"MapView":{"TopLeft":{"Latitude":49.46339,"Longitude":12.41185},"BottomRight":{"Latitude":49.46282,"Longitude":12.41203}},"Address":{"Label":"SAD44, 92526 Oberviechtach, Deutschland","Country":"DEU","State":"Bayern","County":"Schwandorf","City":"Oberviechtach","District":"Oberviechtach","Street":"SAD44","PostalCode":"92526","AdditionalData":[{"value":"Deutschland","key":"CountryName"},{"value":"Bayern","key":"StateName"},{"value":"Schwandorf","key":"CountyName"}]},"MapReference":{"ReferenceId":"545250635","Spot":0.0,"SideOfStreet":"right","CountryId":"20147700","StateId":"20177250","CountyId":"20181612","CityId":"20181683","DistrictId":"20181685"}}},{"Relevance":1.0,"Distance":61.6,"MatchLevel":"houseNumber","MatchQuality":{"Country":1.0,"State":1.0,"County":1.0,"City":1.0,"District":1.0,"Street":[1.0],"HouseNumber":1.0,"PostalCode":1.0},"MatchType":"interpolated","Location":{"LocationId":"NT_zCpqaksu2PZjTVvpT2RwuA_xcD","LocationType":"point","DisplayPosition":{"Latitude":49.46188,"Longitude":12.4124},"MapView":{"TopLeft":{"Latitude":49.4630042,"Longitude":12.4106704},"BottomRight":{"Latitude":49.4607558,"Longitude":12.4141296}},"Address":{"Label":"Teunzer Straße 17, 92526 Oberviechtach, Deutschland","Country":"DEU","State":"Bayern","County":"Schwandorf","City":"Oberviechtach","District":"Oberviechtach","Street":"Teunzer Straße","HouseNumber":"17","PostalCode":"92526","AdditionalData":[{"value":"Deutschland","key":"CountryName"},{"value":"Bayern","key":"StateName"},{"value":"Schwandorf","key":"CountyName"}]},"MapReference":{"ReferenceId":"547352128","Spot":0.0,"SideOfStreet":"left","CountryId":"20147700","StateId":"20177250","CountyId":"20181612","CityId":"20181683","DistrictId":"20181685","AddressId":"208373506","RoadLinkId":"33370505"}}},{"Relevance":1.0,"Distance":67.0,"MatchLevel":"street","MatchQuality":{"Country":1.0,"State":1.0,"County":1.0,"City":1.0,"District":1.0,"PostalCode":1.0},"Location":{"LocationId":"NT_PcHjtrWR6snovDuc2YvW.D_l_545232519_L","LocationType":"point","DisplayPosition":{"Latitude":49.46252,"Longitude":12.41283},"MapView":{"TopLeft":{"Latitude":49.46282,"Longitude":12.41283},"BottomRight":{"Latitude":49.46252,"Longitude":12.41309}},"Address":{"Label":"92526 Oberviechtach, Deutschland","Country":"DEU","State":"Bayern","County":"Schwandorf","City":"Oberviechtach","District":"Oberviechtach","PostalCode":"92526","AdditionalData":[{"value":"Deutschland","key":"CountryName"},{"value":"Bayern","key":"StateName"},{"value":"Schwandorf","key":"CountyName"}]},"MapReference":{"ReferenceId":"545232519","Spot":0.0,"SideOfStreet":"left","CountryId":"20147700","StateId":"20177250","CountyId":"20181612","CityId":"20181683","DistrictId":"20181685"}}},{"Relevance":1.0,"Distance":67.0,"MatchLevel":"street","MatchQuality":{"Country":1.0,"State":1.0,"County":1.0,"City":1.0,"District":1.0,"PostalCode":1.0},"Location":{"LocationId":"NT_PcHjtrWR6snovDuc2YvW.D_l_545232473_L","LocationType":"point","DisplayPosition":{"Latitude":49.46252,"Longitude":12.41283},"MapView":{"TopLeft":{"Latitude":49.46252,"Longitude":12.41283},"BottomRight":{"Latitude":49.46217,"Longitude":12.41341}},"Address":{"Label":"92526 Oberviechtach, Deutschland","Country":"DEU","State":"Bayern","County":"Schwandorf","City":"Oberviechtach","District":"Oberviechtach","PostalCode":"92526","AdditionalData":[{"value":"Deutschland","key":"CountryName"},{"value":"Bayern","key":"StateName"},{"value":"Schwandorf","key":"CountyName"}]},"MapReference":{"ReferenceId":"545232473","Spot":1.0,"SideOfStreet":"left","CountryId":"20147700","StateId":"20177250","CountyId":"20181612","CityId":"20181683","DistrictId":"20181685"}}}]}]}}