{"Response":{"MetaInfo":{"Timestamp":"2020-03-28T11:48:01.051+0000","NextPageInformation":"2"},"View":[{"_type":"SearchResultsViewType","ViewId":0,"Result":[{"Relevance":1.0,"Distance":0.0,"Direction":0.0,"MatchLevel":"city","MatchQuality":{"Country":1.0,"State":1.0,"County":1.0,"City":1.0,"PostalCode":1.0},"Location":{"LocationId":"NT_WzRYj5vpHBymFPYbMDEV1A","LocationType":"point","DisplayPosition":{"Latitude":49.422962,"Longitude":1.124965},"MapView":{"TopLeft":{"Latitude":49.43411,"Longitude":1.10907},"BottomRight":{"Latitude":49.41571,"Longitude":1.16392}},"Address":{"Label":"Bonsecours, Normandie, France","Country":"FRA","State":"Normandie","County":"Seine-Maritime","City":"Bonsecours","PostalCode":"76240","AdditionalData":[{"value":"France","key":"CountryName"},{"value":"Normandie","key":"StateName"},{"value":"Seine-Maritime","key":"CountyName"}]},"MapReference":{"ReferenceId":"57385818","SideOfStreet":"neither","CountryId":"20000001","StateId":"20057204","CountyId":"20038936","CityId":"20078097"}}},{"Relevance":1.0,"Distance":12.0,"MatchLevel":"houseNumber","MatchQuality":{"Country":1.0,"State":1.0,"County":1.0,"City":1.0,"Street":[1.0],"HouseNumber":1.0,"PostalCode":1.0},"MatchType":"interpolated","Location":{"LocationId":"NT_ejEqtAG.ZoF5SPtWQDv49A_3ED","LocationType":"point","DisplayPosition":{"Latitude":49.42311,"Longitude":1.12519},"MapView":{"TopLeft":{"Latitude":49.4242342,"Longitude":1.1234618},"BottomRight":{"Latitude":49.4219858,"Longitude":1.1269182}},"Address":{"Label":"71 Route de Paris, 76240 Bonsecours, France","Country":"FRA","State":"Normandie","County":"Seine-Maritime","City":"Bonsecours","Street":"Route de Paris","HouseNumber":"71","PostalCode":"76240","AdditionalData":[{"value":"France","key":"CountryName"},{"value":"Normandie","key":"StateName"},{"value":"Seine-Maritime","key":"CountyName"}]},"MapReference":{"ReferenceId":"843709888","Spot":1.0,"SideOfStreet":"left","CountryId":"20000001","StateId":"20057204","CountyId":"20038936","CityId":"20078097","AddressId":"379338465","RoadLinkId":"225116187"}}},{"Relevance":1.0,"Distance":15.7,"MatchLevel":"houseNumber","MatchQuality":{"Country":1.0,"State":1.0,"County":1.0,"City":1.0,"Street":[1.0],"HouseNumber":1.0,"PostalCode":1.0},"MatchType":"interpolated","Location":{"LocationId":"NT_ejEqtAG.ZoF5SPtWQDv49A_2kDV","LocationType":"point","DisplayPosition":{"Latitude":49.42303,"Longitude":1.12527},"MapView":{"TopLeft":{"Latitude":49.4241542,"Longitude":1.1235418},"BottomRight":{"Latitude":49.4219058,"Longitude":1.1269982}},"Address":{"Label":"69T Route de Paris, 76240 Bonsecours, France","Country":"FRA","State":"Normandie","County":"Seine-Maritime","City":"Bonsecours","Street":"Route de Paris","HouseNumber":"69T","PostalCode":"76240","AdditionalData":[{"value":"France","key":"CountryName"},{"value":"Normandie","key":"StateName"},{"value":"Seine-Maritime","key":"CountyName"}]},"MapReference":{"ReferenceId":"569950801","Spot":0.71,"SideOfStreet":"left","CountryId":"20000001","StateId":"20057204","CountyId":"20038936","CityId":"20078097","AddressId":"316722265","RoadLinkId":"46419179"}}},{"Relevance":1.0,"Distance":18.4,"MatchLevel":"houseNumber","MatchQuality":{"Country":1.0,"State":1.0,"County":1.0,"City":1.0,"Street":[1.0],"HouseNumber":1.0,"PostalCode":1.0},"MatchType":"interpolated","Location":{"LocationId":"NT_ejEqtAG.ZoF5SPtWQDv49A_3EjQ","LocationType":"point","DisplayPosition":{"Latitude":49.42317,"Longitude":1.12514},"MapView":{"TopLeft":{"Latitude":49.4242942,"Longitude":1.1234118},"BottomRight":{"Latitude":49.4220458,"Longitude":1.1268682}},"Address":{"Label":"71B Route de Paris, 76240 Bonsecours, France","Country":"FRA","State":"Normandie","County":"Seine-Maritime","City":"Bonsecours","Street":"Route de Paris","HouseNumber":"71B","PostalCode":"76240","AdditionalData":[{"value":"France","key":"CountryName"},{"value":"Normandie","key":"StateName"},{"value":"Seine-Maritime","key":"CountyName"}]},"MapReference":{"ReferenceId":"843709889","Spot":0.12,"SideOfStreet":"left","CountryId":"20000001","StateId":"20057204","CountyId":"20038936","CityId":"20078097","AddressId":"571073197","RoadLinkId":"225116188"}}},{"Relevance":1.0,"Distance":23.7,"MatchLevel":"houseNumber","MatchQuality":{"Country":1.0,"State":1.0,"County":1.0,"City":1.0,"Street":[1.0],"HouseNumber":1.0,"PostalCode":1.0},"MatchType":"interpolated","Location":{"LocationId":"NT_ejEqtAG.ZoF5SPtWQDv49A_2kjQ","LocationType":"point","DisplayPosition":{"Latitude":49.42293,"Longitude":1.12537},"MapView":{"TopLeft":{"Latitude":49.4240542,"Longitude":1.1236418},"BottomRight":{"Latitude":49.4218058,"Longitude":1.1270982}},"Address":{"Label":"69B Route de Paris, 76240 Bonsecours, France","Country":"FRA","State":"Normandie","County":"Seine-Maritime","City":"Bonsecours","Street":"Route de Paris","HouseNumber":"69B","PostalCode":"76240","AdditionalData":[{"value":"France","key":"CountryName"},{"value":"Normandie","key":"StateName"},{"value":"Seine-Maritime","key":"CountyName"}]},"MapReference":{"ReferenceId":"569950800","Spot":1.0,"SideOfStreet":"left","CountryId":"20000001","StateId":"20057204","CountyId":"20038936","CityId":"20078097","AddressId":"316684032","RoadLinkId":"46590244"}}},{"Relevance":1.0,"Distance":29.5,"MatchLevel":"street","MatchQuality":{"Country":1.0,"State":1.0,"County":1.0,"City":1.0,"Street":[1.0],"PostalCode":1.0},"Location":{"LocationId":"NT_kC5FbSuKr7IzHyGgLbY5sC_l_569950802_L","LocationType":"point","DisplayPosition":{"Latitude":49.42293,"Longitude":1.12537},"MapView":{"TopLeft":{"Latitude":49.42314,"Longitude":1.12537},"BottomRight":{"Latitude":49.42293,"Longitude":1.12578}},"Address":{"Label":"Place Antoine de Saint-Exupéry, 76240 Bonsecours, France","Country":"FRA","State":"Normandie","County":"Seine-Maritime","City":"Bonsecours","Street":"Place Antoine de Saint-Exupéry","PostalCode":"76240","AdditionalData":[{"value":"France","key":"CountryName"},{"value":"Normandie","key":"StateName"},{"value":"Seine-Maritime","key":"CountyName"}]},"MapReference":{"ReferenceId":"569950802","Spot":0.0,"SideOfStreet":"left","CountryId":"20000001","StateId":"20057204","CountyId":"20038936","CityId":"20078097"}}},{"Relevance":1.0,"Distance":46.7,"MatchLevel":"houseNumber","MatchQuality":{"Country":1.0,"State":1.0,"County":1.0,"City":1.0,"Street":[1.0],"HouseNumber":1.0,"PostalCode":1.0},"MatchType":"interpolated","Location":{"LocationId":"NT_0PERciCuFVlSJ9N74GNbQA_xA","LocationType":"point","DisplayPosition":{"Latitude":49.4232,"Longitude":1.12556},"MapView":{"TopLeft":{"Latitude":49.4243242,"Longitude":1.1238318},"BottomRight":{"Latitude":49.4220758,"Longitude":1.1272882}},"Address":{"Label":"1 Rue Hélène Boucher, 76240 Bonsecours, France","Country":"FRA","State":"Normandie","County":"Seine-Maritime","City":"Bonsecours","Street":"Rue Hélène Boucher","HouseNumber":"1","PostalCode":"76240","AdditionalData":[{"value":"France","key":"CountryName"},{"value":"Normandie","key":"StateName"},{"value":"Seine-Maritime","key":"CountyName"}]},"MapReference":{"ReferenceId":"569950738","Spot":0.59,"SideOfStreet":"right","CountryId":"20000001","StateId":"20057204","CountyId":"20038936","CityId":"20078097","AddressId":"316685661","RoadLinkId":"46255735"}}},{"Relevance":1.0,"Distance":57.2,"MatchLevel":"houseNumber","MatchQuality":{"Country":1.0,"State":1.0,"County":1.0,"City":1.0,"Street":[1.0],"HouseNumber":1.0,"PostalCode":1.0},"MatchType":"interpolated","Location":{"LocationId":"NT_nwuakYnurfctduifwBAoOB_0IE","LocationType":"point","DisplayPosition":{"Latitude":49.42265,"Longitude":1.12402},"MapView":{"TopLeft":{"Latitude":49.4237742,"Longitude":1.1222918},"BottomRight":{"Latitude":49.4215258,"Longitude":1.1257482}},"Address":{"Label":"4B Rue Abbé Godefroy, 76240 Bonsecours, France","Country":"FRA","State":"Normandie","County":"Seine-Maritime","City":"Bonsecours","Street":"Rue Abbé Godefroy","HouseNumber":"4B","PostalCode":"76240","AdditionalData":[{"value":"France","key":"CountryName"},{"value":"Normandie","key":"StateName"},{"value":"Seine-Maritime","key":"CountyName"}]},"MapReference":{"ReferenceId":"57374221","Spot":0.28,"SideOfStreet":"right","CountryId":"20000001","StateId":"20057204","CountyId":"20038936","CityId":"20078097","AddressId":"316811537","RoadLinkId":"47455814"}}},{"Relevance":1.0,"Distance":63.0,"MatchLevel":"street","MatchQuality":{"Country":1.0,"State":1.0,"County":1.0,"City":1.0,"Street":[1.0],"PostalCode":1.0},"Location":{"LocationId":"NT_safdT7eSeTzrwE.yUrlcQD_l_844789087_L","LocationType":"point","DisplayPosition":{"Latitude":49.4235,"Longitude":1.12469},"MapView":{"TopLeft":{"Latitude":49.42368,"Longitude":1.12459},"BottomRight":{"Latitude":49.4235,"Longitude":1.12469}},"Address":{"Label":"D95, 76240 Bonsecours, France","Country":"FRA","State":"Normandie","County":"Seine-Maritime","City":"Bonsecours","Street":"D95","PostalCode":"76240","AdditionalData":[{"value":"France","key":"CountryName"},{"value":"Normandie","key":"StateName"},{"value":"Seine-Maritime","key":"CountyName"}]},"MapReference":{"ReferenceId":"844789087","Spot":0.0,"SideOfStreet":"left","CountryId":"20000001","StateId":"20057204","CountyId":"20038936","CityId":"20078097"}}},{"Relevance":1.0,"Distance":66.6,"MatchLevel":"houseNumber","MatchQuality":{"Country":1.0,"State":1.0,"County":1.0,"City":1.0,"Street":[1.0],"HouseNumber":1.0,"PostalCode":1.0},"MatchType":"interpolated","Location":{"LocationId":"NT_ejEqtAG.ZoF5SPtWQDv49A_3UjQ","LocationType":"point","DisplayPosition":{"Latitude":49.42356,"Longitude":1.12456},"MapView":{"TopLeft":{"Latitude":49.4246842,"Longitude":1.1228318},"BottomRight":{"Latitude":49.4224358,"Longitude":1.1262882}},"Address":{"Label":"75B Route de Paris, 76240 Bonsecours, France","Country":"FRA","State":"Normandie","County":"Seine-Maritime","City":"Bonsecours","Street":"Route de Paris","HouseNumber":"75B","PostalCode":"76240","AdditionalData":[{"value":"France","key":"CountryName"},{"value":"Normandie","key":"StateName"},{"value":"Seine-Maritime","key":"CountyName"}]},"MapReference":{"ReferenceId":"57385748","Spot":0.43,"SideOfStreet":"left","CountryId":"20000001","StateId":"20057204","CountyId":"20038936","CityId":"20078097","AddressId":"571055984","RoadLinkId":"47181528"}}}]}]}}