{"Response":{"MetaInfo":{"Timestamp":"2020-03-28T10:02:13.059+0000","NextPageInformation":"2"},"View":[{"_type":"SearchResultsViewType","ViewId":0,"Result":[{"Relevance":1.0,"Distance":0.0,"Direction":0.0,"MatchLevel":"district","MatchQuality":{"Country":1.0,"State":1.0,"County":1.0,"City":1.0,"District":1.0,"PostalCode":1.0},"Location":{"LocationId":"NT_zyVBYfhQtAXUC2kANFQYdD","LocationType":"point","DisplayPosition":{"Latitude":49.4299544,"Longitude":9.4214477},"MapView":{"TopLeft":{"Latitude":49.43819,"Longitude":9.41105},"BottomRight":{"Latitude":49.4206,"Longitude":9.44333}},"Address":{"Label":"Osterburken, Baden-Württemberg, Deutschland","Country":"DEU","State":"Baden-Württemberg","County":"Neckar-Odenwald-Kreis","City":"Osterburken","District":"Osterburken","PostalCode":"74706","AdditionalData":[{"value":"Deutschland","key":"CountryName"},{"value":"Baden-Württemberg","key":"StateName"},{"value":"Neckar-Odenwald-Kreis","key":"CountyName"}]},"MapReference":{"ReferenceId":"563883118","SideOfStreet":"neither","CountryId":"20147700","StateId":"20171489","CountyId":"20173597","CityId":"20173696","DistrictId":"20173700"}}},{"Relevance":1.0,"Distance":9.6,"MatchLevel":"houseNumber","MatchQuality":{"Country":1.0,"State":1.0,"County":1.0,"City":1.0,"District":1.0,"Street":[1.0],"HouseNumber":1.0,"PostalCode":1.0},"MatchType":"interpolated","Location":{"LocationId":"NT_CyF5LhHw3-i9Rnyf7G7LjC_ygD","LocationType":"point","DisplayPosition":{"Latitude":49.42988,"Longitude":9.42138},"MapView":{"TopLeft":{"Latitude":49.4310042,"Longitude":9.4196515},"BottomRight":{"Latitude":49.4287558,"Longitude":9.4231085}},"Address":{"Label":"Bahnhofstraße 28, 74706 Osterburken, Deutschland","Country":"DEU","State":"Baden-Württemberg","County":"Neckar-Odenwald-Kreis","City":"Osterburken","District":"Osterburken","Street":"Bahnhofstraße","HouseNumber":"28","PostalCode":"74706","AdditionalData":[{"value":"Deutschland","key":"CountryName"},{"value":"Baden-Württemberg","key":"StateName"},{"value":"Neckar-Odenwald-Kreis","key":"CountyName"}]},"MapReference":{"ReferenceId":"1203120962","Spot":0.76,"SideOfStreet":"left","CountryId":"20147700","StateId":"20171489","CountyId":"20173597","CityId":"20173696","DistrictId":"20173700","AddressId":"178654725","RoadLinkId":"516071896"}}},{"Relevance":1.0,"Distance":12.5,"MatchLevel":"houseNumber","MatchQuality":{"Country":1.0,"State":1.0,"County":1.0,"City":1.0,"District":1.0,"Street":[1.0],"HouseNumber":1.0,"PostalCode":1.0},"MatchType":"interpolated","Location":{"LocationId":"NT_CyF5LhHw3-i9Rnyf7G7LjC_yYD","LocationType":"point","DisplayPosition":{"Latitude":49.42997,"Longitude":9.42162},"MapView":{"TopLeft":{"Latitude":49.4310942,"Longitude":9.4198915},"BottomRight":{"Latitude":49.4288458,"Longitude":9.4233485}},"Address":{"Label":"Bahnhofstraße 26, 74706 Osterburken, Deutschland","Country":"DEU","State":"Baden-Württemberg","County":"Neckar-Odenwald-Kreis","City":"Osterburken","District":"Osterburken","Street":"Bahnhofstraße","HouseNumber":"26","PostalCode":"74706","AdditionalData":[{"value":"Deutschland","key":"CountryName"},{"value":"Baden-Württemberg","key":"StateName"},{"value":"Neckar-Odenwald-Kreis","key":"CountyName"}]},"MapReference":{"ReferenceId":"1203120963","Spot":0.29,"SideOfStreet":"left","CountryId":"20147700","StateId":"20171489","CountyId":"20173597","CityId":"20173696","DistrictId":"20173700","AddressId":"179203960","RoadLinkId":"516071897"}}},{"Relevance":1.0,"Distance":34.2,"MatchLevel":"street","MatchQuality":{"Country":1.0,"State":1.0,"County":1.0,"City":1.0,"District":1.0,"Street":[1.0],"PostalCode":1.0},"Location":{"LocationId":"NT_is5xqdbpdMixikg4.Ns3gD_l_540811229_L","LocationType":"point","DisplayPosition":{"Latitude":49.43008,"Longitude":9.42188},"MapView":{"TopLeft":{"Latitude":49.43008,"Longitude":9.42188},"BottomRight":{"Latitude":49.4299,"Longitude":9.42219}},"Address":{"Label":"Bahnhofsplatz, 74706 Osterburken, Deutschland","Country":"DEU","State":"Baden-Württemberg","County":"Neckar-Odenwald-Kreis","City":"Osterburken","District":"Osterburken","Street":"Bahnhofsplatz","PostalCode":"74706","AdditionalData":[{"value":"Deutschland","key":"CountryName"},{"value":"Baden-Württemberg","key":"StateName"},{"value":"Neckar-Odenwald-Kreis","key":"CountyName"}]},"MapReference":{"ReferenceId":"540811229","Spot":1.0,"SideOfStreet":"left","CountryId":"20147700","StateId":"20171489","CountyId":"20173597","CityId":"20173696","DistrictId":"20173700"}}},{"Relevance":1.0,"Distance":42.0,"MatchLevel":"street","MatchQuality":{"Country":1.0,"State":1.0,"County":1.0,"City":1.0,"District":1.0,"Street":[1.0],"PostalCode":1.0},"Location":{"LocationId":"NT_-w4GQ4u1eScSA3OB7T8rCC_l_72712218_R","LocationType":"point","DisplayPosition":{"Latitude":49.42975,"Longitude":9.42096},"MapView":{"TopLeft":{"Latitude":49.42977,"Longitude":9.42061},"BottomRight":{"Latitude":49.42975,"Longitude":9.42096}},"Address":{"Label":"Bahnhofstraße, 74706 Osterburken, Deutschland","Country":"DEU","State":"Baden-Württemberg","County":"Neckar-Odenwald-Kreis","City":"Osterburken","District":"Osterburken","Street":"Bahnhofstraße","PostalCode":"74706","AdditionalData":[{"value":"Deutschland","key":"CountryName"},{"value":"Baden-Württemberg","key":"StateName"},{"value":"Neckar-Odenwald-Kreis","key":"CountyName"}]},"MapReference":{"ReferenceId":"72712218","Spot":0.0,"SideOfStreet":"right","CountryId":"20147700","StateId":"20171489","CountyId":"20173597","CityId":"20173696","DistrictId":"20173700"}}},{"Relevance":1.0,"Distance":49.7,"MatchLevel":"street","MatchQuality":{"Country":1.0,"State":1.0,"County":1.0,"City":1.0,"District":1.0,"Street":[1.0],"PostalCode":1.0},"Location":{"LocationId":"NT_ZoU6.tpqY1-8JvkGJRvT7B_l_1203120960_R","LocationType":"point","DisplayPosition":{"Latitude":49.43006,"Longitude":9.42078},"MapView":{"TopLeft":{"Latitude":49.43006,"Longitude":9.42061},"BottomRight":{"Latitude":49.42977,"Longitude":9.42078}},"Address":{"Label":"Turmstraße, 74706 Osterburken, Deutschland","Country":"DEU","State":"Baden-Württemberg","County":"Neckar-Odenwald-Kreis","City":"Osterburken","District":"Osterburken","Street":"Turmstraße","PostalCode":"74706","AdditionalData":[{"value":"Deutschland","key":"CountryName"},{"value":"Baden-Württemberg","key":"StateName"},{"value":"Neckar-Odenwald-Kreis","key":"CountyName"}]},"MapReference":{"ReferenceId":"1203120960","Spot":1.0,"SideOfStreet":"right","CountryId":"20147700","StateId":"20171489","CountyId":"20173597","CityId":"20173696","DistrictId":"20173700"}}},{"Relevance":1.0,"Distance":53.2,"MatchLevel":"street","MatchQuality":{"Country":1.0,"State":1.0,"County":1.0,"City":1.0,"District":1.0,"Street":[1.0],"PostalCode":1.0},"Location":{"LocationId":"NT_ZoU6.tpqY1-8JvkGJRvT7B_l_1203120961_R","LocationType":"point","DisplayPosition":{"Latitude":49.4303786,"Longitude":9.4211083},"MapView":{"TopLeft":{"Latitude":49.43065,"Longitude":9.42078},"BottomRight":{"Latitude":49.43006,"Longitude":9.42159}},"Address":{"Label":"Turmstraße, 74706 Osterburken, Deutschland","Country":"DEU","State":"Baden-Württemberg","County":"Neckar-Odenwald-Kreis","City":"Osterburken","District":"Osterburken","Street":"Turmstraße","PostalCode":"74706","AdditionalData":[{"value":"Deutschland","key":"CountryName"},{"value":"Baden-Württemberg","key":"StateName"},{"value":"Neckar-Odenwald-Kreis","key":"CountyName"}]},"MapReference":{"ReferenceId":"1203120961","Spot":0.45,"SideOfStreet":"right","CountryId":"20147700","StateId":"20171489","CountyId":"20173597","CityId":"20173696","DistrictId":"20173700"}}},{"Relevance":1.0,"Distance":60.0,"MatchLevel":"houseNumber","MatchQuality":{"Country":1.0,"State":1.0,"County":1.0,"City":1.0,"District":1.0,"Street":[1.0],"HouseNumber":1.0,"PostalCode":1.0},"MatchType":"interpolated","Location":{"LocationId":"NT_CyF5LhHw3-i9Rnyf7G7LjC_yID","LocationType":"point","DisplayPosition":{"Latitude":49.4302,"Longitude":9.42218},"MapView":{"TopLeft":{"Latitude":49.4313242,"Longitude":9.4204515},"BottomRight":{"Latitude":49.4290758,"Longitude":9.4239085}},"Address":{"Label":"Bahnhofstraße 22, 74706 Osterburken, Deutschland","Country":"DEU","State":"Baden-Württemberg","County":"Neckar-Odenwald-Kreis","City":"Osterburken","District":"Osterburken","Street":"Bahnhofstraße","HouseNumber":"22","PostalCode":"74706","AdditionalData":[{"value":"Deutschland","key":"CountryName"},{"value":"Baden-Württemberg","key":"StateName"},{"value":"Neckar-Odenwald-Kreis","key":"CountyName"}]},"MapReference":{"ReferenceId":"839669813","Spot":0.68,"SideOfStreet":"left","CountryId":"20147700","StateId":"20171489","CountyId":"20173597","CityId":"20173696","DistrictId":"20173700","AddressId":"178652458","RoadLinkId":"221808884"}}},{"Relevance":1.0,"Distance":73.6,"MatchLevel":"houseNumber","MatchQuality":{"Country":1.0,"State":1.0,"County":1.0,"City":1.0,"District":1.0,"Street":[1.0],"HouseNumber":1.0,"PostalCode":1.0},"MatchType":"interpolated","Location":{"LocationId":"NT_MBhQm7RJCWotOOFTvE1vCA_yA","LocationType":"point","DisplayPosition":{"Latitude":49.42981,"Longitude":9.42035},"MapView":{"TopLeft":{"Latitude":49.4309342,"Longitude":9.4186215},"BottomRight":{"Latitude":49.4286858,"Longitude":9.4220785}},"Address":{"Label":"Hemsbacher Straße 2, 74706 Osterburken, Deutschland","Country":"DEU","State":"Baden-Württemberg","County":"Neckar-Odenwald-Kreis","City":"Osterburken","District":"Osterburken","Street":"Hemsbacher Straße","HouseNumber":"2","PostalCode":"74706","AdditionalData":[{"value":"Deutschland","key":"CountryName"},{"value":"Baden-Württemberg","key":"StateName"},{"value":"Neckar-Odenwald-Kreis","key":"CountyName"}]},"MapReference":{"ReferenceId":"1203120964","Spot":0.43,"SideOfStreet":"right","CountryId":"20147700","StateId":"20171489","CountyId":"20173597","CityId":"20173696","DistrictId":"20173700","AddressId":"179107738","RoadLinkId":"516071898"}}},{"Relevance":1.0,"Distance":77.6,"MatchLevel":"houseNumber","MatchQuality":{"Country":1.0,"State":1.0,"County":1.0,"City":1.0,"District":1.0,"Street":[1.0],"HouseNumber":1.0,"PostalCode":1.0},"MatchType":"interpolated","Location":{"LocationId":"NT_sE6kj19UAOSDzLMs8I2vLC_xA","LocationType":"point","DisplayPosition":{"Latitude":49.42953,"Longitude":9.42043},"MapView":{"TopLeft":{"Latitude":49.4306542,"Longitude":9.4187016},"BottomRight":{"Latitude":49.4284058,"Longitude":9.4221584}},"Address":{"Label":"Adelsheimer Straße 1, 74706 Osterburken, Deutschland","Country":"DEU","State":"Baden-Württemberg","County":"Neckar-Odenwald-Kreis","City":"Osterburken","District":"Osterburken","Street":"Adelsheimer Straße","HouseNumber":"1","PostalCode":"74706","AdditionalData":[{"value":"Deutschland","key":"CountryName"},{"value":"Baden-Württemberg","key":"StateName"},{"value":"Neckar-Odenwald-Kreis","key":"CountyName"}]},"MapReference":{"ReferenceId":"1193513564","Spot":0.38,"SideOfStreet":"right","CountryId":"20147700","StateId":"20171489","CountyId":"20173597","CityId":"20173696","DistrictId":"20173700","AddressId":"178850445","RoadLinkId":"503343513"}}}]}]}}