{"Response":{"MetaInfo":{"Timestamp":"2020-03-28T11:43:39.560+0000","NextPageInformation":"2"},"View":[{"_type":"SearchResultsViewType","ViewId":0,"Result":[{"Relevance":1.0,"Distance":0.0,"Direction":0.0,"MatchLevel":"district","MatchQuality":{"Country":1.0,"State":1.0,"County":1.0,"City":1.0,"District":1.0,"PostalCode":1.0},"Location":{"LocationId":"NT_j0-JaPt4t4wXUbeRYk2F3C","LocationType":"point","DisplayPosition":{"Latitude":49.4647035,"Longitude":7.5551158},"MapView":{"TopLeft":{"Latitude":49.46875,"Longitude":7.54534},"BottomRight":{"Latitude":49.45574,"Longitude":7.56754}},"Address":{"Label":"Miesenbach, Ramstein-Miesenbach, Rheinland-Pfalz, Deutschland","Country":"DEU","State":"Rheinland-Pfalz","County":"Kaiserslautern (Landkreis)","City":"Ramstein-Miesenbach","District":"Miesenbach","PostalCode":"66877","AdditionalData":[{"value":"Deutschland","key":"CountryName"},{"value":"Rheinland-Pfalz","key":"StateName"},{"value":"Kaiserslautern (Landkreis)","key":"CountyName"}]},"MapReference":{"ReferenceId":"550044674","SideOfStreet":"neither","CountryId":"20147700","StateId":"20164001","CountyId":"20170207","CityId":"20170318","DistrictId":"20170320"}}},{"Relevance":1.0,"Distance":6.0,"MatchLevel":"houseNumber","MatchQuality":{"Country":1.0,"State":1.0,"County":1.0,"City":1.0,"District":1.0,"Street":[1.0],"HouseNumber":1.0,"PostalCode":1.0},"MatchType":"interpolated","Location":{"LocationId":"NT_w8h3SdVHR2WRw8Hc5fWk2D_xA","LocationType":"point","DisplayPosition":{"Latitude":49.46467,"Longitude":7.5552},"MapView":{"TopLeft":{"Latitude":49.4657942,"Longitude":7.5534703},"BottomRight":{"Latitude":49.4635458,"Longitude":7.5569297}},"Address":{"Label":"Kottweiler Straße 1, 66877 Ramstein-Miesenbach, Deutschland","Country":"DEU","State":"Rheinland-Pfalz","County":"Kaiserslautern (Landkreis)","City":"Ramstein-Miesenbach","District":"Miesenbach","Street":"Kottweiler Straße","HouseNumber":"1","PostalCode":"66877","AdditionalData":[{"value":"Deutschland","key":"CountryName"},{"value":"Rheinland-Pfalz","key":"StateName"},{"value":"Kaiserslautern (Landkreis)","key":"CountyName"}]},"MapReference":{"ReferenceId":"1221163929","Spot":0.19,"SideOfStreet":"left","CountryId":"20147700","StateId":"20164001","CountyId":"20170207","CityId":"20170318","DistrictId":"20170320","AddressId":"188670842","RoadLinkId":"538506191"}}},{"Relevance":1.0,"Distance":14.2,"MatchLevel":"street","MatchQuality":{"Country":1.0,"State":1.0,"County":1.0,"City":1.0,"District":1.0,"Street":[1.0],"PostalCode":1.0},"Location":{"LocationId":"NT_u6J1KKAM0VeIHjInBu1rqC_l_1207957514_L","LocationType":"point","DisplayPosition":{"Latitude":49.46461,"Longitude":7.55525},"MapView":{"TopLeft":{"Latitude":49.46461,"Longitude":7.55525},"BottomRight":{"Latitude":49.4645,"Longitude":7.55532}},"Address":{"Label":"Kottweiler Straße, 66877 Ramstein-Miesenbach, Deutschland","Country":"DEU","State":"Rheinland-Pfalz","County":"Kaiserslautern (Landkreis)","City":"Ramstein-Miesenbach","District":"Miesenbach","Street":"Kottweiler Straße","PostalCode":"66877","AdditionalData":[{"value":"Deutschland","key":"CountryName"},{"value":"Rheinland-Pfalz","key":"StateName"},{"value":"Kaiserslautern (Landkreis)","key":"CountyName"}]},"MapReference":{"ReferenceId":"1207957514","Spot":1.0,"SideOfStreet":"left","CountryId":"20147700","StateId":"20164001","CountyId":"20170207","CityId":"20170318","DistrictId":"20170320"}}},{"Relevance":1.0,"Distance":27.0,"MatchLevel":"street","MatchQuality":{"Country":1.0,"State":1.0,"County":1.0,"City":1.0,"District":1.0,"Street":[1.0],"PostalCode":1.0},"Location":{"LocationId":"NT_LMqshYyWaMz-jADrIpk.sD_l_897297623_L","LocationType":"point","DisplayPosition":{"Latitude":49.4645,"Longitude":7.55532},"MapView":{"TopLeft":{"Latitude":49.4646,"Longitude":7.55532},"BottomRight":{"Latitude":49.4645,"Longitude":7.55551}},"Address":{"Label":"Mackenbacher Straße, 66877 Ramstein-Miesenbach, Deutschland","Country":"DEU","State":"Rheinland-Pfalz","County":"Kaiserslautern (Landkreis)","City":"Ramstein-Miesenbach","District":"Miesenbach","Street":"Mackenbacher Straße","PostalCode":"66877","AdditionalData":[{"value":"Deutschland","key":"CountryName"},{"value":"Rheinland-Pfalz","key":"StateName"},{"value":"Kaiserslautern (Landkreis)","key":"CountyName"}]},"MapReference":{"ReferenceId":"897297623","Spot":0.0,"SideOfStreet":"left","CountryId":"20147700","StateId":"20164001","CountyId":"20170207","CityId":"20170318","DistrictId":"20170320"}}},{"Relevance":1.0,"Distance":35.3,"MatchLevel":"houseNumber","MatchQuality":{"Country":1.0,"State":1.0,"County":1.0,"City":1.0,"District":1.0,"Street":[1.0],"HouseNumber":1.0,"PostalCode":1.0},"MatchType":"interpolated","Location":{"LocationId":"NT_D4c.tiVbXIvJTgqvPnslRB_yA","LocationType":"point","DisplayPosition":{"Latitude":49.46441,"Longitude":7.55534},"MapView":{"TopLeft":{"Latitude":49.4655342,"Longitude":7.5536103},"BottomRight":{"Latitude":49.4632858,"Longitude":7.5570697}},"Address":{"Label":"Hauptstraße 2, 66877 Ramstein-Miesenbach, Deutschland","Country":"DEU","State":"Rheinland-Pfalz","County":"Kaiserslautern (Landkreis)","City":"Ramstein-Miesenbach","District":"Miesenbach","Street":"Hauptstraße","HouseNumber":"2","PostalCode":"66877","AdditionalData":[{"value":"Deutschland","key":"CountryName"},{"value":"Rheinland-Pfalz","key":"StateName"},{"value":"Kaiserslautern (Landkreis)","key":"CountyName"}]},"MapReference":{"ReferenceId":"550044674","Spot":0.83,"SideOfStreet":"left","CountryId":"20147700","StateId":"20164001","CountyId":"20170207","CityId":"20170318","DistrictId":"20170320","AddressId":"187944757","RoadLinkId":"34784899"}}},{"Relevance":1.0,"Distance":38.8,"MatchLevel":"houseNumber","MatchQuality":{"Country":1.0,"State":1.0,"County":1.0,"City":1.0,"District":1.0,"Street":[1.0],"HouseNumber":1.0,"PostalCode":1.0},"MatchType":"interpolated","Location":{"LocationId":"NT_LMqshYyWaMz-jADrIpk.sD_yEE","LocationType":"point","DisplayPosition":{"Latitude":49.46467,"Longitude":7.55565},"MapView":{"TopLeft":{"Latitude":49.4657942,"Longitude":7.5539203},"BottomRight":{"Latitude":49.4635458,"Longitude":7.5573797}},"Address":{"Label":"Mackenbacher Straße 2A, 66877 Ramstein-Miesenbach, Deutschland","Country":"DEU","State":"Rheinland-Pfalz","County":"Kaiserslautern (Landkreis)","City":"Ramstein-Miesenbach","District":"Miesenbach","Street":"Mackenbacher Straße","HouseNumber":"2A","PostalCode":"66877","AdditionalData":[{"value":"Deutschland","key":"CountryName"},{"value":"Rheinland-Pfalz","key":"StateName"},{"value":"Kaiserslautern (Landkreis)","key":"CountyName"}]},"MapReference":{"ReferenceId":"897297624","Spot":0.35,"SideOfStreet":"right","CountryId":"20147700","StateId":"20164001","CountyId":"20170207","CityId":"20170318","DistrictId":"20170320","AddressId":"188206734","RoadLinkId":"259429868"}}},{"Relevance":1.0,"Distance":47.8,"MatchLevel":"houseNumber","MatchQuality":{"Country":1.0,"State":1.0,"County":1.0,"City":1.0,"District":1.0,"Street":[1.0],"HouseNumber":1.0,"PostalCode":1.0},"MatchType":"interpolated","Location":{"LocationId":"NT_w8h3SdVHR2WRw8Hc5fWk2D_1A","LocationType":"point","DisplayPosition":{"Latitude":49.46511,"Longitude":7.5549},"MapView":{"TopLeft":{"Latitude":49.4662342,"Longitude":7.5531703},"BottomRight":{"Latitude":49.4639858,"Longitude":7.5566297}},"Address":{"Label":"Kottweiler Straße 5, 66877 Ramstein-Miesenbach, Deutschland","Country":"DEU","State":"Rheinland-Pfalz","County":"Kaiserslautern (Landkreis)","City":"Ramstein-Miesenbach","District":"Miesenbach","Street":"Kottweiler Straße","HouseNumber":"5","PostalCode":"66877","AdditionalData":[{"value":"Deutschland","key":"CountryName"},{"value":"Rheinland-Pfalz","key":"StateName"},{"value":"Kaiserslautern (Landkreis)","key":"CountyName"}]},"MapReference":{"ReferenceId":"1221163930","Spot":0.87,"SideOfStreet":"left","CountryId":"20147700","StateId":"20164001","CountyId":"20170207","CityId":"20170318","DistrictId":"20170320","AddressId":"188456367","RoadLinkId":"538506192"}}},{"Relevance":1.0,"Distance":50.4,"MatchLevel":"street","MatchQuality":{"Country":1.0,"State":1.0,"County":1.0,"City":1.0,"District":1.0,"Street":[1.0],"PostalCode":1.0},"Location":{"LocationId":"NT_u6J1KKAM0VeIHjInBu1rqC_l_833387803_R","LocationType":"point","DisplayPosition":{"Latitude":49.46513,"Longitude":7.55488},"MapView":{"TopLeft":{"Latitude":49.46519,"Longitude":7.55484},"BottomRight":{"Latitude":49.46513,"Longitude":7.55488}},"Address":{"Label":"Kottweiler Straße, 66877 Ramstein-Miesenbach, Deutschland","Country":"DEU","State":"Rheinland-Pfalz","County":"Kaiserslautern (Landkreis)","City":"Ramstein-Miesenbach","District":"Miesenbach","Street":"Kottweiler Straße","PostalCode":"66877","AdditionalData":[{"value":"Deutschland","key":"CountryName"},{"value":"Rheinland-Pfalz","key":"StateName"},{"value":"Kaiserslautern (Landkreis)","key":"CountyName"}]},"MapReference":{"ReferenceId":"833387803","Spot":0.0,"SideOfStreet":"right","CountryId":"20147700","StateId":"20164001","CountyId":"20170207","CityId":"20170318","DistrictId":"20170320"}}},{"Relevance":1.0,"Distance":69.0,"MatchLevel":"houseNumber","MatchQuality":{"Country":1.0,"State":1.0,"County":1.0,"City":1.0,"District":1.0,"Street":[1.0],"HouseNumber":1.0,"PostalCode":1.0},"MatchType":"interpolated","Location":{"LocationId":"NT_zVr4bR-iCA2aoGTb4opXMC_zEE","LocationType":"point","DisplayPosition":{"Latitude":49.4653,"Longitude":7.55538},"MapView":{"TopLeft":{"Latitude":49.4664242,"Longitude":7.5536503},"BottomRight":{"Latitude":49.4641758,"Longitude":7.5571097}},"Address":{"Label":"Am Marktplatz 3A, 66877 Ramstein-Miesenbach, Deutschland","Country":"DEU","State":"Rheinland-Pfalz","County":"Kaiserslautern (Landkreis)","City":"Ramstein-Miesenbach","District":"Miesenbach","Street":"Am Marktplatz","HouseNumber":"3A","PostalCode":"66877","AdditionalData":[{"value":"Deutschland","key":"CountryName"},{"value":"Rheinland-Pfalz","key":"StateName"},{"value":"Kaiserslautern (Landkreis)","key":"CountyName"}]},"MapReference":{"ReferenceId":"548147580","Spot":0.39,"SideOfStreet":"left","CountryId":"20147700","StateId":"20164001","CountyId":"20170207","CityId":"20170318","DistrictId":"20170320","AddressId":"188184818","RoadLinkId":"34456793"}}},{"Relevance":1.0,"Distance":83.9,"MatchLevel":"houseNumber","MatchQuality":{"Country":1.0,"State":1.0,"County":1.0,"City":1.0,"District":1.0,"Street":[1.0],"HouseNumber":1.0,"PostalCode":1.0},"MatchType":"interpolated","Location":{"LocationId":"NT_w8h3SdVHR2WRw8Hc5fWk2D_0A","LocationType":"point","DisplayPosition":{"Latitude":49.46542,"Longitude":7.55474},"MapView":{"TopLeft":{"Latitude":49.4665442,"Longitude":7.5530103},"BottomRight":{"Latitude":49.4642958,"Longitude":7.5564697}},"Address":{"Label":"Kottweiler Straße 4, 66877 Ramstein-Miesenbach, Deutschland","Country":"DEU","State":"Rheinland-Pfalz","County":"Kaiserslautern (Landkreis)","City":"Ramstein-Miesenbach","District":"Miesenbach","Street":"Kottweiler Straße","HouseNumber":"4","PostalCode":"66877","AdditionalData":[{"value":"Deutschland","key":"CountryName"},{"value":"Rheinland-Pfalz","key":"StateName"},{"value":"Kaiserslautern (Landkreis)","key":"CountyName"}]},"MapReference":{"ReferenceId":"833387804","Spot":0.11,"SideOfStreet":"right","CountryId":"20147700","StateId":"20164001","CountyId":"20170207","CityId":"20170318","DistrictId":"20170320","AddressId":"188305875","RoadLinkId":"216691313"}}}]}]}}