{"Response":{"MetaInfo":{"Timestamp":"2020-03-28T10:30:47.929+0000","NextPageInformation":"2"},"View":[{"_type":"SearchResultsViewType","ViewId":0,"Result":[{"Relevance":1.0,"Distance":-1259.4,"MatchLevel":"landmark","MatchQuality":{"Country":1.0,"State":1.0,"Name":1.0},"Location":{"LocationId":"NT_6su2l00beSlXwUlYRySHIB","LocationType":"park","Name":"P.N.R. Boucles de la Seine Normande","DisplayPosition":{"Latitude":49.47633,"Longitude":0.77841},"MapView":{"TopLeft":{"Latitude":49.63447,"Longitude":0.30373},"BottomRight":{"Latitude":49.31818,"Longitude":1.05186}},"Address":{"Label":"France","Country":"FRA","State":"Normandie","AdditionalData":[{"value":"France","key":"CountryName"},{"value":"Normandie","key":"StateName"}]},"MapReference":{"CountryId":"20000001","StateId":"20057204","PlaceId":"1512262610"}}},{"Relevance":1.0,"Distance":0.0,"Direction":0.0,"MatchLevel":"city","MatchQuality":{"Country":1.0,"State":1.0,"County":1.0,"City":1.0,"PostalCode":1.0},"Location":{"LocationId":"NT_.emfWxeqYdlVOHkM4vD1EC","LocationType":"point","DisplayPosition":{"Latitude":49.4832353,"Longitude":0.8750913},"MapView":{"TopLeft":{"Latitude":49.51056,"Longitude":0.84448},"BottomRight":{"Latitude":49.46147,"Longitude":0.89558}},"Address":{"Label":"Duclair, Normandie, France","Country":"FRA","State":"Normandie","County":"Seine-Maritime","City":"Duclair","PostalCode":"76480","AdditionalData":[{"value":"France","key":"CountryName"},{"value":"Normandie","key":"StateName"},{"value":"Seine-Maritime","key":"CountyName"}]},"MapReference":{"ReferenceId":"553046655","SideOfStreet":"neither","CountryId":"20000001","StateId":"20057204","CountyId":"20038936","CityId":"20078454"}}},{"Relevance":1.0,"Distance":7.2,"MatchLevel":"houseNumber","MatchQuality":{"Country":1.0,"State":1.0,"County":1.0,"City":1.0,"Street":[1.0],"HouseNumber":1.0,"PostalCode":1.0},"MatchType":"interpolated","Location":{"LocationId":"NT_zoe2ufUEY0A-gA0uasHKXD_xID","LocationType":"point","DisplayPosition":{"Latitude":49.48317,"Longitude":0.87503},"MapView":{"TopLeft":{"Latitude":49.4842942,"Longitude":0.8732997},"BottomRight":{"Latitude":49.4820458,"Longitude":0.8767603}},"Address":{"Label":"12 Rue du Marché, 76480 Duclair, France","Country":"FRA","State":"Normandie","County":"Seine-Maritime","City":"Duclair","Street":"Rue du Marché","HouseNumber":"12","PostalCode":"76480","AdditionalData":[{"value":"France","key":"CountryName"},{"value":"Normandie","key":"StateName"},{"value":"Seine-Maritime","key":"CountyName"}]},"MapReference":{"ReferenceId":"542798089","Spot":0.78,"SideOfStreet":"right","CountryId":"20000001","StateId":"20057204","CountyId":"20038936","CityId":"20078454","AddressId":"571017946","RoadLinkId":"47291742"}}},{"Relevance":1.0,"Distance":9.9,"MatchLevel":"houseNumber","MatchQuality":{"Country":1.0,"State":1.0,"County":1.0,"City":1.0,"Street":[1.0],"HouseNumber":1.0,"PostalCode":1.0},"MatchType":"interpolated","Location":{"LocationId":"NT_xOEbPaBBd-oKnAX3Q8TROC_ycDO","LocationType":"point","DisplayPosition":{"Latitude":49.48333,"Longitude":0.87501},"MapView":{"TopLeft":{"Latitude":49.4844542,"Longitude":0.8732797},"BottomRight":{"Latitude":49.4822058,"Longitude":0.8767403}},"Address":{"Label":"278 Rue de Verdun, 76480 Duclair, France","Country":"FRA","State":"Normandie","County":"Seine-Maritime","City":"Duclair","Street":"Rue de Verdun","HouseNumber":"278","PostalCode":"76480","AdditionalData":[{"value":"France","key":"CountryName"},{"value":"Normandie","key":"StateName"},{"value":"Seine-Maritime","key":"CountyName"}]},"MapReference":{"ReferenceId":"542798091","Spot":0.25,"SideOfStreet":"right","CountryId":"20000001","StateId":"20057204","CountyId":"20038936","CityId":"20078454","AddressId":"674161177","RoadLinkId":"46543137"}}},{"Relevance":1.0,"Distance":20.7,"MatchLevel":"houseNumber","MatchQuality":{"Country":1.0,"State":1.0,"County":1.0,"City":1.0,"Street":[1.0],"HouseNumber":1.0,"PostalCode":1.0},"MatchType":"interpolated","Location":{"LocationId":"NT_xOEbPaBBd-oKnAX3Q8TROC_yYDN","LocationType":"point","DisplayPosition":{"Latitude":49.48312,"Longitude":0.87483},"MapView":{"TopLeft":{"Latitude":49.4842442,"Longitude":0.8730997},"BottomRight":{"Latitude":49.4819958,"Longitude":0.8765603}},"Address":{"Label":"264 Rue de Verdun, 76480 Duclair, France","Country":"FRA","State":"Normandie","County":"Seine-Maritime","City":"Duclair","Street":"Rue de Verdun","HouseNumber":"264","PostalCode":"76480","AdditionalData":[{"value":"France","key":"CountryName"},{"value":"Normandie","key":"StateName"},{"value":"Seine-Maritime","key":"CountyName"}]},"MapReference":{"ReferenceId":"553047968","Spot":0.72,"SideOfStreet":"right","CountryId":"20000001","StateId":"20057204","CountyId":"20038936","CityId":"20078454","AddressId":"674156537","RoadLinkId":"47129755"}}},{"Relevance":1.0,"Distance":30.8,"MatchLevel":"houseNumber","MatchQuality":{"Country":1.0,"State":1.0,"County":1.0,"City":1.0,"Street":[1.0],"HouseNumber":1.0,"PostalCode":1.0},"MatchType":"interpolated","Location":{"LocationId":"NT_ZzvCI7Tt71vwPWYzqlQC8A_xgTM","LocationType":"point","DisplayPosition":{"Latitude":49.48282,"Longitude":0.8752},"MapView":{"TopLeft":{"Latitude":49.4839442,"Longitude":0.8734697},"BottomRight":{"Latitude":49.4816958,"Longitude":0.8769303}},"Address":{"Label":"181 Place du Général de Gaulle, 76480 Duclair, France","Country":"FRA","State":"Normandie","County":"Seine-Maritime","City":"Duclair","Street":"Place du Général de Gaulle","HouseNumber":"181","PostalCode":"76480","AdditionalData":[{"value":"France","key":"CountryName"},{"value":"Normandie","key":"StateName"},{"value":"Seine-Maritime","key":"CountyName"}]},"MapReference":{"ReferenceId":"842315313","Spot":0.3,"SideOfStreet":"left","CountryId":"20000001","StateId":"20057204","CountyId":"20038936","CityId":"20078454","AddressId":"316739032","RoadLinkId":"224267165"}}},{"Relevance":1.0,"Distance":36.8,"MatchLevel":"houseNumber","MatchQuality":{"Country":1.0,"State":1.0,"County":1.0,"City":1.0,"Street":[1.0],"HouseNumber":1.0,"PostalCode":1.0},"MatchType":"interpolated","Location":{"LocationId":"NT_qb0tecUXPo1kuFFmgDMjNB_l_553047971_R_xYzM","LocationType":"point","DisplayPosition":{"Latitude":49.4827971,"Longitude":0.8748617},"MapView":{"TopLeft":{"Latitude":49.4839212,"Longitude":0.8731314},"BottomRight":{"Latitude":49.4816729,"Longitude":0.876592}},"Address":{"Label":"163 Rue Neuve, 76480 Duclair, France","Country":"FRA","State":"Normandie","County":"Seine-Maritime","City":"Duclair","Street":"Rue Neuve","HouseNumber":"163","PostalCode":"76480","AdditionalData":[{"value":"France","key":"CountryName"},{"value":"Normandie","key":"StateName"},{"value":"Seine-Maritime","key":"CountyName"}]},"MapReference":{"ReferenceId":"553047971","Spot":0.52,"SideOfStreet":"right","CountryId":"20000001","StateId":"20057204","CountyId":"20038936","CityId":"20078454"}}},{"Relevance":1.0,"Distance":44.1,"MatchLevel":"houseNumber","MatchQuality":{"Country":1.0,"State":1.0,"County":1.0,"City":1.0,"Street":[1.0],"HouseNumber":1.0,"PostalCode":1.0},"MatchType":"interpolated","Location":{"LocationId":"NT_ZzvCI7Tt71vwPWYzqlQC8A_zUD","LocationType":"point","DisplayPosition":{"Latitude":49.48287,"Longitude":0.87533},"MapView":{"TopLeft":{"Latitude":49.4839942,"Longitude":0.8735997},"BottomRight":{"Latitude":49.4817458,"Longitude":0.8770603}},"Address":{"Label":"35 Place du Général de Gaulle, 76480 Duclair, France","Country":"FRA","State":"Normandie","County":"Seine-Maritime","City":"Duclair","Street":"Place du Général de Gaulle","HouseNumber":"35","PostalCode":"76480","AdditionalData":[{"value":"France","key":"CountryName"},{"value":"Normandie","key":"StateName"},{"value":"Seine-Maritime","key":"CountyName"}]},"MapReference":{"ReferenceId":"542798096","Spot":0.86,"SideOfStreet":"right","CountryId":"20000001","StateId":"20057204","CountyId":"20038936","CityId":"20078454","AddressId":"590430274","RoadLinkId":"46767866"}}},{"Relevance":1.0,"Distance":49.5,"MatchLevel":"houseNumber","MatchQuality":{"Country":1.0,"State":1.0,"County":1.0,"City":1.0,"Street":[1.0],"HouseNumber":1.0,"PostalCode":1.0},"MatchType":"interpolated","Location":{"LocationId":"NT_ZzvCI7Tt71vwPWYzqlQC8A_xYzM","LocationType":"point","DisplayPosition":{"Latitude":49.48277,"Longitude":0.87515},"MapView":{"TopLeft":{"Latitude":49.4838942,"Longitude":0.8734197},"BottomRight":{"Latitude":49.4816458,"Longitude":0.8768803}},"Address":{"Label":"163 Place du Général de Gaulle, 76480 Duclair, France","Country":"FRA","State":"Normandie","County":"Seine-Maritime","City":"Duclair","Street":"Place du Général de Gaulle","HouseNumber":"163","PostalCode":"76480","AdditionalData":[{"value":"France","key":"CountryName"},{"value":"Normandie","key":"StateName"},{"value":"Seine-Maritime","key":"CountyName"}]},"MapReference":{"ReferenceId":"842315312","Spot":0.68,"SideOfStreet":"left","CountryId":"20000001","StateId":"20057204","CountyId":"20038936","CityId":"20078454","AddressId":"375592200","RoadLinkId":"224267164"}}},{"Relevance":1.0,"Distance":53.9,"MatchLevel":"houseNumber","MatchQuality":{"Country":1.0,"State":1.0,"County":1.0,"City":1.0,"Street":[1.0],"HouseNumber":1.0,"PostalCode":1.0},"MatchType":"interpolated","Location":{"LocationId":"NT_-b5D8kScOJXXDBu4FZBi2D_5A","LocationType":"point","DisplayPosition":{"Latitude":49.48377,"Longitude":0.87527},"MapView":{"TopLeft":{"Latitude":49.4848942,"Longitude":0.8735396},"BottomRight":{"Latitude":49.4826458,"Longitude":0.8770004}},"Address":{"Label":"9 Rue Louis Pasteur, 76480 Duclair, France","Country":"FRA","State":"Normandie","County":"Seine-Maritime","City":"Duclair","Street":"Rue Louis Pasteur","HouseNumber":"9","PostalCode":"76480","AdditionalData":[{"value":"France","key":"CountryName"},{"value":"Normandie","key":"StateName"},{"value":"Seine-Maritime","key":"CountyName"}]},"MapReference":{"ReferenceId":"542798095","Spot":0.22,"SideOfStreet":"left","CountryId":"20000001","StateId":"20057204","CountyId":"20038936","CityId":"20078454","AddressId":"316686362","RoadLinkId":"47217029"}}}]}]}}