{"Response":{"MetaInfo":{"Timestamp":"2020-03-28T11:10:18.164+0000","NextPageInformation":"2"},"View":[{"_type":"SearchResultsViewType","ViewId":0,"Result":[{"Relevance":1.0,"Distance":0.0,"Direction":0.0,"MatchLevel":"city","MatchQuality":{"Country":1.0,"State":1.0,"County":1.0,"City":1.0,"PostalCode":1.0},"Location":{"LocationId":"NT_mRokkLqHupwl7T08.2Re3D","LocationType":"point","DisplayPosition":{"Latitude":49.4577607,"Longitude":1.0824289},"MapView":{"TopLeft":{"Latitude":49.48372,"Longitude":1.05864},"BottomRight":{"Latitude":49.45063,"Longitude":1.10251}},"Address":{"Label":"Mont-Saint-Aignan, Normandie, France","Country":"FRA","State":"Normandie","County":"Seine-Maritime","City":"Mont-Saint-Aignan","PostalCode":"76130","AdditionalData":[{"value":"France","key":"CountryName"},{"value":"Normandie","key":"StateName"},{"value":"Seine-Maritime","key":"CountyName"}]},"MapReference":{"ReferenceId":"59342797","SideOfStreet":"neither","CountryId":"20000001","StateId":"20057204","CountyId":"20038936","CityId":"20079136"}}},{"Relevance":1.0,"Distance":27.0,"MatchLevel":"street","MatchQuality":{"Country":1.0,"State":1.0,"County":1.0,"City":1.0,"Street":[1.0],"PostalCode":1.0},"Location":{"LocationId":"NT_AHEFgpIeXZmGNepcUvRE3D_l_862473995_L","LocationType":"point","DisplayPosition":{"Latitude":49.4577005,"Longitude":1.0827901},"MapView":{"TopLeft":{"Latitude":49.45812,"Longitude":1.08279},"BottomRight":{"Latitude":49.4577,"Longitude":1.08286}},"Address":{"Label":"Avenue du Mont aux Malades, 76130 Mont-Saint-Aignan, France","Country":"FRA","State":"Normandie","County":"Seine-Maritime","City":"Mont-Saint-Aignan","Street":"Avenue du Mont aux Malades","PostalCode":"76130","AdditionalData":[{"value":"France","key":"CountryName"},{"value":"Normandie","key":"StateName"},{"value":"Seine-Maritime","key":"CountyName"}]},"MapReference":{"ReferenceId":"862473995","Spot":0.0,"SideOfStreet":"left","CountryId":"20000001","StateId":"20057204","CountyId":"20038936","CityId":"20079136"}}},{"Relevance":1.0,"Distance":27.0,"MatchLevel":"street","MatchQuality":{"Country":1.0,"State":1.0,"County":1.0,"City":1.0,"Street":[1.0],"PostalCode":1.0},"Location":{"LocationId":"NT_4CXsBN9acofYEMyyJY282B_l_57380029_L","LocationType":"point","DisplayPosition":{"Latitude":49.4577,"Longitude":1.08279},"MapView":{"TopLeft":{"Latitude":49.4577,"Longitude":1.08268},"BottomRight":{"Latitude":49.45711,"Longitude":1.08279}},"Address":{"Label":"Avenue du Mont aux Malades, 76130 Mont-Saint-Aignan, France","Country":"FRA","State":"Normandie","County":"Seine-Maritime","City":"Mont-Saint-Aignan","Street":"Avenue du Mont aux Malades","PostalCode":"76130","AdditionalData":[{"value":"France","key":"CountryName"},{"value":"Normandie","key":"StateName"},{"value":"Seine-Maritime","key":"CountyName"}]},"MapReference":{"ReferenceId":"57380029","Spot":1.0,"SideOfStreet":"left","CountryId":"20000001","StateId":"20057204","CountyId":"20038936","CityId":"20079136"}}},{"Relevance":1.0,"Distance":46.9,"MatchLevel":"houseNumber","MatchQuality":{"Country":1.0,"State":1.0,"County":1.0,"City":1.0,"Street":[1.0],"HouseNumber":1.0,"PostalCode":1.0},"MatchType":"interpolated","Location":{"LocationId":"NT_EUiStfuUVqlSnJShA2IBTC_zA","LocationType":"point","DisplayPosition":{"Latitude":49.45756,"Longitude":1.083},"MapView":{"TopLeft":{"Latitude":49.4586842,"Longitude":1.0812706},"BottomRight":{"Latitude":49.4564358,"Longitude":1.0847294}},"Address":{"Label":"3 Chemin du Prieuré, 76130 Mont-Saint-Aignan, France","Country":"FRA","State":"Normandie","County":"Seine-Maritime","City":"Mont-Saint-Aignan","Street":"Chemin du Prieuré","HouseNumber":"3","PostalCode":"76130","AdditionalData":[{"value":"France","key":"CountryName"},{"value":"Normandie","key":"StateName"},{"value":"Seine-Maritime","key":"CountyName"}]},"MapReference":{"ReferenceId":"569954920","Spot":0.83,"SideOfStreet":"right","CountryId":"20000001","StateId":"20057204","CountyId":"20038936","CityId":"20079136","AddressId":"571112651","RoadLinkId":"47898273"}}},{"Relevance":1.0,"Distance":49.8,"MatchLevel":"street","MatchQuality":{"Country":1.0,"State":1.0,"County":1.0,"City":1.0,"Street":[1.0],"PostalCode":1.0},"Location":{"LocationId":"NT_EUiStfuUVqlSnJShA2IBTC_l_569954919_L","LocationType":"point","DisplayPosition":{"Latitude":49.45802,"Longitude":1.08299},"MapView":{"TopLeft":{"Latitude":49.45851,"Longitude":1.08299},"BottomRight":{"Latitude":49.45802,"Longitude":1.08327}},"Address":{"Label":"Chemin du Prieuré, 76130 Mont-Saint-Aignan, France","Country":"FRA","State":"Normandie","County":"Seine-Maritime","City":"Mont-Saint-Aignan","Street":"Chemin du Prieuré","PostalCode":"76130","AdditionalData":[{"value":"France","key":"CountryName"},{"value":"Normandie","key":"StateName"},{"value":"Seine-Maritime","key":"CountyName"}]},"MapReference":{"ReferenceId":"569954919","Spot":0.0,"SideOfStreet":"left","CountryId":"20000001","StateId":"20057204","CountyId":"20038936","CityId":"20079136"}}},{"Relevance":1.0,"Distance":50.7,"MatchLevel":"street","MatchQuality":{"Country":1.0,"State":1.0,"County":1.0,"City":1.0,"Street":[1.0],"PostalCode":1.0},"Location":{"LocationId":"NT_AHEFgpIeXZmGNepcUvRE3D_l_862473996_L","LocationType":"point","DisplayPosition":{"Latitude":49.45812,"Longitude":1.08286},"MapView":{"TopLeft":{"Latitude":49.45851,"Longitude":1.08286},"BottomRight":{"Latitude":49.45812,"Longitude":1.08291}},"Address":{"Label":"Avenue du Mont aux Malades, 76130 Mont-Saint-Aignan, France","Country":"FRA","State":"Normandie","County":"Seine-Maritime","City":"Mont-Saint-Aignan","Street":"Avenue du Mont aux Malades","PostalCode":"76130","AdditionalData":[{"value":"France","key":"CountryName"},{"value":"Normandie","key":"StateName"},{"value":"Seine-Maritime","key":"CountyName"}]},"MapReference":{"ReferenceId":"862473996","Spot":0.0,"SideOfStreet":"left","CountryId":"20000001","StateId":"20057204","CountyId":"20038936","CityId":"20079136"}}},{"Relevance":1.0,"Distance":72.3,"MatchLevel":"houseNumber","MatchQuality":{"Country":1.0,"State":1.0,"County":1.0,"City":1.0,"Street":[1.0],"HouseNumber":1.0,"PostalCode":1.0},"MatchType":"interpolated","Location":{"LocationId":"NT_6ehvK-L4PG2BWHPpXOguWC_0A","LocationType":"point","DisplayPosition":{"Latitude":49.45702,"Longitude":1.08211},"MapView":{"TopLeft":{"Latitude":49.4581442,"Longitude":1.0803806},"BottomRight":{"Latitude":49.4558958,"Longitude":1.0838394}},"Address":{"Label":"4 Rue Foubert, 76130 Mont-Saint-Aignan, France","Country":"FRA","State":"Normandie","County":"Seine-Maritime","City":"Mont-Saint-Aignan","Street":"Rue Foubert","HouseNumber":"4","PostalCode":"76130","AdditionalData":[{"value":"France","key":"CountryName"},{"value":"Normandie","key":"StateName"},{"value":"Seine-Maritime","key":"CountyName"}]},"MapReference":{"ReferenceId":"57369998","Spot":0.6,"SideOfStreet":"left","CountryId":"20000001","StateId":"20057204","CountyId":"20038936","CityId":"20079136","AddressId":"316696368","RoadLinkId":"47237649"}}},{"Relevance":1.0,"Distance":90.3,"MatchLevel":"street","MatchQuality":{"Country":1.0,"State":1.0,"County":1.0,"City":1.0,"Street":[1.0],"PostalCode":1.0},"Location":{"LocationId":"NT_4CXsBN9acofYEMyyJY282B_l_1221238671_L","LocationType":"point","DisplayPosition":{"Latitude":49.45851,"Longitude":1.08291},"MapView":{"TopLeft":{"Latitude":49.45873,"Longitude":1.0829},"BottomRight":{"Latitude":49.45851,"Longitude":1.08291}},"Address":{"Label":"Avenue du Mont aux Malades, 76130 Mont-Saint-Aignan, France","Country":"FRA","State":"Normandie","County":"Seine-Maritime","City":"Mont-Saint-Aignan","Street":"Avenue du Mont aux Malades","PostalCode":"76130","AdditionalData":[{"value":"France","key":"CountryName"},{"value":"Normandie","key":"StateName"},{"value":"Seine-Maritime","key":"CountyName"}]},"MapReference":{"ReferenceId":"1221238671","Spot":0.0,"SideOfStreet":"left","CountryId":"20000001","StateId":"20057204","CountyId":"20038936","CityId":"20079136"}}},{"Relevance":1.0,"Distance":90.3,"MatchLevel":"street","MatchQuality":{"Country":1.0,"State":1.0,"County":1.0,"City":1.0,"Street":[1.0],"PostalCode":1.0},"Location":{"LocationId":"NT_zOA1krTDHsIm3gSkGkkQbC_l_57386043_R","LocationType":"point","DisplayPosition":{"Latitude":49.45851,"Longitude":1.08291},"MapView":{"TopLeft":{"Latitude":49.45851,"Longitude":1.08291},"BottomRight":{"Latitude":49.45851,"Longitude":1.08319}},"Address":{"Label":"Rue de Verdun, 76130 Mont-Saint-Aignan, France","Country":"FRA","State":"Normandie","County":"Seine-Maritime","City":"Mont-Saint-Aignan","Street":"Rue de Verdun","PostalCode":"76130","AdditionalData":[{"value":"France","key":"CountryName"},{"value":"Normandie","key":"StateName"},{"value":"Seine-Maritime","key":"CountyName"}]},"MapReference":{"ReferenceId":"57386043","Spot":0.0,"SideOfStreet":"right","CountryId":"20000001","StateId":"20057204","CountyId":"20038936","CityId":"20079136"}}},{"Relevance":1.0,"Distance":94.8,"MatchLevel":"houseNumber","MatchQuality":{"Country":1.0,"State":1.0,"County":1.0,"City":1.0,"Street":[1.0],"HouseNumber":1.0,"PostalCode":1.0},"MatchType":"interpolated","Location":{"LocationId":"NT_4CXsBN9acofYEMyyJY282B_yQD","LocationType":"point","DisplayPosition":{"Latitude":49.45689,"Longitude":1.0826},"MapView":{"TopLeft":{"Latitude":49.4580142,"Longitude":1.0808706},"BottomRight":{"Latitude":49.4557658,"Longitude":1.0843294}},"Address":{"Label":"24 Avenue du Mont aux Malades, 76130 Mont-Saint-Aignan, France","Country":"FRA","State":"Normandie","County":"Seine-Maritime","City":"Mont-Saint-Aignan","Street":"Avenue du Mont aux Malades","HouseNumber":"24","PostalCode":"76130","AdditionalData":[{"value":"France","key":"CountryName"},{"value":"Normandie","key":"StateName"},{"value":"Seine-Maritime","key":"CountyName"}]},"MapReference":{"ReferenceId":"1221374780","Spot":0.15,"SideOfStreet":"left","CountryId":"20000001","StateId":"20057204","CountyId":"20038936","CityId":"20079136","AddressId":"570984970","RoadLinkId":"538768586"}}}]}]}}