{"Response":{"MetaInfo":{"Timestamp":"2020-03-28T10:20:25.261+0000","NextPageInformation":"2"},"View":[{"_type":"SearchResultsViewType","ViewId":0,"Result":[{"Relevance":1.0,"Distance":0.0,"Direction":0.0,"MatchLevel":"district","MatchQuality":{"Country":1.0,"State":1.0,"County":1.0,"City":1.0,"District":1.0,"PostalCode":1.0},"Location":{"LocationId":"NT_BVJSu52XVXVK29stXY0Q-D","LocationType":"point","DisplayPosition":{"Latitude":49.4218372,"Longitude":10.8536378},"MapView":{"TopLeft":{"Latitude":49.42599,"Longitude":10.83816},"BottomRight":{"Latitude":49.41894,"Longitude":10.86157}},"Address":{"Label":"Ammerndorf, Bayern, Deutschland","Country":"DEU","State":"Bayern","County":"Fürth (Landkreis)","City":"Ammerndorf","District":"Ammerndorf","PostalCode":"90614","AdditionalData":[{"value":"Deutschland","key":"CountryName"},{"value":"Bayern","key":"StateName"},{"value":"Fürth (Landkreis)","key":"CountyName"}]},"MapReference":{"ReferenceId":"52972896","SideOfStreet":"neither","CountryId":"20147700","StateId":"20177250","CountyId":"20183358","CityId":"20183359","DistrictId":"20183361"}}},{"Relevance":1.0,"Distance":3.3,"MatchLevel":"street","MatchQuality":{"Country":1.0,"State":1.0,"County":1.0,"City":1.0,"District":1.0,"Street":[1.0],"PostalCode":1.0},"Location":{"LocationId":"NT_Qz6gYuk2PQWP-WHiotw93D_l_1092446667_L","LocationType":"point","DisplayPosition":{"Latitude":49.4218105,"Longitude":10.8536193},"MapView":{"TopLeft":{"Latitude":49.42201,"Longitude":10.85346},"BottomRight":{"Latitude":49.42181,"Longitude":10.85362}},"Address":{"Label":"Bahnhofsplatz, 90614 Ammerndorf, Deutschland","Country":"DEU","State":"Bayern","County":"Fürth (Landkreis)","City":"Ammerndorf","District":"Ammerndorf","Street":"Bahnhofsplatz","PostalCode":"90614","AdditionalData":[{"value":"Deutschland","key":"CountryName"},{"value":"Bayern","key":"StateName"},{"value":"Fürth (Landkreis)","key":"CountyName"}]},"MapReference":{"ReferenceId":"1092446667","Spot":0.0,"SideOfStreet":"neither","CountryId":"20147700","StateId":"20177250","CountyId":"20183358","CityId":"20183359","DistrictId":"20183361"}}},{"Relevance":1.0,"Distance":11.1,"MatchLevel":"houseNumber","MatchQuality":{"Country":1.0,"State":1.0,"County":1.0,"City":1.0,"District":1.0,"Street":[1.0],"HouseNumber":1.0,"PostalCode":1.0},"MatchType":"interpolated","Location":{"LocationId":"NT_Qz6gYuk2PQWP-WHiotw93D_yA","LocationType":"point","DisplayPosition":{"Latitude":49.4218,"Longitude":10.85378},"MapView":{"TopLeft":{"Latitude":49.4229242,"Longitude":10.8520518},"BottomRight":{"Latitude":49.4206758,"Longitude":10.8555082}},"Address":{"Label":"Bahnhofsplatz 2, 90614 Ammerndorf, Deutschland","Country":"DEU","State":"Bayern","County":"Fürth (Landkreis)","City":"Ammerndorf","District":"Ammerndorf","Street":"Bahnhofsplatz","HouseNumber":"2","PostalCode":"90614","AdditionalData":[{"value":"Deutschland","key":"CountryName"},{"value":"Bayern","key":"StateName"},{"value":"Fürth (Landkreis)","key":"CountyName"}]},"MapReference":{"ReferenceId":"547298964","Spot":0.75,"SideOfStreet":"left","CountryId":"20147700","StateId":"20177250","CountyId":"20183358","CityId":"20183359","DistrictId":"20183361","AddressId":"184873600","RoadLinkId":"33278055"}}},{"Relevance":1.0,"Distance":17.4,"MatchLevel":"street","MatchQuality":{"Country":1.0,"State":1.0,"County":1.0,"City":1.0,"District":1.0,"PostalCode":1.0},"Location":{"LocationId":"NT_yh8-bBj4N37Zp3YD90NQKC_l_1242901622_L","LocationType":"point","DisplayPosition":{"Latitude":49.4219934,"Longitude":10.8536514},"MapView":{"TopLeft":{"Latitude":49.42207,"Longitude":10.85346},"BottomRight":{"Latitude":49.42199,"Longitude":10.85489}},"Address":{"Label":"90614 Ammerndorf, Deutschland","Country":"DEU","State":"Bayern","County":"Fürth (Landkreis)","City":"Ammerndorf","District":"Ammerndorf","PostalCode":"90614","AdditionalData":[{"value":"Deutschland","key":"CountryName"},{"value":"Bayern","key":"StateName"},{"value":"Fürth (Landkreis)","key":"CountyName"}]},"MapReference":{"ReferenceId":"1242901622","Spot":0.87,"SideOfStreet":"left","CountryId":"20147700","StateId":"20177250","CountyId":"20183358","CityId":"20183359","DistrictId":"20183361"}}},{"Relevance":1.0,"Distance":23.1,"MatchLevel":"street","MatchQuality":{"Country":1.0,"State":1.0,"County":1.0,"City":1.0,"District":1.0,"Street":[1.0],"PostalCode":1.0},"Location":{"LocationId":"NT_Qz6gYuk2PQWP-WHiotw93D_l_1092446668_L","LocationType":"point","DisplayPosition":{"Latitude":49.42201,"Longitude":10.85346},"MapView":{"TopLeft":{"Latitude":49.42205,"Longitude":10.8531},"BottomRight":{"Latitude":49.42201,"Longitude":10.85346}},"Address":{"Label":"Bahnhofsplatz, 90614 Ammerndorf, Deutschland","Country":"DEU","State":"Bayern","County":"Fürth (Landkreis)","City":"Ammerndorf","District":"Ammerndorf","Street":"Bahnhofsplatz","PostalCode":"90614","AdditionalData":[{"value":"Deutschland","key":"CountryName"},{"value":"Bayern","key":"StateName"},{"value":"Fürth (Landkreis)","key":"CountyName"}]},"MapReference":{"ReferenceId":"1092446668","Spot":0.0,"SideOfStreet":"left","CountryId":"20147700","StateId":"20177250","CountyId":"20183358","CityId":"20183359","DistrictId":"20183361"}}},{"Relevance":1.0,"Distance":27.0,"MatchLevel":"houseNumber","MatchQuality":{"Country":1.0,"State":1.0,"County":1.0,"City":1.0,"District":1.0,"Street":[1.0],"HouseNumber":1.0,"PostalCode":1.0},"MatchType":"interpolated","Location":{"LocationId":"NT_Qz6gYuk2PQWP-WHiotw93D_zA","LocationType":"point","DisplayPosition":{"Latitude":49.4217,"Longitude":10.85333},"MapView":{"TopLeft":{"Latitude":49.4228242,"Longitude":10.8516018},"BottomRight":{"Latitude":49.4205758,"Longitude":10.8550582}},"Address":{"Label":"Bahnhofsplatz 3, 90614 Ammerndorf, Deutschland","Country":"DEU","State":"Bayern","County":"Fürth (Landkreis)","City":"Ammerndorf","District":"Ammerndorf","Street":"Bahnhofsplatz","HouseNumber":"3","PostalCode":"90614","AdditionalData":[{"value":"Deutschland","key":"CountryName"},{"value":"Bayern","key":"StateName"},{"value":"Fürth (Landkreis)","key":"CountyName"}]},"MapReference":{"ReferenceId":"974616118","Spot":0.34,"SideOfStreet":"left","CountryId":"20147700","StateId":"20177250","CountyId":"20183358","CityId":"20183359","DistrictId":"20183361","AddressId":"183769307","RoadLinkId":"310198120"}}},{"Relevance":1.0,"Distance":32.7,"MatchLevel":"houseNumber","MatchQuality":{"Country":1.0,"State":1.0,"County":1.0,"City":1.0,"District":1.0,"Street":[1.0],"HouseNumber":1.0,"PostalCode":1.0},"MatchType":"interpolated","Location":{"LocationId":"NT_24B2BSPAeB4M6NszdhTjtD_0A","LocationType":"point","DisplayPosition":{"Latitude":49.42218,"Longitude":10.85313},"MapView":{"TopLeft":{"Latitude":49.4233042,"Longitude":10.8514018},"BottomRight":{"Latitude":49.4210558,"Longitude":10.8548582}},"Address":{"Label":"Cadolzburger Straße 4, 90614 Ammerndorf, Deutschland","Country":"DEU","State":"Bayern","County":"Fürth (Landkreis)","City":"Ammerndorf","District":"Ammerndorf","Street":"Cadolzburger Straße","HouseNumber":"4","PostalCode":"90614","AdditionalData":[{"value":"Deutschland","key":"CountryName"},{"value":"Bayern","key":"StateName"},{"value":"Fürth (Landkreis)","key":"CountyName"}]},"MapReference":{"ReferenceId":"1186727077","Spot":0.29,"SideOfStreet":"right","CountryId":"20147700","StateId":"20177250","CountyId":"20183358","CityId":"20183359","DistrictId":"20183361","AddressId":"182853237","RoadLinkId":"495313545"}}},{"Relevance":1.0,"Distance":43.2,"MatchLevel":"houseNumber","MatchQuality":{"Country":1.0,"State":1.0,"County":1.0,"City":1.0,"District":1.0,"Street":[1.0],"HouseNumber":1.0,"PostalCode":1.0},"MatchType":"interpolated","Location":{"LocationId":"NT_24B2BSPAeB4M6NszdhTjtD_3A","LocationType":"point","DisplayPosition":{"Latitude":49.42183,"Longitude":10.85304},"MapView":{"TopLeft":{"Latitude":49.4229542,"Longitude":10.8513118},"BottomRight":{"Latitude":49.4207058,"Longitude":10.8547682}},"Address":{"Label":"Cadolzburger Straße 7, 90614 Ammerndorf, Deutschland","Country":"DEU","State":"Bayern","County":"Fürth (Landkreis)","City":"Ammerndorf","District":"Ammerndorf","Street":"Cadolzburger Straße","HouseNumber":"7","PostalCode":"90614","AdditionalData":[{"value":"Deutschland","key":"CountryName"},{"value":"Bayern","key":"StateName"},{"value":"Fürth (Landkreis)","key":"CountyName"}]},"MapReference":{"ReferenceId":"541465200","Spot":0.64,"SideOfStreet":"left","CountryId":"20147700","StateId":"20177250","CountyId":"20183358","CityId":"20183359","DistrictId":"20183361","AddressId":"182165350","RoadLinkId":"33838124"}}},{"Relevance":1.0,"Distance":45.5,"MatchLevel":"street","MatchQuality":{"Country":1.0,"State":1.0,"County":1.0,"City":1.0,"District":1.0,"PostalCode":1.0},"Location":{"LocationId":"NT_yh8-bBj4N37Zp3YD90NQKC_l_1186903898_L","LocationType":"point","DisplayPosition":{"Latitude":49.42205,"Longitude":10.8531},"MapView":{"TopLeft":{"Latitude":49.42212,"Longitude":10.85239},"BottomRight":{"Latitude":49.42205,"Longitude":10.8531}},"Address":{"Label":"90614 Ammerndorf, Deutschland","Country":"DEU","State":"Bayern","County":"Fürth (Landkreis)","City":"Ammerndorf","District":"Ammerndorf","PostalCode":"90614","AdditionalData":[{"value":"Deutschland","key":"CountryName"},{"value":"Bayern","key":"StateName"},{"value":"Fürth (Landkreis)","key":"CountyName"}]},"MapReference":{"ReferenceId":"1186903898","Spot":0.0,"SideOfStreet":"left","CountryId":"20147700","StateId":"20177250","CountyId":"20183358","CityId":"20183359","DistrictId":"20183361"}}},{"Relevance":1.0,"Distance":48.1,"MatchLevel":"houseNumber","MatchQuality":{"Country":1.0,"State":1.0,"County":1.0,"City":1.0,"District":1.0,"Street":[1.0],"HouseNumber":1.0,"PostalCode":1.0},"MatchType":"interpolated","Location":{"LocationId":"NT_24B2BSPAeB4M6NszdhTjtD_yA","LocationType":"point","DisplayPosition":{"Latitude":49.42154,"Longitude":10.85316},"MapView":{"TopLeft":{"Latitude":49.4226642,"Longitude":10.8514318},"BottomRight":{"Latitude":49.4204158,"Longitude":10.8548882}},"Address":{"Label":"Cadolzburger Straße 2, 90614 Ammerndorf, Deutschland","Country":"DEU","State":"Bayern","County":"Fürth (Landkreis)","City":"Ammerndorf","District":"Ammerndorf","Street":"Cadolzburger Straße","HouseNumber":"2","PostalCode":"90614","AdditionalData":[{"value":"Deutschland","key":"CountryName"},{"value":"Bayern","key":"StateName"},{"value":"Fürth (Landkreis)","key":"CountyName"}]},"MapReference":{"ReferenceId":"974616117","Spot":0.76,"SideOfStreet":"right","CountryId":"20147700","StateId":"20177250","CountyId":"20183358","CityId":"20183359","DistrictId":"20183361","AddressId":"403787176","RoadLinkId":"310198119"}}}]}]}}