{"Response":{"MetaInfo":{"Timestamp":"2020-03-28T11:30:17.120+0000","NextPageInformation":"2"},"View":[{"_type":"SearchResultsViewType","ViewId":0,"Result":[{"Relevance":1.0,"Distance":0.0,"Direction":0.0,"MatchLevel":"district","MatchQuality":{"Country":1.0,"State":1.0,"County":1.0,"City":1.0,"District":1.0,"PostalCode":1.0},"Location":{"LocationId":"NT_YsVyIaSQ8oonU7QuHCjUUD","LocationType":"point","DisplayPosition":{"Latitude":49.4875435,"Longitude":20.0306161},"MapView":{"TopLeft":{"Latitude":49.51906,"Longitude":19.99268},"BottomRight":{"Latitude":49.45893,"Longitude":20.07079}},"Address":{"Label":"Nowy Targ, Woj. Małopolskie, Polska","Country":"POL","State":"Woj. Małopolskie","County":"Powiat Nowotarski","City":"Nowy Targ","District":"Nowy Targ","PostalCode":"34-400","AdditionalData":[{"value":"Polska","key":"CountryName"},{"value":"Woj. Małopolskie","key":"StateName"},{"value":"Powiat Nowotarski","key":"CountyName"}]},"MapReference":{"ReferenceId":"778782478","SideOfStreet":"neither","CountryId":"20624059","StateId":"20626775","CountyId":"20627000","CityId":"20686609","DistrictId":"20686610"}}},{"Relevance":1.0,"Distance":8.4,"MatchLevel":"houseNumber","MatchQuality":{"Country":1.0,"State":1.0,"County":1.0,"City":1.0,"District":1.0,"Street":[1.0],"HouseNumber":1.0,"PostalCode":1.0},"MatchType":"interpolated","Location":{"LocationId":"NT_fjDkR4zNYLwx8.Uu6aWiwA_xID","LocationType":"point","DisplayPosition":{"Latitude":49.48748,"Longitude":20.03068},"MapView":{"TopLeft":{"Latitude":49.4886042,"Longitude":20.0289495},"BottomRight":{"Latitude":49.4863558,"Longitude":20.0324105}},"Address":{"Label":"ulica Szpitalna 12, 34-400 Nowy Targ, Polska","Country":"POL","State":"Woj. Małopolskie","County":"Powiat Nowotarski","City":"Nowy Targ","District":"Nowy Targ","Street":"ulica Szpitalna","HouseNumber":"12","PostalCode":"34-400","AdditionalData":[{"value":"Polska","key":"CountryName"},{"value":"Woj. Małopolskie","key":"StateName"},{"value":"Powiat Nowotarski","key":"CountyName"}]},"MapReference":{"ReferenceId":"960718730","Spot":0.31,"SideOfStreet":"right","CountryId":"20624059","StateId":"20626775","CountyId":"20627000","CityId":"20686609","DistrictId":"20686610","AddressId":"210928117","RoadLinkId":"302681416"}}},{"Relevance":1.0,"Distance":17.0,"MatchLevel":"street","MatchQuality":{"Country":1.0,"State":1.0,"County":1.0,"City":1.0,"District":1.0,"Street":[1.0],"PostalCode":1.0},"Location":{"LocationId":"NT_fjDkR4zNYLwx8.Uu6aWiwA_l_960373173_R","LocationType":"point","DisplayPosition":{"Latitude":49.4873937,"Longitude":20.0305711},"MapView":{"TopLeft":{"Latitude":49.48848,"Longitude":20.02763},"BottomRight":{"Latitude":49.48737,"Longitude":20.03065}},"Address":{"Label":"ulica Szpitalna, 34-400 Nowy Targ, Polska","Country":"POL","State":"Woj. Małopolskie","County":"Powiat Nowotarski","City":"Nowy Targ","District":"Nowy Targ","Street":"ulica Szpitalna","PostalCode":"34-400","AdditionalData":[{"value":"Polska","key":"CountryName"},{"value":"Woj. Małopolskie","key":"StateName"},{"value":"Powiat Nowotarski","key":"CountyName"}]},"MapReference":{"ReferenceId":"960373173","Spot":0.03,"SideOfStreet":"right","CountryId":"20624059","StateId":"20626775","CountyId":"20627000","CityId":"20686609","DistrictId":"20686610"}}},{"Relevance":1.0,"Distance":22.9,"MatchLevel":"street","MatchQuality":{"Country":1.0,"State":1.0,"County":1.0,"City":1.0,"District":1.0,"Street":[1.0],"PostalCode":1.0},"Location":{"LocationId":"NT_fjDkR4zNYLwx8.Uu6aWiwA_l_960718731_L","LocationType":"point","DisplayPosition":{"Latitude":49.48773,"Longitude":20.03075},"MapView":{"TopLeft":{"Latitude":49.48936,"Longitude":20.03003},"BottomRight":{"Latitude":49.48773,"Longitude":20.0308}},"Address":{"Label":"ulica Szpitalna, 34-400 Nowy Targ, Polska","Country":"POL","State":"Woj. Małopolskie","County":"Powiat Nowotarski","City":"Nowy Targ","District":"Nowy Targ","Street":"ulica Szpitalna","PostalCode":"34-400","AdditionalData":[{"value":"Polska","key":"CountryName"},{"value":"Woj. Małopolskie","key":"StateName"},{"value":"Powiat Nowotarski","key":"CountyName"}]},"MapReference":{"ReferenceId":"960718731","Spot":0.0,"SideOfStreet":"left","CountryId":"20624059","StateId":"20626775","CountyId":"20627000","CityId":"20686609","DistrictId":"20686610"}}},{"Relevance":1.0,"Distance":49.0,"MatchLevel":"houseNumber","MatchQuality":{"Country":1.0,"State":1.0,"County":1.0,"City":1.0,"District":1.0,"Street":[1.0],"HouseNumber":1.0,"PostalCode":1.0},"MatchType":"interpolated","Location":{"LocationId":"NT_fjDkR4zNYLwx8.Uu6aWiwA_xED","LocationType":"point","DisplayPosition":{"Latitude":49.48732,"Longitude":20.0312},"MapView":{"TopLeft":{"Latitude":49.4884442,"Longitude":20.0294695},"BottomRight":{"Latitude":49.4861958,"Longitude":20.0329305}},"Address":{"Label":"ulica Szpitalna 11, 34-400 Nowy Targ, Polska","Country":"POL","State":"Woj. Małopolskie","County":"Powiat Nowotarski","City":"Nowy Targ","District":"Nowy Targ","Street":"ulica Szpitalna","HouseNumber":"11","PostalCode":"34-400","AdditionalData":[{"value":"Polska","key":"CountryName"},{"value":"Woj. Małopolskie","key":"StateName"},{"value":"Powiat Nowotarski","key":"CountyName"}]},"MapReference":{"ReferenceId":"960373165","Spot":0.75,"SideOfStreet":"left","CountryId":"20624059","StateId":"20626775","CountyId":"20627000","CityId":"20686609","DistrictId":"20686610","AddressId":"701764189","RoadLinkId":"302454544"}}},{"Relevance":1.0,"Distance":65.5,"MatchLevel":"houseNumber","MatchQuality":{"Country":1.0,"State":1.0,"County":1.0,"City":1.0,"District":1.0,"Street":[1.0],"HouseNumber":1.0,"PostalCode":1.0},"MatchType":"interpolated","Location":{"LocationId":"NT_6N3doyNqCpMiqjVvqYoqpB_xAD","LocationType":"point","DisplayPosition":{"Latitude":49.48702,"Longitude":20.0302},"MapView":{"TopLeft":{"Latitude":49.4881442,"Longitude":20.0284695},"BottomRight":{"Latitude":49.4858958,"Longitude":20.0319305}},"Address":{"Label":"ulica Jana Bednarskiego 10, 34-400 Nowy Targ, Polska","Country":"POL","State":"Woj. Małopolskie","County":"Powiat Nowotarski","City":"Nowy Targ","District":"Nowy Targ","Street":"ulica Jana Bednarskiego","HouseNumber":"10","PostalCode":"34-400","AdditionalData":[{"value":"Polska","key":"CountryName"},{"value":"Woj. Małopolskie","key":"StateName"},{"value":"Powiat Nowotarski","key":"CountyName"}]},"MapReference":{"ReferenceId":"594125592","Spot":1.0,"SideOfStreet":"right","CountryId":"20624059","StateId":"20626775","CountyId":"20627000","CityId":"20686609","DistrictId":"20686610","AddressId":"701756646","RoadLinkId":"96514985"}}},{"Relevance":1.0,"Distance":73.9,"MatchLevel":"houseNumber","MatchQuality":{"Country":1.0,"State":1.0,"County":1.0,"City":1.0,"District":1.0,"Street":[1.0],"HouseNumber":1.0,"PostalCode":1.0},"MatchType":"interpolated","Location":{"LocationId":"NT_6N3doyNqCpMiqjVvqYoqpB_xED","LocationType":"point","DisplayPosition":{"Latitude":49.48688,"Longitude":20.03068},"MapView":{"TopLeft":{"Latitude":49.4880042,"Longitude":20.0289495},"BottomRight":{"Latitude":49.4857558,"Longitude":20.0324105}},"Address":{"Label":"ulica Jana Bednarskiego 11, 34-400 Nowy Targ, Polska","Country":"POL","State":"Woj. Małopolskie","County":"Powiat Nowotarski","City":"Nowy Targ","District":"Nowy Targ","Street":"ulica Jana Bednarskiego","HouseNumber":"11","PostalCode":"34-400","AdditionalData":[{"value":"Polska","key":"CountryName"},{"value":"Woj. Małopolskie","key":"StateName"},{"value":"Powiat Nowotarski","key":"CountyName"}]},"MapReference":{"ReferenceId":"594125653","Spot":0.91,"SideOfStreet":"left","CountryId":"20624059","StateId":"20626775","CountyId":"20627000","CityId":"20686609","DistrictId":"20686610","AddressId":"701757065","RoadLinkId":"96073624"}}},{"Relevance":1.0,"Distance":77.7,"MatchLevel":"houseNumber","MatchQuality":{"Country":1.0,"State":1.0,"County":1.0,"City":1.0,"District":1.0,"Street":[1.0],"HouseNumber":1.0,"PostalCode":1.0},"MatchType":"interpolated","Location":{"LocationId":"NT_8Iym7Xq6DR1caGqOosG6XB_xAD","LocationType":"point","DisplayPosition":{"Latitude":49.48664,"Longitude":20.03139},"MapView":{"TopLeft":{"Latitude":49.4877642,"Longitude":20.0296595},"BottomRight":{"Latitude":49.4855158,"Longitude":20.0331205}},"Address":{"Label":"ulica Andrzeja Galicy 10, 34-400 Nowy Targ, Polska","Country":"POL","State":"Woj. Małopolskie","County":"Powiat Nowotarski","City":"Nowy Targ","District":"Nowy Targ","Street":"ulica Andrzeja Galicy","HouseNumber":"10","PostalCode":"34-400","AdditionalData":[{"value":"Polska","key":"CountryName"},{"value":"Woj. Małopolskie","key":"StateName"},{"value":"Powiat Nowotarski","key":"CountyName"}]},"MapReference":{"ReferenceId":"778824642","Spot":0.22,"SideOfStreet":"left","CountryId":"20624059","StateId":"20626775","CountyId":"20627000","CityId":"20686609","DistrictId":"20686610","AddressId":"732233838","RoadLinkId":"172310100"}}},{"Relevance":1.0,"Distance":107.7,"MatchLevel":"houseNumber","MatchQuality":{"Country":1.0,"State":1.0,"County":1.0,"City":1.0,"District":1.0,"Street":[1.0],"HouseNumber":1.0,"PostalCode":1.0},"MatchType":"interpolated","Location":{"LocationId":"NT_6N3doyNqCpMiqjVvqYoqpB_xUD","LocationType":"point","DisplayPosition":{"Latitude":49.48643,"Longitude":20.0302},"MapView":{"TopLeft":{"Latitude":49.4875542,"Longitude":20.0284695},"BottomRight":{"Latitude":49.4853058,"Longitude":20.0319305}},"Address":{"Label":"ulica Jana Bednarskiego 15, 34-400 Nowy Targ, Polska","Country":"POL","State":"Woj. Małopolskie","County":"Powiat Nowotarski","City":"Nowy Targ","District":"Nowy Targ","Street":"ulica Jana Bednarskiego","HouseNumber":"15","PostalCode":"34-400","AdditionalData":[{"value":"Polska","key":"CountryName"},{"value":"Woj. Małopolskie","key":"StateName"},{"value":"Powiat Nowotarski","key":"CountyName"}]},"MapReference":{"ReferenceId":"594125662","Spot":0.3,"SideOfStreet":"right","CountryId":"20624059","StateId":"20626775","CountyId":"20627000","CityId":"20686609","DistrictId":"20686610","AddressId":"582376143","RoadLinkId":"96282959"}}},{"Relevance":1.0,"Distance":112.0,"MatchLevel":"street","MatchQuality":{"Country":1.0,"State":1.0,"County":1.0,"City":1.0,"District":1.0,"Street":[1.0],"PostalCode":1.0},"Location":{"LocationId":"NT_6N3doyNqCpMiqjVvqYoqpB_l_594125681_R","LocationType":"point","DisplayPosition":{"Latitude":49.48655,"Longitude":20.03087},"MapView":{"TopLeft":{"Latitude":49.48655,"Longitude":20.03087},"BottomRight":{"Latitude":49.4862,"Longitude":20.03124}},"Address":{"Label":"ulica Jana Bednarskiego, 34-400 Nowy Targ, Polska","Country":"POL","State":"Woj. Małopolskie","County":"Powiat Nowotarski","City":"Nowy Targ","District":"Nowy Targ","Street":"ulica Jana Bednarskiego","PostalCode":"34-400","AdditionalData":[{"value":"Polska","key":"CountryName"},{"value":"Woj. Małopolskie","key":"StateName"},{"value":"Powiat Nowotarski","key":"CountyName"}]},"MapReference":{"ReferenceId":"594125681","Spot":1.0,"SideOfStreet":"right","CountryId":"20624059","StateId":"20626775","CountyId":"20627000","CityId":"20686609","DistrictId":"20686610"}}}]}]}}