{"Response":{"MetaInfo":{"Timestamp":"2020-03-28T11:10:56.228+0000","NextPageInformation":"2"},"View":[{"_type":"SearchResultsViewType","ViewId":0,"Result":[{"Relevance":1.0,"Distance":0.0,"Direction":0.0,"MatchLevel":"district","MatchQuality":{"Country":1.0,"State":1.0,"County":1.0,"City":1.0,"District":1.0,"PostalCode":1.0},"Location":{"LocationId":"NT_gkmLzR4Vea7ZNdHGTSfqqC","LocationType":"point","DisplayPosition":{"Latitude":49.4284307,"Longitude":1.0948604},"MapView":{"TopLeft":{"Latitude":49.42907,"Longitude":1.08751},"BottomRight":{"Latitude":49.42069,"Longitude":1.09951}},"Address":{"Label":"Grammont, Rouen, Normandie, France","Country":"FRA","State":"Normandie","County":"Seine-Maritime","City":"Rouen","District":"Grammont","PostalCode":"76100","AdditionalData":[{"value":"France","key":"CountryName"},{"value":"Normandie","key":"StateName"},{"value":"Seine-Maritime","key":"CountyName"}]},"MapReference":{"ReferenceId":"57386064","SideOfStreet":"neither","CountryId":"20000001","StateId":"20057204","CountyId":"20038936","CityId":"20079398"}}},{"Relevance":1.0,"Distance":5.9,"MatchLevel":"street","MatchQuality":{"Country":1.0,"State":1.0,"County":1.0,"City":1.0,"District":1.0,"Street":[1.0],"PostalCode":1.0},"Location":{"LocationId":"NT_EKxQy9Cb8vGcX5bDQvkBtB_l_859323592_R","LocationType":"point","DisplayPosition":{"Latitude":49.42844,"Longitude":1.09478},"MapView":{"TopLeft":{"Latitude":49.4285,"Longitude":1.09471},"BottomRight":{"Latitude":49.42844,"Longitude":1.09478}},"Address":{"Label":"Rue de Lessard, 76100 Rouen, France","Country":"FRA","State":"Normandie","County":"Seine-Maritime","City":"Rouen","District":"Grammont","Street":"Rue de Lessard","PostalCode":"76100","AdditionalData":[{"value":"France","key":"CountryName"},{"value":"Normandie","key":"StateName"},{"value":"Seine-Maritime","key":"CountyName"}]},"MapReference":{"ReferenceId":"859323592","Spot":0.0,"SideOfStreet":"right","CountryId":"20000001","StateId":"20057204","CountyId":"20038936","CityId":"20079398"}}},{"Relevance":1.0,"Distance":8.1,"MatchLevel":"houseNumber","MatchQuality":{"Country":1.0,"State":1.0,"County":1.0,"City":1.0,"District":1.0,"Street":[1.0],"HouseNumber":1.0,"PostalCode":1.0},"MatchType":"interpolated","Location":{"LocationId":"NT_EKxQy9Cb8vGcX5bDQvkBtB_yUD","LocationType":"point","DisplayPosition":{"Latitude":49.42836,"Longitude":1.09489},"MapView":{"TopLeft":{"Latitude":49.4294842,"Longitude":1.0931616},"BottomRight":{"Latitude":49.4272358,"Longitude":1.0966184}},"Address":{"Label":"25 Rue de Lessard, 76100 Rouen, France","Country":"FRA","State":"Normandie","County":"Seine-Maritime","City":"Rouen","District":"Grammont","Street":"Rue de Lessard","HouseNumber":"25","PostalCode":"76100","AdditionalData":[{"value":"France","key":"CountryName"},{"value":"Normandie","key":"StateName"},{"value":"Seine-Maritime","key":"CountyName"}]},"MapReference":{"ReferenceId":"972209989","Spot":0.79,"SideOfStreet":"left","CountryId":"20000001","StateId":"20057204","CountyId":"20038936","CityId":"20079398","AddressId":"316677273","RoadLinkId":"308626164"}}},{"Relevance":1.0,"Distance":13.3,"MatchLevel":"street","MatchQuality":{"Country":1.0,"State":1.0,"County":1.0,"City":1.0,"District":1.0,"Street":[1.0],"PostalCode":1.0},"Location":{"LocationId":"NT_VONz25Tn45DoChWfa3oaaD_l_1221165961_R","LocationType":"point","DisplayPosition":{"Latitude":49.4285,"Longitude":1.09471},"MapView":{"TopLeft":{"Latitude":49.4285,"Longitude":1.09437},"BottomRight":{"Latitude":49.42832,"Longitude":1.09471}},"Address":{"Label":"Boulevard de l'Europe, 76100 Rouen, France","Country":"FRA","State":"Normandie","County":"Seine-Maritime","City":"Rouen","District":"Grammont","Street":"Boulevard de l'Europe","PostalCode":"76100","AdditionalData":[{"value":"France","key":"CountryName"},{"value":"Normandie","key":"StateName"},{"value":"Seine-Maritime","key":"CountyName"}]},"MapReference":{"ReferenceId":"1221165961","Spot":1.0,"SideOfStreet":"right","CountryId":"20000001","StateId":"20057204","CountyId":"20038936","CityId":"20079398"}}},{"Relevance":1.0,"Distance":13.3,"MatchLevel":"street","MatchQuality":{"Country":1.0,"State":1.0,"County":1.0,"City":1.0,"District":1.0,"Street":[1.0],"PostalCode":1.0},"Location":{"LocationId":"NT_eqSyO3AOD888TUE2OEminC_l_57373566_R","LocationType":"point","DisplayPosition":{"Latitude":49.4285,"Longitude":1.09471},"MapView":{"TopLeft":{"Latitude":49.42859,"Longitude":1.09459},"BottomRight":{"Latitude":49.4285,"Longitude":1.09471}},"Address":{"Label":"Rue de Lessard, 76100 Rouen, France","Country":"FRA","State":"Normandie","County":"Seine-Maritime","City":"Rouen","District":"Centre Ville/Rive Gauche","Street":"Rue de Lessard","PostalCode":"76100","AdditionalData":[{"value":"France","key":"CountryName"},{"value":"Normandie","key":"StateName"},{"value":"Seine-Maritime","key":"CountyName"}]},"MapReference":{"ReferenceId":"57373566","Spot":0.0,"SideOfStreet":"right","CountryId":"20000001","StateId":"20057204","CountyId":"20038936","CityId":"20079398"}}},{"Relevance":1.0,"Distance":13.5,"MatchLevel":"street","MatchQuality":{"Country":1.0,"State":1.0,"County":1.0,"City":1.0,"District":1.0,"Street":[1.0],"PostalCode":1.0},"Location":{"LocationId":"NT_VONz25Tn45DoChWfa3oaaD_l_1221183839_R","LocationType":"point","DisplayPosition":{"Latitude":49.4285463,"Longitude":1.0948026},"MapView":{"TopLeft":{"Latitude":49.42873,"Longitude":1.09471},"BottomRight":{"Latitude":49.4285,"Longitude":1.09518}},"Address":{"Label":"Boulevard de l'Europe, 76100 Rouen, France","Country":"FRA","State":"Normandie","County":"Seine-Maritime","City":"Rouen","District":"Grammont","Street":"Boulevard de l'Europe","PostalCode":"76100","AdditionalData":[{"value":"France","key":"CountryName"},{"value":"Normandie","key":"StateName"},{"value":"Seine-Maritime","key":"CountyName"}]},"MapReference":{"ReferenceId":"1221183839","Spot":0.2,"SideOfStreet":"right","CountryId":"20000001","StateId":"20057204","CountyId":"20038936","CityId":"20079398"}}},{"Relevance":1.0,"Distance":26.4,"MatchLevel":"street","MatchQuality":{"Country":1.0,"State":1.0,"County":1.0,"City":1.0,"District":1.0,"Street":[1.0],"PostalCode":1.0},"Location":{"LocationId":"NT_VONz25Tn45DoChWfa3oaaD_l_1221165992_R","LocationType":"point","DisplayPosition":{"Latitude":49.42859,"Longitude":1.09459},"MapView":{"TopLeft":{"Latitude":49.42859,"Longitude":1.09441},"BottomRight":{"Latitude":49.42848,"Longitude":1.09459}},"Address":{"Label":"Boulevard de l'Europe, 76100 Rouen, France","Country":"FRA","State":"Normandie","County":"Seine-Maritime","City":"Rouen","District":"Centre Ville/Rive Gauche","Street":"Boulevard de l'Europe","PostalCode":"76100","AdditionalData":[{"value":"France","key":"CountryName"},{"value":"Normandie","key":"StateName"},{"value":"Seine-Maritime","key":"CountyName"}]},"MapReference":{"ReferenceId":"1221165992","Spot":1.0,"SideOfStreet":"right","CountryId":"20000001","StateId":"20057204","CountyId":"20038936","CityId":"20079398"}}},{"Relevance":1.0,"Distance":26.4,"MatchLevel":"street","MatchQuality":{"Country":1.0,"State":1.0,"County":1.0,"City":1.0,"District":1.0,"Street":[1.0],"PostalCode":1.0},"Location":{"LocationId":"NT_eqSyO3AOD888TUE2OEminC_l_859377501_R","LocationType":"point","DisplayPosition":{"Latitude":49.42859,"Longitude":1.09459},"MapView":{"TopLeft":{"Latitude":49.42867,"Longitude":1.09447},"BottomRight":{"Latitude":49.42859,"Longitude":1.09459}},"Address":{"Label":"Rue de Lessard, 76100 Rouen, France","Country":"FRA","State":"Normandie","County":"Seine-Maritime","City":"Rouen","District":"Centre Ville/Rive Gauche","Street":"Rue de Lessard","PostalCode":"76100","AdditionalData":[{"value":"France","key":"CountryName"},{"value":"Normandie","key":"StateName"},{"value":"Seine-Maritime","key":"CountyName"}]},"MapReference":{"ReferenceId":"859377501","Spot":0.0,"SideOfStreet":"right","CountryId":"20000001","StateId":"20057204","CountyId":"20038936","CityId":"20079398"}}},{"Relevance":1.0,"Distance":31.2,"MatchLevel":"houseNumber","MatchQuality":{"Country":1.0,"State":1.0,"County":1.0,"City":1.0,"District":1.0,"Street":[1.0],"HouseNumber":1.0,"PostalCode":1.0},"MatchType":"interpolated","Location":{"LocationId":"NT_VONz25Tn45DoChWfa3oaaD_4A","LocationType":"point","DisplayPosition":{"Latitude":49.42871,"Longitude":1.09482},"MapView":{"TopLeft":{"Latitude":49.4298342,"Longitude":1.0930916},"BottomRight":{"Latitude":49.4275858,"Longitude":1.0965484}},"Address":{"Label":"8 Boulevard de l'Europe, 76100 Rouen, France","Country":"FRA","State":"Normandie","County":"Seine-Maritime","City":"Rouen","District":"Centre Ville/Rive Gauche","Street":"Boulevard de l'Europe","HouseNumber":"8","PostalCode":"76100","AdditionalData":[{"value":"France","key":"CountryName"},{"value":"Normandie","key":"StateName"},{"value":"Seine-Maritime","key":"CountyName"}]},"MapReference":{"ReferenceId":"1221166149","Spot":0.76,"SideOfStreet":"left","CountryId":"20000001","StateId":"20057204","CountyId":"20038936","CityId":"20079398","AddressId":"674168120","RoadLinkId":"538509025"}}},{"Relevance":1.0,"Distance":33.0,"MatchLevel":"street","MatchQuality":{"Country":1.0,"State":1.0,"County":1.0,"City":1.0,"District":1.0,"Street":[1.0],"PostalCode":1.0},"Location":{"LocationId":"NT_VONz25Tn45DoChWfa3oaaD_l_1221165991_R","LocationType":"point","DisplayPosition":{"Latitude":49.42848,"Longitude":1.09441},"MapView":{"TopLeft":{"Latitude":49.42848,"Longitude":1.09391},"BottomRight":{"Latitude":49.42823,"Longitude":1.09441}},"Address":{"Label":"Boulevard de l'Europe, 76100 Rouen, France","Country":"FRA","State":"Normandie","County":"Seine-Maritime","City":"Rouen","District":"Centre Ville/Rive Gauche","Street":"Boulevard de l'Europe","PostalCode":"76100","AdditionalData":[{"value":"France","key":"CountryName"},{"value":"Normandie","key":"StateName"},{"value":"Seine-Maritime","key":"CountyName"}]},"MapReference":{"ReferenceId":"1221165991","Spot":1.0,"SideOfStreet":"right","CountryId":"20000001","StateId":"20057204","CountyId":"20038936","CityId":"20079398"}}}]}]}}