{"Response":{"MetaInfo":{"Timestamp":"2020-03-28T10:03:39.986+0000","NextPageInformation":"2"},"View":[{"_type":"SearchResultsViewType","ViewId":0,"Result":[{"Relevance":1.0,"Distance":0.0,"Direction":0.0,"MatchLevel":"district","MatchQuality":{"Country":1.0,"State":1.0,"County":1.0,"City":1.0,"District":1.0,"PostalCode":1.0},"Location":{"LocationId":"NT_5dDO4ppbygaETZXGYIaRKD","LocationType":"point","DisplayPosition":{"Latitude":49.4939743,"Longitude":12.1813206},"MapView":{"TopLeft":{"Latitude":49.50293,"Longitude":12.16965},"BottomRight":{"Latitude":49.48328,"Longitude":12.19354}},"Address":{"Label":"Pfreimd, Bayern, Deutschland","Country":"DEU","State":"Bayern","County":"Schwandorf","City":"Pfreimd","District":"Pfreimd","PostalCode":"92536","AdditionalData":[{"value":"Deutschland","key":"CountryName"},{"value":"Bayern","key":"StateName"},{"value":"Schwandorf","key":"CountyName"}]},"MapReference":{"ReferenceId":"836323097","SideOfStreet":"neither","CountryId":"20147700","StateId":"20177250","CountyId":"20181612","CityId":"20181687","DistrictId":"20181689"}}},{"Relevance":1.0,"Distance":7.4,"MatchLevel":"houseNumber","MatchQuality":{"Country":1.0,"State":1.0,"County":1.0,"City":1.0,"District":1.0,"Street":[1.0],"HouseNumber":1.0,"PostalCode":1.0},"MatchType":"interpolated","Location":{"LocationId":"NT_IO9EdH5eMs4TfaHKwinxqC_4A","LocationType":"point","DisplayPosition":{"Latitude":49.49405,"Longitude":12.18136},"MapView":{"TopLeft":{"Latitude":49.4951742,"Longitude":12.1796293},"BottomRight":{"Latitude":49.4929258,"Longitude":12.1830907}},"Address":{"Label":"Leuchtenberger Straße 8, 92536 Pfreimd, Deutschland","Country":"DEU","State":"Bayern","County":"Schwandorf","City":"Pfreimd","District":"Pfreimd","Street":"Leuchtenberger Straße","HouseNumber":"8","PostalCode":"92536","AdditionalData":[{"value":"Deutschland","key":"CountryName"},{"value":"Bayern","key":"StateName"},{"value":"Schwandorf","key":"CountyName"}]},"MapReference":{"ReferenceId":"545243913","Spot":0.12,"SideOfStreet":"right","CountryId":"20147700","StateId":"20177250","CountyId":"20181612","CityId":"20181687","DistrictId":"20181689","AddressId":"182346249","RoadLinkId":"33279754"}}},{"Relevance":1.0,"Distance":17.7,"MatchLevel":"houseNumber","MatchQuality":{"Country":1.0,"State":1.0,"County":1.0,"City":1.0,"District":1.0,"Street":[1.0],"HouseNumber":1.0,"PostalCode":1.0},"MatchType":"interpolated","Location":{"LocationId":"NT_IO9EdH5eMs4TfaHKwinxqC_2A","LocationType":"point","DisplayPosition":{"Latitude":49.49402,"Longitude":12.18105},"MapView":{"TopLeft":{"Latitude":49.4951442,"Longitude":12.1793193},"BottomRight":{"Latitude":49.4928958,"Longitude":12.1827807}},"Address":{"Label":"Leuchtenberger Straße 6, 92536 Pfreimd, Deutschland","Country":"DEU","State":"Bayern","County":"Schwandorf","City":"Pfreimd","District":"Pfreimd","Street":"Leuchtenberger Straße","HouseNumber":"6","PostalCode":"92536","AdditionalData":[{"value":"Deutschland","key":"CountryName"},{"value":"Bayern","key":"StateName"},{"value":"Schwandorf","key":"CountyName"}]},"MapReference":{"ReferenceId":"547346537","Spot":0.75,"SideOfStreet":"right","CountryId":"20147700","StateId":"20177250","CountyId":"20181612","CityId":"20181687","DistrictId":"20181689","AddressId":"183572030","RoadLinkId":"33037934"}}},{"Relevance":1.0,"Distance":20.9,"MatchLevel":"houseNumber","MatchQuality":{"Country":1.0,"State":1.0,"County":1.0,"City":1.0,"District":1.0,"Street":[1.0],"HouseNumber":1.0,"PostalCode":1.0},"MatchType":"interpolated","Location":{"LocationId":"NT_TE7lkWrcuodwNQyDWR6AuA_xA","LocationType":"point","DisplayPosition":{"Latitude":49.49379,"Longitude":12.18125},"MapView":{"TopLeft":{"Latitude":49.4949142,"Longitude":12.1795193},"BottomRight":{"Latitude":49.4926658,"Longitude":12.1829807}},"Address":{"Label":"Rosengasse 1, 92536 Pfreimd, Deutschland","Country":"DEU","State":"Bayern","County":"Schwandorf","City":"Pfreimd","District":"Pfreimd","Street":"Rosengasse","HouseNumber":"1","PostalCode":"92536","AdditionalData":[{"value":"Deutschland","key":"CountryName"},{"value":"Bayern","key":"StateName"},{"value":"Schwandorf","key":"CountyName"}]},"MapReference":{"ReferenceId":"545243752","Spot":0.5,"SideOfStreet":"right","CountryId":"20147700","StateId":"20177250","CountyId":"20181612","CityId":"20181687","DistrictId":"20181689","AddressId":"185436827","RoadLinkId":"32657867"}}},{"Relevance":1.0,"Distance":30.3,"MatchLevel":"houseNumber","MatchQuality":{"Country":1.0,"State":1.0,"County":1.0,"City":1.0,"District":1.0,"Street":[1.0],"HouseNumber":1.0,"PostalCode":1.0},"MatchType":"interpolated","Location":{"LocationId":"NT_ZvvmLcN.shUNke9g.-7R1D_yA","LocationType":"point","DisplayPosition":{"Latitude":49.49381,"Longitude":12.18206},"MapView":{"TopLeft":{"Latitude":49.4949342,"Longitude":12.1803293},"BottomRight":{"Latitude":49.4926858,"Longitude":12.1837907}},"Address":{"Label":"Hirtenstraße 2, 92536 Pfreimd, Deutschland","Country":"DEU","State":"Bayern","County":"Schwandorf","City":"Pfreimd","District":"Pfreimd","Street":"Hirtenstraße","HouseNumber":"2","PostalCode":"92536","AdditionalData":[{"value":"Deutschland","key":"CountryName"},{"value":"Bayern","key":"StateName"},{"value":"Schwandorf","key":"CountyName"}]},"MapReference":{"ReferenceId":"545243876","Spot":0.0,"SideOfStreet":"left","CountryId":"20147700","StateId":"20177250","CountyId":"20181612","CityId":"20181687","DistrictId":"20181689","AddressId":"249165278","RoadLinkId":"33040215"}}},{"Relevance":1.0,"Distance":48.8,"MatchLevel":"street","MatchQuality":{"Country":1.0,"State":1.0,"County":1.0,"City":1.0,"District":1.0,"Street":[1.0],"PostalCode":1.0},"Location":{"LocationId":"NT_bL9ZqKmuWRUWvNQaRyTFhA_l_545243832_R","LocationType":"point","DisplayPosition":{"Latitude":49.4935463,"Longitude":12.1811687},"MapView":{"TopLeft":{"Latitude":49.49356,"Longitude":12.18113},"BottomRight":{"Latitude":49.49345,"Longitude":12.18144}},"Address":{"Label":"Brauhausgasse, 92536 Pfreimd, Deutschland","Country":"DEU","State":"Bayern","County":"Schwandorf","City":"Pfreimd","District":"Pfreimd","Street":"Brauhausgasse","PostalCode":"92536","AdditionalData":[{"value":"Deutschland","key":"CountryName"},{"value":"Bayern","key":"StateName"},{"value":"Schwandorf","key":"CountyName"}]},"MapReference":{"ReferenceId":"545243832","Spot":0.88,"SideOfStreet":"right","CountryId":"20147700","StateId":"20177250","CountyId":"20181612","CityId":"20181687","DistrictId":"20181689"}}},{"Relevance":1.0,"Distance":49.3,"MatchLevel":"houseNumber","MatchQuality":{"Country":1.0,"State":1.0,"County":1.0,"City":1.0,"District":1.0,"Street":[1.0],"HouseNumber":1.0,"PostalCode":1.0},"MatchType":"interpolated","Location":{"LocationId":"NT_FwtaesS1LGRtcAG8PL9ZnC_xA","LocationType":"point","DisplayPosition":{"Latitude":49.49371,"Longitude":12.18051},"MapView":{"TopLeft":{"Latitude":49.4948342,"Longitude":12.1787793},"BottomRight":{"Latitude":49.4925858,"Longitude":12.1822407}},"Address":{"Label":"Marktplatz 1, 92536 Pfreimd, Deutschland","Country":"DEU","State":"Bayern","County":"Schwandorf","City":"Pfreimd","District":"Pfreimd","Street":"Marktplatz","HouseNumber":"1","PostalCode":"92536","AdditionalData":[{"value":"Deutschland","key":"CountryName"},{"value":"Bayern","key":"StateName"},{"value":"Schwandorf","key":"CountyName"}]},"MapReference":{"ReferenceId":"547346539","Spot":0.4,"SideOfStreet":"right","CountryId":"20147700","StateId":"20177250","CountyId":"20181612","CityId":"20181687","DistrictId":"20181689","AddressId":"183677058","RoadLinkId":"32973167"}}},{"Relevance":1.0,"Distance":52.9,"MatchLevel":"street","MatchQuality":{"Country":1.0,"State":1.0,"County":1.0,"City":1.0,"District":1.0,"Street":[1.0],"PostalCode":1.0},"Location":{"LocationId":"NT_b6tP7WBVUT920piDbjwHWB_l_545244733_L","LocationType":"point","DisplayPosition":{"Latitude":49.4943215,"Longitude":12.1818221},"MapView":{"TopLeft":{"Latitude":49.49444,"Longitude":12.18174},"BottomRight":{"Latitude":49.49411,"Longitude":12.18197}},"Address":{"Label":"Am Wall, 92536 Pfreimd, Deutschland","Country":"DEU","State":"Bayern","County":"Schwandorf","City":"Pfreimd","District":"Pfreimd","Street":"Am Wall","PostalCode":"92536","AdditionalData":[{"value":"Deutschland","key":"CountryName"},{"value":"Bayern","key":"StateName"},{"value":"Schwandorf","key":"CountyName"}]},"MapReference":{"ReferenceId":"545244733","Spot":0.64,"SideOfStreet":"left","CountryId":"20147700","StateId":"20177250","CountyId":"20181612","CityId":"20181687","DistrictId":"20181689"}}},{"Relevance":1.0,"Distance":54.5,"MatchLevel":"houseNumber","MatchQuality":{"Country":1.0,"State":1.0,"County":1.0,"City":1.0,"District":1.0,"Street":[1.0],"HouseNumber":1.0,"PostalCode":1.0},"MatchType":"interpolated","Location":{"LocationId":"NT_TE7lkWrcuodwNQyDWR6AuA_2A","LocationType":"point","DisplayPosition":{"Latitude":49.49351,"Longitude":12.18108},"MapView":{"TopLeft":{"Latitude":49.4946342,"Longitude":12.1793493},"BottomRight":{"Latitude":49.4923858,"Longitude":12.1828107}},"Address":{"Label":"Rosengasse 6, 92536 Pfreimd, Deutschland","Country":"DEU","State":"Bayern","County":"Schwandorf","City":"Pfreimd","District":"Pfreimd","Street":"Rosengasse","HouseNumber":"6","PostalCode":"92536","AdditionalData":[{"value":"Deutschland","key":"CountryName"},{"value":"Bayern","key":"StateName"},{"value":"Schwandorf","key":"CountyName"}]},"MapReference":{"ReferenceId":"545243706","Spot":0.9,"SideOfStreet":"left","CountryId":"20147700","StateId":"20177250","CountyId":"20181612","CityId":"20181687","DistrictId":"20181689","AddressId":"182318993","RoadLinkId":"32663809"}}},{"Relevance":1.0,"Distance":58.9,"MatchLevel":"street","MatchQuality":{"Country":1.0,"State":1.0,"County":1.0,"City":1.0,"District":1.0,"Street":[1.0],"PostalCode":1.0},"Location":{"LocationId":"NT_qxWHLRhZFm8k18hnodfbEC_l_545243822_L","LocationType":"point","DisplayPosition":{"Latitude":49.49345,"Longitude":12.18144},"MapView":{"TopLeft":{"Latitude":49.49347,"Longitude":12.18144},"BottomRight":{"Latitude":49.49345,"Longitude":12.18182}},"Address":{"Label":"Auf der Ram, 92536 Pfreimd, Deutschland","Country":"DEU","State":"Bayern","County":"Schwandorf","City":"Pfreimd","District":"Pfreimd","Street":"Auf der Ram","PostalCode":"92536","AdditionalData":[{"value":"Deutschland","key":"CountryName"},{"value":"Bayern","key":"StateName"},{"value":"Schwandorf","key":"CountyName"}]},"MapReference":{"ReferenceId":"545243822","Spot":0.0,"SideOfStreet":"left","CountryId":"20147700","StateId":"20177250","CountyId":"20181612","CityId":"20181687","DistrictId":"20181689"}}}]}]}}