{"Response":{"MetaInfo":{"Timestamp":"2020-03-28T11:51:42.288+0000","NextPageInformation":"2"},"View":[{"_type":"SearchResultsViewType","ViewId":0,"Result":[{"Relevance":1.0,"Distance":0.0,"Direction":0.0,"MatchLevel":"city","MatchQuality":{"Country":1.0,"State":1.0,"County":1.0,"City":1.0,"PostalCode":1.0},"Location":{"LocationId":"NT_SMYIDdOZU0b38mUR9SYRzD","LocationType":"point","DisplayPosition":{"Latitude":49.537694,"Longitude":0.1465537},"MapView":{"TopLeft":{"Latitude":49.55891,"Longitude":0.11858},"BottomRight":{"Latitude":49.52414,"Longitude":0.16184}},"Address":{"Label":"Fontaine-la-Mallet, Normandie, France","Country":"FRA","State":"Normandie","County":"Seine-Maritime","City":"Fontaine-la-Mallet","PostalCode":"76290","AdditionalData":[{"value":"France","key":"CountryName"},{"value":"Normandie","key":"StateName"},{"value":"Seine-Maritime","key":"CountyName"}]},"MapReference":{"ReferenceId":"59253022","SideOfStreet":"neither","CountryId":"20000001","StateId":"20057204","CountyId":"20038936","CityId":"20078592"}}},{"Relevance":1.0,"Distance":25.7,"MatchLevel":"houseNumber","MatchQuality":{"Country":1.0,"State":1.0,"County":1.0,"City":1.0,"Street":[1.0],"HouseNumber":1.0,"PostalCode":1.0},"MatchType":"interpolated","Location":{"LocationId":"NT_5UgbUyKi08WvtxTaatBdPC_1QD","LocationType":"point","DisplayPosition":{"Latitude":49.53776,"Longitude":0.14615},"MapView":{"TopLeft":{"Latitude":49.5388842,"Longitude":0.1444177},"BottomRight":{"Latitude":49.5366358,"Longitude":0.1478823}},"Address":{"Label":"54 Avenue Jean Jaurès, 76290 Fontaine-la-Mallet, France","Country":"FRA","State":"Normandie","County":"Seine-Maritime","City":"Fontaine-la-Mallet","Street":"Avenue Jean Jaurès","HouseNumber":"54","PostalCode":"76290","AdditionalData":[{"value":"France","key":"CountryName"},{"value":"Normandie","key":"StateName"},{"value":"Seine-Maritime","key":"CountyName"}]},"MapReference":{"ReferenceId":"1161516169","Spot":0.0,"SideOfStreet":"right","CountryId":"20000001","StateId":"20057204","CountyId":"20038936","CityId":"20078592","AddressId":"379356724","RoadLinkId":"467763186"}}},{"Relevance":1.0,"Distance":36.0,"MatchLevel":"houseNumber","MatchQuality":{"Country":1.0,"State":1.0,"County":1.0,"City":1.0,"Street":[1.0],"HouseNumber":1.0,"PostalCode":1.0},"MatchType":"interpolated","Location":{"LocationId":"NT_5UgbUyKi08WvtxTaatBdPC_1ID","LocationType":"point","DisplayPosition":{"Latitude":49.53748,"Longitude":0.1461},"MapView":{"TopLeft":{"Latitude":49.5386042,"Longitude":0.1443677},"BottomRight":{"Latitude":49.5363558,"Longitude":0.1478323}},"Address":{"Label":"52 Avenue Jean Jaurès, 76290 Fontaine-la-Mallet, France","Country":"FRA","State":"Normandie","County":"Seine-Maritime","City":"Fontaine-la-Mallet","Street":"Avenue Jean Jaurès","HouseNumber":"52","PostalCode":"76290","AdditionalData":[{"value":"France","key":"CountryName"},{"value":"Normandie","key":"StateName"},{"value":"Seine-Maritime","key":"CountyName"}]},"MapReference":{"ReferenceId":"843706622","Spot":0.76,"SideOfStreet":"right","CountryId":"20000001","StateId":"20057204","CountyId":"20038936","CityId":"20078592","AddressId":"379339882","RoadLinkId":"225112490"}}},{"Relevance":1.0,"Distance":58.1,"MatchLevel":"street","MatchQuality":{"Country":1.0,"State":1.0,"County":1.0,"City":1.0,"Street":[1.0],"PostalCode":1.0},"Location":{"LocationId":"NT_5UgbUyKi08WvtxTaatBdPC_l_1161516170_R","LocationType":"point","DisplayPosition":{"Latitude":49.53816,"Longitude":0.14619},"MapView":{"TopLeft":{"Latitude":49.53825,"Longitude":0.14619},"BottomRight":{"Latitude":49.53816,"Longitude":0.1462}},"Address":{"Label":"Avenue Jean Jaurès, 76290 Fontaine-la-Mallet, France","Country":"FRA","State":"Normandie","County":"Seine-Maritime","City":"Fontaine-la-Mallet","Street":"Avenue Jean Jaurès","PostalCode":"76290","AdditionalData":[{"value":"France","key":"CountryName"},{"value":"Normandie","key":"StateName"},{"value":"Seine-Maritime","key":"CountyName"}]},"MapReference":{"ReferenceId":"1161516170","Spot":0.0,"SideOfStreet":"right","CountryId":"20000001","StateId":"20057204","CountyId":"20038936","CityId":"20078592"}}},{"Relevance":1.0,"Distance":61.5,"MatchLevel":"houseNumber","MatchQuality":{"Country":1.0,"State":1.0,"County":1.0,"City":1.0,"Street":[1.0],"HouseNumber":1.0,"PostalCode":1.0},"MatchType":"interpolated","Location":{"LocationId":"NT_VcZd4DDSnNSBgJa2Ss-hqB_yA","LocationType":"point","DisplayPosition":{"Latitude":49.53826,"Longitude":0.14668},"MapView":{"TopLeft":{"Latitude":49.5393842,"Longitude":0.1449477},"BottomRight":{"Latitude":49.5371358,"Longitude":0.1484123}},"Address":{"Label":"2 Rue de Freville, 76290 Fontaine-la-Mallet, France","Country":"FRA","State":"Normandie","County":"Seine-Maritime","City":"Fontaine-la-Mallet","Street":"Rue de Freville","HouseNumber":"2","PostalCode":"76290","AdditionalData":[{"value":"France","key":"CountryName"},{"value":"Normandie","key":"StateName"},{"value":"Seine-Maritime","key":"CountyName"}]},"MapReference":{"ReferenceId":"945151201","Spot":0.41,"SideOfStreet":"right","CountryId":"20000001","StateId":"20057204","CountyId":"20038936","CityId":"20078592","AddressId":"590444252","RoadLinkId":"293628425"}}},{"Relevance":1.0,"Distance":66.9,"MatchLevel":"street","MatchQuality":{"Country":1.0,"State":1.0,"County":1.0,"City":1.0,"Street":[1.0],"PostalCode":1.0},"Location":{"LocationId":"NT_xVL4IQApS8GleTjSM0y2AA_l_1161516171_R","LocationType":"point","DisplayPosition":{"Latitude":49.53825,"Longitude":0.1462},"MapView":{"TopLeft":{"Latitude":49.53834,"Longitude":0.1462},"BottomRight":{"Latitude":49.53825,"Longitude":0.14621}},"Address":{"Label":"Avenue Jean Jaurès, 76290 Fontaine-la-Mallet, France","Country":"FRA","State":"Normandie","County":"Seine-Maritime","City":"Fontaine-la-Mallet","Street":"Avenue Jean Jaurès","PostalCode":"76290","AdditionalData":[{"value":"France","key":"CountryName"},{"value":"Normandie","key":"StateName"},{"value":"Seine-Maritime","key":"CountyName"}]},"MapReference":{"ReferenceId":"1161516171","Spot":0.0,"SideOfStreet":"right","CountryId":"20000001","StateId":"20057204","CountyId":"20038936","CityId":"20078592"}}},{"Relevance":1.0,"Distance":73.9,"MatchLevel":"houseNumber","MatchQuality":{"Country":1.0,"State":1.0,"County":1.0,"City":1.0,"Street":[1.0],"HouseNumber":1.0,"PostalCode":1.0},"MatchType":"interpolated","Location":{"LocationId":"NT_hWZ8aH7xV01mODrnkNp3HD_yA","LocationType":"point","DisplayPosition":{"Latitude":49.53828,"Longitude":0.14607},"MapView":{"TopLeft":{"Latitude":49.5394042,"Longitude":0.1443377},"BottomRight":{"Latitude":49.5371558,"Longitude":0.1478023}},"Address":{"Label":"2 Rue de la Fontaine aux Cailloux, 76290 Fontaine-la-Mallet, France","Country":"FRA","State":"Normandie","County":"Seine-Maritime","City":"Fontaine-la-Mallet","Street":"Rue de la Fontaine aux Cailloux","HouseNumber":"2","PostalCode":"76290","AdditionalData":[{"value":"France","key":"CountryName"},{"value":"Normandie","key":"StateName"},{"value":"Seine-Maritime","key":"CountyName"}]},"MapReference":{"ReferenceId":"59252994","Spot":0.06,"SideOfStreet":"right","CountryId":"20000001","StateId":"20057204","CountyId":"20038936","CityId":"20078592","AddressId":"571019726","RoadLinkId":"47161713"}}},{"Relevance":1.0,"Distance":80.5,"MatchLevel":"houseNumber","MatchQuality":{"Country":1.0,"State":1.0,"County":1.0,"City":1.0,"Street":[1.0],"HouseNumber":1.0,"PostalCode":1.0},"MatchType":"interpolated","Location":{"LocationId":"NT_-NP3k1sLzRHk4ZG8.u5LsC_5A","LocationType":"point","DisplayPosition":{"Latitude":49.53761,"Longitude":0.14783},"MapView":{"TopLeft":{"Latitude":49.5387342,"Longitude":0.1460977},"BottomRight":{"Latitude":49.5364858,"Longitude":0.1495623}},"Address":{"Label":"9 Impasse du Clos aux Pommiers, 76290 Fontaine-la-Mallet, France","Country":"FRA","State":"Normandie","County":"Seine-Maritime","City":"Fontaine-la-Mallet","Street":"Impasse du Clos aux Pommiers","HouseNumber":"9","PostalCode":"76290","AdditionalData":[{"value":"France","key":"CountryName"},{"value":"Normandie","key":"StateName"},{"value":"Seine-Maritime","key":"CountyName"}]},"MapReference":{"ReferenceId":"945151203","Spot":0.28,"SideOfStreet":"left","CountryId":"20000001","StateId":"20057204","CountyId":"20038936","CityId":"20078592","AddressId":"371059994","RoadLinkId":"293628427"}}},{"Relevance":1.0,"Distance":88.4,"MatchLevel":"houseNumber","MatchQuality":{"Country":1.0,"State":1.0,"County":1.0,"City":1.0,"Street":[1.0],"HouseNumber":1.0,"PostalCode":1.0},"MatchType":"interpolated","Location":{"LocationId":"NT_5UgbUyKi08WvtxTaatBdPC_1gD","LocationType":"point","DisplayPosition":{"Latitude":49.53847,"Longitude":0.14622},"MapView":{"TopLeft":{"Latitude":49.5395942,"Longitude":0.1444877},"BottomRight":{"Latitude":49.5373458,"Longitude":0.1479523}},"Address":{"Label":"58 Avenue Jean Jaurès, 76290 Fontaine-la-Mallet, France","Country":"FRA","State":"Normandie","County":"Seine-Maritime","City":"Fontaine-la-Mallet","Street":"Avenue Jean Jaurès","HouseNumber":"58","PostalCode":"76290","AdditionalData":[{"value":"France","key":"CountryName"},{"value":"Normandie","key":"StateName"},{"value":"Seine-Maritime","key":"CountyName"}]},"MapReference":{"ReferenceId":"1161516172","Spot":0.27,"SideOfStreet":"right","CountryId":"20000001","StateId":"20057204","CountyId":"20038936","CityId":"20078592","AddressId":"571132387","RoadLinkId":"467763193"}}},{"Relevance":1.0,"Distance":103.3,"MatchLevel":"houseNumber","MatchQuality":{"Country":1.0,"State":1.0,"County":1.0,"City":1.0,"Street":[1.0],"HouseNumber":1.0,"PostalCode":1.0},"MatchType":"interpolated","Location":{"LocationId":"NT_VcZd4DDSnNSBgJa2Ss-hqB_l_945151202_R_4A","LocationType":"point","DisplayPosition":{"Latitude":49.5383701,"Longitude":0.1477062},"MapView":{"TopLeft":{"Latitude":49.5394942,"Longitude":0.1459739},"BottomRight":{"Latitude":49.5372459,"Longitude":0.1494385}},"Address":{"Label":"8 Rue de Freville, 76290 Fontaine-la-Mallet, France","Country":"FRA","State":"Normandie","County":"Seine-Maritime","City":"Fontaine-la-Mallet","Street":"Rue de Freville","HouseNumber":"8","PostalCode":"76290","AdditionalData":[{"value":"France","key":"CountryName"},{"value":"Normandie","key":"StateName"},{"value":"Seine-Maritime","key":"CountyName"}]},"MapReference":{"ReferenceId":"945151202","Spot":0.49,"SideOfStreet":"right","CountryId":"20000001","StateId":"20057204","CountyId":"20038936","CityId":"20078592"}}}]}]}}