{"Response":{"MetaInfo":{"Timestamp":"2020-03-28T11:12:35.570+0000","NextPageInformation":"2"},"View":[{"_type":"SearchResultsViewType","ViewId":0,"Result":[{"Relevance":1.0,"Distance":0.0,"Direction":0.0,"MatchLevel":"city","MatchQuality":{"Country":1.0,"State":1.0,"County":1.0,"City":1.0,"PostalCode":1.0},"Location":{"LocationId":"NT_E40um6MmqwRkc5NXuVK8KC","LocationType":"point","DisplayPosition":{"Latitude":49.5676339,"Longitude":0.4670689},"MapView":{"TopLeft":{"Latitude":49.59467,"Longitude":0.44573},"BottomRight":{"Latitude":49.55623,"Longitude":0.51999}},"Address":{"Label":"Bolbec, Normandie, France","Country":"FRA","State":"Normandie","County":"Seine-Maritime","City":"Bolbec","PostalCode":"76210","AdditionalData":[{"value":"France","key":"CountryName"},{"value":"Normandie","key":"StateName"},{"value":"Seine-Maritime","key":"CountyName"}]},"MapReference":{"ReferenceId":"57028739","SideOfStreet":"neither","CountryId":"20000001","StateId":"20057204","CountyId":"20038936","CityId":"20078130"}}},{"Relevance":1.0,"Distance":4.8,"MatchLevel":"houseNumber","MatchQuality":{"Country":1.0,"State":1.0,"County":1.0,"City":1.0,"Street":[1.0],"HouseNumber":1.0,"PostalCode":1.0},"MatchType":"interpolated","Location":{"LocationId":"NT_Lxgt-8Lq7qrjBAdLAG7G3C_l_545576320_R_0ITM","LocationType":"point","DisplayPosition":{"Latitude":49.5676531,"Longitude":0.4670087},"MapView":{"TopLeft":{"Latitude":49.5687773,"Longitude":0.4652754},"BottomRight":{"Latitude":49.566529,"Longitude":0.4687421}},"Address":{"Label":"421 Rue Lechaptois, 76210 Bolbec, France","Country":"FRA","State":"Normandie","County":"Seine-Maritime","City":"Bolbec","Street":"Rue Lechaptois","HouseNumber":"421","PostalCode":"76210","AdditionalData":[{"value":"France","key":"CountryName"},{"value":"Normandie","key":"StateName"},{"value":"Seine-Maritime","key":"CountyName"}]},"MapReference":{"ReferenceId":"545576320","Spot":0.9,"SideOfStreet":"right","CountryId":"20000001","StateId":"20057204","CountyId":"20038936","CityId":"20078130"}}},{"Relevance":1.0,"Distance":12.5,"MatchLevel":"street","MatchQuality":{"Country":1.0,"State":1.0,"County":1.0,"City":1.0,"Street":[1.0],"PostalCode":1.0},"Location":{"LocationId":"NT_OTh4yDvbVWupGMogkn7JaA_l_545576150_R","LocationType":"point","DisplayPosition":{"Latitude":49.5675213,"Longitude":0.4670633},"MapView":{"TopLeft":{"Latitude":49.56753,"Longitude":0.46689},"BottomRight":{"Latitude":49.5675,"Longitude":0.46749}},"Address":{"Label":"Rue du Docteur Georges Auger, 76210 Bolbec, France","Country":"FRA","State":"Normandie","County":"Seine-Maritime","City":"Bolbec","Street":"Rue du Docteur Georges Auger","PostalCode":"76210","AdditionalData":[{"value":"France","key":"CountryName"},{"value":"Normandie","key":"StateName"},{"value":"Seine-Maritime","key":"CountyName"}]},"MapReference":{"ReferenceId":"545576150","Spot":0.71,"SideOfStreet":"right","CountryId":"20000001","StateId":"20057204","CountyId":"20038936","CityId":"20078130"}}},{"Relevance":1.0,"Distance":14.2,"MatchLevel":"houseNumber","MatchQuality":{"Country":1.0,"State":1.0,"County":1.0,"City":1.0,"Street":[1.0],"HouseNumber":1.0,"PostalCode":1.0},"MatchType":"interpolated","Location":{"LocationId":"NT_WlwxWohtQcHLoXRIBnjN.A_xMD","LocationType":"point","DisplayPosition":{"Latitude":49.5677,"Longitude":0.46693},"MapView":{"TopLeft":{"Latitude":49.5688242,"Longitude":0.4651967},"BottomRight":{"Latitude":49.5665758,"Longitude":0.4686633}},"Address":{"Label":"13 Rue Henri Fleury, 76210 Bolbec, France","Country":"FRA","State":"Normandie","County":"Seine-Maritime","City":"Bolbec","Street":"Rue Henri Fleury","HouseNumber":"13","PostalCode":"76210","AdditionalData":[{"value":"France","key":"CountryName"},{"value":"Normandie","key":"StateName"},{"value":"Seine-Maritime","key":"CountyName"}]},"MapReference":{"ReferenceId":"545576324","Spot":0.11,"SideOfStreet":"right","CountryId":"20000001","StateId":"20057204","CountyId":"20038936","CityId":"20078130","AddressId":"674164284","RoadLinkId":"47944281"}}},{"Relevance":1.0,"Distance":17.3,"MatchLevel":"houseNumber","MatchQuality":{"Country":1.0,"State":1.0,"County":1.0,"City":1.0,"Street":[1.0],"HouseNumber":1.0,"PostalCode":1.0},"MatchType":"interpolated","Location":{"LocationId":"NT_TZUfJtyOXf.cp0qbEg85cA_xEE","LocationType":"point","DisplayPosition":{"Latitude":49.56753,"Longitude":0.46689},"MapView":{"TopLeft":{"Latitude":49.5686542,"Longitude":0.4651567},"BottomRight":{"Latitude":49.5664058,"Longitude":0.4686233}},"Address":{"Label":"1A Rue du Champ des Oiseaux, 76210 Bolbec, France","Country":"FRA","State":"Normandie","County":"Seine-Maritime","City":"Bolbec","Street":"Rue du Champ des Oiseaux","HouseNumber":"1A","PostalCode":"76210","AdditionalData":[{"value":"France","key":"CountryName"},{"value":"Normandie","key":"StateName"},{"value":"Seine-Maritime","key":"CountyName"}]},"MapReference":{"ReferenceId":"545576157","Spot":1.0,"SideOfStreet":"right","CountryId":"20000001","StateId":"20057204","CountyId":"20038936","CityId":"20078130","AddressId":"316808536","RoadLinkId":"47973887"}}},{"Relevance":1.0,"Distance":18.2,"MatchLevel":"houseNumber","MatchQuality":{"Country":1.0,"State":1.0,"County":1.0,"City":1.0,"Street":[1.0],"HouseNumber":1.0,"PostalCode":1.0},"MatchType":"interpolated","Location":{"LocationId":"NT_Lxgt-8Lq7qrjBAdLAG7G3C_l_545576322_R_0ETO","LocationType":"point","DisplayPosition":{"Latitude":49.5678274,"Longitude":0.4671367},"MapView":{"TopLeft":{"Latitude":49.5689515,"Longitude":0.4654033},"BottomRight":{"Latitude":49.5667032,"Longitude":0.46887}},"Address":{"Label":"419 Rue Lechaptois, 76210 Bolbec, France","Country":"FRA","State":"Normandie","County":"Seine-Maritime","City":"Bolbec","Street":"Rue Lechaptois","HouseNumber":"419","PostalCode":"76210","AdditionalData":[{"value":"France","key":"CountryName"},{"value":"Normandie","key":"StateName"},{"value":"Seine-Maritime","key":"CountyName"}]},"MapReference":{"ReferenceId":"545576322","Spot":0.49,"SideOfStreet":"right","CountryId":"20000001","StateId":"20057204","CountyId":"20038936","CityId":"20078130"}}},{"Relevance":1.0,"Distance":33.8,"MatchLevel":"street","MatchQuality":{"Country":1.0,"State":1.0,"County":1.0,"City":1.0,"Street":[1.0],"PostalCode":1.0},"Location":{"LocationId":"NT_OTh4yDvbVWupGMogkn7JaA_l_545576154_L","LocationType":"point","DisplayPosition":{"Latitude":49.5675,"Longitude":0.46749},"MapView":{"TopLeft":{"Latitude":49.56751,"Longitude":0.46749},"BottomRight":{"Latitude":49.5675,"Longitude":0.46773}},"Address":{"Label":"Rue du Docteur Georges Auger, 76210 Bolbec, France","Country":"FRA","State":"Normandie","County":"Seine-Maritime","City":"Bolbec","Street":"Rue du Docteur Georges Auger","PostalCode":"76210","AdditionalData":[{"value":"France","key":"CountryName"},{"value":"Normandie","key":"StateName"},{"value":"Seine-Maritime","key":"CountyName"}]},"MapReference":{"ReferenceId":"545576154","Spot":0.0,"SideOfStreet":"left","CountryId":"20000001","StateId":"20057204","CountyId":"20038936","CityId":"20078130"}}},{"Relevance":1.0,"Distance":59.2,"MatchLevel":"houseNumber","MatchQuality":{"Country":1.0,"State":1.0,"County":1.0,"City":1.0,"Street":[1.0],"HouseNumber":1.0,"PostalCode":1.0},"MatchType":"interpolated","Location":{"LocationId":"NT_Lxgt-8Lq7qrjBAdLAG7G3C_l_545576329_R_zMTO","LocationType":"point","DisplayPosition":{"Latitude":49.5681771,"Longitude":0.4674161},"MapView":{"TopLeft":{"Latitude":49.5693013,"Longitude":0.4656827},"BottomRight":{"Latitude":49.567053,"Longitude":0.4691495}},"Address":{"Label":"339 Rue Lechaptois, 76210 Bolbec, France","Country":"FRA","State":"Normandie","County":"Seine-Maritime","City":"Bolbec","Street":"Rue Lechaptois","HouseNumber":"339","PostalCode":"76210","AdditionalData":[{"value":"France","key":"CountryName"},{"value":"Normandie","key":"StateName"},{"value":"Seine-Maritime","key":"CountyName"}]},"MapReference":{"ReferenceId":"545576329","Spot":0.5,"SideOfStreet":"right","CountryId":"20000001","StateId":"20057204","CountyId":"20038936","CityId":"20078130"}}},{"Relevance":1.0,"Distance":61.2,"MatchLevel":"houseNumber","MatchQuality":{"Country":1.0,"State":1.0,"County":1.0,"City":1.0,"Street":[1.0],"HouseNumber":1.0,"PostalCode":1.0},"MatchType":"interpolated","Location":{"LocationId":"NT_fb61HhsF0U7x3eHfa5tLAC_xQD","LocationType":"point","DisplayPosition":{"Latitude":49.56721,"Longitude":0.46761},"MapView":{"TopLeft":{"Latitude":49.5683342,"Longitude":0.4658767},"BottomRight":{"Latitude":49.5660858,"Longitude":0.4693433}},"Address":{"Label":"14 Rue de Bellevue, 76210 Bolbec, France","Country":"FRA","State":"Normandie","County":"Seine-Maritime","City":"Bolbec","Street":"Rue de Bellevue","HouseNumber":"14","PostalCode":"76210","AdditionalData":[{"value":"France","key":"CountryName"},{"value":"Normandie","key":"StateName"},{"value":"Seine-Maritime","key":"CountyName"}]},"MapReference":{"ReferenceId":"545576149","Spot":0.7,"SideOfStreet":"right","CountryId":"20000001","StateId":"20057204","CountyId":"20038936","CityId":"20078130","AddressId":"379341381","RoadLinkId":"47562848"}}},{"Relevance":1.0,"Distance":71.4,"MatchLevel":"houseNumber","MatchQuality":{"Country":1.0,"State":1.0,"County":1.0,"City":1.0,"Street":[1.0],"HouseNumber":1.0,"PostalCode":1.0},"MatchType":"interpolated","Location":{"LocationId":"NT_OTh4yDvbVWupGMogkn7JaA_xID","LocationType":"point","DisplayPosition":{"Latitude":49.56748,"Longitude":0.46803},"MapView":{"TopLeft":{"Latitude":49.5686042,"Longitude":0.4662967},"BottomRight":{"Latitude":49.5663558,"Longitude":0.4697633}},"Address":{"Label":"12 Rue du Docteur Georges Auger, 76210 Bolbec, France","Country":"FRA","State":"Normandie","County":"Seine-Maritime","City":"Bolbec","Street":"Rue du Docteur Georges Auger","HouseNumber":"12","PostalCode":"76210","AdditionalData":[{"value":"France","key":"CountryName"},{"value":"Normandie","key":"StateName"},{"value":"Seine-Maritime","key":"CountyName"}]},"MapReference":{"ReferenceId":"545576139","Spot":0.6,"SideOfStreet":"right","CountryId":"20000001","StateId":"20057204","CountyId":"20038936","CityId":"20078130","AddressId":"571074478","RoadLinkId":"47368221"}}}]}]}}