{"Response":{"MetaInfo":{"Timestamp":"2020-03-28T10:16:30.305+0000","NextPageInformation":"2"},"View":[{"_type":"SearchResultsViewType","ViewId":0,"Result":[{"Relevance":1.0,"Distance":0.0,"Direction":0.0,"MatchLevel":"district","MatchQuality":{"Country":1.0,"State":1.0,"County":1.0,"City":1.0,"District":1.0,"PostalCode":1.0},"Location":{"LocationId":"NT_E-Xw2Xbn7q1F7o4c2KwZtD","LocationType":"point","DisplayPosition":{"Latitude":49.582381,"Longitude":13.5360448},"MapView":{"TopLeft":{"Latitude":49.59066,"Longitude":13.5247},"BottomRight":{"Latitude":49.5695,"Longitude":13.55317}},"Address":{"Label":"Blovice, Plzeňský kraj, Česká Republika","Country":"CZE","State":"Plzeňský kraj","County":"Plzeň-jih","City":"Blovice","District":"Blovice","PostalCode":"336 01","AdditionalData":[{"value":"Česká Republika","key":"CountryName"},{"value":"Plzeňský kraj","key":"StateName"},{"value":"Plzeň-jih","key":"CountyName"}]},"MapReference":{"ReferenceId":"977090136","SideOfStreet":"neither","CountryId":"20427915","StateId":"20441121","CountyId":"20441676","CityId":"20441677","DistrictId":"20441678"}}},{"Relevance":1.0,"Distance":6.9,"MatchLevel":"houseNumber","MatchQuality":{"Country":1.0,"State":1.0,"County":1.0,"City":1.0,"District":1.0,"Street":[1.0],"HouseNumber":1.0,"PostalCode":1.0},"MatchType":"interpolated","Location":{"LocationId":"NT_9YLcl0bGb0wwNIs469aEfA_yQjN","LocationType":"point","DisplayPosition":{"Latitude":49.5824,"Longitude":13.53591},"MapView":{"TopLeft":{"Latitude":49.5835242,"Longitude":13.5341761},"BottomRight":{"Latitude":49.5812758,"Longitude":13.5376439}},"Address":{"Label":"Palackého 246, 336 01 Blovice, Česká Republika","Country":"CZE","State":"Plzeňský kraj","County":"Plzeň-jih","City":"Blovice","District":"Blovice","Street":"Palackého","HouseNumber":"246","PostalCode":"336 01","AdditionalData":[{"value":"Česká Republika","key":"CountryName"},{"value":"Plzeňský kraj","key":"StateName"},{"value":"Plzeň-jih","key":"CountyName"}]},"MapReference":{"ReferenceId":"704500345","Spot":0.76,"SideOfStreet":"right","CountryId":"20427915","StateId":"20441121","CountyId":"20441676","CityId":"20441677","DistrictId":"20441678","AddressId":"239964356","RoadLinkId":"105896338"}}},{"Relevance":1.0,"Distance":24.1,"MatchLevel":"street","MatchQuality":{"Country":1.0,"State":1.0,"County":1.0,"City":1.0,"District":1.0,"PostalCode":1.0},"Location":{"LocationId":"NT_cHQ8LPp4EGcQtMXWZAiuLA_l_704500344_R","LocationType":"point","DisplayPosition":{"Latitude":49.58233,"Longitude":13.53637},"MapView":{"TopLeft":{"Latitude":49.58264,"Longitude":13.53637},"BottomRight":{"Latitude":49.58221,"Longitude":13.5367}},"Address":{"Label":"336 01 Blovice, Česká Republika","Country":"CZE","State":"Plzeňský kraj","County":"Plzeň-jih","City":"Blovice","District":"Blovice","PostalCode":"336 01","AdditionalData":[{"value":"Česká Republika","key":"CountryName"},{"value":"Plzeňský kraj","key":"StateName"},{"value":"Plzeň-jih","key":"CountyName"}]},"MapReference":{"ReferenceId":"704500344","Spot":0.0,"SideOfStreet":"right","CountryId":"20427915","StateId":"20441121","CountyId":"20441676","CityId":"20441677","DistrictId":"20441678"}}},{"Relevance":1.0,"Distance":58.1,"MatchLevel":"houseNumber","MatchQuality":{"Country":1.0,"State":1.0,"County":1.0,"City":1.0,"District":1.0,"Street":[1.0],"HouseNumber":1.0,"PostalCode":1.0},"MatchType":"interpolated","Location":{"LocationId":"NT_9YLcl0bGb0wwNIs469aEfA_1ITN","LocationType":"point","DisplayPosition":{"Latitude":49.58271,"Longitude":13.53667},"MapView":{"TopLeft":{"Latitude":49.5838342,"Longitude":13.5349361},"BottomRight":{"Latitude":49.5815858,"Longitude":13.5384039}},"Address":{"Label":"Palackého 525, 336 01 Blovice, Česká Republika","Country":"CZE","State":"Plzeňský kraj","County":"Plzeň-jih","City":"Blovice","District":"Blovice","Street":"Palackého","HouseNumber":"525","PostalCode":"336 01","AdditionalData":[{"value":"Česká Republika","key":"CountryName"},{"value":"Plzeňský kraj","key":"StateName"},{"value":"Plzeň-jih","key":"CountyName"}]},"MapReference":{"ReferenceId":"704500338","Spot":0.44,"SideOfStreet":"right","CountryId":"20427915","StateId":"20441121","CountyId":"20441676","CityId":"20441677","DistrictId":"20441678","AddressId":"239636219","RoadLinkId":"105896331"}}},{"Relevance":1.0,"Distance":70.5,"MatchLevel":"houseNumber","MatchQuality":{"Country":1.0,"State":1.0,"County":1.0,"City":1.0,"District":1.0,"Street":[1.0],"HouseNumber":1.0,"PostalCode":1.0},"MatchType":"interpolated","Location":{"LocationId":"NT_ouwiOzisPgl0ErqxK-AS1A_yQTM","LocationType":"point","DisplayPosition":{"Latitude":49.58277,"Longitude":13.53696},"MapView":{"TopLeft":{"Latitude":49.5838942,"Longitude":13.5352261},"BottomRight":{"Latitude":49.5816458,"Longitude":13.5386939}},"Address":{"Label":"5. května 241, 336 01 Blovice, Česká Republika","Country":"CZE","State":"Plzeňský kraj","County":"Plzeň-jih","City":"Blovice","District":"Blovice","Street":"5. května","HouseNumber":"241","PostalCode":"336 01","AdditionalData":[{"value":"Česká Republika","key":"CountryName"},{"value":"Plzeňský kraj","key":"StateName"},{"value":"Plzeň-jih","key":"CountyName"}]},"MapReference":{"ReferenceId":"704500339","Spot":0.97,"SideOfStreet":"left","CountryId":"20427915","StateId":"20441121","CountyId":"20441676","CityId":"20441677","DistrictId":"20441678","AddressId":"240917306","RoadLinkId":"105896332"}}},{"Relevance":1.0,"Distance":84.7,"MatchLevel":"street","MatchQuality":{"Country":1.0,"State":1.0,"County":1.0,"City":1.0,"District":1.0,"PostalCode":1.0},"Location":{"LocationId":"NT_cHQ8LPp4EGcQtMXWZAiuLA_l_704500459_L","LocationType":"point","DisplayPosition":{"Latitude":49.5816198,"Longitude":13.5360933},"MapView":{"TopLeft":{"Latitude":49.58171,"Longitude":13.53462},"BottomRight":{"Latitude":49.58102,"Longitude":13.53758}},"Address":{"Label":"336 01 Blovice, Česká Republika","Country":"CZE","State":"Plzeňský kraj","County":"Plzeň-jih","City":"Blovice","District":"Blovice","PostalCode":"336 01","AdditionalData":[{"value":"Česká Republika","key":"CountryName"},{"value":"Plzeňský kraj","key":"StateName"},{"value":"Plzeň-jih","key":"CountyName"}]},"MapReference":{"ReferenceId":"704500459","Spot":0.48,"SideOfStreet":"left","CountryId":"20427915","StateId":"20441121","CountyId":"20441676","CityId":"20441677","DistrictId":"20441678"}}},{"Relevance":1.0,"Distance":94.7,"MatchLevel":"houseNumber","MatchQuality":{"Country":1.0,"State":1.0,"County":1.0,"City":1.0,"District":1.0,"Street":[1.0],"HouseNumber":1.0,"PostalCode":1.0},"MatchType":"interpolated","Location":{"LocationId":"NT_ouwiOzisPgl0ErqxK-AS1A_1kDM","LocationType":"point","DisplayPosition":{"Latitude":49.58333,"Longitude":13.53612},"MapView":{"TopLeft":{"Latitude":49.5844542,"Longitude":13.5343861},"BottomRight":{"Latitude":49.5822058,"Longitude":13.5378539}},"Address":{"Label":"5. května 590, 336 01 Blovice, Česká Republika","Country":"CZE","State":"Plzeňský kraj","County":"Plzeň-jih","City":"Blovice","District":"Blovice","Street":"5. května","HouseNumber":"590","PostalCode":"336 01","AdditionalData":[{"value":"Česká Republika","key":"CountryName"},{"value":"Plzeňský kraj","key":"StateName"},{"value":"Plzeň-jih","key":"CountyName"}]},"MapReference":{"ReferenceId":"704500333","Spot":0.74,"SideOfStreet":"left","CountryId":"20427915","StateId":"20441121","CountyId":"20441676","CityId":"20441677","DistrictId":"20441678","AddressId":"240382059","RoadLinkId":"105896326"}}},{"Relevance":1.0,"Distance":103.3,"MatchLevel":"houseNumber","MatchQuality":{"Country":1.0,"State":1.0,"County":1.0,"City":1.0,"District":1.0,"Street":[1.0],"HouseNumber":1.0,"PostalCode":1.0},"MatchType":"interpolated","Location":{"LocationId":"NT_G9EIzPUd8A0x.-dWOVnRqD_3UTN","LocationType":"point","DisplayPosition":{"Latitude":49.58329,"Longitude":13.53511},"MapView":{"TopLeft":{"Latitude":49.5844142,"Longitude":13.5333761},"BottomRight":{"Latitude":49.5821658,"Longitude":13.5368439}},"Address":{"Label":"Družstevní 755, 336 01 Blovice, Česká Republika","Country":"CZE","State":"Plzeňský kraj","County":"Plzeň-jih","City":"Blovice","District":"Blovice","Street":"Družstevní","HouseNumber":"755","PostalCode":"336 01","AdditionalData":[{"value":"Česká Republika","key":"CountryName"},{"value":"Plzeňský kraj","key":"StateName"},{"value":"Plzeň-jih","key":"CountyName"}]},"MapReference":{"ReferenceId":"1088224095","Spot":0.18,"SideOfStreet":"right","CountryId":"20427915","StateId":"20441121","CountyId":"20441676","CityId":"20441677","DistrictId":"20441678","AddressId":"240776916","RoadLinkId":"403344080"}}},{"Relevance":1.0,"Distance":108.2,"MatchLevel":"houseNumber","MatchQuality":{"Country":1.0,"State":1.0,"County":1.0,"City":1.0,"District":1.0,"Street":[1.0],"HouseNumber":1.0,"PostalCode":1.0},"MatchType":"interpolated","Location":{"LocationId":"NT_G9EIzPUd8A0x.-dWOVnRqD_3UjN","LocationType":"point","DisplayPosition":{"Latitude":49.5832,"Longitude":13.53489},"MapView":{"TopLeft":{"Latitude":49.5843242,"Longitude":13.5331561},"BottomRight":{"Latitude":49.5820758,"Longitude":13.5366239}},"Address":{"Label":"Družstevní 756, 336 01 Blovice, Česká Republika","Country":"CZE","State":"Plzeňský kraj","County":"Plzeň-jih","City":"Blovice","District":"Blovice","Street":"Družstevní","HouseNumber":"756","PostalCode":"336 01","AdditionalData":[{"value":"Česká Republika","key":"CountryName"},{"value":"Plzeňský kraj","key":"StateName"},{"value":"Plzeň-jih","key":"CountyName"}]},"MapReference":{"ReferenceId":"1088224094","Spot":0.97,"SideOfStreet":"right","CountryId":"20427915","StateId":"20441121","CountyId":"20441676","CityId":"20441677","DistrictId":"20441678","AddressId":"240776915","RoadLinkId":"403344079"}}},{"Relevance":1.0,"Distance":115.2,"MatchLevel":"houseNumber","MatchQuality":{"Country":1.0,"State":1.0,"County":1.0,"City":1.0,"District":1.0,"Street":[1.0],"HouseNumber":1.0,"PostalCode":1.0},"MatchType":"interpolated","Location":{"LocationId":"NT_5BYgr4DYYYEkDBfq2gw6nB_yMTO","LocationType":"point","DisplayPosition":{"Latitude":49.58296,"Longitude":13.53737},"MapView":{"TopLeft":{"Latitude":49.5840842,"Longitude":13.5356361},"BottomRight":{"Latitude":49.5818358,"Longitude":13.5391039}},"Address":{"Label":"Branka 239, 336 01 Blovice, Česká Republika","Country":"CZE","State":"Plzeňský kraj","County":"Plzeň-jih","City":"Blovice","District":"Blovice","Street":"Branka","HouseNumber":"239","PostalCode":"336 01","AdditionalData":[{"value":"Česká Republika","key":"CountryName"},{"value":"Plzeňský kraj","key":"StateName"},{"value":"Plzeň-jih","key":"CountyName"}]},"MapReference":{"ReferenceId":"704500337","Spot":0.72,"SideOfStreet":"right","CountryId":"20427915","StateId":"20441121","CountyId":"20441676","CityId":"20441677","DistrictId":"20441678","AddressId":"240904661","RoadLinkId":"105896330"}}}]}]}}