{"Response":{"MetaInfo":{"Timestamp":"2020-03-28T11:30:15.452+0000","NextPageInformation":"2"},"View":[{"_type":"SearchResultsViewType","ViewId":0,"Result":[{"Relevance":1.0,"Distance":0.0,"Direction":0.0,"MatchLevel":"district","MatchQuality":{"Country":1.0,"State":1.0,"County":1.0,"City":1.0,"District":1.0,"PostalCode":1.0},"Location":{"LocationId":"NT_inw9ce6yJ8UkaZQL0q.UlB","LocationType":"point","DisplayPosition":{"Latitude":49.5624136,"Longitude":20.6314663},"MapView":{"TopLeft":{"Latitude":49.57279,"Longitude":20.61047},"BottomRight":{"Latitude":49.53428,"Longitude":20.65975}},"Address":{"Label":"Stary Sącz, Woj. Małopolskie, Polska","Country":"POL","State":"Woj. Małopolskie","County":"Powiat Nowosądecki","City":"Stary Sącz","District":"Stary Sącz","PostalCode":"33-340","AdditionalData":[{"value":"Polska","key":"CountryName"},{"value":"Woj. Małopolskie","key":"StateName"},{"value":"Powiat Nowosądecki","key":"CountyName"}]},"MapReference":{"ReferenceId":"917290148","SideOfStreet":"neither","CountryId":"20624059","StateId":"20626775","CountyId":"20626967","CityId":"20626998","DistrictId":"20686542"}}},{"Relevance":1.0,"Distance":7.8,"MatchLevel":"street","MatchQuality":{"Country":1.0,"State":1.0,"County":1.0,"City":1.0,"District":1.0,"PostalCode":1.0},"Location":{"LocationId":"NT_VgKf.Gx4JxNoTpt0Pn.qOB_l_1231695826_R","LocationType":"point","DisplayPosition":{"Latitude":49.5623953,"Longitude":20.6313616},"MapView":{"TopLeft":{"Latitude":49.56277,"Longitude":20.63131},"BottomRight":{"Latitude":49.56229,"Longitude":20.63138}},"Address":{"Label":"33-340 Stary Sącz, Polska","Country":"POL","State":"Woj. Małopolskie","County":"Powiat Nowosądecki","City":"Stary Sącz","District":"Stary Sącz","PostalCode":"33-340","AdditionalData":[{"value":"Polska","key":"CountryName"},{"value":"Woj. Małopolskie","key":"StateName"},{"value":"Powiat Nowosądecki","key":"CountyName"}]},"MapReference":{"ReferenceId":"1231695826","Spot":0.22,"SideOfStreet":"right","CountryId":"20624059","StateId":"20626775","CountyId":"20626967","CityId":"20626998","DistrictId":"20686542"}}},{"Relevance":1.0,"Distance":27.5,"MatchLevel":"houseNumber","MatchQuality":{"Country":1.0,"State":1.0,"County":1.0,"City":1.0,"District":1.0,"Street":[1.0],"HouseNumber":1.0,"PostalCode":1.0},"MatchType":"interpolated","Location":{"LocationId":"NT_Upl5s.RvD8zfc83C1BL3MC_xgD","LocationType":"point","DisplayPosition":{"Latitude":49.56279,"Longitude":20.63146},"MapView":{"TopLeft":{"Latitude":49.5639142,"Longitude":20.6297268},"BottomRight":{"Latitude":49.5616658,"Longitude":20.6331932}},"Address":{"Label":"ulica Królowej Jadwigi 18, 33-340 Stary Sącz, Polska","Country":"POL","State":"Woj. Małopolskie","County":"Powiat Nowosądecki","City":"Stary Sącz","District":"Stary Sącz","Street":"ulica Królowej Jadwigi","HouseNumber":"18","PostalCode":"33-340","AdditionalData":[{"value":"Polska","key":"CountryName"},{"value":"Woj. Małopolskie","key":"StateName"},{"value":"Powiat Nowosądecki","key":"CountyName"}]},"MapReference":{"ReferenceId":"1231695824","Spot":0.06,"SideOfStreet":"right","CountryId":"20624059","StateId":"20626775","CountyId":"20626967","CityId":"20626998","DistrictId":"20686542","AddressId":"211546432","RoadLinkId":"551323197"}}},{"Relevance":1.0,"Distance":40.8,"MatchLevel":"street","MatchQuality":{"Country":1.0,"State":1.0,"County":1.0,"City":1.0,"District":1.0,"Street":[1.0],"PostalCode":1.0},"Location":{"LocationId":"NT_Upl5s.RvD8zfc83C1BL3MC_l_1231695825_R","LocationType":"point","DisplayPosition":{"Latitude":49.56277,"Longitude":20.63133},"MapView":{"TopLeft":{"Latitude":49.56382,"Longitude":20.631},"BottomRight":{"Latitude":49.56277,"Longitude":20.63133}},"Address":{"Label":"ulica Królowej Jadwigi, 33-340 Stary Sącz, Polska","Country":"POL","State":"Woj. Małopolskie","County":"Powiat Nowosądecki","City":"Stary Sącz","District":"Stary Sącz","Street":"ulica Królowej Jadwigi","PostalCode":"33-340","AdditionalData":[{"value":"Polska","key":"CountryName"},{"value":"Woj. Małopolskie","key":"StateName"},{"value":"Powiat Nowosądecki","key":"CountyName"}]},"MapReference":{"ReferenceId":"1231695825","Spot":0.0,"SideOfStreet":"right","CountryId":"20624059","StateId":"20626775","CountyId":"20626967","CityId":"20626998","DistrictId":"20686542"}}},{"Relevance":1.0,"Distance":47.1,"MatchLevel":"houseNumber","MatchQuality":{"Country":1.0,"State":1.0,"County":1.0,"City":1.0,"District":1.0,"Street":[1.0],"HouseNumber":1.0,"PostalCode":1.0},"MatchType":"interpolated","Location":{"LocationId":"NT_Byg74FPNgHBUeifkqE5C-D_yMD","LocationType":"point","DisplayPosition":{"Latitude":49.56194,"Longitude":20.63126},"MapView":{"TopLeft":{"Latitude":49.5630642,"Longitude":20.6295269},"BottomRight":{"Latitude":49.5608158,"Longitude":20.6329931}},"Address":{"Label":"ulica Stefana Czarnieckiego 23, 33-340 Stary Sącz, Polska","Country":"POL","State":"Woj. Małopolskie","County":"Powiat Nowosądecki","City":"Stary Sącz","District":"Stary Sącz","Street":"ulica Stefana Czarnieckiego","HouseNumber":"23","PostalCode":"33-340","AdditionalData":[{"value":"Polska","key":"CountryName"},{"value":"Woj. Małopolskie","key":"StateName"},{"value":"Powiat Nowosądecki","key":"CountyName"}]},"MapReference":{"ReferenceId":"778472524","Spot":1.0,"SideOfStreet":"right","CountryId":"20624059","StateId":"20626775","CountyId":"20626967","CityId":"20626998","DistrictId":"20686542","AddressId":"222301869","RoadLinkId":"171926660"}}},{"Relevance":1.0,"Distance":69.8,"MatchLevel":"houseNumber","MatchQuality":{"Country":1.0,"State":1.0,"County":1.0,"City":1.0,"District":1.0,"Street":[1.0],"HouseNumber":1.0,"PostalCode":1.0},"MatchType":"interpolated","Location":{"LocationId":"NT_LnPzlStCL2YnA8Ba40JTxD_xA","LocationType":"point","DisplayPosition":{"Latitude":49.56284,"Longitude":20.63096},"MapView":{"TopLeft":{"Latitude":49.5639642,"Longitude":20.6292268},"BottomRight":{"Latitude":49.5617158,"Longitude":20.6326932}},"Address":{"Label":"ulica Parkowa 1, 33-340 Stary Sącz, Polska","Country":"POL","State":"Woj. Małopolskie","County":"Powiat Nowosądecki","City":"Stary Sącz","District":"Stary Sącz","Street":"ulica Parkowa","HouseNumber":"1","PostalCode":"33-340","AdditionalData":[{"value":"Polska","key":"CountryName"},{"value":"Woj. Małopolskie","key":"StateName"},{"value":"Powiat Nowosądecki","key":"CountyName"}]},"MapReference":{"ReferenceId":"594119695","Spot":0.88,"SideOfStreet":"right","CountryId":"20624059","StateId":"20626775","CountyId":"20626967","CityId":"20626998","DistrictId":"20686542","AddressId":"211204929","RoadLinkId":"172915511"}}},{"Relevance":1.0,"Distance":83.8,"MatchLevel":"houseNumber","MatchQuality":{"Country":1.0,"State":1.0,"County":1.0,"City":1.0,"District":1.0,"Street":[1.0],"HouseNumber":1.0,"PostalCode":1.0},"MatchType":"interpolated","Location":{"LocationId":"NT_yXtLjWzhN5YUmSo5k7HA2C_xAjQ","LocationType":"point","DisplayPosition":{"Latitude":49.56277,"Longitude":20.6302},"MapView":{"TopLeft":{"Latitude":49.5638942,"Longitude":20.6284668},"BottomRight":{"Latitude":49.5616458,"Longitude":20.6319332}},"Address":{"Label":"ulica Żwirki i Wigury 10B, 33-340 Stary Sącz, Polska","Country":"POL","State":"Woj. Małopolskie","County":"Powiat Nowosądecki","City":"Stary Sącz","District":"Stary Sącz","Street":"ulica Żwirki i Wigury","HouseNumber":"10B","PostalCode":"33-340","AdditionalData":[{"value":"Polska","key":"CountryName"},{"value":"Woj. Małopolskie","key":"StateName"},{"value":"Powiat Nowosądecki","key":"CountyName"}]},"MapReference":{"ReferenceId":"778472521","Spot":0.69,"SideOfStreet":"right","CountryId":"20624059","StateId":"20626775","CountyId":"20626967","CityId":"20626998","DistrictId":"20686542","AddressId":"732255491","RoadLinkId":"172915510"}}},{"Relevance":1.0,"Distance":84.5,"MatchLevel":"houseNumber","MatchQuality":{"Country":1.0,"State":1.0,"County":1.0,"City":1.0,"District":1.0,"Street":[1.0],"HouseNumber":1.0,"PostalCode":1.0},"MatchType":"interpolated","Location":{"LocationId":"NT_LnPzlStCL2YnA8Ba40JTxD_zA","LocationType":"point","DisplayPosition":{"Latitude":49.56304,"Longitude":20.63079},"MapView":{"TopLeft":{"Latitude":49.5641642,"Longitude":20.6290568},"BottomRight":{"Latitude":49.5619158,"Longitude":20.6325232}},"Address":{"Label":"ulica Parkowa 3, 33-340 Stary Sącz, Polska","Country":"POL","State":"Woj. Małopolskie","County":"Powiat Nowosądecki","City":"Stary Sącz","District":"Stary Sącz","Street":"ulica Parkowa","HouseNumber":"3","PostalCode":"33-340","AdditionalData":[{"value":"Polska","key":"CountryName"},{"value":"Woj. Małopolskie","key":"StateName"},{"value":"Powiat Nowosądecki","key":"CountyName"}]},"MapReference":{"ReferenceId":"594119493","Spot":0.07,"SideOfStreet":"right","CountryId":"20624059","StateId":"20626775","CountyId":"20626967","CityId":"20626998","DistrictId":"20686542","AddressId":"210057949","RoadLinkId":"172915509"}}},{"Relevance":1.0,"Distance":96.2,"MatchLevel":"houseNumber","MatchQuality":{"Country":1.0,"State":1.0,"County":1.0,"City":1.0,"District":1.0,"Street":[1.0],"HouseNumber":1.0,"PostalCode":1.0},"MatchType":"interpolated","Location":{"LocationId":"NT_Byg74FPNgHBUeifkqE5C-D_xETQ","LocationType":"point","DisplayPosition":{"Latitude":49.56135,"Longitude":20.63181},"MapView":{"TopLeft":{"Latitude":49.5624742,"Longitude":20.6300769},"BottomRight":{"Latitude":49.5602258,"Longitude":20.6335431}},"Address":{"Label":"ulica Stefana Czarnieckiego 11A, 33-340 Stary Sącz, Polska","Country":"POL","State":"Woj. Małopolskie","County":"Powiat Nowosądecki","City":"Stary Sącz","District":"Stary Sącz","Street":"ulica Stefana Czarnieckiego","HouseNumber":"11A","PostalCode":"33-340","AdditionalData":[{"value":"Polska","key":"CountryName"},{"value":"Woj. Małopolskie","key":"StateName"},{"value":"Powiat Nowosądecki","key":"CountyName"}]},"MapReference":{"ReferenceId":"778472522","Spot":0.85,"SideOfStreet":"right","CountryId":"20624059","StateId":"20626775","CountyId":"20626967","CityId":"20626998","DistrictId":"20686542","AddressId":"732149776","RoadLinkId":"171926658"}}},{"Relevance":1.0,"Distance":103.5,"MatchLevel":"street","MatchQuality":{"Country":1.0,"State":1.0,"County":1.0,"City":1.0,"District":1.0,"Street":[1.0],"PostalCode":1.0},"Location":{"LocationId":"NT_Byg74FPNgHBUeifkqE5C-D_l_1231924404_R","LocationType":"point","DisplayPosition":{"Latitude":49.56151,"Longitude":20.63112},"MapView":{"TopLeft":{"Latitude":49.56155,"Longitude":20.63094},"BottomRight":{"Latitude":49.56151,"Longitude":20.63112}},"Address":{"Label":"ulica Stefana Czarnieckiego, 33-340 Stary Sącz, Polska","Country":"POL","State":"Woj. Małopolskie","County":"Powiat Nowosądecki","City":"Stary Sącz","District":"Stary Sącz","Street":"ulica Stefana Czarnieckiego","PostalCode":"33-340","AdditionalData":[{"value":"Polska","key":"CountryName"},{"value":"Woj. Małopolskie","key":"StateName"},{"value":"Powiat Nowosądecki","key":"CountyName"}]},"MapReference":{"ReferenceId":"1231924404","Spot":0.0,"SideOfStreet":"right","CountryId":"20624059","StateId":"20626775","CountyId":"20626967","CityId":"20626998","DistrictId":"20686542"}}}]}]}}