{"Response":{"MetaInfo":{"Timestamp":"2020-03-28T11:41:18.001+0000","NextPageInformation":"2"},"View":[{"_type":"SearchResultsViewType","ViewId":0,"Result":[{"Relevance":1.0,"Distance":0.0,"Direction":0.0,"MatchLevel":"district","MatchQuality":{"Country":1.0,"State":1.0,"County":1.0,"City":1.0,"District":1.0,"PostalCode":1.0},"Location":{"LocationId":"NT_brCvBzHj9CyDE.DP04LRFB","LocationType":"point","DisplayPosition":{"Latitude":49.5364525,"Longitude":12.1443712},"MapView":{"TopLeft":{"Latitude":49.54759,"Longitude":12.13128},"BottomRight":{"Latitude":49.53194,"Longitude":12.17405}},"Address":{"Label":"Wernberg-Köblitz, Bayern, Deutschland","Country":"DEU","State":"Bayern","County":"Schwandorf","City":"Wernberg-Köblitz","District":"Wernberg-Köblitz","PostalCode":"92533","AdditionalData":[{"value":"Deutschland","key":"CountryName"},{"value":"Bayern","key":"StateName"},{"value":"Schwandorf","key":"CountyName"}]},"MapReference":{"ReferenceId":"545238965","SideOfStreet":"neither","CountryId":"20147700","StateId":"20177250","CountyId":"20181612","CityId":"20181677","DistrictId":"20181680"}}},{"Relevance":1.0,"Distance":19.2,"MatchLevel":"houseNumber","MatchQuality":{"Country":1.0,"State":1.0,"County":1.0,"City":1.0,"District":1.0,"Street":[1.0],"HouseNumber":1.0,"PostalCode":1.0},"MatchType":"interpolated","Location":{"LocationId":"NT_T108GvBjNz7gZ3ifWspUoC_yED","LocationType":"point","DisplayPosition":{"Latitude":49.53673,"Longitude":12.14462},"MapView":{"TopLeft":{"Latitude":49.5378542,"Longitude":12.1428878},"BottomRight":{"Latitude":49.5356058,"Longitude":12.1463522}},"Address":{"Label":"Neunaigener Straße 21, 92533 Wernberg-Köblitz, Deutschland","Country":"DEU","State":"Bayern","County":"Schwandorf","City":"Wernberg-Köblitz","District":"Wernberg-Köblitz","Street":"Neunaigener Straße","HouseNumber":"21","PostalCode":"92533","AdditionalData":[{"value":"Deutschland","key":"CountryName"},{"value":"Bayern","key":"StateName"},{"value":"Schwandorf","key":"CountyName"}]},"MapReference":{"ReferenceId":"547356154","Spot":0.82,"SideOfStreet":"left","CountryId":"20147700","StateId":"20177250","CountyId":"20181612","CityId":"20181677","DistrictId":"20181680","AddressId":"183848739","RoadLinkId":"33125008"}}},{"Relevance":1.0,"Distance":25.1,"MatchLevel":"street","MatchQuality":{"Country":1.0,"State":1.0,"County":1.0,"City":1.0,"District":1.0,"PostalCode":1.0},"Location":{"LocationId":"NT_gUbukfByqpxBJc3tjtdx3B_l_545225568_R","LocationType":"point","DisplayPosition":{"Latitude":49.536667,"Longitude":12.144264},"MapView":{"TopLeft":{"Latitude":49.53675,"Longitude":12.14373},"BottomRight":{"Latitude":49.53646,"Longitude":12.14437}},"Address":{"Label":"92533 Wernberg-Köblitz, Deutschland","Country":"DEU","State":"Bayern","County":"Schwandorf","City":"Wernberg-Köblitz","District":"Wernberg-Köblitz","PostalCode":"92533","AdditionalData":[{"value":"Deutschland","key":"CountryName"},{"value":"Bayern","key":"StateName"},{"value":"Schwandorf","key":"CountyName"}]},"MapReference":{"ReferenceId":"545225568","Spot":0.81,"SideOfStreet":"right","CountryId":"20147700","StateId":"20177250","CountyId":"20181612","CityId":"20181677","DistrictId":"20181680"}}},{"Relevance":1.0,"Distance":46.3,"MatchLevel":"street","MatchQuality":{"Country":1.0,"State":1.0,"County":1.0,"City":1.0,"District":1.0,"PostalCode":1.0},"Location":{"LocationId":"NT_gUbukfByqpxBJc3tjtdx3B_l_547356155_R","LocationType":"point","DisplayPosition":{"Latitude":49.53646,"Longitude":12.14373},"MapView":{"TopLeft":{"Latitude":49.53646,"Longitude":12.14279},"BottomRight":{"Latitude":49.53616,"Longitude":12.14373}},"Address":{"Label":"92533 Wernberg-Köblitz, Deutschland","Country":"DEU","State":"Bayern","County":"Schwandorf","City":"Wernberg-Köblitz","District":"Wernberg-Köblitz","PostalCode":"92533","AdditionalData":[{"value":"Deutschland","key":"CountryName"},{"value":"Bayern","key":"StateName"},{"value":"Schwandorf","key":"CountyName"}]},"MapReference":{"ReferenceId":"547356155","Spot":1.0,"SideOfStreet":"right","CountryId":"20147700","StateId":"20177250","CountyId":"20181612","CityId":"20181677","DistrictId":"20181680"}}},{"Relevance":1.0,"Distance":46.8,"MatchLevel":"houseNumber","MatchQuality":{"Country":1.0,"State":1.0,"County":1.0,"City":1.0,"District":1.0,"Street":[1.0],"HouseNumber":1.0,"PostalCode":1.0},"MatchType":"interpolated","Location":{"LocationId":"NT_T108GvBjNz7gZ3ifWspUoC_yUD","LocationType":"point","DisplayPosition":{"Latitude":49.53678,"Longitude":12.1438},"MapView":{"TopLeft":{"Latitude":49.5379042,"Longitude":12.1420678},"BottomRight":{"Latitude":49.5356558,"Longitude":12.1455322}},"Address":{"Label":"Neunaigener Straße 25, 92533 Wernberg-Köblitz, Deutschland","Country":"DEU","State":"Bayern","County":"Schwandorf","City":"Wernberg-Köblitz","District":"Wernberg-Köblitz","Street":"Neunaigener Straße","HouseNumber":"25","PostalCode":"92533","AdditionalData":[{"value":"Deutschland","key":"CountryName"},{"value":"Bayern","key":"StateName"},{"value":"Schwandorf","key":"CountyName"}]},"MapReference":{"ReferenceId":"545225562","Spot":0.44,"SideOfStreet":"left","CountryId":"20147700","StateId":"20177250","CountyId":"20181612","CityId":"20181677","DistrictId":"20181680","AddressId":"182754455","RoadLinkId":"33604841"}}},{"Relevance":1.0,"Distance":84.2,"MatchLevel":"houseNumber","MatchQuality":{"Country":1.0,"State":1.0,"County":1.0,"City":1.0,"District":1.0,"Street":[1.0],"HouseNumber":1.0,"PostalCode":1.0},"MatchType":"interpolated","Location":{"LocationId":"NT_OVGLqTpk5kvxnPfni0mPmD_yED","LocationType":"point","DisplayPosition":{"Latitude":49.53754,"Longitude":12.14423},"MapView":{"TopLeft":{"Latitude":49.5386642,"Longitude":12.1424977},"BottomRight":{"Latitude":49.5364158,"Longitude":12.1459623}},"Address":{"Label":"Maistraße 21, 92533 Wernberg-Köblitz, Deutschland","Country":"DEU","State":"Bayern","County":"Schwandorf","City":"Wernberg-Köblitz","District":"Wernberg-Köblitz","Street":"Maistraße","HouseNumber":"21","PostalCode":"92533","AdditionalData":[{"value":"Deutschland","key":"CountryName"},{"value":"Bayern","key":"StateName"},{"value":"Schwandorf","key":"CountyName"}]},"MapReference":{"ReferenceId":"545225552","Spot":1.0,"SideOfStreet":"right","CountryId":"20147700","StateId":"20177250","CountyId":"20181612","CityId":"20181677","DistrictId":"20181680","AddressId":"249188501","RoadLinkId":"33262973"}}},{"Relevance":1.0,"Distance":114.1,"MatchLevel":"houseNumber","MatchQuality":{"Country":1.0,"State":1.0,"County":1.0,"City":1.0,"District":1.0,"Street":[1.0],"HouseNumber":1.0,"PostalCode":1.0},"MatchType":"interpolated","Location":{"LocationId":"NT_T108GvBjNz7gZ3ifWspUoC_xED","LocationType":"point","DisplayPosition":{"Latitude":49.53658,"Longitude":12.14602},"MapView":{"TopLeft":{"Latitude":49.5377042,"Longitude":12.1442878},"BottomRight":{"Latitude":49.5354558,"Longitude":12.1477522}},"Address":{"Label":"Neunaigener Straße 11, 92533 Wernberg-Köblitz, Deutschland","Country":"DEU","State":"Bayern","County":"Schwandorf","City":"Wernberg-Köblitz","District":"Wernberg-Köblitz","Street":"Neunaigener Straße","HouseNumber":"11","PostalCode":"92533","AdditionalData":[{"value":"Deutschland","key":"CountryName"},{"value":"Bayern","key":"StateName"},{"value":"Schwandorf","key":"CountyName"}]},"MapReference":{"ReferenceId":"545225463","Spot":0.12,"SideOfStreet":"right","CountryId":"20147700","StateId":"20177250","CountyId":"20181612","CityId":"20181677","DistrictId":"20181680","AddressId":"184222502","RoadLinkId":"32840946"}}},{"Relevance":1.0,"Distance":115.0,"MatchLevel":"houseNumber","MatchQuality":{"Country":1.0,"State":1.0,"County":1.0,"City":1.0,"District":1.0,"Street":[1.0],"HouseNumber":1.0,"PostalCode":1.0},"MatchType":"interpolated","Location":{"LocationId":"NT_T108GvBjNz7gZ3ifWspUoC_zMD","LocationType":"point","DisplayPosition":{"Latitude":49.53682,"Longitude":12.14283},"MapView":{"TopLeft":{"Latitude":49.5379442,"Longitude":12.1410978},"BottomRight":{"Latitude":49.5356958,"Longitude":12.1445622}},"Address":{"Label":"Neunaigener Straße 33, 92533 Wernberg-Köblitz, Deutschland","Country":"DEU","State":"Bayern","County":"Schwandorf","City":"Wernberg-Köblitz","District":"Wernberg-Köblitz","Street":"Neunaigener Straße","HouseNumber":"33","PostalCode":"92533","AdditionalData":[{"value":"Deutschland","key":"CountryName"},{"value":"Bayern","key":"StateName"},{"value":"Schwandorf","key":"CountyName"}]},"MapReference":{"ReferenceId":"545225557","Spot":0.1,"SideOfStreet":"left","CountryId":"20147700","StateId":"20177250","CountyId":"20181612","CityId":"20181677","DistrictId":"20181680","AddressId":"182275131","RoadLinkId":"33647187"}}},{"Relevance":1.0,"Distance":118.0,"MatchLevel":"houseNumber","MatchQuality":{"Country":1.0,"State":1.0,"County":1.0,"City":1.0,"District":1.0,"Street":[1.0],"HouseNumber":1.0,"PostalCode":1.0},"MatchType":"interpolated","Location":{"LocationId":"NT_aOismWowYxZEHBGUX.vkTB_xUD","LocationType":"point","DisplayPosition":{"Latitude":49.53706,"Longitude":12.14288},"MapView":{"TopLeft":{"Latitude":49.5381842,"Longitude":12.1411478},"BottomRight":{"Latitude":49.5359358,"Longitude":12.1446122}},"Address":{"Label":"Frühlingstraße 15, 92533 Wernberg-Köblitz, Deutschland","Country":"DEU","State":"Bayern","County":"Schwandorf","City":"Wernberg-Köblitz","District":"Wernberg-Köblitz","Street":"Frühlingstraße","HouseNumber":"15","PostalCode":"92533","AdditionalData":[{"value":"Deutschland","key":"CountryName"},{"value":"Bayern","key":"StateName"},{"value":"Schwandorf","key":"CountyName"}]},"MapReference":{"ReferenceId":"545225554","Spot":0.36,"SideOfStreet":"right","CountryId":"20147700","StateId":"20177250","CountyId":"20181612","CityId":"20181677","DistrictId":"20181680","AddressId":"183749565","RoadLinkId":"32825213"}}},{"Relevance":1.0,"Distance":118.6,"MatchLevel":"street","MatchQuality":{"Country":1.0,"State":1.0,"County":1.0,"City":1.0,"PostalCode":1.0},"Location":{"LocationId":"NT_X5uRiI8t7jT6ULFvizM7gB_l_545225570_R","LocationType":"point","DisplayPosition":{"Latitude":49.53616,"Longitude":12.14279},"MapView":{"TopLeft":{"Latitude":49.53616,"Longitude":12.14147},"BottomRight":{"Latitude":49.53579,"Longitude":12.14279}},"Address":{"Label":"92533 Wernberg-Köblitz, Deutschland","Country":"DEU","State":"Bayern","County":"Schwandorf","City":"Wernberg-Köblitz","PostalCode":"92533","AdditionalData":[{"value":"Deutschland","key":"CountryName"},{"value":"Bayern","key":"StateName"},{"value":"Schwandorf","key":"CountyName"}]},"MapReference":{"ReferenceId":"545225570","Spot":1.0,"SideOfStreet":"right","CountryId":"20147700","StateId":"20177250","CountyId":"20181612","CityId":"20181677"}}}]}]}}