{"Response":{"MetaInfo":{"Timestamp":"2020-03-28T10:25:45.250+0000","NextPageInformation":"2"},"View":[{"_type":"SearchResultsViewType","ViewId":0,"Result":[{"Relevance":1.0,"Distance":0.0,"Direction":0.0,"MatchLevel":"district","MatchQuality":{"Country":1.0,"State":1.0,"County":1.0,"City":1.0,"District":1.0,"PostalCode":1.0},"Location":{"LocationId":"NT_S7NvZvdG7RD-Q2fi5LnCLC","LocationType":"point","DisplayPosition":{"Latitude":49.5412274,"Longitude":8.595088},"MapView":{"TopLeft":{"Latitude":49.55562,"Longitude":8.55962},"BottomRight":{"Latitude":49.52444,"Longitude":8.60268}},"Address":{"Label":"Viernheim, Hessen, Deutschland","Country":"DEU","State":"Hessen","County":"Bergstraße","City":"Viernheim","District":"Viernheim","PostalCode":"68519","AdditionalData":[{"value":"Deutschland","key":"CountryName"},{"value":"Hessen","key":"StateName"},{"value":"Bergstraße","key":"CountyName"}]},"MapReference":{"ReferenceId":"52656776","SideOfStreet":"neither","CountryId":"20147700","StateId":"20160993","CountyId":"20161050","CityId":"20161134","DistrictId":"20161136"}}},{"Relevance":1.0,"Distance":5.8,"MatchLevel":"street","MatchQuality":{"Country":1.0,"State":1.0,"County":1.0,"City":1.0,"District":1.0,"PostalCode":1.0},"Location":{"LocationId":"NT_9IGvxoltAotoYiJ8KnDSqD_l_858782318_R","LocationType":"point","DisplayPosition":{"Latitude":49.5412788,"Longitude":8.5950752},"MapView":{"TopLeft":{"Latitude":49.54128,"Longitude":8.59461},"BottomRight":{"Latitude":49.54124,"Longitude":8.59508}},"Address":{"Label":"68519 Viernheim, Deutschland","Country":"DEU","State":"Hessen","County":"Bergstraße","City":"Viernheim","District":"Viernheim","PostalCode":"68519","AdditionalData":[{"value":"Deutschland","key":"CountryName"},{"value":"Hessen","key":"StateName"},{"value":"Bergstraße","key":"CountyName"}]},"MapReference":{"ReferenceId":"858782318","Spot":0.99,"SideOfStreet":"right","CountryId":"20147700","StateId":"20160993","CountyId":"20161050","CityId":"20161134","DistrictId":"20161136"}}},{"Relevance":1.0,"Distance":34.6,"MatchLevel":"street","MatchQuality":{"Country":1.0,"State":1.0,"County":1.0,"City":1.0,"District":1.0,"Street":[1.0],"PostalCode":1.0},"Location":{"LocationId":"NT_w-qKHXy04Ufm3l69gtoLxB_l_858782315_R","LocationType":"point","DisplayPosition":{"Latitude":49.5412526,"Longitude":8.5946096},"MapView":{"TopLeft":{"Latitude":49.54126,"Longitude":8.5946},"BottomRight":{"Latitude":49.54065,"Longitude":8.59482}},"Address":{"Label":"Janusz-Korczak-Allee, 68519 Viernheim, Deutschland","Country":"DEU","State":"Hessen","County":"Bergstraße","City":"Viernheim","District":"Viernheim","Street":"Janusz-Korczak-Allee","PostalCode":"68519","AdditionalData":[{"value":"Deutschland","key":"CountryName"},{"value":"Hessen","key":"StateName"},{"value":"Bergstraße","key":"CountyName"}]},"MapReference":{"ReferenceId":"858782315","Spot":0.99,"SideOfStreet":"right","CountryId":"20147700","StateId":"20160993","CountyId":"20161050","CityId":"20161134","DistrictId":"20161136"}}},{"Relevance":1.0,"Distance":34.7,"MatchLevel":"street","MatchQuality":{"Country":1.0,"State":1.0,"County":1.0,"City":1.0,"District":1.0,"PostalCode":1.0},"Location":{"LocationId":"NT_9IGvxoltAotoYiJ8KnDSqD_l_858782317_L","LocationType":"point","DisplayPosition":{"Latitude":49.54126,"Longitude":8.59461},"MapView":{"TopLeft":{"Latitude":49.54127,"Longitude":8.5944},"BottomRight":{"Latitude":49.54126,"Longitude":8.59461}},"Address":{"Label":"68519 Viernheim, Deutschland","Country":"DEU","State":"Hessen","County":"Bergstraße","City":"Viernheim","District":"Viernheim","PostalCode":"68519","AdditionalData":[{"value":"Deutschland","key":"CountryName"},{"value":"Hessen","key":"StateName"},{"value":"Bergstraße","key":"CountyName"}]},"MapReference":{"ReferenceId":"858782317","Spot":0.0,"SideOfStreet":"left","CountryId":"20147700","StateId":"20160993","CountyId":"20161050","CityId":"20161134","DistrictId":"20161136"}}},{"Relevance":1.0,"Distance":37.5,"MatchLevel":"houseNumber","MatchQuality":{"Country":1.0,"State":1.0,"County":1.0,"City":1.0,"District":1.0,"Street":[1.0],"HouseNumber":1.0,"PostalCode":1.0},"MatchType":"interpolated","Location":{"LocationId":"NT_w-qKHXy04Ufm3l69gtoLxB_xA","LocationType":"point","DisplayPosition":{"Latitude":49.54155,"Longitude":8.59467},"MapView":{"TopLeft":{"Latitude":49.5426742,"Longitude":8.5929376},"BottomRight":{"Latitude":49.5404258,"Longitude":8.5964024}},"Address":{"Label":"Janusz-Korczak-Allee 1, 68519 Viernheim, Deutschland","Country":"DEU","State":"Hessen","County":"Bergstraße","City":"Viernheim","District":"Viernheim","Street":"Janusz-Korczak-Allee","HouseNumber":"1","PostalCode":"68519","AdditionalData":[{"value":"Deutschland","key":"CountryName"},{"value":"Hessen","key":"StateName"},{"value":"Bergstraße","key":"CountyName"}]},"MapReference":{"ReferenceId":"858782316","Spot":0.15,"SideOfStreet":"right","CountryId":"20147700","StateId":"20160993","CountyId":"20161050","CityId":"20161134","DistrictId":"20161136","AddressId":"249959295","RoadLinkId":"234568624"}}},{"Relevance":1.0,"Distance":38.6,"MatchLevel":"houseNumber","MatchQuality":{"Country":1.0,"State":1.0,"County":1.0,"City":1.0,"District":1.0,"Street":[1.0],"HouseNumber":1.0,"PostalCode":1.0},"MatchType":"interpolated","Location":{"LocationId":"NT_r2-Iw6D1ZGgw1V1wljT0RC_yA","LocationType":"point","DisplayPosition":{"Latitude":49.54078,"Longitude":8.5952},"MapView":{"TopLeft":{"Latitude":49.5419042,"Longitude":8.5934676},"BottomRight":{"Latitude":49.5396558,"Longitude":8.5969324}},"Address":{"Label":"Walter-Gropius-Allee 2, 68519 Viernheim, Deutschland","Country":"DEU","State":"Hessen","County":"Bergstraße","City":"Viernheim","District":"Viernheim","Street":"Walter-Gropius-Allee","HouseNumber":"2","PostalCode":"68519","AdditionalData":[{"value":"Deutschland","key":"CountryName"},{"value":"Hessen","key":"StateName"},{"value":"Bergstraße","key":"CountyName"}]},"MapReference":{"ReferenceId":"999052183","Spot":0.15,"SideOfStreet":"left","CountryId":"20147700","StateId":"20160993","CountyId":"20161050","CityId":"20161134","DistrictId":"20161136","AddressId":"621896547","RoadLinkId":"325351144"}}},{"Relevance":1.0,"Distance":47.6,"MatchLevel":"houseNumber","MatchQuality":{"Country":1.0,"State":1.0,"County":1.0,"City":1.0,"District":1.0,"Street":[1.0],"HouseNumber":1.0,"PostalCode":1.0},"MatchType":"interpolated","Location":{"LocationId":"NT_JqD4ubBkJWThsqtcQQ9vRC_zA","LocationType":"point","DisplayPosition":{"Latitude":49.54148,"Longitude":8.59562},"MapView":{"TopLeft":{"Latitude":49.5426042,"Longitude":8.5938876},"BottomRight":{"Latitude":49.5403558,"Longitude":8.5973524}},"Address":{"Label":"René-Goscinny-Weg 3, 68519 Viernheim, Deutschland","Country":"DEU","State":"Hessen","County":"Bergstraße","City":"Viernheim","District":"Viernheim","Street":"René-Goscinny-Weg","HouseNumber":"3","PostalCode":"68519","AdditionalData":[{"value":"Deutschland","key":"CountryName"},{"value":"Hessen","key":"StateName"},{"value":"Bergstraße","key":"CountyName"}]},"MapReference":{"ReferenceId":"858782314","Spot":0.42,"SideOfStreet":"right","CountryId":"20147700","StateId":"20160993","CountyId":"20161050","CityId":"20161134","DistrictId":"20161136","AddressId":"621890927","RoadLinkId":"234568620"}}},{"Relevance":1.0,"Distance":49.9,"MatchLevel":"street","MatchQuality":{"Country":1.0,"State":1.0,"County":1.0,"City":1.0,"District":1.0,"Street":[1.0],"PostalCode":1.0},"Location":{"LocationId":"NT_w-qKHXy04Ufm3l69gtoLxB_l_1195968687_R","LocationType":"point","DisplayPosition":{"Latitude":49.54127,"Longitude":8.5944},"MapView":{"TopLeft":{"Latitude":49.54127,"Longitude":8.59437},"BottomRight":{"Latitude":49.54105,"Longitude":8.5944}},"Address":{"Label":"Janusz-Korczak-Allee, 68519 Viernheim, Deutschland","Country":"DEU","State":"Hessen","County":"Bergstraße","City":"Viernheim","District":"Viernheim","Street":"Janusz-Korczak-Allee","PostalCode":"68519","AdditionalData":[{"value":"Deutschland","key":"CountryName"},{"value":"Hessen","key":"StateName"},{"value":"Bergstraße","key":"CountyName"}]},"MapReference":{"ReferenceId":"1195968687","Spot":1.0,"SideOfStreet":"right","CountryId":"20147700","StateId":"20160993","CountyId":"20161050","CityId":"20161134","DistrictId":"20161136"}}},{"Relevance":1.0,"Distance":52.5,"MatchLevel":"street","MatchQuality":{"Country":1.0,"State":1.0,"County":1.0,"City":1.0,"District":1.0,"Street":[1.0],"PostalCode":1.0},"Location":{"LocationId":"NT_w-qKHXy04Ufm3l69gtoLxB_l_799492680_R","LocationType":"point","DisplayPosition":{"Latitude":49.5414606,"Longitude":8.594455},"MapView":{"TopLeft":{"Latitude":49.54286,"Longitude":8.5944},"BottomRight":{"Latitude":49.54127,"Longitude":8.59509}},"Address":{"Label":"Janusz-Korczak-Allee, 68519 Viernheim, Deutschland","Country":"DEU","State":"Hessen","County":"Bergstraße","City":"Viernheim","District":"Viernheim","Street":"Janusz-Korczak-Allee","PostalCode":"68519","AdditionalData":[{"value":"Deutschland","key":"CountryName"},{"value":"Hessen","key":"StateName"},{"value":"Bergstraße","key":"CountyName"}]},"MapReference":{"ReferenceId":"799492680","Spot":0.11,"SideOfStreet":"right","CountryId":"20147700","StateId":"20160993","CountyId":"20161050","CityId":"20161134","DistrictId":"20161136"}}},{"Relevance":1.0,"Distance":55.4,"MatchLevel":"street","MatchQuality":{"Country":1.0,"State":1.0,"County":1.0,"City":1.0,"District":1.0,"Street":[1.0],"PostalCode":1.0},"Location":{"LocationId":"NT_w-qKHXy04Ufm3l69gtoLxB_l_1195968686_R","LocationType":"point","DisplayPosition":{"Latitude":49.54105,"Longitude":8.59437},"MapView":{"TopLeft":{"Latitude":49.54105,"Longitude":8.59433},"BottomRight":{"Latitude":49.54061,"Longitude":8.59437}},"Address":{"Label":"Janusz-Korczak-Allee, 68519 Viernheim, Deutschland","Country":"DEU","State":"Hessen","County":"Bergstraße","City":"Viernheim","District":"Viernheim","Street":"Janusz-Korczak-Allee","PostalCode":"68519","AdditionalData":[{"value":"Deutschland","key":"CountryName"},{"value":"Hessen","key":"StateName"},{"value":"Bergstraße","key":"CountyName"}]},"MapReference":{"ReferenceId":"1195968686","Spot":1.0,"SideOfStreet":"right","CountryId":"20147700","StateId":"20160993","CountyId":"20161050","CityId":"20161134","DistrictId":"20161136"}}}]}]}}