{"Response":{"MetaInfo":{"Timestamp":"2020-03-28T10:18:02.315+0000","NextPageInformation":"2"},"View":[{"_type":"SearchResultsViewType","ViewId":0,"Result":[{"Relevance":1.0,"Distance":0.0,"Direction":0.0,"MatchLevel":"district","MatchQuality":{"Country":1.0,"State":1.0,"County":1.0,"City":1.0,"District":1.0,"PostalCode":1.0},"Location":{"LocationId":"NT_90C5cC8R1JWKYKxw-Y7qiB","LocationType":"point","DisplayPosition":{"Latitude":49.564673,"Longitude":10.9596718},"MapView":{"TopLeft":{"Latitude":49.57422,"Longitude":10.94963},"BottomRight":{"Latitude":49.55779,"Longitude":10.97042}},"Address":{"Label":"Frauenaurach, Erlangen, Bayern, Deutschland","Country":"DEU","State":"Bayern","County":"Erlangen","City":"Erlangen","District":"Frauenaurach","PostalCode":"91056","AdditionalData":[{"value":"Deutschland","key":"CountryName"},{"value":"Bayern","key":"StateName"},{"value":"Erlangen","key":"CountyName"}]},"MapReference":{"ReferenceId":"53088177","SideOfStreet":"neither","CountryId":"20147700","StateId":"20177250","CountyId":"20182957","CityId":"20182958","DistrictId":"20182961"}}},{"Relevance":1.0,"Distance":11.3,"MatchLevel":"houseNumber","MatchQuality":{"Country":1.0,"State":1.0,"County":1.0,"City":1.0,"District":1.0,"Street":[1.0],"HouseNumber":1.0,"PostalCode":1.0},"MatchType":"interpolated","Location":{"LocationId":"NT_LTAIwKEnG1NLP6pseXIWUB_xYD","LocationType":"point","DisplayPosition":{"Latitude":49.56439,"Longitude":10.95979},"MapView":{"TopLeft":{"Latitude":49.5655142,"Longitude":10.9580568},"BottomRight":{"Latitude":49.5632658,"Longitude":10.9615232}},"Address":{"Label":"Keplerstraße 16, 91056 Erlangen, Deutschland","Country":"DEU","State":"Bayern","County":"Erlangen","City":"Erlangen","District":"Frauenaurach","Street":"Keplerstraße","HouseNumber":"16","PostalCode":"91056","AdditionalData":[{"value":"Deutschland","key":"CountryName"},{"value":"Bayern","key":"StateName"},{"value":"Erlangen","key":"CountyName"}]},"MapReference":{"ReferenceId":"53088156","Spot":0.68,"SideOfStreet":"right","CountryId":"20147700","StateId":"20177250","CountyId":"20182957","CityId":"20182958","DistrictId":"20182961","AddressId":"184910821","RoadLinkId":"32644633"}}},{"Relevance":1.0,"Distance":27.0,"MatchLevel":"houseNumber","MatchQuality":{"Country":1.0,"State":1.0,"County":1.0,"City":1.0,"District":1.0,"Street":[1.0],"HouseNumber":1.0,"PostalCode":1.0},"MatchType":"interpolated","Location":{"LocationId":"NT_Tt5kSpMV2Ef3IB6-FQKzbA_xYTQ","LocationType":"point","DisplayPosition":{"Latitude":49.56491,"Longitude":10.95959},"MapView":{"TopLeft":{"Latitude":49.5660342,"Longitude":10.9578568},"BottomRight":{"Latitude":49.5637858,"Longitude":10.9613232}},"Address":{"Label":"Wilhelm-Tell-Straße 16A, 91056 Erlangen, Deutschland","Country":"DEU","State":"Bayern","County":"Erlangen","City":"Erlangen","District":"Frauenaurach","Street":"Wilhelm-Tell-Straße","HouseNumber":"16A","PostalCode":"91056","AdditionalData":[{"value":"Deutschland","key":"CountryName"},{"value":"Bayern","key":"StateName"},{"value":"Erlangen","key":"CountyName"}]},"MapReference":{"ReferenceId":"1021172760","Spot":0.62,"SideOfStreet":"left","CountryId":"20147700","StateId":"20177250","CountyId":"20182957","CityId":"20182958","DistrictId":"20182961","AddressId":"183442086","RoadLinkId":"345642980"}}},{"Relevance":1.0,"Distance":32.5,"MatchLevel":"street","MatchQuality":{"Country":1.0,"State":1.0,"County":1.0,"City":1.0,"District":1.0,"Street":[1.0],"PostalCode":1.0},"Location":{"LocationId":"NT_Tt5kSpMV2Ef3IB6-FQKzbA_l_1021172759_R","LocationType":"point","DisplayPosition":{"Latitude":49.56473,"Longitude":10.95923},"MapView":{"TopLeft":{"Latitude":49.56473,"Longitude":10.95901},"BottomRight":{"Latitude":49.56462,"Longitude":10.95923}},"Address":{"Label":"Wilhelm-Tell-Straße, 91056 Erlangen, Deutschland","Country":"DEU","State":"Bayern","County":"Erlangen","City":"Erlangen","District":"Frauenaurach","Street":"Wilhelm-Tell-Straße","PostalCode":"91056","AdditionalData":[{"value":"Deutschland","key":"CountryName"},{"value":"Bayern","key":"StateName"},{"value":"Erlangen","key":"CountyName"}]},"MapReference":{"ReferenceId":"1021172759","Spot":1.0,"SideOfStreet":"right","CountryId":"20147700","StateId":"20177250","CountyId":"20182957","CityId":"20182958","DistrictId":"20182961"}}},{"Relevance":1.0,"Distance":32.8,"MatchLevel":"houseNumber","MatchQuality":{"Country":1.0,"State":1.0,"County":1.0,"City":1.0,"District":1.0,"Street":[1.0],"HouseNumber":1.0,"PostalCode":1.0},"MatchType":"interpolated","Location":{"LocationId":"NT_LzXFJS.QLBTd-mUqhOP7hC_3A","LocationType":"point","DisplayPosition":{"Latitude":49.56498,"Longitude":10.96003},"MapView":{"TopLeft":{"Latitude":49.5661042,"Longitude":10.9582968},"BottomRight":{"Latitude":49.5638558,"Longitude":10.9617632}},"Address":{"Label":"Am Wagnersberg 7, 91056 Erlangen, Deutschland","Country":"DEU","State":"Bayern","County":"Erlangen","City":"Erlangen","District":"Frauenaurach","Street":"Am Wagnersberg","HouseNumber":"7","PostalCode":"91056","AdditionalData":[{"value":"Deutschland","key":"CountryName"},{"value":"Bayern","key":"StateName"},{"value":"Erlangen","key":"CountyName"}]},"MapReference":{"ReferenceId":"53088155","Spot":0.92,"SideOfStreet":"left","CountryId":"20147700","StateId":"20177250","CountyId":"20182957","CityId":"20182958","DistrictId":"20182961","AddressId":"185334104","RoadLinkId":"32581083"}}},{"Relevance":1.0,"Distance":84.8,"MatchLevel":"houseNumber","MatchQuality":{"Country":1.0,"State":1.0,"County":1.0,"City":1.0,"District":1.0,"Street":[1.0],"HouseNumber":1.0,"PostalCode":1.0},"MatchType":"interpolated","Location":{"LocationId":"NT_Tt5kSpMV2Ef3IB6-FQKzbA_xgD","LocationType":"point","DisplayPosition":{"Latitude":49.56439,"Longitude":10.95858},"MapView":{"TopLeft":{"Latitude":49.5655142,"Longitude":10.9568468},"BottomRight":{"Latitude":49.5632658,"Longitude":10.9603132}},"Address":{"Label":"Wilhelm-Tell-Straße 18, 91056 Erlangen, Deutschland","Country":"DEU","State":"Bayern","County":"Erlangen","City":"Erlangen","District":"Frauenaurach","Street":"Wilhelm-Tell-Straße","HouseNumber":"18","PostalCode":"91056","AdditionalData":[{"value":"Deutschland","key":"CountryName"},{"value":"Bayern","key":"StateName"},{"value":"Erlangen","key":"CountyName"}]},"MapReference":{"ReferenceId":"993286625","Spot":0.04,"SideOfStreet":"left","CountryId":"20147700","StateId":"20177250","CountyId":"20182957","CityId":"20182958","DistrictId":"20182961","AddressId":"183670078","RoadLinkId":"321829421"}}},{"Relevance":1.0,"Distance":89.5,"MatchLevel":"houseNumber","MatchQuality":{"Country":1.0,"State":1.0,"County":1.0,"City":1.0,"District":1.0,"Street":[1.0],"HouseNumber":1.0,"PostalCode":1.0},"MatchType":"interpolated","Location":{"LocationId":"NT_Tt5kSpMV2Ef3IB6-FQKzbA_xUD","LocationType":"point","DisplayPosition":{"Latitude":49.56532,"Longitude":10.96041},"MapView":{"TopLeft":{"Latitude":49.5664442,"Longitude":10.9586768},"BottomRight":{"Latitude":49.5641958,"Longitude":10.9621432}},"Address":{"Label":"Wilhelm-Tell-Straße 15, 91056 Erlangen, Deutschland","Country":"DEU","State":"Bayern","County":"Erlangen","City":"Erlangen","District":"Frauenaurach","Street":"Wilhelm-Tell-Straße","HouseNumber":"15","PostalCode":"91056","AdditionalData":[{"value":"Deutschland","key":"CountryName"},{"value":"Bayern","key":"StateName"},{"value":"Erlangen","key":"CountyName"}]},"MapReference":{"ReferenceId":"53088152","Spot":0.45,"SideOfStreet":"right","CountryId":"20147700","StateId":"20177250","CountyId":"20182957","CityId":"20182958","DistrictId":"20182961","AddressId":"184890625","RoadLinkId":"33621418"}}},{"Relevance":1.0,"Distance":108.6,"MatchLevel":"houseNumber","MatchQuality":{"Country":1.0,"State":1.0,"County":1.0,"City":1.0,"District":1.0,"Street":[1.0],"HouseNumber":1.0,"PostalCode":1.0},"MatchType":"interpolated","Location":{"LocationId":"NT_anBqEoUvbow3QVpQ-ghU8B_3A","LocationType":"point","DisplayPosition":{"Latitude":49.56576,"Longitude":10.95975},"MapView":{"TopLeft":{"Latitude":49.5668842,"Longitude":10.9580167},"BottomRight":{"Latitude":49.5646358,"Longitude":10.9614833}},"Address":{"Label":"Mühlgarten 7, 91056 Erlangen, Deutschland","Country":"DEU","State":"Bayern","County":"Erlangen","City":"Erlangen","District":"Frauenaurach","Street":"Mühlgarten","HouseNumber":"7","PostalCode":"91056","AdditionalData":[{"value":"Deutschland","key":"CountryName"},{"value":"Bayern","key":"StateName"},{"value":"Erlangen","key":"CountyName"}]},"MapReference":{"ReferenceId":"53115017","Spot":0.61,"SideOfStreet":"right","CountryId":"20147700","StateId":"20177250","CountyId":"20182957","CityId":"20182958","DistrictId":"20182961","AddressId":"183003277","RoadLinkId":"32877307"}}},{"Relevance":1.0,"Distance":147.7,"MatchLevel":"houseNumber","MatchQuality":{"Country":1.0,"State":1.0,"County":1.0,"City":1.0,"District":1.0,"Street":[1.0],"HouseNumber":1.0,"PostalCode":1.0},"MatchType":"interpolated","Location":{"LocationId":"NT_YiI1mOwwJwrRYUAtEFXr2B_yA","LocationType":"point","DisplayPosition":{"Latitude":49.56568,"Longitude":10.96135},"MapView":{"TopLeft":{"Latitude":49.5668042,"Longitude":10.9596167},"BottomRight":{"Latitude":49.5645558,"Longitude":10.9630833}},"Address":{"Label":"Rosenweg 2, 91056 Erlangen, Deutschland","Country":"DEU","State":"Bayern","County":"Erlangen","City":"Erlangen","District":"Frauenaurach","Street":"Rosenweg","HouseNumber":"2","PostalCode":"91056","AdditionalData":[{"value":"Deutschland","key":"CountryName"},{"value":"Bayern","key":"StateName"},{"value":"Erlangen","key":"CountyName"}]},"MapReference":{"ReferenceId":"53088148","Spot":0.69,"SideOfStreet":"left","CountryId":"20147700","StateId":"20177250","CountyId":"20182957","CityId":"20182958","DistrictId":"20182961","AddressId":"183596693","RoadLinkId":"33653298"}}},{"Relevance":1.0,"Distance":149.8,"MatchLevel":"street","MatchQuality":{"Country":1.0,"State":1.0,"County":1.0,"City":1.0,"District":1.0,"Street":[1.0],"PostalCode":1.0},"Location":{"LocationId":"NT_anBqEoUvbow3QVpQ-ghU8B_l_53088683_L","LocationType":"point","DisplayPosition":{"Latitude":49.56574,"Longitude":10.96094},"MapView":{"TopLeft":{"Latitude":49.56574,"Longitude":10.96094},"BottomRight":{"Latitude":49.56572,"Longitude":10.96114}},"Address":{"Label":"Mühlgarten, 91056 Erlangen, Deutschland","Country":"DEU","State":"Bayern","County":"Erlangen","City":"Erlangen","District":"Frauenaurach","Street":"Mühlgarten","PostalCode":"91056","AdditionalData":[{"value":"Deutschland","key":"CountryName"},{"value":"Bayern","key":"StateName"},{"value":"Erlangen","key":"CountyName"}]},"MapReference":{"ReferenceId":"53088683","Spot":1.0,"SideOfStreet":"left","CountryId":"20147700","StateId":"20177250","CountyId":"20182957","CityId":"20182958","DistrictId":"20182961"}}}]}]}}