{"Response":{"MetaInfo":{"Timestamp":"2020-03-28T10:02:15.993+0000","NextPageInformation":"2"},"View":[{"_type":"SearchResultsViewType","ViewId":0,"Result":[{"Relevance":1.0,"Distance":0.0,"Direction":0.0,"MatchLevel":"district","MatchQuality":{"Country":1.0,"State":1.0,"County":1.0,"City":1.0,"District":1.0,"PostalCode":1.0},"Location":{"LocationId":"NT_Pl9zJMb7A37dPQvhSeNRcD","LocationType":"point","DisplayPosition":{"Latitude":49.5674558,"Longitude":9.7019328},"MapView":{"TopLeft":{"Latitude":49.57654,"Longitude":9.68643},"BottomRight":{"Latitude":49.55367,"Longitude":9.71676}},"Address":{"Label":"Lauda, Lauda-Königshofen, Baden-Württemberg, Deutschland","Country":"DEU","State":"Baden-Württemberg","County":"Main-Tauber-Kreis","City":"Lauda-Königshofen","District":"Lauda","PostalCode":"97922","AdditionalData":[{"value":"Deutschland","key":"CountryName"},{"value":"Baden-Württemberg","key":"StateName"},{"value":"Main-Tauber-Kreis","key":"CountyName"}]},"MapReference":{"ReferenceId":"538801230","SideOfStreet":"neither","CountryId":"20147700","StateId":"20171489","CountyId":"20172807","CityId":"20172927","DistrictId":"20172933"}}},{"Relevance":1.0,"Distance":10.9,"MatchLevel":"houseNumber","MatchQuality":{"Country":1.0,"State":1.0,"County":1.0,"City":1.0,"District":1.0,"Street":[1.0],"HouseNumber":1.0,"PostalCode":1.0},"MatchType":"interpolated","Location":{"LocationId":"NT_5YMLVOI9kAuk1tNyMMgcwC_xYTQ","LocationType":"point","DisplayPosition":{"Latitude":49.56726,"Longitude":9.70197},"MapView":{"TopLeft":{"Latitude":49.5683842,"Longitude":9.7002367},"BottomRight":{"Latitude":49.5661358,"Longitude":9.7037033}},"Address":{"Label":"Philipp-Adam-Ulrich-Straße 16A, 97922 Lauda-Königshofen, Deutschland","Country":"DEU","State":"Baden-Württemberg","County":"Main-Tauber-Kreis","City":"Lauda-Königshofen","District":"Lauda","Street":"Philipp-Adam-Ulrich-Straße","HouseNumber":"16A","PostalCode":"97922","AdditionalData":[{"value":"Deutschland","key":"CountryName"},{"value":"Baden-Württemberg","key":"StateName"},{"value":"Main-Tauber-Kreis","key":"CountyName"}]},"MapReference":{"ReferenceId":"538801210","Spot":0.4,"SideOfStreet":"left","CountryId":"20147700","StateId":"20171489","CountyId":"20172807","CityId":"20172927","DistrictId":"20172933","AddressId":"179557286","RoadLinkId":"38494990"}}},{"Relevance":1.0,"Distance":20.5,"MatchLevel":"houseNumber","MatchQuality":{"Country":1.0,"State":1.0,"County":1.0,"City":1.0,"District":1.0,"Street":[1.0],"HouseNumber":1.0,"PostalCode":1.0},"MatchType":"interpolated","Location":{"LocationId":"NT_uLeMT6EtmU5ZkXU95OpXwD_xAD","LocationType":"point","DisplayPosition":{"Latitude":49.56754,"Longitude":9.70229},"MapView":{"TopLeft":{"Latitude":49.5686642,"Longitude":9.7005567},"BottomRight":{"Latitude":49.5664158,"Longitude":9.7040233}},"Address":{"Label":"Gartenstraße 10, 97922 Lauda-Königshofen, Deutschland","Country":"DEU","State":"Baden-Württemberg","County":"Main-Tauber-Kreis","City":"Lauda-Königshofen","District":"Lauda","Street":"Gartenstraße","HouseNumber":"10","PostalCode":"97922","AdditionalData":[{"value":"Deutschland","key":"CountryName"},{"value":"Baden-Württemberg","key":"StateName"},{"value":"Main-Tauber-Kreis","key":"CountyName"}]},"MapReference":{"ReferenceId":"538801143","Spot":0.28,"SideOfStreet":"left","CountryId":"20147700","StateId":"20171489","CountyId":"20172807","CityId":"20172927","DistrictId":"20172933","AddressId":"179734551","RoadLinkId":"38196041"}}},{"Relevance":1.0,"Distance":20.8,"MatchLevel":"houseNumber","MatchQuality":{"Country":1.0,"State":1.0,"County":1.0,"City":1.0,"District":1.0,"Street":[1.0],"HouseNumber":1.0,"PostalCode":1.0},"MatchType":"interpolated","Location":{"LocationId":"NT_kIZdyLTm-.S8PyQ-gsCeBA_xED","LocationType":"point","DisplayPosition":{"Latitude":49.56739,"Longitude":9.70153},"MapView":{"TopLeft":{"Latitude":49.5685142,"Longitude":9.6997967},"BottomRight":{"Latitude":49.5662658,"Longitude":9.7032633}},"Address":{"Label":"Becksteiner Straße 11, 97922 Lauda-Königshofen, Deutschland","Country":"DEU","State":"Baden-Württemberg","County":"Main-Tauber-Kreis","City":"Lauda-Königshofen","District":"Lauda","Street":"Becksteiner Straße","HouseNumber":"11","PostalCode":"97922","AdditionalData":[{"value":"Deutschland","key":"CountryName"},{"value":"Baden-Württemberg","key":"StateName"},{"value":"Main-Tauber-Kreis","key":"CountyName"}]},"MapReference":{"ReferenceId":"538801201","Spot":0.21,"SideOfStreet":"right","CountryId":"20147700","StateId":"20171489","CountyId":"20172807","CityId":"20172927","DistrictId":"20172933","AddressId":"179572506","RoadLinkId":"38315346"}}},{"Relevance":1.0,"Distance":40.6,"MatchLevel":"houseNumber","MatchQuality":{"Country":1.0,"State":1.0,"County":1.0,"City":1.0,"District":1.0,"Street":[1.0],"HouseNumber":1.0,"PostalCode":1.0},"MatchType":"interpolated","Location":{"LocationId":"NT_uLeMT6EtmU5ZkXU95OpXwD_xID","LocationType":"point","DisplayPosition":{"Latitude":49.56724,"Longitude":9.70249},"MapView":{"TopLeft":{"Latitude":49.5683642,"Longitude":9.7007567},"BottomRight":{"Latitude":49.5661158,"Longitude":9.7042233}},"Address":{"Label":"Gartenstraße 12, 97922 Lauda-Königshofen, Deutschland","Country":"DEU","State":"Baden-Württemberg","County":"Main-Tauber-Kreis","City":"Lauda-Königshofen","District":"Lauda","Street":"Gartenstraße","HouseNumber":"12","PostalCode":"97922","AdditionalData":[{"value":"Deutschland","key":"CountryName"},{"value":"Baden-Württemberg","key":"StateName"},{"value":"Main-Tauber-Kreis","key":"CountyName"}]},"MapReference":{"ReferenceId":"538801100","Spot":0.82,"SideOfStreet":"left","CountryId":"20147700","StateId":"20171489","CountyId":"20172807","CityId":"20172927","DistrictId":"20172933","AddressId":"180494981","RoadLinkId":"38729022"}}},{"Relevance":1.0,"Distance":45.4,"MatchLevel":"houseNumber","MatchQuality":{"Country":1.0,"State":1.0,"County":1.0,"City":1.0,"District":1.0,"Street":[1.0],"HouseNumber":1.0,"PostalCode":1.0},"MatchType":"interpolated","Location":{"LocationId":"NT_5YMLVOI9kAuk1tNyMMgcwC_xYD","LocationType":"point","DisplayPosition":{"Latitude":49.56743,"Longitude":9.7026},"MapView":{"TopLeft":{"Latitude":49.5685542,"Longitude":9.7008667},"BottomRight":{"Latitude":49.5663058,"Longitude":9.7043333}},"Address":{"Label":"Philipp-Adam-Ulrich-Straße 16, 97922 Lauda-Königshofen, Deutschland","Country":"DEU","State":"Baden-Württemberg","County":"Main-Tauber-Kreis","City":"Lauda-Königshofen","District":"Lauda","Street":"Philipp-Adam-Ulrich-Straße","HouseNumber":"16","PostalCode":"97922","AdditionalData":[{"value":"Deutschland","key":"CountryName"},{"value":"Baden-Württemberg","key":"StateName"},{"value":"Main-Tauber-Kreis","key":"CountyName"}]},"MapReference":{"ReferenceId":"538801131","Spot":0.18,"SideOfStreet":"left","CountryId":"20147700","StateId":"20171489","CountyId":"20172807","CityId":"20172927","DistrictId":"20172933","AddressId":"177799222","RoadLinkId":"38323369"}}},{"Relevance":1.0,"Distance":54.7,"MatchLevel":"houseNumber","MatchQuality":{"Country":1.0,"State":1.0,"County":1.0,"City":1.0,"District":1.0,"Street":[1.0],"HouseNumber":1.0,"PostalCode":1.0},"MatchType":"interpolated","Location":{"LocationId":"NT_l-AVzMyd9lHuHR4ent90DB_xED","LocationType":"point","DisplayPosition":{"Latitude":49.568,"Longitude":9.70222},"MapView":{"TopLeft":{"Latitude":49.5691242,"Longitude":9.7004867},"BottomRight":{"Latitude":49.5668758,"Longitude":9.7039533}},"Address":{"Label":"Jahnstraße 11, 97922 Lauda-Königshofen, Deutschland","Country":"DEU","State":"Baden-Württemberg","County":"Main-Tauber-Kreis","City":"Lauda-Königshofen","District":"Lauda","Street":"Jahnstraße","HouseNumber":"11","PostalCode":"97922","AdditionalData":[{"value":"Deutschland","key":"CountryName"},{"value":"Baden-Württemberg","key":"StateName"},{"value":"Main-Tauber-Kreis","key":"CountyName"}]},"MapReference":{"ReferenceId":"538801117","Spot":0.09,"SideOfStreet":"right","CountryId":"20147700","StateId":"20171489","CountyId":"20172807","CityId":"20172927","DistrictId":"20172933","AddressId":"180321609","RoadLinkId":"38268016"}}},{"Relevance":1.0,"Distance":58.6,"MatchLevel":"houseNumber","MatchQuality":{"Country":1.0,"State":1.0,"County":1.0,"City":1.0,"District":1.0,"Street":[1.0],"HouseNumber":1.0,"PostalCode":1.0},"MatchType":"interpolated","Location":{"LocationId":"NT_kIZdyLTm-.S8PyQ-gsCeBA_xUD","LocationType":"point","DisplayPosition":{"Latitude":49.56689,"Longitude":9.70186},"MapView":{"TopLeft":{"Latitude":49.5680142,"Longitude":9.7001267},"BottomRight":{"Latitude":49.5657658,"Longitude":9.7035933}},"Address":{"Label":"Becksteiner Straße 15, 97922 Lauda-Königshofen, Deutschland","Country":"DEU","State":"Baden-Württemberg","County":"Main-Tauber-Kreis","City":"Lauda-Königshofen","District":"Lauda","Street":"Becksteiner Straße","HouseNumber":"15","PostalCode":"97922","AdditionalData":[{"value":"Deutschland","key":"CountryName"},{"value":"Baden-Württemberg","key":"StateName"},{"value":"Main-Tauber-Kreis","key":"CountyName"}]},"MapReference":{"ReferenceId":"538801211","Spot":0.73,"SideOfStreet":"right","CountryId":"20147700","StateId":"20171489","CountyId":"20172807","CityId":"20172927","DistrictId":"20172933","AddressId":"179829980","RoadLinkId":"38685745"}}},{"Relevance":1.0,"Distance":72.6,"MatchLevel":"houseNumber","MatchQuality":{"Country":1.0,"State":1.0,"County":1.0,"City":1.0,"District":1.0,"Street":[1.0],"HouseNumber":1.0,"PostalCode":1.0},"MatchType":"interpolated","Location":{"LocationId":"NT_5YMLVOI9kAuk1tNyMMgcwC_xgD","LocationType":"point","DisplayPosition":{"Latitude":49.56703,"Longitude":9.70117},"MapView":{"TopLeft":{"Latitude":49.5681542,"Longitude":9.6994367},"BottomRight":{"Latitude":49.5659058,"Longitude":9.7029033}},"Address":{"Label":"Philipp-Adam-Ulrich-Straße 18, 97922 Lauda-Königshofen, Deutschland","Country":"DEU","State":"Baden-Württemberg","County":"Main-Tauber-Kreis","City":"Lauda-Königshofen","District":"Lauda","Street":"Philipp-Adam-Ulrich-Straße","HouseNumber":"18","PostalCode":"97922","AdditionalData":[{"value":"Deutschland","key":"CountryName"},{"value":"Baden-Württemberg","key":"StateName"},{"value":"Main-Tauber-Kreis","key":"CountyName"}]},"MapReference":{"ReferenceId":"538801195","Spot":0.64,"SideOfStreet":"left","CountryId":"20147700","StateId":"20171489","CountyId":"20172807","CityId":"20172927","DistrictId":"20172933","AddressId":"177453976","RoadLinkId":"38195586"}}},{"Relevance":1.0,"Distance":82.2,"MatchLevel":"houseNumber","MatchQuality":{"Country":1.0,"State":1.0,"County":1.0,"City":1.0,"District":1.0,"Street":[1.0],"HouseNumber":1.0,"PostalCode":1.0},"MatchType":"interpolated","Location":{"LocationId":"NT_uLeMT6EtmU5ZkXU95OpXwD_yA","LocationType":"point","DisplayPosition":{"Latitude":49.5682,"Longitude":9.70186},"MapView":{"TopLeft":{"Latitude":49.5693242,"Longitude":9.7001266},"BottomRight":{"Latitude":49.5670758,"Longitude":9.7035934}},"Address":{"Label":"Gartenstraße 2, 97922 Lauda-Königshofen, Deutschland","Country":"DEU","State":"Baden-Württemberg","County":"Main-Tauber-Kreis","City":"Lauda-Königshofen","District":"Lauda","Street":"Gartenstraße","HouseNumber":"2","PostalCode":"97922","AdditionalData":[{"value":"Deutschland","key":"CountryName"},{"value":"Baden-Württemberg","key":"StateName"},{"value":"Main-Tauber-Kreis","key":"CountyName"}]},"MapReference":{"ReferenceId":"538801144","Spot":0.59,"SideOfStreet":"left","CountryId":"20147700","StateId":"20171489","CountyId":"20172807","CityId":"20172927","DistrictId":"20172933","AddressId":"178681357","RoadLinkId":"38083607"}}}]}]}}