{"Response":{"MetaInfo":{"Timestamp":"2020-03-28T10:19:55.256+0000","NextPageInformation":"2"},"View":[{"_type":"SearchResultsViewType","ViewId":0,"Result":[{"Relevance":1.0,"Distance":0.0,"Direction":0.0,"MatchLevel":"district","MatchQuality":{"Country":1.0,"State":1.0,"County":1.0,"City":1.0,"District":1.0,"PostalCode":1.0},"Location":{"LocationId":"NT_obppPdBPtuSaZHoRSIdzdB","LocationType":"point","DisplayPosition":{"Latitude":49.5481128,"Longitude":8.6503815},"MapView":{"TopLeft":{"Latitude":49.57246,"Longitude":8.61938},"BottomRight":{"Latitude":49.53541,"Longitude":8.69946}},"Address":{"Label":"Weinheim, Baden-Württemberg, Deutschland","Country":"DEU","State":"Baden-Württemberg","County":"Rhein-Neckar-Kreis","City":"Weinheim","District":"Weinheim","PostalCode":"69469","AdditionalData":[{"value":"Deutschland","key":"CountryName"},{"value":"Baden-Württemberg","key":"StateName"},{"value":"Rhein-Neckar-Kreis","key":"CountyName"}]},"MapReference":{"ReferenceId":"1179678134","SideOfStreet":"neither","CountryId":"20147700","StateId":"20171489","CountyId":"20173754","CityId":"20173924","DistrictId":"20173928"}}},{"Relevance":1.0,"Distance":14.5,"MatchLevel":"houseNumber","MatchQuality":{"Country":1.0,"State":1.0,"County":1.0,"City":1.0,"District":1.0,"Street":[1.0],"HouseNumber":1.0,"PostalCode":1.0},"MatchType":"interpolated","Location":{"LocationId":"NT_F.jwibrYjF5XW8ZKdNHKaD_xMD","LocationType":"point","DisplayPosition":{"Latitude":49.54825,"Longitude":8.65061},"MapView":{"TopLeft":{"Latitude":49.5493742,"Longitude":8.6488774},"BottomRight":{"Latitude":49.5471258,"Longitude":8.6523426}},"Address":{"Label":"Lärchenweg 13, 69469 Weinheim, Deutschland","Country":"DEU","State":"Baden-Württemberg","County":"Rhein-Neckar-Kreis","City":"Weinheim","District":"Weinheim","Street":"Lärchenweg","HouseNumber":"13","PostalCode":"69469","AdditionalData":[{"value":"Deutschland","key":"CountryName"},{"value":"Baden-Württemberg","key":"StateName"},{"value":"Rhein-Neckar-Kreis","key":"CountyName"}]},"MapReference":{"ReferenceId":"72862010","Spot":0.7,"SideOfStreet":"left","CountryId":"20147700","StateId":"20171489","CountyId":"20173754","CityId":"20173924","DistrictId":"20173928","AddressId":"177894548","RoadLinkId":"38820204"}}},{"Relevance":1.0,"Distance":47.9,"MatchLevel":"houseNumber","MatchQuality":{"Country":1.0,"State":1.0,"County":1.0,"City":1.0,"District":1.0,"Street":[1.0],"HouseNumber":1.0,"PostalCode":1.0},"MatchType":"interpolated","Location":{"LocationId":"NT_CjhzvMgtu.hNY-kgZJgM7C_xID","LocationType":"point","DisplayPosition":{"Latitude":49.54801,"Longitude":8.64956},"MapView":{"TopLeft":{"Latitude":49.5491342,"Longitude":8.6478274},"BottomRight":{"Latitude":49.5468858,"Longitude":8.6512926}},"Address":{"Label":"Forlenweg 12, 69469 Weinheim, Deutschland","Country":"DEU","State":"Baden-Württemberg","County":"Rhein-Neckar-Kreis","City":"Weinheim","District":"Weinheim","Street":"Forlenweg","HouseNumber":"12","PostalCode":"69469","AdditionalData":[{"value":"Deutschland","key":"CountryName"},{"value":"Baden-Württemberg","key":"StateName"},{"value":"Rhein-Neckar-Kreis","key":"CountyName"}]},"MapReference":{"ReferenceId":"72848012","Spot":0.65,"SideOfStreet":"right","CountryId":"20147700","StateId":"20171489","CountyId":"20173754","CityId":"20173924","DistrictId":"20173928","AddressId":"178591766","RoadLinkId":"38987938"}}},{"Relevance":1.0,"Distance":83.9,"MatchLevel":"houseNumber","MatchQuality":{"Country":1.0,"State":1.0,"County":1.0,"City":1.0,"District":1.0,"Street":[1.0],"HouseNumber":1.0,"PostalCode":1.0},"MatchType":"interpolated","Location":{"LocationId":"NT_vZXTigLWbPPWhlUUunLxuC_1MzLxA","LocationType":"point","DisplayPosition":{"Latitude":49.54891,"Longitude":8.64982},"MapView":{"TopLeft":{"Latitude":49.5500342,"Longitude":8.6480873},"BottomRight":{"Latitude":49.5477858,"Longitude":8.6515527}},"Address":{"Label":"Schlehdornweg 53/1, 69469 Weinheim, Deutschland","Country":"DEU","State":"Baden-Württemberg","County":"Rhein-Neckar-Kreis","City":"Weinheim","District":"Weinheim","Street":"Schlehdornweg","HouseNumber":"53/1","PostalCode":"69469","AdditionalData":[{"value":"Deutschland","key":"CountryName"},{"value":"Baden-Württemberg","key":"StateName"},{"value":"Rhein-Neckar-Kreis","key":"CountyName"}]},"MapReference":{"ReferenceId":"72848059","Spot":0.53,"SideOfStreet":"right","CountryId":"20147700","StateId":"20171489","CountyId":"20173754","CityId":"20173924","DistrictId":"20173928","AddressId":"179954436","RoadLinkId":"38606761"}}},{"Relevance":1.0,"Distance":89.9,"MatchLevel":"houseNumber","MatchQuality":{"Country":1.0,"State":1.0,"County":1.0,"City":1.0,"District":1.0,"Street":[1.0],"HouseNumber":1.0,"PostalCode":1.0},"MatchType":"interpolated","Location":{"LocationId":"NT_LRBJmSzohh0XhtwbX0dxcB_5A","LocationType":"point","DisplayPosition":{"Latitude":49.54828,"Longitude":8.65181},"MapView":{"TopLeft":{"Latitude":49.5494042,"Longitude":8.6500774},"BottomRight":{"Latitude":49.5471558,"Longitude":8.6535426}},"Address":{"Label":"Zedernweg 9, 69469 Weinheim, Deutschland","Country":"DEU","State":"Baden-Württemberg","County":"Rhein-Neckar-Kreis","City":"Weinheim","District":"Weinheim","Street":"Zedernweg","HouseNumber":"9","PostalCode":"69469","AdditionalData":[{"value":"Deutschland","key":"CountryName"},{"value":"Baden-Württemberg","key":"StateName"},{"value":"Rhein-Neckar-Kreis","key":"CountyName"}]},"MapReference":{"ReferenceId":"76859783","Spot":0.43,"SideOfStreet":"left","CountryId":"20147700","StateId":"20171489","CountyId":"20173754","CityId":"20173924","DistrictId":"20173928","AddressId":"178824859","RoadLinkId":"38227953"}}},{"Relevance":1.0,"Distance":91.4,"MatchLevel":"houseNumber","MatchQuality":{"Country":1.0,"State":1.0,"County":1.0,"City":1.0,"District":1.0,"Street":[1.0],"HouseNumber":1.0,"PostalCode":1.0},"MatchType":"interpolated","Location":{"LocationId":"NT_vZXTigLWbPPWhlUUunLxuC_1MD","LocationType":"point","DisplayPosition":{"Latitude":49.54903,"Longitude":8.65058},"MapView":{"TopLeft":{"Latitude":49.5501542,"Longitude":8.6488473},"BottomRight":{"Latitude":49.5479058,"Longitude":8.6523127}},"Address":{"Label":"Schlehdornweg 53, 69469 Weinheim, Deutschland","Country":"DEU","State":"Baden-Württemberg","County":"Rhein-Neckar-Kreis","City":"Weinheim","District":"Weinheim","Street":"Schlehdornweg","HouseNumber":"53","PostalCode":"69469","AdditionalData":[{"value":"Deutschland","key":"CountryName"},{"value":"Baden-Württemberg","key":"StateName"},{"value":"Rhein-Neckar-Kreis","key":"CountyName"}]},"MapReference":{"ReferenceId":"72870270","Spot":0.21,"SideOfStreet":"right","CountryId":"20147700","StateId":"20171489","CountyId":"20173754","CityId":"20173924","DistrictId":"20173928","AddressId":"177941713","RoadLinkId":"38673198"}}},{"Relevance":1.0,"Distance":118.9,"MatchLevel":"houseNumber","MatchQuality":{"Country":1.0,"State":1.0,"County":1.0,"City":1.0,"District":1.0,"Street":[1.0],"HouseNumber":1.0,"PostalCode":1.0},"MatchType":"interpolated","Location":{"LocationId":"NT_vZXTigLWbPPWhlUUunLxuC_1cD","LocationType":"point","DisplayPosition":{"Latitude":49.54874,"Longitude":8.64888},"MapView":{"TopLeft":{"Latitude":49.5498642,"Longitude":8.6471473},"BottomRight":{"Latitude":49.5476158,"Longitude":8.6506127}},"Address":{"Label":"Schlehdornweg 57, 69469 Weinheim, Deutschland","Country":"DEU","State":"Baden-Württemberg","County":"Rhein-Neckar-Kreis","City":"Weinheim","District":"Weinheim","Street":"Schlehdornweg","HouseNumber":"57","PostalCode":"69469","AdditionalData":[{"value":"Deutschland","key":"CountryName"},{"value":"Baden-Württemberg","key":"StateName"},{"value":"Rhein-Neckar-Kreis","key":"CountyName"}]},"MapReference":{"ReferenceId":"72847862","Spot":0.63,"SideOfStreet":"right","CountryId":"20147700","StateId":"20171489","CountyId":"20173754","CityId":"20173924","DistrictId":"20173928","AddressId":"179136684","RoadLinkId":"38611051"}}},{"Relevance":1.0,"Distance":119.0,"MatchLevel":"street","MatchQuality":{"Country":1.0,"State":1.0,"County":1.0,"City":1.0,"District":1.0,"Street":[1.0],"PostalCode":1.0},"Location":{"LocationId":"NT_thaos9ZvS722CBOku8g4IC_l_1179807107_R","LocationType":"point","DisplayPosition":{"Latitude":49.54917,"Longitude":8.65064},"MapView":{"TopLeft":{"Latitude":49.54933,"Longitude":8.65064},"BottomRight":{"Latitude":49.54917,"Longitude":8.65179}},"Address":{"Label":"Mannheimer Straße, 69469 Weinheim, Deutschland","Country":"DEU","State":"Baden-Württemberg","County":"Rhein-Neckar-Kreis","City":"Weinheim","District":"Weinheim","Street":"Mannheimer Straße","PostalCode":"69469","AdditionalData":[{"value":"Deutschland","key":"CountryName"},{"value":"Baden-Württemberg","key":"StateName"},{"value":"Rhein-Neckar-Kreis","key":"CountyName"}]},"MapReference":{"ReferenceId":"1179807107","Spot":0.0,"SideOfStreet":"right","CountryId":"20147700","StateId":"20171489","CountyId":"20173754","CityId":"20173924","DistrictId":"20173928"}}},{"Relevance":1.0,"Distance":124.9,"MatchLevel":"houseNumber","MatchQuality":{"Country":1.0,"State":1.0,"County":1.0,"City":1.0,"District":1.0,"Street":[1.0],"HouseNumber":1.0,"PostalCode":1.0},"MatchType":"interpolated","Location":{"LocationId":"NT_GKGpJaR3BJqS40q-WMD6RC_ygD","LocationType":"point","DisplayPosition":{"Latitude":49.54795,"Longitude":8.64846},"MapView":{"TopLeft":{"Latitude":49.5490742,"Longitude":8.6467274},"BottomRight":{"Latitude":49.5468258,"Longitude":8.6501926}},"Address":{"Label":"Akazienweg 28, 69469 Weinheim, Deutschland","Country":"DEU","State":"Baden-Württemberg","County":"Rhein-Neckar-Kreis","City":"Weinheim","District":"Weinheim","Street":"Akazienweg","HouseNumber":"28","PostalCode":"69469","AdditionalData":[{"value":"Deutschland","key":"CountryName"},{"value":"Baden-Württemberg","key":"StateName"},{"value":"Rhein-Neckar-Kreis","key":"CountyName"}]},"MapReference":{"ReferenceId":"72847809","Spot":0.73,"SideOfStreet":"right","CountryId":"20147700","StateId":"20171489","CountyId":"20173754","CityId":"20173924","DistrictId":"20173928","AddressId":"180462448","RoadLinkId":"38603133"}}},{"Relevance":1.0,"Distance":125.4,"MatchLevel":"houseNumber","MatchQuality":{"Country":1.0,"State":1.0,"County":1.0,"City":1.0,"District":1.0,"Street":[1.0],"HouseNumber":1.0,"PostalCode":1.0},"MatchType":"interpolated","Location":{"LocationId":"NT_LRBJmSzohh0XhtwbX0dxcB_xA","LocationType":"point","DisplayPosition":{"Latitude":49.54762,"Longitude":8.65204},"MapView":{"TopLeft":{"Latitude":49.5487442,"Longitude":8.6503074},"BottomRight":{"Latitude":49.5464958,"Longitude":8.6537726}},"Address":{"Label":"Zedernweg 1, 69469 Weinheim, Deutschland","Country":"DEU","State":"Baden-Württemberg","County":"Rhein-Neckar-Kreis","City":"Weinheim","District":"Weinheim","Street":"Zedernweg","HouseNumber":"1","PostalCode":"69469","AdditionalData":[{"value":"Deutschland","key":"CountryName"},{"value":"Baden-Württemberg","key":"StateName"},{"value":"Rhein-Neckar-Kreis","key":"CountyName"}]},"MapReference":{"ReferenceId":"76859784","Spot":0.98,"SideOfStreet":"left","CountryId":"20147700","StateId":"20171489","CountyId":"20173754","CityId":"20173924","DistrictId":"20173928","AddressId":"178656772","RoadLinkId":"38260317"}}}]}]}}