{"Response":{"MetaInfo":{"Timestamp":"2020-03-28T10:21:09.706+0000","NextPageInformation":"2"},"View":[{"_type":"SearchResultsViewType","ViewId":0,"Result":[{"Relevance":1.0,"Distance":0.0,"Direction":0.0,"MatchLevel":"district","MatchQuality":{"Country":1.0,"State":1.0,"County":1.0,"City":1.0,"District":1.0,"PostalCode":1.0},"Location":{"LocationId":"NT_E4SK1B6XasqIzZJt0HMOxA","LocationType":"point","DisplayPosition":{"Latitude":49.5881136,"Longitude":11.0042207},"MapView":{"TopLeft":{"Latitude":49.61312,"Longitude":10.98378},"BottomRight":{"Latitude":49.5593,"Longitude":11.04554}},"Address":{"Label":"Erlangen, Bayern, Deutschland","Country":"DEU","State":"Bayern","County":"Erlangen","City":"Erlangen","District":"Erlangen","PostalCode":"91054","AdditionalData":[{"value":"Deutschland","key":"CountryName"},{"value":"Bayern","key":"StateName"},{"value":"Erlangen","key":"CountyName"}]},"MapReference":{"ReferenceId":"53089562","SideOfStreet":"neither","CountryId":"20147700","StateId":"20177250","CountyId":"20182957","CityId":"20182958","DistrictId":"20182960"}}},{"Relevance":1.0,"Distance":7.1,"MatchLevel":"houseNumber","MatchQuality":{"Country":1.0,"State":1.0,"County":1.0,"City":1.0,"District":1.0,"Street":[1.0],"HouseNumber":1.0,"PostalCode":1.0},"MatchType":"interpolated","Location":{"LocationId":"NT_fdYnSjn9wMP48uxPhgUHNA_0kzQ","LocationType":"point","DisplayPosition":{"Latitude":49.58815,"Longitude":11.00536},"MapView":{"TopLeft":{"Latitude":49.5892742,"Longitude":11.0036259},"BottomRight":{"Latitude":49.5870258,"Longitude":11.0070941}},"Address":{"Label":"Nägelsbachstraße 49C, 91052 Erlangen, Deutschland","Country":"DEU","State":"Bayern","County":"Erlangen","City":"Erlangen","District":"Erlangen","Street":"Nägelsbachstraße","HouseNumber":"49C","PostalCode":"91052","AdditionalData":[{"value":"Deutschland","key":"CountryName"},{"value":"Bayern","key":"StateName"},{"value":"Erlangen","key":"CountyName"}]},"MapReference":{"ReferenceId":"576279504","Spot":0.81,"SideOfStreet":"left","CountryId":"20147700","StateId":"20177250","CountyId":"20182957","CityId":"20182958","DistrictId":"20182960","AddressId":"183560465","RoadLinkId":"33646501"}}},{"Relevance":1.0,"Distance":35.1,"MatchLevel":"houseNumber","MatchQuality":{"Country":1.0,"State":1.0,"County":1.0,"City":1.0,"District":1.0,"Street":[1.0],"HouseNumber":1.0,"PostalCode":1.0},"MatchType":"interpolated","Location":{"LocationId":"NT_fdYnSjn9wMP48uxPhgUHNA_l_1200549429_L_zkD","LocationType":"point","DisplayPosition":{"Latitude":49.5884066,"Longitude":11.0044027},"MapView":{"TopLeft":{"Latitude":49.5895308,"Longitude":11.0026686},"BottomRight":{"Latitude":49.5872825,"Longitude":11.0061367}},"Address":{"Label":"Nägelsbachstraße 39, 91052 Erlangen, Deutschland","Country":"DEU","State":"Bayern","County":"Erlangen","City":"Erlangen","District":"Erlangen","Street":"Nägelsbachstraße","HouseNumber":"39","PostalCode":"91052","AdditionalData":[{"value":"Deutschland","key":"CountryName"},{"value":"Bayern","key":"StateName"},{"value":"Erlangen","key":"CountyName"}]},"MapReference":{"ReferenceId":"1200549429","Spot":0.5,"SideOfStreet":"left","CountryId":"20147700","StateId":"20177250","CountyId":"20182957","CityId":"20182958","DistrictId":"20182960"}}},{"Relevance":1.0,"Distance":42.9,"MatchLevel":"street","MatchQuality":{"Country":1.0,"State":1.0,"County":1.0,"City":1.0,"District":1.0,"Street":[1.0],"PostalCode":1.0},"Location":{"LocationId":"NT_XGRLORueAiLC7PLZ9l94WD_l_1188111828_R","LocationType":"point","DisplayPosition":{"Latitude":49.5884992,"Longitude":11.0042069},"MapView":{"TopLeft":{"Latitude":49.58853,"Longitude":11.00395},"BottomRight":{"Latitude":49.58849,"Longitude":11.0048}},"Address":{"Label":"Werner-von-Siemens-Straße, 91052 Erlangen, Deutschland","Country":"DEU","State":"Bayern","County":"Erlangen","City":"Erlangen","District":"Erlangen","Street":"Werner-von-Siemens-Straße","PostalCode":"91052","AdditionalData":[{"value":"Deutschland","key":"CountryName"},{"value":"Bayern","key":"StateName"},{"value":"Erlangen","key":"CountyName"}]},"MapReference":{"ReferenceId":"1188111828","Spot":0.3,"SideOfStreet":"right","CountryId":"20147700","StateId":"20177250","CountyId":"20182957","CityId":"20182958","DistrictId":"20182960"}}},{"Relevance":1.0,"Distance":46.2,"MatchLevel":"street","MatchQuality":{"Country":1.0,"State":1.0,"County":1.0,"City":1.0,"District":1.0,"Street":[1.0],"PostalCode":1.0},"Location":{"LocationId":"NT_XGRLORueAiLC7PLZ9l94WD_l_1200549421_R","LocationType":"point","DisplayPosition":{"Latitude":49.58849,"Longitude":11.00395},"MapView":{"TopLeft":{"Latitude":49.58849,"Longitude":11.00312},"BottomRight":{"Latitude":49.58848,"Longitude":11.00395}},"Address":{"Label":"Werner-von-Siemens-Straße, 91052 Erlangen, Deutschland","Country":"DEU","State":"Bayern","County":"Erlangen","City":"Erlangen","District":"Erlangen","Street":"Werner-von-Siemens-Straße","PostalCode":"91052","AdditionalData":[{"value":"Deutschland","key":"CountryName"},{"value":"Bayern","key":"StateName"},{"value":"Erlangen","key":"CountyName"}]},"MapReference":{"ReferenceId":"1200549421","Spot":1.0,"SideOfStreet":"right","CountryId":"20147700","StateId":"20177250","CountyId":"20182957","CityId":"20182958","DistrictId":"20182960"}}},{"Relevance":1.0,"Distance":59.3,"MatchLevel":"street","MatchQuality":{"Country":1.0,"State":1.0,"County":1.0,"City":1.0,"District":1.0,"PostalCode":1.0},"Location":{"LocationId":"NT_ZtJWwF4clr.VP5vAtDG4KD_l_1200549431_R","LocationType":"point","DisplayPosition":{"Latitude":49.58837,"Longitude":11.0035},"MapView":{"TopLeft":{"Latitude":49.58874,"Longitude":11.00324},"BottomRight":{"Latitude":49.58837,"Longitude":11.0035}},"Address":{"Label":"91052 Erlangen, Deutschland","Country":"DEU","State":"Bayern","County":"Erlangen","City":"Erlangen","District":"Erlangen","PostalCode":"91052","AdditionalData":[{"value":"Deutschland","key":"CountryName"},{"value":"Bayern","key":"StateName"},{"value":"Erlangen","key":"CountyName"}]},"MapReference":{"ReferenceId":"1200549431","Spot":0.0,"SideOfStreet":"right","CountryId":"20147700","StateId":"20177250","CountyId":"20182957","CityId":"20182958","DistrictId":"20182960"}}},{"Relevance":1.0,"Distance":61.4,"MatchLevel":"street","MatchQuality":{"Country":1.0,"State":1.0,"County":1.0,"City":1.0,"District":1.0,"Street":[1.0],"PostalCode":1.0},"Location":{"LocationId":"NT_XGRLORueAiLC7PLZ9l94WD_l_966088875_R","LocationType":"point","DisplayPosition":{"Latitude":49.5886654,"Longitude":11.0041962},"MapView":{"TopLeft":{"Latitude":49.5887,"Longitude":11.00349},"BottomRight":{"Latitude":49.58864,"Longitude":11.00479}},"Address":{"Label":"Werner-von-Siemens-Straße, 91052 Erlangen, Deutschland","Country":"DEU","State":"Bayern","County":"Erlangen","City":"Erlangen","District":"Erlangen","Street":"Werner-von-Siemens-Straße","PostalCode":"91052","AdditionalData":[{"value":"Deutschland","key":"CountryName"},{"value":"Bayern","key":"StateName"},{"value":"Erlangen","key":"CountyName"}]},"MapReference":{"ReferenceId":"966088875","Spot":0.54,"SideOfStreet":"right","CountryId":"20147700","StateId":"20177250","CountyId":"20182957","CityId":"20182958","DistrictId":"20182960"}}},{"Relevance":1.0,"Distance":62.4,"MatchLevel":"street","MatchQuality":{"Country":1.0,"State":1.0,"County":1.0,"City":1.0,"District":1.0,"Street":[1.0],"PostalCode":1.0},"Location":{"LocationId":"NT_XGRLORueAiLC7PLZ9l94WD_l_1188111923_R","LocationType":"point","DisplayPosition":{"Latitude":49.58853,"Longitude":11.0048},"MapView":{"TopLeft":{"Latitude":49.5886,"Longitude":11.0048},"BottomRight":{"Latitude":49.58853,"Longitude":11.00564}},"Address":{"Label":"Werner-von-Siemens-Straße, 91052 Erlangen, Deutschland","Country":"DEU","State":"Bayern","County":"Erlangen","City":"Erlangen","District":"Erlangen","Street":"Werner-von-Siemens-Straße","PostalCode":"91052","AdditionalData":[{"value":"Deutschland","key":"CountryName"},{"value":"Bayern","key":"StateName"},{"value":"Erlangen","key":"CountyName"}]},"MapReference":{"ReferenceId":"1188111923","Spot":0.0,"SideOfStreet":"right","CountryId":"20147700","StateId":"20177250","CountyId":"20182957","CityId":"20182958","DistrictId":"20182960"}}},{"Relevance":1.0,"Distance":62.4,"MatchLevel":"street","MatchQuality":{"Country":1.0,"State":1.0,"County":1.0,"City":1.0,"District":1.0,"PostalCode":1.0},"Location":{"LocationId":"NT_ZtJWwF4clr.VP5vAtDG4KD_l_756369416_L","LocationType":"point","DisplayPosition":{"Latitude":49.58853,"Longitude":11.0048},"MapView":{"TopLeft":{"Latitude":49.5887,"Longitude":11.00479},"BottomRight":{"Latitude":49.58853,"Longitude":11.00487}},"Address":{"Label":"91052 Erlangen, Deutschland","Country":"DEU","State":"Bayern","County":"Erlangen","City":"Erlangen","District":"Erlangen","PostalCode":"91052","AdditionalData":[{"value":"Deutschland","key":"CountryName"},{"value":"Bayern","key":"StateName"},{"value":"Erlangen","key":"CountyName"}]},"MapReference":{"ReferenceId":"756369416","Spot":0.0,"SideOfStreet":"left","CountryId":"20147700","StateId":"20177250","CountyId":"20182957","CityId":"20182958","DistrictId":"20182960"}}},{"Relevance":1.0,"Distance":72.5,"MatchLevel":"houseNumber","MatchQuality":{"Country":1.0,"State":1.0,"County":1.0,"City":1.0,"District":1.0,"Street":[1.0],"HouseNumber":1.0,"PostalCode":1.0},"MatchType":"interpolated","Location":{"LocationId":"NT_fdYnSjn9wMP48uxPhgUHNA_l_1200549430_R_0ED","LocationType":"point","DisplayPosition":{"Latitude":49.58836,"Longitude":11.00329},"MapView":{"TopLeft":{"Latitude":49.5894842,"Longitude":11.0015559},"BottomRight":{"Latitude":49.5872358,"Longitude":11.005024}},"Address":{"Label":"Nägelsbachstraße 41, 91052 Erlangen, Deutschland","Country":"DEU","State":"Bayern","County":"Erlangen","City":"Erlangen","District":"Erlangen","Street":"Nägelsbachstraße","HouseNumber":"41","PostalCode":"91052","AdditionalData":[{"value":"Deutschland","key":"CountryName"},{"value":"Bayern","key":"StateName"},{"value":"Erlangen","key":"CountyName"}]},"MapReference":{"ReferenceId":"1200549430","Spot":0.06,"SideOfStreet":"right","CountryId":"20147700","StateId":"20177250","CountyId":"20182957","CityId":"20182958","DistrictId":"20182960"}}}]}]}}