{"Response":{"MetaInfo":{"Timestamp":"2020-03-28T10:03:15.894+0000","NextPageInformation":"2"},"View":[{"_type":"SearchResultsViewType","ViewId":0,"Result":[{"Relevance":1.0,"Distance":0.0,"Direction":0.0,"MatchLevel":"district","MatchQuality":{"Country":1.0,"State":1.0,"County":1.0,"City":1.0,"District":1.0,"PostalCode":1.0},"Location":{"LocationId":"NT_aJXnRtQXvfc0rjM5SNtQ1C","LocationType":"point","DisplayPosition":{"Latitude":49.6091547,"Longitude":8.6501363},"MapView":{"TopLeft":{"Latitude":49.61777,"Longitude":8.6331},"BottomRight":{"Latitude":49.60417,"Longitude":8.66933}},"Address":{"Label":"Laudenbach, Baden-Württemberg, Deutschland","Country":"DEU","State":"Baden-Württemberg","County":"Rhein-Neckar-Kreis","City":"Laudenbach","District":"Laudenbach","PostalCode":"69514","AdditionalData":[{"value":"Deutschland","key":"CountryName"},{"value":"Baden-Württemberg","key":"StateName"},{"value":"Rhein-Neckar-Kreis","key":"CountyName"}]},"MapReference":{"ReferenceId":"784674027","SideOfStreet":"neither","CountryId":"20147700","StateId":"20171489","CountyId":"20173754","CityId":"20173819","DistrictId":"20173821"}}},{"Relevance":1.0,"Distance":2.6,"MatchLevel":"street","MatchQuality":{"Country":1.0,"State":1.0,"County":1.0,"City":1.0,"District":1.0,"PostalCode":1.0},"Location":{"LocationId":"NT_Y4OkXKDGUawsbBA75wVMoD_l_72862780_L","LocationType":"point","DisplayPosition":{"Latitude":49.6091477,"Longitude":8.6501019},"MapView":{"TopLeft":{"Latitude":49.60965,"Longitude":8.65},"BottomRight":{"Latitude":49.60896,"Longitude":8.65014}},"Address":{"Label":"69514 Laudenbach, Deutschland","Country":"DEU","State":"Baden-Württemberg","County":"Rhein-Neckar-Kreis","City":"Laudenbach","District":"Laudenbach","PostalCode":"69514","AdditionalData":[{"value":"Deutschland","key":"CountryName"},{"value":"Baden-Württemberg","key":"StateName"},{"value":"Rhein-Neckar-Kreis","key":"CountyName"}]},"MapReference":{"ReferenceId":"72862780","Spot":0.27,"SideOfStreet":"neither","CountryId":"20147700","StateId":"20171489","CountyId":"20173754","CityId":"20173819","DistrictId":"20173821"}}},{"Relevance":1.0,"Distance":11.8,"MatchLevel":"houseNumber","MatchQuality":{"Country":1.0,"State":1.0,"County":1.0,"City":1.0,"District":1.0,"Street":[1.0],"HouseNumber":1.0,"PostalCode":1.0},"MatchType":"interpolated","Location":{"LocationId":"NT_s.g2cwL56GWdtT4a1uvZ5A_xED","LocationType":"point","DisplayPosition":{"Latitude":49.60895,"Longitude":8.65018},"MapView":{"TopLeft":{"Latitude":49.6100742,"Longitude":8.6484452},"BottomRight":{"Latitude":49.6078258,"Longitude":8.6519148}},"Address":{"Label":"Schießmauerstraße 11, 69514 Laudenbach, Deutschland","Country":"DEU","State":"Baden-Württemberg","County":"Rhein-Neckar-Kreis","City":"Laudenbach","District":"Laudenbach","Street":"Schießmauerstraße","HouseNumber":"11","PostalCode":"69514","AdditionalData":[{"value":"Deutschland","key":"CountryName"},{"value":"Baden-Württemberg","key":"StateName"},{"value":"Rhein-Neckar-Kreis","key":"CountyName"}]},"MapReference":{"ReferenceId":"1000485739","Spot":0.94,"SideOfStreet":"right","CountryId":"20147700","StateId":"20171489","CountyId":"20173754","CityId":"20173819","DistrictId":"20173821","AddressId":"177990001","RoadLinkId":"326854809"}}},{"Relevance":1.0,"Distance":16.4,"MatchLevel":"houseNumber","MatchQuality":{"Country":1.0,"State":1.0,"County":1.0,"City":1.0,"District":1.0,"Street":[1.0],"HouseNumber":1.0,"PostalCode":1.0},"MatchType":"interpolated","Location":{"LocationId":"NT_s.g2cwL56GWdtT4a1uvZ5A_xMD","LocationType":"point","DisplayPosition":{"Latitude":49.60897,"Longitude":8.64993},"MapView":{"TopLeft":{"Latitude":49.6100942,"Longitude":8.6481952},"BottomRight":{"Latitude":49.6078458,"Longitude":8.6516648}},"Address":{"Label":"Schießmauerstraße 13, 69514 Laudenbach, Deutschland","Country":"DEU","State":"Baden-Württemberg","County":"Rhein-Neckar-Kreis","City":"Laudenbach","District":"Laudenbach","Street":"Schießmauerstraße","HouseNumber":"13","PostalCode":"69514","AdditionalData":[{"value":"Deutschland","key":"CountryName"},{"value":"Baden-Württemberg","key":"StateName"},{"value":"Rhein-Neckar-Kreis","key":"CountyName"}]},"MapReference":{"ReferenceId":"1000485740","Spot":0.45,"SideOfStreet":"right","CountryId":"20147700","StateId":"20171489","CountyId":"20173754","CityId":"20173819","DistrictId":"20173821","AddressId":"178250329","RoadLinkId":"326854810"}}},{"Relevance":1.0,"Distance":31.5,"MatchLevel":"houseNumber","MatchQuality":{"Country":1.0,"State":1.0,"County":1.0,"City":1.0,"District":1.0,"Street":[1.0],"HouseNumber":1.0,"PostalCode":1.0},"MatchType":"interpolated","Location":{"LocationId":"NT_D84UQ1kZVyHLte9vIi6XFD_yED","LocationType":"point","DisplayPosition":{"Latitude":49.60964,"Longitude":8.65025},"MapView":{"TopLeft":{"Latitude":49.6107642,"Longitude":8.6485152},"BottomRight":{"Latitude":49.6085158,"Longitude":8.6519848}},"Address":{"Label":"Bachstraße 21, 69514 Laudenbach, Deutschland","Country":"DEU","State":"Baden-Württemberg","County":"Rhein-Neckar-Kreis","City":"Laudenbach","District":"Laudenbach","Street":"Bachstraße","HouseNumber":"21","PostalCode":"69514","AdditionalData":[{"value":"Deutschland","key":"CountryName"},{"value":"Baden-Württemberg","key":"StateName"},{"value":"Rhein-Neckar-Kreis","key":"CountyName"}]},"MapReference":{"ReferenceId":"72862781","Spot":0.8,"SideOfStreet":"left","CountryId":"20147700","StateId":"20171489","CountyId":"20173754","CityId":"20173819","DistrictId":"20173821","AddressId":"177426996","RoadLinkId":"38917419"}}},{"Relevance":1.0,"Distance":34.4,"MatchLevel":"houseNumber","MatchQuality":{"Country":1.0,"State":1.0,"County":1.0,"City":1.0,"District":1.0,"Street":[1.0],"HouseNumber":1.0,"PostalCode":1.0},"MatchType":"interpolated","Location":{"LocationId":"NT_s.g2cwL56GWdtT4a1uvZ5A_xUD","LocationType":"point","DisplayPosition":{"Latitude":49.60899,"Longitude":8.64967},"MapView":{"TopLeft":{"Latitude":49.6101142,"Longitude":8.6479352},"BottomRight":{"Latitude":49.6078658,"Longitude":8.6514048}},"Address":{"Label":"Schießmauerstraße 15, 69514 Laudenbach, Deutschland","Country":"DEU","State":"Baden-Württemberg","County":"Rhein-Neckar-Kreis","City":"Laudenbach","District":"Laudenbach","Street":"Schießmauerstraße","HouseNumber":"15","PostalCode":"69514","AdditionalData":[{"value":"Deutschland","key":"CountryName"},{"value":"Baden-Württemberg","key":"StateName"},{"value":"Rhein-Neckar-Kreis","key":"CountyName"}]},"MapReference":{"ReferenceId":"72862791","Spot":1.0,"SideOfStreet":"left","CountryId":"20147700","StateId":"20171489","CountyId":"20173754","CityId":"20173819","DistrictId":"20173821","AddressId":"249639050","RoadLinkId":"38771295"}}},{"Relevance":1.0,"Distance":38.3,"MatchLevel":"street","MatchQuality":{"Country":1.0,"State":1.0,"County":1.0,"City":1.0,"District":1.0,"Street":[1.0],"PostalCode":1.0},"Location":{"LocationId":"NT_I0e2ujdSVoY.k.BTsfZdbC_l_72862702_R","LocationType":"point","DisplayPosition":{"Latitude":49.60899,"Longitude":8.64967},"MapView":{"TopLeft":{"Latitude":49.60899,"Longitude":8.64957},"BottomRight":{"Latitude":49.60843,"Longitude":8.64967}},"Address":{"Label":"Alleestraße, 69514 Laudenbach, Deutschland","Country":"DEU","State":"Baden-Württemberg","County":"Rhein-Neckar-Kreis","City":"Laudenbach","District":"Laudenbach","Street":"Alleestraße","PostalCode":"69514","AdditionalData":[{"value":"Deutschland","key":"CountryName"},{"value":"Baden-Württemberg","key":"StateName"},{"value":"Rhein-Neckar-Kreis","key":"CountyName"}]},"MapReference":{"ReferenceId":"72862702","Spot":1.0,"SideOfStreet":"right","CountryId":"20147700","StateId":"20171489","CountyId":"20173754","CityId":"20173819","DistrictId":"20173821"}}},{"Relevance":1.0,"Distance":48.9,"MatchLevel":"houseNumber","MatchQuality":{"Country":1.0,"State":1.0,"County":1.0,"City":1.0,"District":1.0,"Street":[1.0],"HouseNumber":1.0,"PostalCode":1.0},"MatchType":"interpolated","Location":{"LocationId":"NT_D84UQ1kZVyHLte9vIi6XFD_yMD","LocationType":"point","DisplayPosition":{"Latitude":49.60965,"Longitude":8.64985},"MapView":{"TopLeft":{"Latitude":49.6107742,"Longitude":8.6481152},"BottomRight":{"Latitude":49.6085258,"Longitude":8.6515848}},"Address":{"Label":"Bachstraße 23, 69514 Laudenbach, Deutschland","Country":"DEU","State":"Baden-Württemberg","County":"Rhein-Neckar-Kreis","City":"Laudenbach","District":"Laudenbach","Street":"Bachstraße","HouseNumber":"23","PostalCode":"69514","AdditionalData":[{"value":"Deutschland","key":"CountryName"},{"value":"Baden-Württemberg","key":"StateName"},{"value":"Rhein-Neckar-Kreis","key":"CountyName"}]},"MapReference":{"ReferenceId":"72862720","Spot":0.16,"SideOfStreet":"left","CountryId":"20147700","StateId":"20171489","CountyId":"20173754","CityId":"20173819","DistrictId":"20173821","AddressId":"180091024","RoadLinkId":"38792749"}}},{"Relevance":1.0,"Distance":58.0,"MatchLevel":"street","MatchQuality":{"Country":1.0,"State":1.0,"County":1.0,"City":1.0,"District":1.0,"Street":[1.0],"PostalCode":1.0},"Location":{"LocationId":"NT_s.g2cwL56GWdtT4a1uvZ5A_l_72862653_L","LocationType":"point","DisplayPosition":{"Latitude":49.60888,"Longitude":8.65082},"MapView":{"TopLeft":{"Latitude":49.60889,"Longitude":8.65082},"BottomRight":{"Latitude":49.60888,"Longitude":8.65122}},"Address":{"Label":"Schießmauerstraße, 69514 Laudenbach, Deutschland","Country":"DEU","State":"Baden-Württemberg","County":"Rhein-Neckar-Kreis","City":"Laudenbach","District":"Laudenbach","Street":"Schießmauerstraße","PostalCode":"69514","AdditionalData":[{"value":"Deutschland","key":"CountryName"},{"value":"Baden-Württemberg","key":"StateName"},{"value":"Rhein-Neckar-Kreis","key":"CountyName"}]},"MapReference":{"ReferenceId":"72862653","Spot":0.0,"SideOfStreet":"left","CountryId":"20147700","StateId":"20171489","CountyId":"20173754","CityId":"20173819","DistrictId":"20173821"}}},{"Relevance":1.0,"Distance":77.3,"MatchLevel":"street","MatchQuality":{"Country":1.0,"State":1.0,"County":1.0,"City":1.0,"District":1.0,"Street":[1.0],"PostalCode":1.0},"Location":{"LocationId":"NT_AaYPyOb3eUmCgv6mzuEVYD_l_72867506_L","LocationType":"point","DisplayPosition":{"Latitude":49.60847,"Longitude":8.64995},"MapView":{"TopLeft":{"Latitude":49.60847,"Longitude":8.64957},"BottomRight":{"Latitude":49.60843,"Longitude":8.64995}},"Address":{"Label":"Eichenweg, 69514 Laudenbach, Deutschland","Country":"DEU","State":"Baden-Württemberg","County":"Rhein-Neckar-Kreis","City":"Laudenbach","District":"Laudenbach","Street":"Eichenweg","PostalCode":"69514","AdditionalData":[{"value":"Deutschland","key":"CountryName"},{"value":"Baden-Württemberg","key":"StateName"},{"value":"Rhein-Neckar-Kreis","key":"CountyName"}]},"MapReference":{"ReferenceId":"72867506","Spot":1.0,"SideOfStreet":"left","CountryId":"20147700","StateId":"20171489","CountyId":"20173754","CityId":"20173819","DistrictId":"20173821"}}}]}]}}