{"Response":{"MetaInfo":{"Timestamp":"2020-03-28T10:53:59.377+0000","NextPageInformation":"2"},"View":[{"_type":"SearchResultsViewType","ViewId":0,"Result":[{"Relevance":1.0,"Distance":-16.7,"MatchLevel":"landmark","MatchQuality":{"Country":1.0,"State":1.0,"County":1.0,"City":1.0,"District":1.0,"Street":[1.0],"PostalCode":1.0,"Name":1.0},"Location":{"LocationId":"NT_WPp8eIquS9mSzkI3REy.GB_p_OoX2XJ7eegaIMIZT4pohtA","LocationType":"hospital","Name":"Nemocnice Frýdek-Místek","DisplayPosition":{"Latitude":49.69079,"Longitude":18.35666},"MapView":{"TopLeft":{"Latitude":49.69266,"Longitude":18.35112},"BottomRight":{"Latitude":49.68918,"Longitude":18.35682}},"Address":{"Label":"El. Krásnohorské, 738 01 Frýdek-Místek, Česká Republika","Country":"CZE","State":"Moravskoslezský kraj","County":"Frýdek-Místek","City":"Frýdek-Místek","District":"Frýdek-Místek","Street":"El. Krásnohorské","PostalCode":"738 01","AdditionalData":[{"value":"Česká Republika","key":"CountryName"},{"value":"Moravskoslezský kraj","key":"StateName"},{"value":"Frýdek-Místek","key":"CountyName"}]},"MapReference":{"CountryId":"20427915","StateId":"20438848","CountyId":"20439063","CityId":"20439106","DistrictId":"20439107","PlaceId":"844555244"}}},{"Relevance":1.0,"Distance":0.0,"Direction":0.0,"MatchLevel":"district","MatchQuality":{"Country":1.0,"State":1.0,"County":1.0,"City":1.0,"District":1.0,"PostalCode":1.0},"Location":{"LocationId":"NT_hTFYNLIe0M7ZkHEUJILC6D","LocationType":"point","DisplayPosition":{"Latitude":49.6909182,"Longitude":18.3565468},"MapView":{"TopLeft":{"Latitude":49.70909,"Longitude":18.3045},"BottomRight":{"Latitude":49.65324,"Longitude":18.40117}},"Address":{"Label":"Frýdek-Místek, Moravskoslezský kraj, Česká Republika","Country":"CZE","State":"Moravskoslezský kraj","County":"Frýdek-Místek","City":"Frýdek-Místek","District":"Frýdek-Místek","PostalCode":"738 01","AdditionalData":[{"value":"Česká Republika","key":"CountryName"},{"value":"Moravskoslezský kraj","key":"StateName"},{"value":"Frýdek-Místek","key":"CountyName"}]},"MapReference":{"ReferenceId":"576957080","SideOfStreet":"neither","CountryId":"20427915","StateId":"20438848","CountyId":"20439063","CityId":"20439106","DistrictId":"20439107"}}},{"Relevance":1.0,"Distance":9.6,"MatchLevel":"street","MatchQuality":{"Country":1.0,"State":1.0,"County":1.0,"City":1.0,"District":1.0,"Street":[1.0],"PostalCode":1.0},"Location":{"LocationId":"NT_idhnT6SFTl4xg5mcFtm.YD_l_721668764_R","LocationType":"point","DisplayPosition":{"Latitude":49.6908338,"Longitude":18.3565187},"MapView":{"TopLeft":{"Latitude":49.69089,"Longitude":18.35635},"BottomRight":{"Latitude":49.69082,"Longitude":18.35656}},"Address":{"Label":"El. Krásnohorské, 738 01 Frýdek-Místek, Česká Republika","Country":"CZE","State":"Moravskoslezský kraj","County":"Frýdek-Místek","City":"Frýdek-Místek","District":"Frýdek-Místek","Street":"El. Krásnohorské","PostalCode":"738 01","AdditionalData":[{"value":"Česká Republika","key":"CountryName"},{"value":"Moravskoslezský kraj","key":"StateName"},{"value":"Frýdek-Místek","key":"CountyName"}]},"MapReference":{"ReferenceId":"721668764","Spot":0.2,"SideOfStreet":"right","CountryId":"20427915","StateId":"20438848","CountyId":"20439063","CityId":"20439106","DistrictId":"20439107"}}},{"Relevance":1.0,"Distance":11.0,"MatchLevel":"street","MatchQuality":{"Country":1.0,"State":1.0,"County":1.0,"City":1.0,"District":1.0,"Street":[1.0],"PostalCode":1.0},"Location":{"LocationId":"NT_idhnT6SFTl4xg5mcFtm.YD_l_721668763_R","LocationType":"point","DisplayPosition":{"Latitude":49.69082,"Longitude":18.35656},"MapView":{"TopLeft":{"Latitude":49.69082,"Longitude":18.35656},"BottomRight":{"Latitude":49.69076,"Longitude":18.35675}},"Address":{"Label":"El. Krásnohorské, 738 01 Frýdek-Místek, Česká Republika","Country":"CZE","State":"Moravskoslezský kraj","County":"Frýdek-Místek","City":"Frýdek-Místek","District":"Frýdek-Místek","Street":"El. Krásnohorské","PostalCode":"738 01","AdditionalData":[{"value":"Česká Republika","key":"CountryName"},{"value":"Moravskoslezský kraj","key":"StateName"},{"value":"Frýdek-Místek","key":"CountyName"}]},"MapReference":{"ReferenceId":"721668763","Spot":1.0,"SideOfStreet":"right","CountryId":"20427915","StateId":"20438848","CountyId":"20439063","CityId":"20439106","DistrictId":"20439107"}}},{"Relevance":1.0,"Distance":14.1,"MatchLevel":"houseNumber","MatchQuality":{"Country":1.0,"State":1.0,"County":1.0,"City":1.0,"District":1.0,"Street":[1.0],"HouseNumber":1.0,"PostalCode":1.0},"MatchType":"interpolated","Location":{"LocationId":"NT_idhnT6SFTl4xg5mcFtm.YD_zIjM","LocationType":"point","DisplayPosition":{"Latitude":49.6909,"Longitude":18.35633},"MapView":{"TopLeft":{"Latitude":49.6920242,"Longitude":18.3545923},"BottomRight":{"Latitude":49.6897758,"Longitude":18.3580677}},"Address":{"Label":"El. Krásnohorské 322, 738 01 Frýdek-Místek, Česká Republika","Country":"CZE","State":"Moravskoslezský kraj","County":"Frýdek-Místek","City":"Frýdek-Místek","District":"Frýdek-Místek","Street":"El. Krásnohorské","HouseNumber":"322","PostalCode":"738 01","AdditionalData":[{"value":"Česká Republika","key":"CountryName"},{"value":"Moravskoslezský kraj","key":"StateName"},{"value":"Frýdek-Místek","key":"CountyName"}]},"MapReference":{"ReferenceId":"707429397","Spot":0.03,"SideOfStreet":"right","CountryId":"20427915","StateId":"20438848","CountyId":"20439063","CityId":"20439106","DistrictId":"20439107","AddressId":"240661970","RoadLinkId":"112971271"}}},{"Relevance":1.0,"Distance":14.5,"MatchLevel":"street","MatchQuality":{"Country":1.0,"State":1.0,"County":1.0,"City":1.0,"District":1.0,"Street":[1.0],"PostalCode":1.0},"Location":{"LocationId":"NT_idhnT6SFTl4xg5mcFtm.YD_l_707429399_R","LocationType":"point","DisplayPosition":{"Latitude":49.69089,"Longitude":18.35635},"MapView":{"TopLeft":{"Latitude":49.69089,"Longitude":18.35616},"BottomRight":{"Latitude":49.69052,"Longitude":18.35635}},"Address":{"Label":"El. Krásnohorské, 738 01 Frýdek-Místek, Česká Republika","Country":"CZE","State":"Moravskoslezský kraj","County":"Frýdek-Místek","City":"Frýdek-Místek","District":"Frýdek-Místek","Street":"El. Krásnohorské","PostalCode":"738 01","AdditionalData":[{"value":"Česká Republika","key":"CountryName"},{"value":"Moravskoslezský kraj","key":"StateName"},{"value":"Frýdek-Místek","key":"CountyName"}]},"MapReference":{"ReferenceId":"707429399","Spot":1.0,"SideOfStreet":"right","CountryId":"20427915","StateId":"20438848","CountyId":"20439063","CityId":"20439106","DistrictId":"20439107"}}},{"Relevance":1.0,"Distance":16.8,"MatchLevel":"street","MatchQuality":{"Country":1.0,"State":1.0,"County":1.0,"City":1.0,"District":1.0,"Street":[1.0],"PostalCode":1.0},"Location":{"LocationId":"NT_PCqJnLDRpFa0vb1n2mGtsB_l_721668527_L","LocationType":"point","DisplayPosition":{"Latitude":49.6908824,"Longitude":18.3567735},"MapView":{"TopLeft":{"Latitude":49.69105,"Longitude":18.35677},"BottomRight":{"Latitude":49.69086,"Longitude":18.3568}},"Address":{"Label":"I. J. Pešiny, 738 01 Frýdek-Místek, Česká Republika","Country":"CZE","State":"Moravskoslezský kraj","County":"Frýdek-Místek","City":"Frýdek-Místek","District":"Frýdek-Místek","Street":"I. J. Pešiny","PostalCode":"738 01","AdditionalData":[{"value":"Česká Republika","key":"CountryName"},{"value":"Moravskoslezský kraj","key":"StateName"},{"value":"Frýdek-Místek","key":"CountyName"}]},"MapReference":{"ReferenceId":"721668527","Spot":0.12,"SideOfStreet":"left","CountryId":"20427915","StateId":"20438848","CountyId":"20439063","CityId":"20439106","DistrictId":"20439107"}}},{"Relevance":1.0,"Distance":17.3,"MatchLevel":"street","MatchQuality":{"Country":1.0,"State":1.0,"County":1.0,"City":1.0,"District":1.0,"Street":[1.0],"PostalCode":1.0},"Location":{"LocationId":"NT_PCqJnLDRpFa0vb1n2mGtsB_l_707429418_L","LocationType":"point","DisplayPosition":{"Latitude":49.69086,"Longitude":18.35677},"MapView":{"TopLeft":{"Latitude":49.69086,"Longitude":18.35675},"BottomRight":{"Latitude":49.69076,"Longitude":18.35677}},"Address":{"Label":"I. J. Pešiny, 738 01 Frýdek-Místek, Česká Republika","Country":"CZE","State":"Moravskoslezský kraj","County":"Frýdek-Místek","City":"Frýdek-Místek","District":"Frýdek-Místek","Street":"I. J. Pešiny","PostalCode":"738 01","AdditionalData":[{"value":"Česká Republika","key":"CountryName"},{"value":"Moravskoslezský kraj","key":"StateName"},{"value":"Frýdek-Místek","key":"CountyName"}]},"MapReference":{"ReferenceId":"707429418","Spot":1.0,"SideOfStreet":"left","CountryId":"20427915","StateId":"20438848","CountyId":"20439063","CityId":"20439106","DistrictId":"20439107"}}},{"Relevance":1.0,"Distance":22.9,"MatchLevel":"street","MatchQuality":{"Country":1.0,"State":1.0,"County":1.0,"City":1.0,"District":1.0,"Street":[1.0],"PostalCode":1.0},"Location":{"LocationId":"NT_PCqJnLDRpFa0vb1n2mGtsB_l_707429419_L","LocationType":"point","DisplayPosition":{"Latitude":49.69076,"Longitude":18.35675},"MapView":{"TopLeft":{"Latitude":49.69076,"Longitude":18.35674},"BottomRight":{"Latitude":49.69068,"Longitude":18.35675}},"Address":{"Label":"I. J. Pešiny, 738 01 Frýdek-Místek, Česká Republika","Country":"CZE","State":"Moravskoslezský kraj","County":"Frýdek-Místek","City":"Frýdek-Místek","District":"Frýdek-Místek","Street":"I. J. Pešiny","PostalCode":"738 01","AdditionalData":[{"value":"Česká Republika","key":"CountryName"},{"value":"Moravskoslezský kraj","key":"StateName"},{"value":"Frýdek-Místek","key":"CountyName"}]},"MapReference":{"ReferenceId":"707429419","Spot":1.0,"SideOfStreet":"left","CountryId":"20427915","StateId":"20438848","CountyId":"20439063","CityId":"20439106","DistrictId":"20439107"}}},{"Relevance":1.0,"Distance":23.4,"MatchLevel":"street","MatchQuality":{"Country":1.0,"State":1.0,"County":1.0,"City":1.0,"District":1.0,"Street":[1.0],"PostalCode":1.0},"Location":{"LocationId":"NT_PCqJnLDRpFa0vb1n2mGtsB_l_721668528_L","LocationType":"point","DisplayPosition":{"Latitude":49.69105,"Longitude":18.3568},"MapView":{"TopLeft":{"Latitude":49.69116,"Longitude":18.3568},"BottomRight":{"Latitude":49.69105,"Longitude":18.35682}},"Address":{"Label":"I. J. Pešiny, 738 01 Frýdek-Místek, Česká Republika","Country":"CZE","State":"Moravskoslezský kraj","County":"Frýdek-Místek","City":"Frýdek-Místek","District":"Frýdek-Místek","Street":"I. J. Pešiny","PostalCode":"738 01","AdditionalData":[{"value":"Česká Republika","key":"CountryName"},{"value":"Moravskoslezský kraj","key":"StateName"},{"value":"Frýdek-Místek","key":"CountyName"}]},"MapReference":{"ReferenceId":"721668528","Spot":0.0,"SideOfStreet":"left","CountryId":"20427915","StateId":"20438848","CountyId":"20439063","CityId":"20439106","DistrictId":"20439107"}}}]}]}}