{"Response":{"MetaInfo":{"Timestamp":"2020-03-28T11:54:23.240+0000","NextPageInformation":"2"},"View":[{"_type":"SearchResultsViewType","ViewId":0,"Result":[{"Relevance":1.0,"Distance":-669.9,"MatchLevel":"landmark","MatchQuality":{"Country":1.0,"State":1.0,"Name":1.0},"Location":{"LocationId":"NT_6su2l00beSlXwUlYRySHIB","LocationType":"park","Name":"P.N.R. Boucles de la Seine Normande","DisplayPosition":{"Latitude":49.47633,"Longitude":0.77841},"MapView":{"TopLeft":{"Latitude":49.63447,"Longitude":0.30373},"BottomRight":{"Latitude":49.31818,"Longitude":1.05186}},"Address":{"Label":"France","Country":"FRA","State":"Normandie","AdditionalData":[{"value":"France","key":"CountryName"},{"value":"Normandie","key":"StateName"}]},"MapReference":{"CountryId":"20000001","StateId":"20057204","PlaceId":"1512262610"}}},{"Relevance":1.0,"Distance":0.0,"Direction":0.0,"MatchLevel":"city","MatchQuality":{"Country":1.0,"State":1.0,"County":1.0,"City":1.0,"PostalCode":1.0},"Location":{"LocationId":"NT_JhLCJZjDrLlmpDeOB3oKRB","LocationType":"point","DisplayPosition":{"Latitude":49.617381,"Longitude":0.752782},"MapView":{"TopLeft":{"Latitude":49.63447,"Longitude":0.73682},"BottomRight":{"Latitude":49.60213,"Longitude":0.8005}},"Address":{"Label":"Yvetot, Normandie, France","Country":"FRA","State":"Normandie","County":"Seine-Maritime","City":"Yvetot","PostalCode":"76190","AdditionalData":[{"value":"France","key":"CountryName"},{"value":"Normandie","key":"StateName"},{"value":"Seine-Maritime","key":"CountyName"}]},"MapReference":{"ReferenceId":"545575814","SideOfStreet":"neither","CountryId":"20000001","StateId":"20057204","CountyId":"20038936","CityId":"20080039"}}},{"Relevance":1.0,"Distance":2.1,"MatchLevel":"houseNumber","MatchQuality":{"Country":1.0,"State":1.0,"County":1.0,"City":1.0,"Street":[1.0],"HouseNumber":1.0,"PostalCode":1.0},"MatchType":"interpolated","Location":{"LocationId":"NT_OBBqGs8UY4EknpcKJejjoB_xAD","LocationType":"point","DisplayPosition":{"Latitude":49.6174,"Longitude":0.75269},"MapView":{"TopLeft":{"Latitude":49.6185242,"Longitude":0.7509549},"BottomRight":{"Latitude":49.6162758,"Longitude":0.7544251}},"Address":{"Label":"10 Rue des Victoires, 76190 Yvetot, France","Country":"FRA","State":"Normandie","County":"Seine-Maritime","City":"Yvetot","Street":"Rue des Victoires","HouseNumber":"10","PostalCode":"76190","AdditionalData":[{"value":"France","key":"CountryName"},{"value":"Normandie","key":"StateName"},{"value":"Seine-Maritime","key":"CountyName"}]},"MapReference":{"ReferenceId":"545575821","Spot":0.76,"SideOfStreet":"right","CountryId":"20000001","StateId":"20057204","CountyId":"20038936","CityId":"20080039","AddressId":"316726568","RoadLinkId":"46282599"}}},{"Relevance":1.0,"Distance":12.2,"MatchLevel":"houseNumber","MatchQuality":{"Country":1.0,"State":1.0,"County":1.0,"City":1.0,"Street":[1.0],"HouseNumber":1.0,"PostalCode":1.0},"MatchType":"interpolated","Location":{"LocationId":"NT_OBBqGs8UY4EknpcKJejjoB_xQD","LocationType":"point","DisplayPosition":{"Latitude":49.61749,"Longitude":0.75269},"MapView":{"TopLeft":{"Latitude":49.6186142,"Longitude":0.7509549},"BottomRight":{"Latitude":49.6163658,"Longitude":0.7544251}},"Address":{"Label":"14 Rue des Victoires, 76190 Yvetot, France","Country":"FRA","State":"Normandie","County":"Seine-Maritime","City":"Yvetot","Street":"Rue des Victoires","HouseNumber":"14","PostalCode":"76190","AdditionalData":[{"value":"France","key":"CountryName"},{"value":"Normandie","key":"StateName"},{"value":"Seine-Maritime","key":"CountyName"}]},"MapReference":{"ReferenceId":"545575819","Spot":0.29,"SideOfStreet":"right","CountryId":"20000001","StateId":"20057204","CountyId":"20038936","CityId":"20080039","AddressId":"316755816","RoadLinkId":"47531205"}}},{"Relevance":1.0,"Distance":20.3,"MatchLevel":"houseNumber","MatchQuality":{"Country":1.0,"State":1.0,"County":1.0,"City":1.0,"Street":[1.0],"HouseNumber":1.0,"PostalCode":1.0},"MatchType":"interpolated","Location":{"LocationId":"NT_xcUoKmauZfryNxgt5bILfD_3EE","LocationType":"point","DisplayPosition":{"Latitude":49.61745,"Longitude":0.7525},"MapView":{"TopLeft":{"Latitude":49.6185742,"Longitude":0.7507649},"BottomRight":{"Latitude":49.6163258,"Longitude":0.7542351}},"Address":{"Label":"7A Rue Pasteur, 76190 Yvetot, France","Country":"FRA","State":"Normandie","County":"Seine-Maritime","City":"Yvetot","Street":"Rue Pasteur","HouseNumber":"7A","PostalCode":"76190","AdditionalData":[{"value":"France","key":"CountryName"},{"value":"Normandie","key":"StateName"},{"value":"Seine-Maritime","key":"CountyName"}]},"MapReference":{"ReferenceId":"545577494","Spot":0.69,"SideOfStreet":"right","CountryId":"20000001","StateId":"20057204","CountyId":"20038936","CityId":"20080039","AddressId":"570973318","RoadLinkId":"47067525"}}},{"Relevance":1.0,"Distance":22.4,"MatchLevel":"houseNumber","MatchQuality":{"Country":1.0,"State":1.0,"County":1.0,"City":1.0,"Street":[1.0],"HouseNumber":1.0,"PostalCode":1.0},"MatchType":"interpolated","Location":{"LocationId":"NT_OBBqGs8UY4EknpcKJejjoB_2A","LocationType":"point","DisplayPosition":{"Latitude":49.61718,"Longitude":0.75268},"MapView":{"TopLeft":{"Latitude":49.6183042,"Longitude":0.7509449},"BottomRight":{"Latitude":49.6160558,"Longitude":0.7544151}},"Address":{"Label":"6 Rue des Victoires, 76190 Yvetot, France","Country":"FRA","State":"Normandie","County":"Seine-Maritime","City":"Yvetot","Street":"Rue des Victoires","HouseNumber":"6","PostalCode":"76190","AdditionalData":[{"value":"France","key":"CountryName"},{"value":"Normandie","key":"StateName"},{"value":"Seine-Maritime","key":"CountyName"}]},"MapReference":{"ReferenceId":"545575820","Spot":0.83,"SideOfStreet":"right","CountryId":"20000001","StateId":"20057204","CountyId":"20038936","CityId":"20080039","AddressId":"344708096","RoadLinkId":"47000126"}}},{"Relevance":1.0,"Distance":27.3,"MatchLevel":"houseNumber","MatchQuality":{"Country":1.0,"State":1.0,"County":1.0,"City":1.0,"Street":[1.0],"HouseNumber":1.0,"PostalCode":1.0},"MatchType":"interpolated","Location":{"LocationId":"NT_UGThPFsyAA09TnrRUSMMvB_xYD","LocationType":"point","DisplayPosition":{"Latitude":49.61726,"Longitude":0.75313},"MapView":{"TopLeft":{"Latitude":49.6183842,"Longitude":0.7513949},"BottomRight":{"Latitude":49.6161358,"Longitude":0.7548651}},"Address":{"Label":"16 Rue du Château, 76190 Yvetot, France","Country":"FRA","State":"Normandie","County":"Seine-Maritime","City":"Yvetot","Street":"Rue du Château","HouseNumber":"16","PostalCode":"76190","AdditionalData":[{"value":"France","key":"CountryName"},{"value":"Normandie","key":"StateName"},{"value":"Seine-Maritime","key":"CountyName"}]},"MapReference":{"ReferenceId":"545577481","Spot":0.65,"SideOfStreet":"right","CountryId":"20000001","StateId":"20057204","CountyId":"20038936","CityId":"20080039","AddressId":"379365836","RoadLinkId":"47045966"}}},{"Relevance":1.0,"Distance":35.3,"MatchLevel":"houseNumber","MatchQuality":{"Country":1.0,"State":1.0,"County":1.0,"City":1.0,"Street":[1.0],"HouseNumber":1.0,"PostalCode":1.0},"MatchType":"interpolated","Location":{"LocationId":"NT_qxbcq8GEMrRbDxtfPY43FC_xUD","LocationType":"point","DisplayPosition":{"Latitude":49.61761,"Longitude":0.75314},"MapView":{"TopLeft":{"Latitude":49.6187342,"Longitude":0.7514049},"BottomRight":{"Latitude":49.6164858,"Longitude":0.7548751}},"Address":{"Label":"15 Rue Martin du Bellay, 76190 Yvetot, France","Country":"FRA","State":"Normandie","County":"Seine-Maritime","City":"Yvetot","Street":"Rue Martin du Bellay","HouseNumber":"15","PostalCode":"76190","AdditionalData":[{"value":"France","key":"CountryName"},{"value":"Normandie","key":"StateName"},{"value":"Seine-Maritime","key":"CountyName"}]},"MapReference":{"ReferenceId":"545577501","Spot":0.67,"SideOfStreet":"right","CountryId":"20000001","StateId":"20057204","CountyId":"20038936","CityId":"20080039","AddressId":"316627690","RoadLinkId":"47812100"}}},{"Relevance":1.0,"Distance":37.7,"MatchLevel":"houseNumber","MatchQuality":{"Country":1.0,"State":1.0,"County":1.0,"City":1.0,"Street":[1.0],"HouseNumber":1.0,"PostalCode":1.0},"MatchType":"interpolated","Location":{"LocationId":"NT_OBBqGs8UY4EknpcKJejjoB_xgD","LocationType":"point","DisplayPosition":{"Latitude":49.61771,"Longitude":0.75268},"MapView":{"TopLeft":{"Latitude":49.6188342,"Longitude":0.7509449},"BottomRight":{"Latitude":49.6165858,"Longitude":0.7544151}},"Address":{"Label":"18 Rue des Victoires, 76190 Yvetot, France","Country":"FRA","State":"Normandie","County":"Seine-Maritime","City":"Yvetot","Street":"Rue des Victoires","HouseNumber":"18","PostalCode":"76190","AdditionalData":[{"value":"France","key":"CountryName"},{"value":"Normandie","key":"StateName"},{"value":"Seine-Maritime","key":"CountyName"}]},"MapReference":{"ReferenceId":"545575818","Spot":0.23,"SideOfStreet":"right","CountryId":"20000001","StateId":"20057204","CountyId":"20038936","CityId":"20080039","AddressId":"316779457","RoadLinkId":"47152489"}}},{"Relevance":1.0,"Distance":50.9,"MatchLevel":"houseNumber","MatchQuality":{"Country":1.0,"State":1.0,"County":1.0,"City":1.0,"Street":[1.0],"HouseNumber":1.0,"PostalCode":1.0},"MatchType":"interpolated","Location":{"LocationId":"NT_qxbcq8GEMrRbDxtfPY43FC_5A","LocationType":"point","DisplayPosition":{"Latitude":49.61762,"Longitude":0.75341},"MapView":{"TopLeft":{"Latitude":49.6187442,"Longitude":0.7516749},"BottomRight":{"Latitude":49.6164958,"Longitude":0.7551451}},"Address":{"Label":"9 Rue Martin du Bellay, 76190 Yvetot, France","Country":"FRA","State":"Normandie","County":"Seine-Maritime","City":"Yvetot","Street":"Rue Martin du Bellay","HouseNumber":"9","PostalCode":"76190","AdditionalData":[{"value":"France","key":"CountryName"},{"value":"Normandie","key":"StateName"},{"value":"Seine-Maritime","key":"CountyName"}]},"MapReference":{"ReferenceId":"545577472","Spot":0.22,"SideOfStreet":"right","CountryId":"20000001","StateId":"20057204","CountyId":"20038936","CityId":"20080039","AddressId":"316754118","RoadLinkId":"46574072"}}}]}]}}