{"Response":{"MetaInfo":{"Timestamp":"2020-03-28T10:18:59.241+0000","NextPageInformation":"2"},"View":[{"_type":"SearchResultsViewType","ViewId":0,"Result":[{"Relevance":1.0,"Distance":0.0,"Direction":0.0,"MatchLevel":"district","MatchQuality":{"Country":1.0,"State":1.0,"County":1.0,"City":1.0,"District":1.0,"PostalCode":1.0},"Location":{"LocationId":"NT_NMUH0SQNCitHJL8J0csK3D","LocationType":"point","DisplayPosition":{"Latitude":49.6190417,"Longitude":9.5984818},"MapView":{"TopLeft":{"Latitude":49.62355,"Longitude":9.57853},"BottomRight":{"Latitude":49.61301,"Longitude":9.61336}},"Address":{"Label":"Königheim, Baden-Württemberg, Deutschland","Country":"DEU","State":"Baden-Württemberg","County":"Main-Tauber-Kreis","City":"Königheim","District":"Königheim","PostalCode":"97953","AdditionalData":[{"value":"Deutschland","key":"CountryName"},{"value":"Baden-Württemberg","key":"StateName"},{"value":"Main-Tauber-Kreis","key":"CountyName"}]},"MapReference":{"ReferenceId":"540881618","SideOfStreet":"neither","CountryId":"20147700","StateId":"20171489","CountyId":"20172807","CityId":"20172862","DistrictId":"20172866"}}},{"Relevance":1.0,"Distance":4.7,"MatchLevel":"houseNumber","MatchQuality":{"Country":1.0,"State":1.0,"County":1.0,"City":1.0,"District":1.0,"Street":[1.0],"HouseNumber":1.0,"PostalCode":1.0},"MatchType":"interpolated","Location":{"LocationId":"NT_3I.eMOA.kHQnvkrf7fgwlB_xA","LocationType":"point","DisplayPosition":{"Latitude":49.61901,"Longitude":9.5988},"MapView":{"TopLeft":{"Latitude":49.6201342,"Longitude":9.5970648},"BottomRight":{"Latitude":49.6178858,"Longitude":9.6005352}},"Address":{"Label":"Dr.-Bechtold-Straße 1, 97953 Königheim, Deutschland","Country":"DEU","State":"Baden-Württemberg","County":"Main-Tauber-Kreis","City":"Königheim","District":"Königheim","Street":"Dr.-Bechtold-Straße","HouseNumber":"1","PostalCode":"97953","AdditionalData":[{"value":"Deutschland","key":"CountryName"},{"value":"Baden-Württemberg","key":"StateName"},{"value":"Main-Tauber-Kreis","key":"CountyName"}]},"MapReference":{"ReferenceId":"539030426","Spot":0.36,"SideOfStreet":"left","CountryId":"20147700","StateId":"20171489","CountyId":"20172807","CityId":"20172862","DistrictId":"20172866","AddressId":"177983124","RoadLinkId":"38336065"}}},{"Relevance":1.0,"Distance":37.7,"MatchLevel":"houseNumber","MatchQuality":{"Country":1.0,"State":1.0,"County":1.0,"City":1.0,"District":1.0,"Street":[1.0],"HouseNumber":1.0,"PostalCode":1.0},"MatchType":"interpolated","Location":{"LocationId":"NT_3I.eMOA.kHQnvkrf7fgwlB_zA","LocationType":"point","DisplayPosition":{"Latitude":49.61945,"Longitude":9.59878},"MapView":{"TopLeft":{"Latitude":49.6205742,"Longitude":9.5970448},"BottomRight":{"Latitude":49.6183258,"Longitude":9.6005152}},"Address":{"Label":"Dr.-Bechtold-Straße 3, 97953 Königheim, Deutschland","Country":"DEU","State":"Baden-Württemberg","County":"Main-Tauber-Kreis","City":"Königheim","District":"Königheim","Street":"Dr.-Bechtold-Straße","HouseNumber":"3","PostalCode":"97953","AdditionalData":[{"value":"Deutschland","key":"CountryName"},{"value":"Baden-Württemberg","key":"StateName"},{"value":"Main-Tauber-Kreis","key":"CountyName"}]},"MapReference":{"ReferenceId":"539030427","Spot":0.24,"SideOfStreet":"left","CountryId":"20147700","StateId":"20171489","CountyId":"20172807","CityId":"20172862","DistrictId":"20172866","AddressId":"382267419","RoadLinkId":"297242143"}}},{"Relevance":1.0,"Distance":37.8,"MatchLevel":"street","MatchQuality":{"Country":1.0,"State":1.0,"County":1.0,"City":1.0,"District":1.0,"Street":[1.0],"PostalCode":1.0},"Location":{"LocationId":"NT_EHqfbA-v32rkOgP2MvgT4C_l_540881638_L","LocationType":"point","DisplayPosition":{"Latitude":49.6187072,"Longitude":9.5985743},"MapView":{"TopLeft":{"Latitude":49.6188,"Longitude":9.59844},"BottomRight":{"Latitude":49.61867,"Longitude":9.59891}},"Address":{"Label":"Tauberbischofsheimer Straße, 97953 Königheim, Deutschland","Country":"DEU","State":"Baden-Württemberg","County":"Main-Tauber-Kreis","City":"Königheim","District":"Königheim","Street":"Tauberbischofsheimer Straße","PostalCode":"97953","AdditionalData":[{"value":"Deutschland","key":"CountryName"},{"value":"Baden-Württemberg","key":"StateName"},{"value":"Main-Tauber-Kreis","key":"CountyName"}]},"MapReference":{"ReferenceId":"540881638","Spot":0.29,"SideOfStreet":"left","CountryId":"20147700","StateId":"20171489","CountyId":"20172807","CityId":"20172862","DistrictId":"20172866"}}},{"Relevance":1.0,"Distance":41.4,"MatchLevel":"street","MatchQuality":{"Country":1.0,"State":1.0,"County":1.0,"City":1.0,"District":1.0,"Street":[1.0],"PostalCode":1.0},"Location":{"LocationId":"NT_EHqfbA-v32rkOgP2MvgT4C_l_539030400_L","LocationType":"point","DisplayPosition":{"Latitude":49.61867,"Longitude":9.59844},"MapView":{"TopLeft":{"Latitude":49.61867,"Longitude":9.59799},"BottomRight":{"Latitude":49.61853,"Longitude":9.59844}},"Address":{"Label":"Tauberbischofsheimer Straße, 97953 Königheim, Deutschland","Country":"DEU","State":"Baden-Württemberg","County":"Main-Tauber-Kreis","City":"Königheim","District":"Königheim","Street":"Tauberbischofsheimer Straße","PostalCode":"97953","AdditionalData":[{"value":"Deutschland","key":"CountryName"},{"value":"Baden-Württemberg","key":"StateName"},{"value":"Main-Tauber-Kreis","key":"CountyName"}]},"MapReference":{"ReferenceId":"539030400","Spot":1.0,"SideOfStreet":"left","CountryId":"20147700","StateId":"20171489","CountyId":"20172807","CityId":"20172862","DistrictId":"20172866"}}},{"Relevance":1.0,"Distance":45.9,"MatchLevel":"houseNumber","MatchQuality":{"Country":1.0,"State":1.0,"County":1.0,"City":1.0,"District":1.0,"Street":[1.0],"HouseNumber":1.0,"PostalCode":1.0},"MatchType":"interpolated","Location":{"LocationId":"NT_EldwfN-.kVe-N9QKdS83fD_0A","LocationType":"point","DisplayPosition":{"Latitude":49.61893,"Longitude":9.59766},"MapView":{"TopLeft":{"Latitude":49.6200542,"Longitude":9.5959248},"BottomRight":{"Latitude":49.6178058,"Longitude":9.5993952}},"Address":{"Label":"Neugasse 4, 97953 Königheim, Deutschland","Country":"DEU","State":"Baden-Württemberg","County":"Main-Tauber-Kreis","City":"Königheim","District":"Königheim","Street":"Neugasse","HouseNumber":"4","PostalCode":"97953","AdditionalData":[{"value":"Deutschland","key":"CountryName"},{"value":"Baden-Württemberg","key":"StateName"},{"value":"Main-Tauber-Kreis","key":"CountyName"}]},"MapReference":{"ReferenceId":"539030397","Spot":0.22,"SideOfStreet":"right","CountryId":"20147700","StateId":"20171489","CountyId":"20172807","CityId":"20172862","DistrictId":"20172866","AddressId":"199170179","RoadLinkId":"38052907"}}},{"Relevance":1.0,"Distance":46.0,"MatchLevel":"houseNumber","MatchQuality":{"Country":1.0,"State":1.0,"County":1.0,"City":1.0,"District":1.0,"Street":[1.0],"HouseNumber":1.0,"PostalCode":1.0},"MatchType":"interpolated","Location":{"LocationId":"NT_YODBGX9zxnzIg8kY1mYQcA_0A","LocationType":"point","DisplayPosition":{"Latitude":49.61928,"Longitude":9.59796},"MapView":{"TopLeft":{"Latitude":49.6204042,"Longitude":9.5962248},"BottomRight":{"Latitude":49.6181558,"Longitude":9.5996952}},"Address":{"Label":"Plangasse 4, 97953 Königheim, Deutschland","Country":"DEU","State":"Baden-Württemberg","County":"Main-Tauber-Kreis","City":"Königheim","District":"Königheim","Street":"Plangasse","HouseNumber":"4","PostalCode":"97953","AdditionalData":[{"value":"Deutschland","key":"CountryName"},{"value":"Baden-Württemberg","key":"StateName"},{"value":"Main-Tauber-Kreis","key":"CountyName"}]},"MapReference":{"ReferenceId":"539030418","Spot":0.68,"SideOfStreet":"right","CountryId":"20147700","StateId":"20171489","CountyId":"20172807","CityId":"20172862","DistrictId":"20172866","AddressId":"177990050","RoadLinkId":"38206727"}}},{"Relevance":1.0,"Distance":60.1,"MatchLevel":"houseNumber","MatchQuality":{"Country":1.0,"State":1.0,"County":1.0,"City":1.0,"District":1.0,"Street":[1.0],"HouseNumber":1.0,"PostalCode":1.0},"MatchType":"interpolated","Location":{"LocationId":"NT_R.MkS9owvAkKE0TFNGPmKC_xA","LocationType":"point","DisplayPosition":{"Latitude":49.61849,"Longitude":9.59863},"MapView":{"TopLeft":{"Latitude":49.6196142,"Longitude":9.5968949},"BottomRight":{"Latitude":49.6173658,"Longitude":9.6003651}},"Address":{"Label":"Klinggraben 1, 97953 Königheim, Deutschland","Country":"DEU","State":"Baden-Württemberg","County":"Main-Tauber-Kreis","City":"Königheim","District":"Königheim","Street":"Klinggraben","HouseNumber":"1","PostalCode":"97953","AdditionalData":[{"value":"Deutschland","key":"CountryName"},{"value":"Baden-Württemberg","key":"StateName"},{"value":"Main-Tauber-Kreis","key":"CountyName"}]},"MapReference":{"ReferenceId":"539030329","Spot":0.76,"SideOfStreet":"right","CountryId":"20147700","StateId":"20171489","CountyId":"20172807","CityId":"20172862","DistrictId":"20172866","AddressId":"177291416","RoadLinkId":"38563664"}}},{"Relevance":1.0,"Distance":61.4,"MatchLevel":"houseNumber","MatchQuality":{"Country":1.0,"State":1.0,"County":1.0,"City":1.0,"District":1.0,"Street":[1.0],"HouseNumber":1.0,"PostalCode":1.0},"MatchType":"interpolated","Location":{"LocationId":"NT_EHqfbA-v32rkOgP2MvgT4C_xA","LocationType":"point","DisplayPosition":{"Latitude":49.61895,"Longitude":9.59943},"MapView":{"TopLeft":{"Latitude":49.6200742,"Longitude":9.5976948},"BottomRight":{"Latitude":49.6178258,"Longitude":9.6011652}},"Address":{"Label":"Tauberbischofsheimer Straße 1, 97953 Königheim, Deutschland","Country":"DEU","State":"Baden-Württemberg","County":"Main-Tauber-Kreis","City":"Königheim","District":"Königheim","Street":"Tauberbischofsheimer Straße","HouseNumber":"1","PostalCode":"97953","AdditionalData":[{"value":"Deutschland","key":"CountryName"},{"value":"Baden-Württemberg","key":"StateName"},{"value":"Main-Tauber-Kreis","key":"CountyName"}]},"MapReference":{"ReferenceId":"539030456","Spot":0.25,"SideOfStreet":"left","CountryId":"20147700","StateId":"20171489","CountyId":"20172807","CityId":"20172862","DistrictId":"20172866","AddressId":"178261219","RoadLinkId":"38881353"}}},{"Relevance":1.0,"Distance":62.6,"MatchLevel":"houseNumber","MatchQuality":{"Country":1.0,"State":1.0,"County":1.0,"City":1.0,"District":1.0,"Street":[1.0],"HouseNumber":1.0,"PostalCode":1.0},"MatchType":"interpolated","Location":{"LocationId":"NT_rhFpR.uz5GMlkQbY59meqA_yA","LocationType":"point","DisplayPosition":{"Latitude":49.61864,"Longitude":9.59915},"MapView":{"TopLeft":{"Latitude":49.6197642,"Longitude":9.5974149},"BottomRight":{"Latitude":49.6175158,"Longitude":9.6008851}},"Address":{"Label":"Spitzsteig 2, 97953 Königheim, Deutschland","Country":"DEU","State":"Baden-Württemberg","County":"Main-Tauber-Kreis","City":"Königheim","District":"Königheim","Street":"Spitzsteig","HouseNumber":"2","PostalCode":"97953","AdditionalData":[{"value":"Deutschland","key":"CountryName"},{"value":"Baden-Württemberg","key":"StateName"},{"value":"Main-Tauber-Kreis","key":"CountyName"}]},"MapReference":{"ReferenceId":"539030349","Spot":0.74,"SideOfStreet":"left","CountryId":"20147700","StateId":"20171489","CountyId":"20172807","CityId":"20172862","DistrictId":"20172866","AddressId":"179032009","RoadLinkId":"38082704"}}}]}]}}