{"Response":{"MetaInfo":{"Timestamp":"2020-03-28T10:21:44.487+0000","NextPageInformation":"2"},"View":[{"_type":"SearchResultsViewType","ViewId":0,"Result":[{"Relevance":1.0,"Distance":0.0,"Direction":0.0,"MatchLevel":"district","MatchQuality":{"Country":1.0,"State":1.0,"County":1.0,"City":1.0,"District":1.0,"PostalCode":1.0},"Location":{"LocationId":"NT_V94O63WquBd3hJ0VNbCoLC","LocationType":"point","DisplayPosition":{"Latitude":49.6927042,"Longitude":11.6329466},"MapView":{"TopLeft":{"Latitude":49.69934,"Longitude":11.60809},"BottomRight":{"Latitude":49.68239,"Longitude":11.64261}},"Address":{"Label":"Auerbach in der Oberpfalz, Bayern, Deutschland","Country":"DEU","State":"Bayern","County":"Amberg-Sulzbach","City":"Auerbach in der Oberpfalz","District":"Auerbach in der Oberpfalz","PostalCode":"91275","AdditionalData":[{"value":"Deutschland","key":"CountryName"},{"value":"Bayern","key":"StateName"},{"value":"Amberg-Sulzbach","key":"CountyName"}]},"MapReference":{"ReferenceId":"547330216","SideOfStreet":"neither","CountryId":"20147700","StateId":"20177250","CountyId":"20180833","CityId":"20180838","DistrictId":"20180840"}}},{"Relevance":1.0,"Distance":5.3,"MatchLevel":"street","MatchQuality":{"Country":1.0,"State":1.0,"County":1.0,"City":1.0,"District":1.0,"Street":[1.0],"PostalCode":1.0},"Location":{"LocationId":"NT_BF9hNAjS9T0ItvIaPOYpMA_l_547330182_L","LocationType":"point","DisplayPosition":{"Latitude":49.692751,"Longitude":11.6329587},"MapView":{"TopLeft":{"Latitude":49.69281,"Longitude":11.63273},"BottomRight":{"Latitude":49.69273,"Longitude":11.63304}},"Address":{"Label":"Am Behälterweiher, 91275 Auerbach in der Oberpfalz, Deutschland","Country":"DEU","State":"Bayern","County":"Amberg-Sulzbach","City":"Auerbach in der Oberpfalz","District":"Auerbach in der Oberpfalz","Street":"Am Behälterweiher","PostalCode":"91275","AdditionalData":[{"value":"Deutschland","key":"CountryName"},{"value":"Bayern","key":"StateName"},{"value":"Amberg-Sulzbach","key":"CountyName"}]},"MapReference":{"ReferenceId":"547330182","Spot":0.26,"SideOfStreet":"left","CountryId":"20147700","StateId":"20177250","CountyId":"20180833","CityId":"20180838","DistrictId":"20180840"}}},{"Relevance":1.0,"Distance":7.3,"MatchLevel":"street","MatchQuality":{"Country":1.0,"State":1.0,"County":1.0,"City":1.0,"District":1.0,"Street":[1.0],"PostalCode":1.0},"Location":{"LocationId":"NT_bKF.xAZ2PgQ5Ue6LGGMUyD_l_545238718_L","LocationType":"point","DisplayPosition":{"Latitude":49.69273,"Longitude":11.63304},"MapView":{"TopLeft":{"Latitude":49.69283,"Longitude":11.63304},"BottomRight":{"Latitude":49.69273,"Longitude":11.63313}},"Address":{"Label":"Grünhof, 91275 Auerbach in der Oberpfalz, Deutschland","Country":"DEU","State":"Bayern","County":"Amberg-Sulzbach","City":"Auerbach in der Oberpfalz","District":"Auerbach in der Oberpfalz","Street":"Grünhof","PostalCode":"91275","AdditionalData":[{"value":"Deutschland","key":"CountryName"},{"value":"Bayern","key":"StateName"},{"value":"Amberg-Sulzbach","key":"CountyName"}]},"MapReference":{"ReferenceId":"545238718","Spot":0.0,"SideOfStreet":"left","CountryId":"20147700","StateId":"20177250","CountyId":"20180833","CityId":"20180838","DistrictId":"20180840"}}},{"Relevance":1.0,"Distance":12.7,"MatchLevel":"houseNumber","MatchQuality":{"Country":1.0,"State":1.0,"County":1.0,"City":1.0,"District":1.0,"Street":[1.0],"HouseNumber":1.0,"PostalCode":1.0},"MatchType":"interpolated","Location":{"LocationId":"NT_bKF.xAZ2PgQ5Ue6LGGMUyD_zA","LocationType":"point","DisplayPosition":{"Latitude":49.69259,"Longitude":11.63295},"MapView":{"TopLeft":{"Latitude":49.6937142,"Longitude":11.6312122},"BottomRight":{"Latitude":49.6914658,"Longitude":11.6346878}},"Address":{"Label":"Grünhof 3, 91275 Auerbach in der Oberpfalz, Deutschland","Country":"DEU","State":"Bayern","County":"Amberg-Sulzbach","City":"Auerbach in der Oberpfalz","District":"Auerbach in der Oberpfalz","Street":"Grünhof","HouseNumber":"3","PostalCode":"91275","AdditionalData":[{"value":"Deutschland","key":"CountryName"},{"value":"Bayern","key":"StateName"},{"value":"Amberg-Sulzbach","key":"CountyName"}]},"MapReference":{"ReferenceId":"545238717","Spot":0.63,"SideOfStreet":"left","CountryId":"20147700","StateId":"20177250","CountyId":"20180833","CityId":"20180838","DistrictId":"20180840","AddressId":"184329437","RoadLinkId":"33467556"}}},{"Relevance":1.0,"Distance":18.9,"MatchLevel":"street","MatchQuality":{"Country":1.0,"State":1.0,"County":1.0,"City":1.0,"District":1.0,"Street":[1.0],"PostalCode":1.0},"Location":{"LocationId":"NT_ao3VS4aKJQWGeP84dbtfZB_l_547330184_R","LocationType":"point","DisplayPosition":{"Latitude":49.6927935,"Longitude":11.6327234},"MapView":{"TopLeft":{"Latitude":49.69281,"Longitude":11.63262},"BottomRight":{"Latitude":49.69236,"Longitude":11.63273}},"Address":{"Label":"Am Schwedenturm, 91275 Auerbach in der Oberpfalz, Deutschland","Country":"DEU","State":"Bayern","County":"Amberg-Sulzbach","City":"Auerbach in der Oberpfalz","District":"Auerbach in der Oberpfalz","Street":"Am Schwedenturm","PostalCode":"91275","AdditionalData":[{"value":"Deutschland","key":"CountryName"},{"value":"Bayern","key":"StateName"},{"value":"Amberg-Sulzbach","key":"CountyName"}]},"MapReference":{"ReferenceId":"547330184","Spot":0.96,"SideOfStreet":"right","CountryId":"20147700","StateId":"20177250","CountyId":"20180833","CityId":"20180838","DistrictId":"20180840"}}},{"Relevance":1.0,"Distance":19.2,"MatchLevel":"street","MatchQuality":{"Country":1.0,"State":1.0,"County":1.0,"City":1.0,"District":1.0,"PostalCode":1.0},"Location":{"LocationId":"NT_os1WeMJ.XYGiHaDw0PJhLB_l_545238703_L","LocationType":"point","DisplayPosition":{"Latitude":49.69283,"Longitude":11.63313},"MapView":{"TopLeft":{"Latitude":49.69283,"Longitude":11.63313},"BottomRight":{"Latitude":49.69262,"Longitude":11.63402}},"Address":{"Label":"91275 Auerbach in der Oberpfalz, Deutschland","Country":"DEU","State":"Bayern","County":"Amberg-Sulzbach","City":"Auerbach in der Oberpfalz","District":"Auerbach in der Oberpfalz","PostalCode":"91275","AdditionalData":[{"value":"Deutschland","key":"CountryName"},{"value":"Bayern","key":"StateName"},{"value":"Amberg-Sulzbach","key":"CountyName"}]},"MapReference":{"ReferenceId":"545238703","Spot":1.0,"SideOfStreet":"left","CountryId":"20147700","StateId":"20177250","CountyId":"20180833","CityId":"20180838","DistrictId":"20180840"}}},{"Relevance":1.0,"Distance":20.5,"MatchLevel":"houseNumber","MatchQuality":{"Country":1.0,"State":1.0,"County":1.0,"City":1.0,"District":1.0,"Street":[1.0],"HouseNumber":1.0,"PostalCode":1.0},"MatchType":"interpolated","Location":{"LocationId":"NT_bKF.xAZ2PgQ5Ue6LGGMUyD_1A","LocationType":"point","DisplayPosition":{"Latitude":49.69284,"Longitude":11.63314},"MapView":{"TopLeft":{"Latitude":49.6939642,"Longitude":11.6314022},"BottomRight":{"Latitude":49.6917158,"Longitude":11.6348778}},"Address":{"Label":"Grünhof 5, 91275 Auerbach in der Oberpfalz, Deutschland","Country":"DEU","State":"Bayern","County":"Amberg-Sulzbach","City":"Auerbach in der Oberpfalz","District":"Auerbach in der Oberpfalz","Street":"Grünhof","HouseNumber":"5","PostalCode":"91275","AdditionalData":[{"value":"Deutschland","key":"CountryName"},{"value":"Bayern","key":"StateName"},{"value":"Amberg-Sulzbach","key":"CountyName"}]},"MapReference":{"ReferenceId":"545238890","Spot":0.01,"SideOfStreet":"left","CountryId":"20147700","StateId":"20177250","CountyId":"20180833","CityId":"20180838","DistrictId":"20180840","AddressId":"185358866","RoadLinkId":"33513727"}}},{"Relevance":1.0,"Distance":36.9,"MatchLevel":"houseNumber","MatchQuality":{"Country":1.0,"State":1.0,"County":1.0,"City":1.0,"District":1.0,"Street":[1.0],"HouseNumber":1.0,"PostalCode":1.0},"MatchType":"interpolated","Location":{"LocationId":"NT_ao3VS4aKJQWGeP84dbtfZB_5A","LocationType":"point","DisplayPosition":{"Latitude":49.69258,"Longitude":11.63235},"MapView":{"TopLeft":{"Latitude":49.6937042,"Longitude":11.6306122},"BottomRight":{"Latitude":49.6914558,"Longitude":11.6340878}},"Address":{"Label":"Am Schwedenturm 9, 91275 Auerbach in der Oberpfalz, Deutschland","Country":"DEU","State":"Bayern","County":"Amberg-Sulzbach","City":"Auerbach in der Oberpfalz","District":"Auerbach in der Oberpfalz","Street":"Am Schwedenturm","HouseNumber":"9","PostalCode":"91275","AdditionalData":[{"value":"Deutschland","key":"CountryName"},{"value":"Bayern","key":"StateName"},{"value":"Amberg-Sulzbach","key":"CountyName"}]},"MapReference":{"ReferenceId":"973134575","Spot":0.2,"SideOfStreet":"right","CountryId":"20147700","StateId":"20177250","CountyId":"20180833","CityId":"20180838","DistrictId":"20180840","AddressId":"182372282","RoadLinkId":"309541862"}}},{"Relevance":1.0,"Distance":39.2,"MatchLevel":"houseNumber","MatchQuality":{"Country":1.0,"State":1.0,"County":1.0,"City":1.0,"District":1.0,"Street":[1.0],"HouseNumber":1.0,"PostalCode":1.0},"MatchType":"interpolated","Location":{"LocationId":"NT_F2s-wUnooV8tRiAcgnRTAB_ykD","LocationType":"point","DisplayPosition":{"Latitude":49.69237,"Longitude":11.63251},"MapView":{"TopLeft":{"Latitude":49.6934942,"Longitude":11.6307722},"BottomRight":{"Latitude":49.6912458,"Longitude":11.6342478}},"Address":{"Label":"Dr.-Heinrich-Stromer-Straße 29, 91275 Auerbach in der Oberpfalz, Deutschland","Country":"DEU","State":"Bayern","County":"Amberg-Sulzbach","City":"Auerbach in der Oberpfalz","District":"Auerbach in der Oberpfalz","Street":"Dr.-Heinrich-Stromer-Straße","HouseNumber":"29","PostalCode":"91275","AdditionalData":[{"value":"Deutschland","key":"CountryName"},{"value":"Bayern","key":"StateName"},{"value":"Amberg-Sulzbach","key":"CountyName"}]},"MapReference":{"ReferenceId":"547330181","Spot":0.52,"SideOfStreet":"right","CountryId":"20147700","StateId":"20177250","CountyId":"20180833","CityId":"20180838","DistrictId":"20180840","AddressId":"184242531","RoadLinkId":"33139646"}}},{"Relevance":1.0,"Distance":40.6,"MatchLevel":"street","MatchQuality":{"Country":1.0,"State":1.0,"County":1.0,"City":1.0,"District":1.0,"Street":[1.0],"PostalCode":1.0},"Location":{"LocationId":"NT_F2s-wUnooV8tRiAcgnRTAB_l_547330180_R","LocationType":"point","DisplayPosition":{"Latitude":49.69235,"Longitude":11.63281},"MapView":{"TopLeft":{"Latitude":49.69236,"Longitude":11.63262},"BottomRight":{"Latitude":49.69235,"Longitude":11.63281}},"Address":{"Label":"Dr.-Heinrich-Stromer-Straße, 91275 Auerbach in der Oberpfalz, Deutschland","Country":"DEU","State":"Bayern","County":"Amberg-Sulzbach","City":"Auerbach in der Oberpfalz","District":"Auerbach in der Oberpfalz","Street":"Dr.-Heinrich-Stromer-Straße","PostalCode":"91275","AdditionalData":[{"value":"Deutschland","key":"CountryName"},{"value":"Bayern","key":"StateName"},{"value":"Amberg-Sulzbach","key":"CountyName"}]},"MapReference":{"ReferenceId":"547330180","Spot":0.0,"SideOfStreet":"right","CountryId":"20147700","StateId":"20177250","CountyId":"20180833","CityId":"20180838","DistrictId":"20180840"}}}]}]}}