{"Response":{"MetaInfo":{"Timestamp":"2020-03-28T11:01:47.014+0000","NextPageInformation":"2"},"View":[{"_type":"SearchResultsViewType","ViewId":0,"Result":[{"Relevance":1.0,"Distance":0.0,"Direction":0.0,"MatchLevel":"district","MatchQuality":{"Country":1.0,"State":1.0,"County":1.0,"City":1.0,"District":1.0,"PostalCode":1.0},"Location":{"LocationId":"NT_1HoDwH-klrUgErP-I9h8SC","LocationType":"point","DisplayPosition":{"Latitude":49.6578356,"Longitude":6.9479027},"MapView":{"TopLeft":{"Latitude":49.66723,"Longitude":6.92418},"BottomRight":{"Latitude":49.64715,"Longitude":6.95698}},"Address":{"Label":"Hermeskeil, Rheinland-Pfalz, Deutschland","Country":"DEU","State":"Rheinland-Pfalz","County":"Trier-Saarburg","City":"Hermeskeil","District":"Hermeskeil","PostalCode":"54411","AdditionalData":[{"value":"Deutschland","key":"CountryName"},{"value":"Rheinland-Pfalz","key":"StateName"},{"value":"Trier-Saarburg","key":"CountyName"}]},"MapReference":{"ReferenceId":"576421676","SideOfStreet":"neither","CountryId":"20147700","StateId":"20164001","CountyId":"20169003","CityId":"20169080","DistrictId":"20169083"}}},{"Relevance":1.0,"Distance":43.9,"MatchLevel":"houseNumber","MatchQuality":{"Country":1.0,"State":1.0,"County":1.0,"City":1.0,"District":1.0,"Street":[1.0],"HouseNumber":1.0,"PostalCode":1.0},"MatchType":"interpolated","Location":{"LocationId":"NT_uUE4K9g-oWd9p1lQEropVA_zID","LocationType":"point","DisplayPosition":{"Latitude":49.65827,"Longitude":6.94763},"MapView":{"TopLeft":{"Latitude":49.6593942,"Longitude":6.9458934},"BottomRight":{"Latitude":49.6571458,"Longitude":6.9493666}},"Address":{"Label":"Alte Kirchstraße 32, 54411 Hermeskeil, Deutschland","Country":"DEU","State":"Rheinland-Pfalz","County":"Trier-Saarburg","City":"Hermeskeil","District":"Hermeskeil","Street":"Alte Kirchstraße","HouseNumber":"32","PostalCode":"54411","AdditionalData":[{"value":"Deutschland","key":"CountryName"},{"value":"Rheinland-Pfalz","key":"StateName"},{"value":"Trier-Saarburg","key":"CountyName"}]},"MapReference":{"ReferenceId":"548386188","Spot":0.55,"SideOfStreet":"right","CountryId":"20147700","StateId":"20164001","CountyId":"20169003","CityId":"20169080","DistrictId":"20169083","AddressId":"188813505","RoadLinkId":"34719095"}}},{"Relevance":1.0,"Distance":50.1,"MatchLevel":"street","MatchQuality":{"Country":1.0,"State":1.0,"County":1.0,"City":1.0,"District":1.0,"PostalCode":1.0},"Location":{"LocationId":"NT_Av2PO4.ACohxcM4iEoFmMC_l_590223397_L","LocationType":"point","DisplayPosition":{"Latitude":49.65764,"Longitude":6.94853},"MapView":{"TopLeft":{"Latitude":49.65789,"Longitude":6.94843},"BottomRight":{"Latitude":49.65725,"Longitude":6.94875}},"Address":{"Label":"54411 Hermeskeil, Deutschland","Country":"DEU","State":"Rheinland-Pfalz","County":"Trier-Saarburg","City":"Hermeskeil","District":"Hermeskeil","PostalCode":"54411","AdditionalData":[{"value":"Deutschland","key":"CountryName"},{"value":"Rheinland-Pfalz","key":"StateName"},{"value":"Trier-Saarburg","key":"CountyName"}]},"MapReference":{"ReferenceId":"590223397","Spot":0.55,"SideOfStreet":"left","CountryId":"20147700","StateId":"20164001","CountyId":"20169003","CityId":"20169080","DistrictId":"20169083"}}},{"Relevance":1.0,"Distance":52.9,"MatchLevel":"street","MatchQuality":{"Country":1.0,"State":1.0,"County":1.0,"City":1.0,"District":1.0,"PostalCode":1.0},"Location":{"LocationId":"NT_Av2PO4.ACohxcM4iEoFmMC_l_548384035_R","LocationType":"point","DisplayPosition":{"Latitude":49.65772,"Longitude":6.94719},"MapView":{"TopLeft":{"Latitude":49.65772,"Longitude":6.94654},"BottomRight":{"Latitude":49.65758,"Longitude":6.94719}},"Address":{"Label":"54411 Hermeskeil, Deutschland","Country":"DEU","State":"Rheinland-Pfalz","County":"Trier-Saarburg","City":"Hermeskeil","District":"Hermeskeil","PostalCode":"54411","AdditionalData":[{"value":"Deutschland","key":"CountryName"},{"value":"Rheinland-Pfalz","key":"StateName"},{"value":"Trier-Saarburg","key":"CountyName"}]},"MapReference":{"ReferenceId":"548384035","Spot":1.0,"SideOfStreet":"right","CountryId":"20147700","StateId":"20164001","CountyId":"20169003","CityId":"20169080","DistrictId":"20169083"}}},{"Relevance":1.0,"Distance":54.1,"MatchLevel":"street","MatchQuality":{"Country":1.0,"State":1.0,"County":1.0,"City":1.0,"District":1.0,"PostalCode":1.0},"Location":{"LocationId":"NT_Av2PO4.ACohxcM4iEoFmMC_l_590223394_L","LocationType":"point","DisplayPosition":{"Latitude":49.65827,"Longitude":6.94824},"MapView":{"TopLeft":{"Latitude":49.65827,"Longitude":6.94824},"BottomRight":{"Latitude":49.65789,"Longitude":6.94875}},"Address":{"Label":"54411 Hermeskeil, Deutschland","Country":"DEU","State":"Rheinland-Pfalz","County":"Trier-Saarburg","City":"Hermeskeil","District":"Hermeskeil","PostalCode":"54411","AdditionalData":[{"value":"Deutschland","key":"CountryName"},{"value":"Rheinland-Pfalz","key":"StateName"},{"value":"Trier-Saarburg","key":"CountyName"}]},"MapReference":{"ReferenceId":"590223394","Spot":1.0,"SideOfStreet":"left","CountryId":"20147700","StateId":"20164001","CountyId":"20169003","CityId":"20169080","DistrictId":"20169083"}}},{"Relevance":1.0,"Distance":61.3,"MatchLevel":"street","MatchQuality":{"Country":1.0,"State":1.0,"County":1.0,"City":1.0,"District":1.0,"PostalCode":1.0},"Location":{"LocationId":"NT_Av2PO4.ACohxcM4iEoFmMC_l_590223395_L","LocationType":"point","DisplayPosition":{"Latitude":49.65789,"Longitude":6.94875},"MapView":{"TopLeft":{"Latitude":49.65789,"Longitude":6.94875},"BottomRight":{"Latitude":49.65781,"Longitude":6.94895}},"Address":{"Label":"54411 Hermeskeil, Deutschland","Country":"DEU","State":"Rheinland-Pfalz","County":"Trier-Saarburg","City":"Hermeskeil","District":"Hermeskeil","PostalCode":"54411","AdditionalData":[{"value":"Deutschland","key":"CountryName"},{"value":"Rheinland-Pfalz","key":"StateName"},{"value":"Trier-Saarburg","key":"CountyName"}]},"MapReference":{"ReferenceId":"590223395","Spot":1.0,"SideOfStreet":"left","CountryId":"20147700","StateId":"20164001","CountyId":"20169003","CityId":"20169080","DistrictId":"20169083"}}},{"Relevance":1.0,"Distance":66.8,"MatchLevel":"houseNumber","MatchQuality":{"Country":1.0,"State":1.0,"County":1.0,"City":1.0,"District":1.0,"Street":[1.0],"HouseNumber":1.0,"PostalCode":1.0},"MatchType":"interpolated","Location":{"LocationId":"NT_iD1e4CbfK9SOXhnHWtuK0D_l_590223393_L_yMD","LocationType":"point","DisplayPosition":{"Latitude":49.6574832,"Longitude":6.9488966},"MapView":{"TopLeft":{"Latitude":49.6586073,"Longitude":6.9471601},"BottomRight":{"Latitude":49.656359,"Longitude":6.9506331}},"Address":{"Label":"Koblenzer Straße 23, 54411 Hermeskeil, Deutschland","Country":"DEU","State":"Rheinland-Pfalz","County":"Trier-Saarburg","City":"Hermeskeil","District":"Hermeskeil","Street":"Koblenzer Straße","HouseNumber":"23","PostalCode":"54411","AdditionalData":[{"value":"Deutschland","key":"CountryName"},{"value":"Rheinland-Pfalz","key":"StateName"},{"value":"Trier-Saarburg","key":"CountyName"}]},"MapReference":{"ReferenceId":"590223393","Spot":0.51,"SideOfStreet":"left","CountryId":"20147700","StateId":"20164001","CountyId":"20169003","CityId":"20169080","DistrictId":"20169083"}}},{"Relevance":1.0,"Distance":74.3,"MatchLevel":"houseNumber","MatchQuality":{"Country":1.0,"State":1.0,"County":1.0,"City":1.0,"District":1.0,"Street":[1.0],"HouseNumber":1.0,"PostalCode":1.0},"MatchType":"interpolated","Location":{"LocationId":"NT_s6ArWLDcbGyq8mdD0o8NrC_xID","LocationType":"point","DisplayPosition":{"Latitude":49.65717,"Longitude":6.94799},"MapView":{"TopLeft":{"Latitude":49.6582942,"Longitude":6.9462535},"BottomRight":{"Latitude":49.6560458,"Longitude":6.9497265}},"Address":{"Label":"Sankt-Josef-Straße 12, 54411 Hermeskeil, Deutschland","Country":"DEU","State":"Rheinland-Pfalz","County":"Trier-Saarburg","City":"Hermeskeil","District":"Hermeskeil","Street":"Sankt-Josef-Straße","HouseNumber":"12","PostalCode":"54411","AdditionalData":[{"value":"Deutschland","key":"CountryName"},{"value":"Rheinland-Pfalz","key":"StateName"},{"value":"Trier-Saarburg","key":"CountyName"}]},"MapReference":{"ReferenceId":"1175760963","Spot":0.43,"SideOfStreet":"right","CountryId":"20147700","StateId":"20164001","CountyId":"20169003","CityId":"20169080","DistrictId":"20169083","AddressId":"256071081","RoadLinkId":"483269658"}}},{"Relevance":1.0,"Distance":75.4,"MatchLevel":"street","MatchQuality":{"Country":1.0,"State":1.0,"County":1.0,"City":1.0,"District":1.0,"Street":[1.0],"PostalCode":1.0},"Location":{"LocationId":"NT_s6ArWLDcbGyq8mdD0o8NrC_l_1175760964_R","LocationType":"point","DisplayPosition":{"Latitude":49.65725,"Longitude":6.94843},"MapView":{"TopLeft":{"Latitude":49.65725,"Longitude":6.94843},"BottomRight":{"Latitude":49.65718,"Longitude":6.94873}},"Address":{"Label":"Sankt-Josef-Straße, 54411 Hermeskeil, Deutschland","Country":"DEU","State":"Rheinland-Pfalz","County":"Trier-Saarburg","City":"Hermeskeil","District":"Hermeskeil","Street":"Sankt-Josef-Straße","PostalCode":"54411","AdditionalData":[{"value":"Deutschland","key":"CountryName"},{"value":"Rheinland-Pfalz","key":"StateName"},{"value":"Trier-Saarburg","key":"CountyName"}]},"MapReference":{"ReferenceId":"1175760964","Spot":1.0,"SideOfStreet":"right","CountryId":"20147700","StateId":"20164001","CountyId":"20169003","CityId":"20169080","DistrictId":"20169083"}}},{"Relevance":1.0,"Distance":75.4,"MatchLevel":"street","MatchQuality":{"Country":1.0,"State":1.0,"County":1.0,"City":1.0,"District":1.0,"PostalCode":1.0},"Location":{"LocationId":"NT_Av2PO4.ACohxcM4iEoFmMC_l_1175761866_L","LocationType":"point","DisplayPosition":{"Latitude":49.65725,"Longitude":6.94843},"MapView":{"TopLeft":{"Latitude":49.65725,"Longitude":6.94826},"BottomRight":{"Latitude":49.65689,"Longitude":6.94843}},"Address":{"Label":"54411 Hermeskeil, Deutschland","Country":"DEU","State":"Rheinland-Pfalz","County":"Trier-Saarburg","City":"Hermeskeil","District":"Hermeskeil","PostalCode":"54411","AdditionalData":[{"value":"Deutschland","key":"CountryName"},{"value":"Rheinland-Pfalz","key":"StateName"},{"value":"Trier-Saarburg","key":"CountyName"}]},"MapReference":{"ReferenceId":"1175761866","Spot":1.0,"SideOfStreet":"left","CountryId":"20147700","StateId":"20164001","CountyId":"20169003","CityId":"20169080","DistrictId":"20169083"}}}]}]}}