{"Response":{"MetaInfo":{"Timestamp":"2020-03-28T10:21:04.584+0000","NextPageInformation":"2"},"View":[{"_type":"SearchResultsViewType","ViewId":0,"Result":[{"Relevance":1.0,"Distance":0.0,"Direction":0.0,"MatchLevel":"district","MatchQuality":{"Country":1.0,"State":1.0,"County":1.0,"City":1.0,"District":1.0,"PostalCode":1.0},"Location":{"LocationId":"NT_Uo3YJzNdrbT1G4u6y7C-vD","LocationType":"point","DisplayPosition":{"Latitude":49.6237518,"Longitude":9.6673752},"MapView":{"TopLeft":{"Latitude":49.64061,"Longitude":9.64567},"BottomRight":{"Latitude":49.61373,"Longitude":9.68319}},"Address":{"Label":"Tauberbischofsheim, Baden-Württemberg, Deutschland","Country":"DEU","State":"Baden-Württemberg","County":"Main-Tauber-Kreis","City":"Tauberbischofsheim","District":"Tauberbischofsheim","PostalCode":"97941","AdditionalData":[{"value":"Deutschland","key":"CountryName"},{"value":"Baden-Württemberg","key":"StateName"},{"value":"Main-Tauber-Kreis","key":"CountyName"}]},"MapReference":{"ReferenceId":"539011130","SideOfStreet":"neither","CountryId":"20147700","StateId":"20171489","CountyId":"20172807","CityId":"20172883","DistrictId":"20172890"}}},{"Relevance":1.0,"Distance":12.4,"MatchLevel":"houseNumber","MatchQuality":{"Country":1.0,"State":1.0,"County":1.0,"City":1.0,"District":1.0,"Street":[1.0],"HouseNumber":1.0,"PostalCode":1.0},"MatchType":"interpolated","Location":{"LocationId":"NT_IfCvPC7amSrMxcjroBpFqC_xA","LocationType":"point","DisplayPosition":{"Latitude":49.62353,"Longitude":9.66741},"MapView":{"TopLeft":{"Latitude":49.6246542,"Longitude":9.6656747},"BottomRight":{"Latitude":49.6224058,"Longitude":9.6691453}},"Address":{"Label":"Würzburger Straße 1, 97941 Tauberbischofsheim, Deutschland","Country":"DEU","State":"Baden-Württemberg","County":"Main-Tauber-Kreis","City":"Tauberbischofsheim","District":"Tauberbischofsheim","Street":"Würzburger Straße","HouseNumber":"1","PostalCode":"97941","AdditionalData":[{"value":"Deutschland","key":"CountryName"},{"value":"Baden-Württemberg","key":"StateName"},{"value":"Main-Tauber-Kreis","key":"CountyName"}]},"MapReference":{"ReferenceId":"1193324610","Spot":0.05,"SideOfStreet":"left","CountryId":"20147700","StateId":"20171489","CountyId":"20172807","CityId":"20172883","DistrictId":"20172890","AddressId":"180442893","RoadLinkId":"503137926"}}},{"Relevance":1.0,"Distance":24.7,"MatchLevel":"street","MatchQuality":{"Country":1.0,"State":1.0,"County":1.0,"City":1.0,"District":1.0,"Street":[1.0],"PostalCode":1.0},"Location":{"LocationId":"NT_IfCvPC7amSrMxcjroBpFqC_l_1193324609_L","LocationType":"point","DisplayPosition":{"Latitude":49.62353,"Longitude":9.66739},"MapView":{"TopLeft":{"Latitude":49.62353,"Longitude":9.66632},"BottomRight":{"Latitude":49.62337,"Longitude":9.66739}},"Address":{"Label":"Würzburger Straße, 97941 Tauberbischofsheim, Deutschland","Country":"DEU","State":"Baden-Württemberg","County":"Main-Tauber-Kreis","City":"Tauberbischofsheim","District":"Tauberbischofsheim","Street":"Würzburger Straße","PostalCode":"97941","AdditionalData":[{"value":"Deutschland","key":"CountryName"},{"value":"Baden-Württemberg","key":"StateName"},{"value":"Main-Tauber-Kreis","key":"CountyName"}]},"MapReference":{"ReferenceId":"1193324609","Spot":1.0,"SideOfStreet":"left","CountryId":"20147700","StateId":"20171489","CountyId":"20172807","CityId":"20172883","DistrictId":"20172890"}}},{"Relevance":1.0,"Distance":28.5,"MatchLevel":"street","MatchQuality":{"Country":1.0,"State":1.0,"County":1.0,"City":1.0,"District":1.0,"Street":[1.0],"PostalCode":1.0},"Location":{"LocationId":"NT_1u7WT1RhcHzcw-QiMYOy-C_l_539011316_L","LocationType":"point","DisplayPosition":{"Latitude":49.62377,"Longitude":9.66777},"MapView":{"TopLeft":{"Latitude":49.62396,"Longitude":9.66777},"BottomRight":{"Latitude":49.62377,"Longitude":9.66801}},"Address":{"Label":"Albert-Schweitzer-Straße, 97941 Tauberbischofsheim, Deutschland","Country":"DEU","State":"Baden-Württemberg","County":"Main-Tauber-Kreis","City":"Tauberbischofsheim","District":"Tauberbischofsheim","Street":"Albert-Schweitzer-Straße","PostalCode":"97941","AdditionalData":[{"value":"Deutschland","key":"CountryName"},{"value":"Baden-Württemberg","key":"StateName"},{"value":"Main-Tauber-Kreis","key":"CountyName"}]},"MapReference":{"ReferenceId":"539011316","Spot":0.0,"SideOfStreet":"left","CountryId":"20147700","StateId":"20171489","CountyId":"20172807","CityId":"20172883","DistrictId":"20172890"}}},{"Relevance":1.0,"Distance":28.5,"MatchLevel":"street","MatchQuality":{"Country":1.0,"State":1.0,"County":1.0,"City":1.0,"District":1.0,"Street":[1.0],"PostalCode":1.0},"Location":{"LocationId":"NT_Wdjb99STEav9RrCjctkGiD_l_539011324_L","LocationType":"point","DisplayPosition":{"Latitude":49.62377,"Longitude":9.66777},"MapView":{"TopLeft":{"Latitude":49.62377,"Longitude":9.66777},"BottomRight":{"Latitude":49.62359,"Longitude":9.6678}},"Address":{"Label":"Wertheimer Straße, 97941 Tauberbischofsheim, Deutschland","Country":"DEU","State":"Baden-Württemberg","County":"Main-Tauber-Kreis","City":"Tauberbischofsheim","District":"Tauberbischofsheim","Street":"Wertheimer Straße","PostalCode":"97941","AdditionalData":[{"value":"Deutschland","key":"CountryName"},{"value":"Baden-Württemberg","key":"StateName"},{"value":"Main-Tauber-Kreis","key":"CountyName"}]},"MapReference":{"ReferenceId":"539011324","Spot":1.0,"SideOfStreet":"left","CountryId":"20147700","StateId":"20171489","CountyId":"20172807","CityId":"20172883","DistrictId":"20172890"}}},{"Relevance":1.0,"Distance":29.1,"MatchLevel":"street","MatchQuality":{"Country":1.0,"State":1.0,"County":1.0,"City":1.0,"District":1.0,"Street":[1.0],"PostalCode":1.0},"Location":{"LocationId":"NT_Wdjb99STEav9RrCjctkGiD_l_1193314988_L","LocationType":"point","DisplayPosition":{"Latitude":49.6238501,"Longitude":9.6677489},"MapView":{"TopLeft":{"Latitude":49.62396,"Longitude":9.66772},"BottomRight":{"Latitude":49.62377,"Longitude":9.66777}},"Address":{"Label":"Wertheimer Straße, 97941 Tauberbischofsheim, Deutschland","Country":"DEU","State":"Baden-Württemberg","County":"Main-Tauber-Kreis","City":"Tauberbischofsheim","District":"Tauberbischofsheim","Street":"Wertheimer Straße","PostalCode":"97941","AdditionalData":[{"value":"Deutschland","key":"CountryName"},{"value":"Baden-Württemberg","key":"StateName"},{"value":"Main-Tauber-Kreis","key":"CountyName"}]},"MapReference":{"ReferenceId":"1193314988","Spot":0.42,"SideOfStreet":"left","CountryId":"20147700","StateId":"20171489","CountyId":"20172807","CityId":"20172883","DistrictId":"20172890"}}},{"Relevance":1.0,"Distance":29.7,"MatchLevel":"street","MatchQuality":{"Country":1.0,"State":1.0,"County":1.0,"City":1.0,"District":1.0,"PostalCode":1.0},"Location":{"LocationId":"NT_SajuSeqOU7cKepkQloRkCB_l_1125984391_R","LocationType":"point","DisplayPosition":{"Latitude":49.6235867,"Longitude":9.6670508},"MapView":{"TopLeft":{"Latitude":49.62406,"Longitude":9.66681},"BottomRight":{"Latitude":49.62323,"Longitude":9.66724}},"Address":{"Label":"97941 Tauberbischofsheim, Deutschland","Country":"DEU","State":"Baden-Württemberg","County":"Main-Tauber-Kreis","City":"Tauberbischofsheim","District":"Tauberbischofsheim","PostalCode":"97941","AdditionalData":[{"value":"Deutschland","key":"CountryName"},{"value":"Baden-Württemberg","key":"StateName"},{"value":"Main-Tauber-Kreis","key":"CountyName"}]},"MapReference":{"ReferenceId":"1125984391","Spot":0.43,"SideOfStreet":"right","CountryId":"20147700","StateId":"20171489","CountyId":"20172807","CityId":"20172883","DistrictId":"20172890"}}},{"Relevance":1.0,"Distance":34.0,"MatchLevel":"street","MatchQuality":{"Country":1.0,"State":1.0,"County":1.0,"City":1.0,"District":1.0,"Street":[1.0],"PostalCode":1.0},"Location":{"LocationId":"NT_pFWoEqrKPkp0suKKPTXd2D_l_1193315311_L","LocationType":"point","DisplayPosition":{"Latitude":49.62396,"Longitude":9.66772},"MapView":{"TopLeft":{"Latitude":49.62419,"Longitude":9.66765},"BottomRight":{"Latitude":49.62396,"Longitude":9.66772}},"Address":{"Label":"Wertheimer Straße, 97941 Tauberbischofsheim, Deutschland","Country":"DEU","State":"Baden-Württemberg","County":"Main-Tauber-Kreis","City":"Tauberbischofsheim","District":"Tauberbischofsheim","Street":"Wertheimer Straße","PostalCode":"97941","AdditionalData":[{"value":"Deutschland","key":"CountryName"},{"value":"Baden-Württemberg","key":"StateName"},{"value":"Main-Tauber-Kreis","key":"CountyName"}]},"MapReference":{"ReferenceId":"1193315311","Spot":0.0,"SideOfStreet":"left","CountryId":"20147700","StateId":"20171489","CountyId":"20172807","CityId":"20172883","DistrictId":"20172890"}}},{"Relevance":1.0,"Distance":35.5,"MatchLevel":"street","MatchQuality":{"Country":1.0,"State":1.0,"County":1.0,"City":1.0,"District":1.0,"Street":[1.0],"PostalCode":1.0},"Location":{"LocationId":"NT_WfX82FWo0MrgG9FnmHxyOD_l_1125777502_L","LocationType":"point","DisplayPosition":{"Latitude":49.62359,"Longitude":9.6678},"MapView":{"TopLeft":{"Latitude":49.62359,"Longitude":9.6678},"BottomRight":{"Latitude":49.62345,"Longitude":9.6678}},"Address":{"Label":"Mergentheimer Straße, 97941 Tauberbischofsheim, Deutschland","Country":"DEU","State":"Baden-Württemberg","County":"Main-Tauber-Kreis","City":"Tauberbischofsheim","District":"Tauberbischofsheim","Street":"Mergentheimer Straße","PostalCode":"97941","AdditionalData":[{"value":"Deutschland","key":"CountryName"},{"value":"Baden-Württemberg","key":"StateName"},{"value":"Main-Tauber-Kreis","key":"CountyName"}]},"MapReference":{"ReferenceId":"1125777502","Spot":1.0,"SideOfStreet":"left","CountryId":"20147700","StateId":"20171489","CountyId":"20172807","CityId":"20172883","DistrictId":"20172890"}}},{"Relevance":1.0,"Distance":45.4,"MatchLevel":"street","MatchQuality":{"Country":1.0,"State":1.0,"County":1.0,"City":1.0,"District":1.0,"Street":[1.0],"PostalCode":1.0},"Location":{"LocationId":"NT_pFWoEqrKPkp0suKKPTXd2D_l_1193317888_L","LocationType":"point","DisplayPosition":{"Latitude":49.62345,"Longitude":9.6678},"MapView":{"TopLeft":{"Latitude":49.62345,"Longitude":9.6678},"BottomRight":{"Latitude":49.62328,"Longitude":9.66785}},"Address":{"Label":"Mergentheimer Straße, 97941 Tauberbischofsheim, Deutschland","Country":"DEU","State":"Baden-Württemberg","County":"Main-Tauber-Kreis","City":"Tauberbischofsheim","District":"Tauberbischofsheim","Street":"Mergentheimer Straße","PostalCode":"97941","AdditionalData":[{"value":"Deutschland","key":"CountryName"},{"value":"Baden-Württemberg","key":"StateName"},{"value":"Main-Tauber-Kreis","key":"CountyName"}]},"MapReference":{"ReferenceId":"1193317888","Spot":1.0,"SideOfStreet":"left","CountryId":"20147700","StateId":"20171489","CountyId":"20172807","CityId":"20172883","DistrictId":"20172890"}}}]}]}}