{"Response":{"MetaInfo":{"Timestamp":"2020-03-28T11:28:17.914+0000","NextPageInformation":"2"},"View":[{"_type":"SearchResultsViewType","ViewId":0,"Result":[{"Relevance":1.0,"Distance":0.0,"Direction":0.0,"MatchLevel":"district","MatchQuality":{"Country":1.0,"State":1.0,"County":1.0,"City":1.0,"District":1.0,"PostalCode":1.0},"Location":{"LocationId":"NT_lVBgtjZpNkHHOLJqe5S9cB","LocationType":"point","DisplayPosition":{"Latitude":49.630763,"Longitude":6.1349911},"MapView":{"TopLeft":{"Latitude":49.6436,"Longitude":6.12381},"BottomRight":{"Latitude":49.6225,"Longitude":6.13699}},"Address":{"Label":"Eich, Luxembourg","Country":"LUX","State":"Luxembourg","County":"Luxembourg","City":"Luxembourg","District":"Eich","PostalCode":"2168","AdditionalData":[{"value":"Luxembourg","key":"CountryName"},{"value":"Luxembourg","key":"StateName"},{"value":"Luxembourg","key":"CountyName"}]},"MapReference":{"ReferenceId":"1218714587","SideOfStreet":"neither","CountryId":"20128887","StateId":"20199305","CountyId":"20199306","CityId":"20199322"}}},{"Relevance":1.0,"Distance":36.1,"MatchLevel":"landmark","MatchQuality":{"Country":1.0,"Name":1.0},"Location":{"LocationId":"NT_0s1vFUlosctw8ZdBJedzOA","LocationType":"river","Name":"Alzette","DisplayPosition":{"Latitude":49.6703,"Longitude":6.12781},"MapView":{"TopLeft":{"Latitude":49.8482,"Longitude":6.06977},"BottomRight":{"Latitude":49.51535,"Longitude":6.17055}},"Address":{"Label":"Luxembourg","Country":"LUX","AdditionalData":[{"value":"Luxembourg","key":"CountryName"}]},"MapReference":{"CountryId":"20128887","PlaceId":"750855936"}}},{"Relevance":1.0,"Distance":43.1,"MatchLevel":"street","MatchQuality":{"Country":1.0,"State":1.0,"County":1.0,"City":1.0,"District":1.0,"Street":[1.0],"PostalCode":1.0},"Location":{"LocationId":"NT_gKFfeady59wF6c7.dS4DOC_l_764709113_L","LocationType":"point","DisplayPosition":{"Latitude":49.630383,"Longitude":6.135106},"MapView":{"TopLeft":{"Latitude":49.63064,"Longitude":6.13503},"BottomRight":{"Latitude":49.63036,"Longitude":6.1359}},"Address":{"Label":"N11, L-1453 Luxembourg, Luxembourg","Country":"LUX","State":"Luxembourg","County":"Luxembourg","City":"Luxembourg","District":"Eich","Street":"N11","PostalCode":"1453","AdditionalData":[{"value":"Luxembourg","key":"CountryName"},{"value":"Luxembourg","key":"StateName"},{"value":"Luxembourg","key":"CountyName"}]},"MapReference":{"ReferenceId":"764709113","Spot":0.09,"SideOfStreet":"left","CountryId":"20128887","StateId":"20199305","CountyId":"20199306","CityId":"20199322"}}},{"Relevance":1.0,"Distance":44.9,"MatchLevel":"street","MatchQuality":{"Country":1.0,"State":1.0,"County":1.0,"City":1.0,"District":1.0,"Street":[1.0],"PostalCode":1.0},"Location":{"LocationId":"NT_gKFfeady59wF6c7.dS4DOC_l_908163547_L","LocationType":"point","DisplayPosition":{"Latitude":49.63036,"Longitude":6.13503},"MapView":{"TopLeft":{"Latitude":49.63036,"Longitude":6.13475},"BottomRight":{"Latitude":49.63026,"Longitude":6.13503}},"Address":{"Label":"N11, L-1453 Luxembourg, Luxembourg","Country":"LUX","State":"Luxembourg","County":"Luxembourg","City":"Luxembourg","District":"Eich","Street":"N11","PostalCode":"1453","AdditionalData":[{"value":"Luxembourg","key":"CountryName"},{"value":"Luxembourg","key":"StateName"},{"value":"Luxembourg","key":"CountyName"}]},"MapReference":{"ReferenceId":"908163547","Spot":1.0,"SideOfStreet":"left","CountryId":"20128887","StateId":"20199305","CountyId":"20199306","CityId":"20199322"}}},{"Relevance":1.0,"Distance":58.6,"MatchLevel":"street","MatchQuality":{"Country":1.0,"State":1.0,"County":1.0,"City":1.0,"District":1.0,"Street":[1.0],"PostalCode":1.0},"Location":{"LocationId":"NT_gKFfeady59wF6c7.dS4DOC_l_908163546_L","LocationType":"point","DisplayPosition":{"Latitude":49.63026,"Longitude":6.13475},"MapView":{"TopLeft":{"Latitude":49.63026,"Longitude":6.13398},"BottomRight":{"Latitude":49.62986,"Longitude":6.13475}},"Address":{"Label":"N11, L-1453 Luxembourg, Luxembourg","Country":"LUX","State":"Luxembourg","County":"Luxembourg","City":"Luxembourg","District":"Eich","Street":"N11","PostalCode":"1453","AdditionalData":[{"value":"Luxembourg","key":"CountryName"},{"value":"Luxembourg","key":"StateName"},{"value":"Luxembourg","key":"CountyName"}]},"MapReference":{"ReferenceId":"908163546","Spot":1.0,"SideOfStreet":"left","CountryId":"20128887","StateId":"20199305","CountyId":"20199306","CityId":"20199322"}}},{"Relevance":1.0,"Distance":59.8,"MatchLevel":"houseNumber","MatchQuality":{"Country":1.0,"State":1.0,"County":1.0,"City":1.0,"District":1.0,"Street":[1.0],"HouseNumber":1.0,"PostalCode":1.0},"MatchType":"interpolated","Location":{"LocationId":"NT_YAagOE2BHE6Ee5-jlPX6WB_1AD","LocationType":"point","DisplayPosition":{"Latitude":49.63128,"Longitude":6.134},"MapView":{"TopLeft":{"Latitude":49.6324042,"Longitude":6.1322644},"BottomRight":{"Latitude":49.6301558,"Longitude":6.1357356}},"Address":{"Label":"50 Rue d'Eich, L-1460 Luxembourg, Luxembourg","Country":"LUX","State":"Luxembourg","County":"Luxembourg","City":"Luxembourg","District":"Eich","Street":"Rue d'Eich","HouseNumber":"50","PostalCode":"1460","AdditionalData":[{"value":"Luxembourg","key":"CountryName"},{"value":"Luxembourg","key":"StateName"},{"value":"Luxembourg","key":"CountyName"}]},"MapReference":{"ReferenceId":"54088167","Spot":0.77,"SideOfStreet":"right","CountryId":"20128887","StateId":"20199305","CountyId":"20199306","CityId":"20199322","AddressId":"376616318","RoadLinkId":"31062015"}}},{"Relevance":1.0,"Distance":66.9,"MatchLevel":"street","MatchQuality":{"Country":1.0,"State":1.0,"County":1.0,"City":1.0,"District":1.0,"Street":[1.0],"PostalCode":1.0},"Location":{"LocationId":"NT_.UMP97D8QKu3GP5wF4lFOB_l_723423725_L","LocationType":"point","DisplayPosition":{"Latitude":49.63064,"Longitude":6.1359},"MapView":{"TopLeft":{"Latitude":49.6311,"Longitude":6.1359},"BottomRight":{"Latitude":49.63064,"Longitude":6.13676}},"Address":{"Label":"N11, L-1453 Luxembourg, Luxembourg","Country":"LUX","State":"Luxembourg","County":"Luxembourg","City":"Luxembourg","District":"Dommeldange","Street":"N11","PostalCode":"1453","AdditionalData":[{"value":"Luxembourg","key":"CountryName"},{"value":"Luxembourg","key":"StateName"},{"value":"Luxembourg","key":"CountyName"}]},"MapReference":{"ReferenceId":"723423725","Spot":0.0,"SideOfStreet":"left","CountryId":"20128887","StateId":"20199305","CountyId":"20199306","CityId":"20199322"}}},{"Relevance":1.0,"Distance":102.1,"MatchLevel":"houseNumber","MatchQuality":{"Country":1.0,"State":1.0,"County":1.0,"City":1.0,"District":1.0,"Street":[1.0],"HouseNumber":1.0,"PostalCode":1.0},"MatchType":"interpolated","Location":{"LocationId":"NT_YAagOE2BHE6Ee5-jlPX6WB_3YD","LocationType":"point","DisplayPosition":{"Latitude":49.63175,"Longitude":6.13459},"MapView":{"TopLeft":{"Latitude":49.6328742,"Longitude":6.1328544},"BottomRight":{"Latitude":49.6306258,"Longitude":6.1363256}},"Address":{"Label":"76 Rue d'Eich, L-1460 Luxembourg, Luxembourg","Country":"LUX","State":"Luxembourg","County":"Luxembourg","City":"Luxembourg","District":"Eich","Street":"Rue d'Eich","HouseNumber":"76","PostalCode":"1460","AdditionalData":[{"value":"Luxembourg","key":"CountryName"},{"value":"Luxembourg","key":"StateName"},{"value":"Luxembourg","key":"CountyName"}]},"MapReference":{"ReferenceId":"1132233118","Spot":0.58,"SideOfStreet":"right","CountryId":"20128887","StateId":"20199305","CountyId":"20199306","CityId":"20199322","AddressId":"376665144","RoadLinkId":"442188355"}}},{"Relevance":1.0,"Distance":104.4,"MatchLevel":"houseNumber","MatchQuality":{"Country":1.0,"State":1.0,"County":1.0,"City":1.0,"District":1.0,"Street":[1.0],"HouseNumber":1.0,"PostalCode":1.0},"MatchType":"interpolated","Location":{"LocationId":"NT_tiD3enHBBOGqnYiXgqy4aD_1MjQ","LocationType":"point","DisplayPosition":{"Latitude":49.63128,"Longitude":6.13629},"MapView":{"TopLeft":{"Latitude":49.6324042,"Longitude":6.1345544},"BottomRight":{"Latitude":49.6301558,"Longitude":6.1380256}},"Address":{"Label":"53B Raspert, L-2414 Luxemburg, Luxemburg","Country":"LUX","State":"Luxemburg","County":"Luxemburg","City":"Luxemburg","District":"Eich","Street":"Raspert","HouseNumber":"53B","PostalCode":"2414","AdditionalData":[{"value":"Luxemburg","key":"CountryName"},{"value":"Luxemburg","key":"StateName"},{"value":"Luxemburg","key":"CountyName"}]},"MapReference":{"ReferenceId":"767350415","Spot":0.34,"SideOfStreet":"left","CountryId":"20128887","StateId":"20199305","CountyId":"20199306","CityId":"20199322","AddressId":"376568852","RoadLinkId":"161014976"}}},{"Relevance":1.0,"Distance":112.9,"MatchLevel":"houseNumber","MatchQuality":{"Country":1.0,"State":1.0,"County":1.0,"City":1.0,"District":1.0,"Street":[1.0],"HouseNumber":1.0,"PostalCode":1.0},"MatchType":"interpolated","Location":{"LocationId":"NT_IBbbHhPDr8PIiZDWFq5DTD_xA","LocationType":"point","DisplayPosition":{"Latitude":49.63162,"Longitude":6.13415},"MapView":{"TopLeft":{"Latitude":49.6327442,"Longitude":6.1324144},"BottomRight":{"Latitude":49.6304958,"Longitude":6.1358856}},"Address":{"Label":"1 Rue des Grottes, L-1644 Luxembourg, Luxembourg","Country":"LUX","State":"Luxembourg","County":"Luxembourg","City":"Luxembourg","District":"Eich","Street":"Rue des Grottes","HouseNumber":"1","PostalCode":"1644","AdditionalData":[{"value":"Luxembourg","key":"CountryName"},{"value":"Luxembourg","key":"StateName"},{"value":"Luxembourg","key":"CountyName"}]},"MapReference":{"ReferenceId":"54088096","Spot":0.06,"SideOfStreet":"left","CountryId":"20128887","StateId":"20199305","CountyId":"20199306","CityId":"20199322","AddressId":"376583294","RoadLinkId":"31057615"}}}]}]}}