{"Response":{"MetaInfo":{"Timestamp":"2020-03-28T10:16:29.306+0000","NextPageInformation":"2"},"View":[{"_type":"SearchResultsViewType","ViewId":0,"Result":[{"Relevance":1.0,"Distance":0.0,"Direction":0.0,"MatchLevel":"district","MatchQuality":{"Country":1.0,"State":1.0,"County":1.0,"City":1.0,"District":1.0,"PostalCode":1.0},"Location":{"LocationId":"NT_BPOTkpJmmD7wB3wi1D0PUC","LocationType":"point","DisplayPosition":{"Latitude":49.6085462,"Longitude":18.3390222},"MapView":{"TopLeft":{"Latitude":49.62209,"Longitude":18.31499},"BottomRight":{"Latitude":49.59448,"Longitude":18.34761}},"Address":{"Label":"Metylovice, Moravskoslezský kraj, Česká Republika","Country":"CZE","State":"Moravskoslezský kraj","County":"Frýdek-Místek","City":"Metylovice","District":"Metylovice","PostalCode":"739 49","AdditionalData":[{"value":"Česká Republika","key":"CountryName"},{"value":"Moravskoslezský kraj","key":"StateName"},{"value":"Frýdek-Místek","key":"CountyName"}]},"MapReference":{"ReferenceId":"1074936115","SideOfStreet":"neither","CountryId":"20427915","StateId":"20438848","CountyId":"20439063","CityId":"20439172","DistrictId":"20439173"}}},{"Relevance":1.0,"Distance":21.1,"MatchLevel":"street","MatchQuality":{"Country":1.0,"State":1.0,"County":1.0,"City":1.0,"District":1.0,"Street":[1.0],"PostalCode":1.0},"Location":{"LocationId":"NT_a6xdZWmuqsdS4hLMVLuP1A_l_1074936086_R","LocationType":"point","DisplayPosition":{"Latitude":49.60844,"Longitude":18.33878},"MapView":{"TopLeft":{"Latitude":49.60904,"Longitude":18.33817},"BottomRight":{"Latitude":49.60844,"Longitude":18.33878}},"Address":{"Label":"Metylovice, 739 49 Metylovice, Česká Republika","Country":"CZE","State":"Moravskoslezský kraj","County":"Frýdek-Místek","City":"Metylovice","District":"Metylovice","Street":"Metylovice","PostalCode":"739 49","AdditionalData":[{"value":"Česká Republika","key":"CountryName"},{"value":"Moravskoslezský kraj","key":"StateName"},{"value":"Frýdek-Místek","key":"CountyName"}]},"MapReference":{"ReferenceId":"1074936086","Spot":0.0,"SideOfStreet":"right","CountryId":"20427915","StateId":"20438848","CountyId":"20439063","CityId":"20439172","DistrictId":"20439173"}}},{"Relevance":1.0,"Distance":31.5,"MatchLevel":"houseNumber","MatchQuality":{"Country":1.0,"State":1.0,"County":1.0,"City":1.0,"District":1.0,"Street":[1.0],"HouseNumber":1.0,"PostalCode":1.0},"MatchType":"interpolated","Location":{"LocationId":"NT_a6xdZWmuqsdS4hLMVLuP1A_0MTO","LocationType":"point","DisplayPosition":{"Latitude":49.60863,"Longitude":18.33944},"MapView":{"TopLeft":{"Latitude":49.6097542,"Longitude":18.3377052},"BottomRight":{"Latitude":49.6075058,"Longitude":18.3411748}},"Address":{"Label":"Metylovice 439, 739 49 Metylovice, Česká Republika","Country":"CZE","State":"Moravskoslezský kraj","County":"Frýdek-Místek","City":"Metylovice","District":"Metylovice","Street":"Metylovice","HouseNumber":"439","PostalCode":"739 49","AdditionalData":[{"value":"Česká Republika","key":"CountryName"},{"value":"Moravskoslezský kraj","key":"StateName"},{"value":"Frýdek-Místek","key":"CountyName"}]},"MapReference":{"ReferenceId":"706844479","Spot":0.0,"SideOfStreet":"right","CountryId":"20427915","StateId":"20438848","CountyId":"20439063","CityId":"20439172","DistrictId":"20439173","AddressId":"240702073","RoadLinkId":"156232370"}}},{"Relevance":1.0,"Distance":46.4,"MatchLevel":"houseNumber","MatchQuality":{"Country":1.0,"State":1.0,"County":1.0,"City":1.0,"District":1.0,"Street":[1.0],"HouseNumber":1.0,"PostalCode":1.0},"MatchType":"interpolated","Location":{"LocationId":"NT_a6xdZWmuqsdS4hLMVLuP1A_xA","LocationType":"point","DisplayPosition":{"Latitude":49.60917,"Longitude":18.33868},"MapView":{"TopLeft":{"Latitude":49.6102942,"Longitude":18.3369452},"BottomRight":{"Latitude":49.6080458,"Longitude":18.3404148}},"Address":{"Label":"Metylovice 1, 739 49 Metylovice, Česká Republika","Country":"CZE","State":"Moravskoslezský kraj","County":"Frýdek-Místek","City":"Metylovice","District":"Metylovice","Street":"Metylovice","HouseNumber":"1","PostalCode":"739 49","AdditionalData":[{"value":"Česká Republika","key":"CountryName"},{"value":"Moravskoslezský kraj","key":"StateName"},{"value":"Frýdek-Místek","key":"CountyName"}]},"MapReference":{"ReferenceId":"706844475","Spot":0.49,"SideOfStreet":"right","CountryId":"20427915","StateId":"20438848","CountyId":"20439063","CityId":"20439172","DistrictId":"20439173","AddressId":"240034127","RoadLinkId":"156232336"}}},{"Relevance":1.0,"Distance":82.4,"MatchLevel":"street","MatchQuality":{"Country":1.0,"State":1.0,"County":1.0,"City":1.0,"District":1.0,"Street":[1.0],"PostalCode":1.0},"Location":{"LocationId":"NT_a6xdZWmuqsdS4hLMVLuP1A_l_1074936087_R","LocationType":"point","DisplayPosition":{"Latitude":49.60904,"Longitude":18.33817},"MapView":{"TopLeft":{"Latitude":49.60916,"Longitude":18.33815},"BottomRight":{"Latitude":49.60904,"Longitude":18.33817}},"Address":{"Label":"Metylovice, 739 49 Metylovice, Česká Republika","Country":"CZE","State":"Moravskoslezský kraj","County":"Frýdek-Místek","City":"Metylovice","District":"Metylovice","Street":"Metylovice","PostalCode":"739 49","AdditionalData":[{"value":"Česká Republika","key":"CountryName"},{"value":"Moravskoslezský kraj","key":"StateName"},{"value":"Frýdek-Místek","key":"CountyName"}]},"MapReference":{"ReferenceId":"1074936087","Spot":0.0,"SideOfStreet":"right","CountryId":"20427915","StateId":"20438848","CountyId":"20439063","CityId":"20439172","DistrictId":"20439173"}}},{"Relevance":1.0,"Distance":83.4,"MatchLevel":"houseNumber","MatchQuality":{"Country":1.0,"State":1.0,"County":1.0,"City":1.0,"District":1.0,"Street":[1.0],"HouseNumber":1.0,"PostalCode":1.0},"MatchType":"interpolated","Location":{"LocationId":"NT_a6xdZWmuqsdS4hLMVLuP1A_0UDM","LocationType":"point","DisplayPosition":{"Latitude":49.60935,"Longitude":18.33981},"MapView":{"TopLeft":{"Latitude":49.6104742,"Longitude":18.3380752},"BottomRight":{"Latitude":49.6082258,"Longitude":18.3415448}},"Address":{"Label":"Metylovice 450, 739 49 Metylovice, Česká Republika","Country":"CZE","State":"Moravskoslezský kraj","County":"Frýdek-Místek","City":"Metylovice","District":"Metylovice","Street":"Metylovice","HouseNumber":"450","PostalCode":"739 49","AdditionalData":[{"value":"Česká Republika","key":"CountryName"},{"value":"Moravskoslezský kraj","key":"StateName"},{"value":"Frýdek-Místek","key":"CountyName"}]},"MapReference":{"ReferenceId":"706844494","Spot":0.65,"SideOfStreet":"right","CountryId":"20427915","StateId":"20438848","CountyId":"20439063","CityId":"20439172","DistrictId":"20439173","AddressId":"240728749","RoadLinkId":"156232278"}}},{"Relevance":1.0,"Distance":93.8,"MatchLevel":"houseNumber","MatchQuality":{"Country":1.0,"State":1.0,"County":1.0,"City":1.0,"District":1.0,"Street":[1.0],"HouseNumber":1.0,"PostalCode":1.0},"MatchType":"interpolated","Location":{"LocationId":"NT_a6xdZWmuqsdS4hLMVLuP1A_1AzM","LocationType":"point","DisplayPosition":{"Latitude":49.6094,"Longitude":18.33918},"MapView":{"TopLeft":{"Latitude":49.6105242,"Longitude":18.3374452},"BottomRight":{"Latitude":49.6082758,"Longitude":18.3409148}},"Address":{"Label":"Metylovice 503, 739 49 Metylovice, Česká Republika","Country":"CZE","State":"Moravskoslezský kraj","County":"Frýdek-Místek","City":"Metylovice","District":"Metylovice","Street":"Metylovice","HouseNumber":"503","PostalCode":"739 49","AdditionalData":[{"value":"Česká Republika","key":"CountryName"},{"value":"Moravskoslezský kraj","key":"StateName"},{"value":"Frýdek-Místek","key":"CountyName"}]},"MapReference":{"ReferenceId":"1074936124","Spot":0.24,"SideOfStreet":"left","CountryId":"20427915","StateId":"20438848","CountyId":"20439063","CityId":"20439172","DistrictId":"20439173","AddressId":"240594871","RoadLinkId":"395155331"}}},{"Relevance":1.0,"Distance":98.2,"MatchLevel":"houseNumber","MatchQuality":{"Country":1.0,"State":1.0,"County":1.0,"City":1.0,"District":1.0,"Street":[1.0],"HouseNumber":1.0,"PostalCode":1.0},"MatchType":"interpolated","Location":{"LocationId":"NT_a6xdZWmuqsdS4hLMVLuP1A_0MDN","LocationType":"point","DisplayPosition":{"Latitude":49.60887,"Longitude":18.33734},"MapView":{"TopLeft":{"Latitude":49.6099942,"Longitude":18.3356052},"BottomRight":{"Latitude":49.6077458,"Longitude":18.3390748}},"Address":{"Label":"Metylovice 434, 739 49 Metylovice, Česká Republika","Country":"CZE","State":"Moravskoslezský kraj","County":"Frýdek-Místek","City":"Metylovice","District":"Metylovice","Street":"Metylovice","HouseNumber":"434","PostalCode":"739 49","AdditionalData":[{"value":"Česká Republika","key":"CountryName"},{"value":"Moravskoslezský kraj","key":"StateName"},{"value":"Frýdek-Místek","key":"CountyName"}]},"MapReference":{"ReferenceId":"706844478","Spot":0.47,"SideOfStreet":"right","CountryId":"20427915","StateId":"20438848","CountyId":"20439063","CityId":"20439172","DistrictId":"20439173","AddressId":"240034169","RoadLinkId":"156232368"}}},{"Relevance":1.0,"Distance":109.3,"MatchLevel":"houseNumber","MatchQuality":{"Country":1.0,"State":1.0,"County":1.0,"City":1.0,"District":1.0,"Street":[1.0],"HouseNumber":1.0,"PostalCode":1.0},"MatchType":"interpolated","Location":{"LocationId":"NT_a6xdZWmuqsdS4hLMVLuP1A_lZnLgQcjuAiM3A","LocationType":"point","DisplayPosition":{"Latitude":49.60718,"Longitude":18.3394},"MapView":{"TopLeft":{"Latitude":49.6083042,"Longitude":18.3376653},"BottomRight":{"Latitude":49.6060558,"Longitude":18.3411347}},"Address":{"Label":"Metylovice ev. č. 27, 739 49 Metylovice, Česká Republika","Country":"CZE","State":"Moravskoslezský kraj","County":"Frýdek-Místek","City":"Metylovice","District":"Metylovice","Street":"Metylovice","HouseNumber":"ev. č. 27","PostalCode":"739 49","AdditionalData":[{"value":"Česká Republika","key":"CountryName"},{"value":"Moravskoslezský kraj","key":"StateName"},{"value":"Frýdek-Místek","key":"CountyName"}]},"MapReference":{"ReferenceId":"706844482","Spot":1.0,"SideOfStreet":"left","CountryId":"20427915","StateId":"20438848","CountyId":"20439063","CityId":"20439172","DistrictId":"20439173","AddressId":"384314269","RoadLinkId":"156232413"}}},{"Relevance":1.0,"Distance":127.9,"MatchLevel":"houseNumber","MatchQuality":{"Country":1.0,"State":1.0,"County":1.0,"City":1.0,"District":1.0,"Street":[1.0],"HouseNumber":1.0,"PostalCode":1.0},"MatchType":"interpolated","Location":{"LocationId":"NT_a6xdZWmuqsdS4hLMVLuP1A_lZnLgQcjuASM1cD","LocationType":"point","DisplayPosition":{"Latitude":49.60748,"Longitude":18.33747},"MapView":{"TopLeft":{"Latitude":49.6086042,"Longitude":18.3357353},"BottomRight":{"Latitude":49.6063558,"Longitude":18.3392047}},"Address":{"Label":"Metylovice ev. č. 157, 739 49 Metylovice, Česká Republika","Country":"CZE","State":"Moravskoslezský kraj","County":"Frýdek-Místek","City":"Metylovice","District":"Metylovice","Street":"Metylovice","HouseNumber":"ev. č. 157","PostalCode":"739 49","AdditionalData":[{"value":"Česká Republika","key":"CountryName"},{"value":"Moravskoslezský kraj","key":"StateName"},{"value":"Frýdek-Místek","key":"CountyName"}]},"MapReference":{"ReferenceId":"957390322","Spot":0.62,"SideOfStreet":"right","CountryId":"20427915","StateId":"20438848","CountyId":"20439063","CityId":"20439172","DistrictId":"20439173","AddressId":"384396451","RoadLinkId":"300358741"}}}]}]}}