{"Response":{"MetaInfo":{"Timestamp":"2020-03-28T11:40:38.690+0000","NextPageInformation":"2"},"View":[{"_type":"SearchResultsViewType","ViewId":0,"Result":[{"Relevance":1.0,"Distance":0.0,"Direction":0.0,"MatchLevel":"district","MatchQuality":{"Country":1.0,"State":1.0,"County":1.0,"City":1.0,"District":1.0,"PostalCode":1.0},"Location":{"LocationId":"NT_H77geooMk-ZFmr3Ns2ckwA","LocationType":"point","DisplayPosition":{"Latitude":49.6797794,"Longitude":8.6215196},"MapView":{"TopLeft":{"Latitude":49.69615,"Longitude":8.58332},"BottomRight":{"Latitude":49.66489,"Longitude":8.6388}},"Address":{"Label":"Bensheim, Hessen, Deutschland","Country":"DEU","State":"Hessen","County":"Bergstraße","City":"Bensheim","District":"Bensheim","PostalCode":"64625","AdditionalData":[{"value":"Deutschland","key":"CountryName"},{"value":"Hessen","key":"StateName"},{"value":"Bergstraße","key":"CountyName"}]},"MapReference":{"ReferenceId":"1035691034","SideOfStreet":"neither","CountryId":"20147700","StateId":"20160993","CountyId":"20161050","CityId":"20161054","DistrictId":"20161060"}}},{"Relevance":1.0,"Distance":11.5,"MatchLevel":"houseNumber","MatchQuality":{"Country":1.0,"State":1.0,"County":1.0,"City":1.0,"District":1.0,"Street":[1.0],"HouseNumber":1.0,"PostalCode":1.0},"MatchType":"interpolated","Location":{"LocationId":"NT_I9RsyINgZCPrpZXsugzNKC_zA","LocationType":"point","DisplayPosition":{"Latitude":49.67986,"Longitude":8.62142},"MapView":{"TopLeft":{"Latitude":49.6809842,"Longitude":8.6196827},"BottomRight":{"Latitude":49.6787358,"Longitude":8.6231573}},"Address":{"Label":"Mittelgasse 3, 64625 Bensheim, Deutschland","Country":"DEU","State":"Hessen","County":"Bergstraße","City":"Bensheim","District":"Bensheim","Street":"Mittelgasse","HouseNumber":"3","PostalCode":"64625","AdditionalData":[{"value":"Deutschland","key":"CountryName"},{"value":"Hessen","key":"StateName"},{"value":"Bergstraße","key":"CountyName"}]},"MapReference":{"ReferenceId":"78660311","Spot":0.59,"SideOfStreet":"left","CountryId":"20147700","StateId":"20160993","CountyId":"20161050","CityId":"20161054","DistrictId":"20161060","AddressId":"187619746","RoadLinkId":"34055546"}}},{"Relevance":1.0,"Distance":12.9,"MatchLevel":"street","MatchQuality":{"Country":1.0,"State":1.0,"County":1.0,"City":1.0,"District":1.0,"Street":[1.0],"PostalCode":1.0},"Location":{"LocationId":"NT_I9RsyINgZCPrpZXsugzNKC_l_78660310_R","LocationType":"point","DisplayPosition":{"Latitude":49.6796666,"Longitude":8.6214798},"MapView":{"TopLeft":{"Latitude":49.67967,"Longitude":8.62147},"BottomRight":{"Latitude":49.67955,"Longitude":8.62181}},"Address":{"Label":"Mittelgasse, 64625 Bensheim, Deutschland","Country":"DEU","State":"Hessen","County":"Bergstraße","City":"Bensheim","District":"Bensheim","Street":"Mittelgasse","PostalCode":"64625","AdditionalData":[{"value":"Deutschland","key":"CountryName"},{"value":"Hessen","key":"StateName"},{"value":"Bergstraße","key":"CountyName"}]},"MapReference":{"ReferenceId":"78660310","Spot":0.97,"SideOfStreet":"right","CountryId":"20147700","StateId":"20160993","CountyId":"20161050","CityId":"20161054","DistrictId":"20161060"}}},{"Relevance":1.0,"Distance":17.0,"MatchLevel":"houseNumber","MatchQuality":{"Country":1.0,"State":1.0,"County":1.0,"City":1.0,"District":1.0,"Street":[1.0],"HouseNumber":1.0,"PostalCode":1.0},"MatchType":"interpolated","Location":{"LocationId":"NT_rxC8jvbds6L5iNCnkz3fxA_xID","LocationType":"point","DisplayPosition":{"Latitude":49.68,"Longitude":8.62144},"MapView":{"TopLeft":{"Latitude":49.6811242,"Longitude":8.6197027},"BottomRight":{"Latitude":49.6788758,"Longitude":8.6231773}},"Address":{"Label":"Am Rinnentor 12, 64625 Bensheim, Deutschland","Country":"DEU","State":"Hessen","County":"Bergstraße","City":"Bensheim","District":"Bensheim","Street":"Am Rinnentor","HouseNumber":"12","PostalCode":"64625","AdditionalData":[{"value":"Deutschland","key":"CountryName"},{"value":"Hessen","key":"StateName"},{"value":"Bergstraße","key":"CountyName"}]},"MapReference":{"ReferenceId":"78660300","Spot":0.31,"SideOfStreet":"right","CountryId":"20147700","StateId":"20160993","CountyId":"20161050","CityId":"20161054","DistrictId":"20161060","AddressId":"187199354","RoadLinkId":"34601196"}}},{"Relevance":1.0,"Distance":21.2,"MatchLevel":"houseNumber","MatchQuality":{"Country":1.0,"State":1.0,"County":1.0,"City":1.0,"District":1.0,"Street":[1.0],"HouseNumber":1.0,"PostalCode":1.0},"MatchType":"interpolated","Location":{"LocationId":"NT_rxC8jvbds6L5iNCnkz3fxA_xYD","LocationType":"point","DisplayPosition":{"Latitude":49.67996,"Longitude":8.62124},"MapView":{"TopLeft":{"Latitude":49.6810842,"Longitude":8.6195027},"BottomRight":{"Latitude":49.6788358,"Longitude":8.6229773}},"Address":{"Label":"Am Rinnentor 16, 64625 Bensheim, Deutschland","Country":"DEU","State":"Hessen","County":"Bergstraße","City":"Bensheim","District":"Bensheim","Street":"Am Rinnentor","HouseNumber":"16","PostalCode":"64625","AdditionalData":[{"value":"Deutschland","key":"CountryName"},{"value":"Hessen","key":"StateName"},{"value":"Bergstraße","key":"CountyName"}]},"MapReference":{"ReferenceId":"78660296","Spot":0.69,"SideOfStreet":"right","CountryId":"20147700","StateId":"20160993","CountyId":"20161050","CityId":"20161054","DistrictId":"20161060","AddressId":"186975962","RoadLinkId":"34342360"}}},{"Relevance":1.0,"Distance":24.3,"MatchLevel":"houseNumber","MatchQuality":{"Country":1.0,"State":1.0,"County":1.0,"City":1.0,"District":1.0,"Street":[1.0],"HouseNumber":1.0,"PostalCode":1.0},"MatchType":"interpolated","Location":{"LocationId":"NT_m406W1Ug2dJQrlTi1GIxSA_2ED","LocationType":"point","DisplayPosition":{"Latitude":49.6796,"Longitude":8.62187},"MapView":{"TopLeft":{"Latitude":49.6807242,"Longitude":8.6201327},"BottomRight":{"Latitude":49.6784758,"Longitude":8.6236073}},"Address":{"Label":"Hauptstraße 61, 64625 Bensheim, Deutschland","Country":"DEU","State":"Hessen","County":"Bergstraße","City":"Bensheim","District":"Bensheim","Street":"Hauptstraße","HouseNumber":"61","PostalCode":"64625","AdditionalData":[{"value":"Deutschland","key":"CountryName"},{"value":"Hessen","key":"StateName"},{"value":"Bergstraße","key":"CountyName"}]},"MapReference":{"ReferenceId":"78660299","Spot":0.26,"SideOfStreet":"left","CountryId":"20147700","StateId":"20160993","CountyId":"20161050","CityId":"20161054","DistrictId":"20161060","AddressId":"187225269","RoadLinkId":"34604491"}}},{"Relevance":1.0,"Distance":25.1,"MatchLevel":"houseNumber","MatchQuality":{"Country":1.0,"State":1.0,"County":1.0,"City":1.0,"District":1.0,"Street":[1.0],"HouseNumber":1.0,"PostalCode":1.0},"MatchType":"interpolated","Location":{"LocationId":"NT_rxC8jvbds6L5iNCnkz3fxA_4A","LocationType":"point","DisplayPosition":{"Latitude":49.68005,"Longitude":8.62164},"MapView":{"TopLeft":{"Latitude":49.6811742,"Longitude":8.6199027},"BottomRight":{"Latitude":49.6789258,"Longitude":8.6233773}},"Address":{"Label":"Am Rinnentor 8, 64625 Bensheim, Deutschland","Country":"DEU","State":"Hessen","County":"Bergstraße","City":"Bensheim","District":"Bensheim","Street":"Am Rinnentor","HouseNumber":"8","PostalCode":"64625","AdditionalData":[{"value":"Deutschland","key":"CountryName"},{"value":"Hessen","key":"StateName"},{"value":"Bergstraße","key":"CountyName"}]},"MapReference":{"ReferenceId":"78660295","Spot":0.1,"SideOfStreet":"right","CountryId":"20147700","StateId":"20160993","CountyId":"20161050","CityId":"20161054","DistrictId":"20161060","AddressId":"186969057","RoadLinkId":"34046965"}}},{"Relevance":1.0,"Distance":28.1,"MatchLevel":"street","MatchQuality":{"Country":1.0,"State":1.0,"County":1.0,"City":1.0,"District":1.0,"Street":[1.0],"PostalCode":1.0},"Location":{"LocationId":"NT_akl5Vy1AfkaErzU2bJ0IMB_l_78660297_L","LocationType":"point","DisplayPosition":{"Latitude":49.68003,"Longitude":8.62157},"MapView":{"TopLeft":{"Latitude":49.6803,"Longitude":8.62146},"BottomRight":{"Latitude":49.68003,"Longitude":8.62157}},"Address":{"Label":"Neumarkt, 64625 Bensheim, Deutschland","Country":"DEU","State":"Hessen","County":"Bergstraße","City":"Bensheim","District":"Bensheim","Street":"Neumarkt","PostalCode":"64625","AdditionalData":[{"value":"Deutschland","key":"CountryName"},{"value":"Hessen","key":"StateName"},{"value":"Bergstraße","key":"CountyName"}]},"MapReference":{"ReferenceId":"78660297","Spot":0.0,"SideOfStreet":"left","CountryId":"20147700","StateId":"20160993","CountyId":"20161050","CityId":"20161054","DistrictId":"20161060"}}},{"Relevance":1.0,"Distance":28.7,"MatchLevel":"houseNumber","MatchQuality":{"Country":1.0,"State":1.0,"County":1.0,"City":1.0,"District":1.0,"Street":[1.0],"HouseNumber":1.0,"PostalCode":1.0},"MatchType":"interpolated","Location":{"LocationId":"NT_m406W1Ug2dJQrlTi1GIxSA_2UD","LocationType":"point","DisplayPosition":{"Latitude":49.67949,"Longitude":8.62175},"MapView":{"TopLeft":{"Latitude":49.6806142,"Longitude":8.6200127},"BottomRight":{"Latitude":49.6783658,"Longitude":8.6234873}},"Address":{"Label":"Hauptstraße 65, 64625 Bensheim, Deutschland","Country":"DEU","State":"Hessen","County":"Bergstraße","City":"Bensheim","District":"Bensheim","Street":"Hauptstraße","HouseNumber":"65","PostalCode":"64625","AdditionalData":[{"value":"Deutschland","key":"CountryName"},{"value":"Hessen","key":"StateName"},{"value":"Bergstraße","key":"CountyName"}]},"MapReference":{"ReferenceId":"78660298","Spot":0.89,"SideOfStreet":"left","CountryId":"20147700","StateId":"20160993","CountyId":"20161050","CityId":"20161054","DistrictId":"20161060","AddressId":"186863147","RoadLinkId":"34796101"}}},{"Relevance":1.0,"Distance":37.6,"MatchLevel":"houseNumber","MatchQuality":{"Country":1.0,"State":1.0,"County":1.0,"City":1.0,"District":1.0,"Street":[1.0],"HouseNumber":1.0,"PostalCode":1.0},"MatchType":"interpolated","Location":{"LocationId":"NT_h4xlC5plULO7goj-HGSlJD_2A","LocationType":"point","DisplayPosition":{"Latitude":49.67966,"Longitude":8.62098},"MapView":{"TopLeft":{"Latitude":49.6807842,"Longitude":8.6192427},"BottomRight":{"Latitude":49.6785358,"Longitude":8.6227173}},"Address":{"Label":"Gerbergasse 6, 64625 Bensheim, Deutschland","Country":"DEU","State":"Hessen","County":"Bergstraße","City":"Bensheim","District":"Bensheim","Street":"Gerbergasse","HouseNumber":"6","PostalCode":"64625","AdditionalData":[{"value":"Deutschland","key":"CountryName"},{"value":"Hessen","key":"StateName"},{"value":"Bergstraße","key":"CountyName"}]},"MapReference":{"ReferenceId":"52655822","Spot":0.32,"SideOfStreet":"right","CountryId":"20147700","StateId":"20160993","CountyId":"20161050","CityId":"20161054","DistrictId":"20161060","AddressId":"187327243","RoadLinkId":"34401281"}}}]}]}}