{"Response":{"MetaInfo":{"Timestamp":"2020-03-28T10:23:55.240+0000","NextPageInformation":"2"},"View":[{"_type":"SearchResultsViewType","ViewId":0,"Result":[{"Relevance":1.0,"Distance":0.0,"Direction":0.0,"MatchLevel":"district","MatchQuality":{"Country":1.0,"State":1.0,"County":1.0,"City":1.0,"District":1.0,"PostalCode":1.0},"Location":{"LocationId":"NT_E4SK1B6XasqIzZJt0HMOxA","LocationType":"point","DisplayPosition":{"Latitude":49.6076404,"Longitude":11.017861},"MapView":{"TopLeft":{"Latitude":49.61312,"Longitude":10.98378},"BottomRight":{"Latitude":49.5593,"Longitude":11.04554}},"Address":{"Label":"Erlangen, Bayern, Deutschland","Country":"DEU","State":"Bayern","County":"Erlangen","City":"Erlangen","District":"Erlangen","PostalCode":"91054","AdditionalData":[{"value":"Deutschland","key":"CountryName"},{"value":"Bayern","key":"StateName"},{"value":"Erlangen","key":"CountyName"}]},"MapReference":{"ReferenceId":"53089562","SideOfStreet":"neither","CountryId":"20147700","StateId":"20177250","CountyId":"20182957","CityId":"20182958","DistrictId":"20182960"}}},{"Relevance":1.0,"Distance":12.2,"MatchLevel":"houseNumber","MatchQuality":{"Country":1.0,"State":1.0,"County":1.0,"City":1.0,"District":1.0,"Street":[1.0],"HouseNumber":1.0,"PostalCode":1.0},"MatchType":"interpolated","Location":{"LocationId":"NT_IAw77Unc3iAq6NE1SVa2GC_0ED","LocationType":"point","DisplayPosition":{"Latitude":49.60738,"Longitude":11.0182},"MapView":{"TopLeft":{"Latitude":49.6085042,"Longitude":11.0164653},"BottomRight":{"Latitude":49.6062558,"Longitude":11.0199347}},"Address":{"Label":"Rathsberger Straße 41, 91054 Erlangen, Deutschland","Country":"DEU","State":"Bayern","County":"Erlangen","City":"Erlangen","District":"Erlangen","Street":"Rathsberger Straße","HouseNumber":"41","PostalCode":"91054","AdditionalData":[{"value":"Deutschland","key":"CountryName"},{"value":"Bayern","key":"StateName"},{"value":"Erlangen","key":"CountyName"}]},"MapReference":{"ReferenceId":"542228289","Spot":0.12,"SideOfStreet":"left","CountryId":"20147700","StateId":"20177250","CountyId":"20182957","CityId":"20182958","DistrictId":"20182960","AddressId":"185464953","RoadLinkId":"33246364"}}},{"Relevance":1.0,"Distance":55.6,"MatchLevel":"houseNumber","MatchQuality":{"Country":1.0,"State":1.0,"County":1.0,"City":1.0,"District":1.0,"Street":[1.0],"HouseNumber":1.0,"PostalCode":1.0},"MatchType":"interpolated","Location":{"LocationId":"NT_Vu.YCIPkb910BFRQ1SW5BC_xMD","LocationType":"point","DisplayPosition":{"Latitude":49.60833,"Longitude":11.0179},"MapView":{"TopLeft":{"Latitude":49.6094542,"Longitude":11.0161652},"BottomRight":{"Latitude":49.6072058,"Longitude":11.0196348}},"Address":{"Label":"Burgbergstraße 13, 91054 Erlangen, Deutschland","Country":"DEU","State":"Bayern","County":"Erlangen","City":"Erlangen","District":"Erlangen","Street":"Burgbergstraße","HouseNumber":"13","PostalCode":"91054","AdditionalData":[{"value":"Deutschland","key":"CountryName"},{"value":"Bayern","key":"StateName"},{"value":"Erlangen","key":"CountyName"}]},"MapReference":{"ReferenceId":"53086114","Spot":0.67,"SideOfStreet":"left","CountryId":"20147700","StateId":"20177250","CountyId":"20182957","CityId":"20182958","DistrictId":"20182960","AddressId":"185796383","RoadLinkId":"33154059"}}},{"Relevance":1.0,"Distance":67.1,"MatchLevel":"houseNumber","MatchQuality":{"Country":1.0,"State":1.0,"County":1.0,"City":1.0,"District":1.0,"Street":[1.0],"HouseNumber":1.0,"PostalCode":1.0},"MatchType":"interpolated","Location":{"LocationId":"NT_IAw77Unc3iAq6NE1SVa2GC_zED","LocationType":"point","DisplayPosition":{"Latitude":49.60719,"Longitude":11.01704},"MapView":{"TopLeft":{"Latitude":49.6083142,"Longitude":11.0153053},"BottomRight":{"Latitude":49.6060658,"Longitude":11.0187747}},"Address":{"Label":"Rathsberger Straße 31, 91054 Erlangen, Deutschland","Country":"DEU","State":"Bayern","County":"Erlangen","City":"Erlangen","District":"Erlangen","Street":"Rathsberger Straße","HouseNumber":"31","PostalCode":"91054","AdditionalData":[{"value":"Deutschland","key":"CountryName"},{"value":"Bayern","key":"StateName"},{"value":"Erlangen","key":"CountyName"}]},"MapReference":{"ReferenceId":"576279786","Spot":0.78,"SideOfStreet":"left","CountryId":"20147700","StateId":"20177250","CountyId":"20182957","CityId":"20182958","DistrictId":"20182960","AddressId":"185924929","RoadLinkId":"32762313"}}},{"Relevance":1.0,"Distance":76.2,"MatchLevel":"houseNumber","MatchQuality":{"Country":1.0,"State":1.0,"County":1.0,"City":1.0,"District":1.0,"Street":[1.0],"HouseNumber":1.0,"PostalCode":1.0},"MatchType":"interpolated","Location":{"LocationId":"NT_pO-k7O7rfYGvzTWn9ni.6C_xMD","LocationType":"point","DisplayPosition":{"Latitude":49.60704,"Longitude":11.01837},"MapView":{"TopLeft":{"Latitude":49.6081642,"Longitude":11.0166353},"BottomRight":{"Latitude":49.6059158,"Longitude":11.0201047}},"Address":{"Label":"Lerchentalweg 13, 91054 Erlangen, Deutschland","Country":"DEU","State":"Bayern","County":"Erlangen","City":"Erlangen","District":"Erlangen","Street":"Lerchentalweg","HouseNumber":"13","PostalCode":"91054","AdditionalData":[{"value":"Deutschland","key":"CountryName"},{"value":"Bayern","key":"StateName"},{"value":"Erlangen","key":"CountyName"}]},"MapReference":{"ReferenceId":"586888732","Spot":0.13,"SideOfStreet":"right","CountryId":"20147700","StateId":"20177250","CountyId":"20182957","CityId":"20182958","DistrictId":"20182960","AddressId":"183639708","RoadLinkId":"33273064"}}},{"Relevance":1.0,"Distance":84.5,"MatchLevel":"houseNumber","MatchQuality":{"Country":1.0,"State":1.0,"County":1.0,"City":1.0,"District":1.0,"Street":[1.0],"HouseNumber":1.0,"PostalCode":1.0},"MatchType":"interpolated","Location":{"LocationId":"NT_Vu.YCIPkb910BFRQ1SW5BC_xUzQ","LocationType":"point","DisplayPosition":{"Latitude":49.60835,"Longitude":11.01705},"MapView":{"TopLeft":{"Latitude":49.6094742,"Longitude":11.0153152},"BottomRight":{"Latitude":49.6072258,"Longitude":11.0187848}},"Address":{"Label":"Burgbergstraße 15C, 91054 Erlangen, Deutschland","Country":"DEU","State":"Bayern","County":"Erlangen","City":"Erlangen","District":"Erlangen","Street":"Burgbergstraße","HouseNumber":"15C","PostalCode":"91054","AdditionalData":[{"value":"Deutschland","key":"CountryName"},{"value":"Bayern","key":"StateName"},{"value":"Erlangen","key":"CountyName"}]},"MapReference":{"ReferenceId":"53086115","Spot":0.05,"SideOfStreet":"left","CountryId":"20147700","StateId":"20177250","CountyId":"20182957","CityId":"20182958","DistrictId":"20182960","AddressId":"790180793","RoadLinkId":"33484937"}}},{"Relevance":1.0,"Distance":120.3,"MatchLevel":"street","MatchQuality":{"Country":1.0,"State":1.0,"County":1.0,"City":1.0,"District":1.0,"PostalCode":1.0},"Location":{"LocationId":"NT_krmbfBtZiszy.ENUm-9qwD_l_1187150567_R","LocationType":"point","DisplayPosition":{"Latitude":49.60806,"Longitude":11.0194},"MapView":{"TopLeft":{"Latitude":49.60823,"Longitude":11.0194},"BottomRight":{"Latitude":49.60806,"Longitude":11.02136}},"Address":{"Label":"91054 Erlangen, Deutschland","Country":"DEU","State":"Bayern","County":"Erlangen","City":"Erlangen","District":"Erlangen","PostalCode":"91054","AdditionalData":[{"value":"Deutschland","key":"CountryName"},{"value":"Bayern","key":"StateName"},{"value":"Erlangen","key":"CountyName"}]},"MapReference":{"ReferenceId":"1187150567","Spot":0.0,"SideOfStreet":"right","CountryId":"20147700","StateId":"20177250","CountyId":"20182957","CityId":"20182958","DistrictId":"20182960"}}},{"Relevance":1.0,"Distance":124.6,"MatchLevel":"houseNumber","MatchQuality":{"Country":1.0,"State":1.0,"County":1.0,"City":1.0,"District":1.0,"Street":[1.0],"HouseNumber":1.0,"PostalCode":1.0},"MatchType":"interpolated","Location":{"LocationId":"NT_EkAaKgKeUKugSEMmujQDvB_0A","LocationType":"point","DisplayPosition":{"Latitude":49.60884,"Longitude":11.01761},"MapView":{"TopLeft":{"Latitude":49.6099642,"Longitude":11.0158752},"BottomRight":{"Latitude":49.6077158,"Longitude":11.0193448}},"Address":{"Label":"Jean-Paul-Straße 4, 91054 Erlangen, Deutschland","Country":"DEU","State":"Bayern","County":"Erlangen","City":"Erlangen","District":"Erlangen","Street":"Jean-Paul-Straße","HouseNumber":"4","PostalCode":"91054","AdditionalData":[{"value":"Deutschland","key":"CountryName"},{"value":"Bayern","key":"StateName"},{"value":"Erlangen","key":"CountyName"}]},"MapReference":{"ReferenceId":"53086122","Spot":0.45,"SideOfStreet":"right","CountryId":"20147700","StateId":"20177250","CountyId":"20182957","CityId":"20182958","DistrictId":"20182960","AddressId":"182900828","RoadLinkId":"33691317"}}},{"Relevance":1.0,"Distance":129.4,"MatchLevel":"houseNumber","MatchQuality":{"Country":1.0,"State":1.0,"County":1.0,"City":1.0,"District":1.0,"Street":[1.0],"HouseNumber":1.0,"PostalCode":1.0},"MatchType":"interpolated","Location":{"LocationId":"NT_CnekOVAQN8qWdpxj-oHMRD_xYD","LocationType":"point","DisplayPosition":{"Latitude":49.60658,"Longitude":11.01712},"MapView":{"TopLeft":{"Latitude":49.6077042,"Longitude":11.0153853},"BottomRight":{"Latitude":49.6054558,"Longitude":11.0188547}},"Address":{"Label":"Am Eichenwald 16, 91054 Erlangen, Deutschland","Country":"DEU","State":"Bayern","County":"Erlangen","City":"Erlangen","District":"Erlangen","Street":"Am Eichenwald","HouseNumber":"16","PostalCode":"91054","AdditionalData":[{"value":"Deutschland","key":"CountryName"},{"value":"Bayern","key":"StateName"},{"value":"Erlangen","key":"CountyName"}]},"MapReference":{"ReferenceId":"53086954","Spot":0.25,"SideOfStreet":"left","CountryId":"20147700","StateId":"20177250","CountyId":"20182957","CityId":"20182958","DistrictId":"20182960","AddressId":"183541054","RoadLinkId":"32617227"}}},{"Relevance":1.0,"Distance":141.2,"MatchLevel":"houseNumber","MatchQuality":{"Country":1.0,"State":1.0,"County":1.0,"City":1.0,"District":1.0,"Street":[1.0],"HouseNumber":1.0,"PostalCode":1.0},"MatchType":"interpolated","Location":{"LocationId":"NT_IAw77Unc3iAq6NE1SVa2GC_0cD","LocationType":"point","DisplayPosition":{"Latitude":49.60854,"Longitude":11.01964},"MapView":{"TopLeft":{"Latitude":49.6096642,"Longitude":11.0179052},"BottomRight":{"Latitude":49.6074158,"Longitude":11.0213748}},"Address":{"Label":"Rathsberger Straße 47, 91054 Erlangen, Deutschland","Country":"DEU","State":"Bayern","County":"Erlangen","City":"Erlangen","District":"Erlangen","Street":"Rathsberger Straße","HouseNumber":"47","PostalCode":"91054","AdditionalData":[{"value":"Deutschland","key":"CountryName"},{"value":"Bayern","key":"StateName"},{"value":"Erlangen","key":"CountyName"}]},"MapReference":{"ReferenceId":"53086113","Spot":0.62,"SideOfStreet":"left","CountryId":"20147700","StateId":"20177250","CountyId":"20182957","CityId":"20182958","DistrictId":"20182960","AddressId":"183066130","RoadLinkId":"33840349"}}}]}]}}