{"Response":{"MetaInfo":{"Timestamp":"2020-03-28T10:16:34.552+0000","NextPageInformation":"2"},"View":[{"_type":"SearchResultsViewType","ViewId":0,"Result":[{"Relevance":1.0,"Distance":0.0,"Direction":0.0,"MatchLevel":"district","MatchQuality":{"Country":1.0,"State":1.0,"County":1.0,"City":1.0,"District":1.0,"PostalCode":1.0},"Location":{"LocationId":"NT_SVH.s9sLSe8-seumqJgkLD","LocationType":"point","DisplayPosition":{"Latitude":49.6876088,"Longitude":13.6579355},"MapView":{"TopLeft":{"Latitude":49.70574,"Longitude":13.64705},"BottomRight":{"Latitude":49.68143,"Longitude":13.67524}},"Address":{"Label":"Mirošov, Plzeňský kraj, Česká Republika","Country":"CZE","State":"Plzeňský kraj","County":"Rokycany","City":"Mirošov","District":"Mirošov","PostalCode":"338 43","AdditionalData":[{"value":"Česká Republika","key":"CountryName"},{"value":"Plzeňský kraj","key":"StateName"},{"value":"Rokycany","key":"CountyName"}]},"MapReference":{"ReferenceId":"704439730","SideOfStreet":"neither","CountryId":"20427915","StateId":"20441121","CountyId":"20442288","CityId":"20442388","DistrictId":"20442389"}}},{"Relevance":1.0,"Distance":11.9,"MatchLevel":"houseNumber","MatchQuality":{"Country":1.0,"State":1.0,"County":1.0,"City":1.0,"District":1.0,"Street":[1.0],"HouseNumber":1.0,"PostalCode":1.0},"MatchType":"interpolated","Location":{"LocationId":"NT_ARUezZRcKDOrEOKSgacytD_2AzM","LocationType":"point","DisplayPosition":{"Latitude":49.6875,"Longitude":13.65819},"MapView":{"TopLeft":{"Latitude":49.6886242,"Longitude":13.6564524},"BottomRight":{"Latitude":49.6863758,"Longitude":13.6599276}},"Address":{"Label":"náměstí Míru 603, 338 43 Mirošov, Česká Republika","Country":"CZE","State":"Plzeňský kraj","County":"Rokycany","City":"Mirošov","District":"Mirošov","Street":"náměstí Míru","HouseNumber":"603","PostalCode":"338 43","AdditionalData":[{"value":"Česká Republika","key":"CountryName"},{"value":"Plzeňský kraj","key":"StateName"},{"value":"Rokycany","key":"CountyName"}]},"MapReference":{"ReferenceId":"704439731","Spot":0.28,"SideOfStreet":"left","CountryId":"20427915","StateId":"20441121","CountyId":"20442288","CityId":"20442388","DistrictId":"20442389","AddressId":"240820414","RoadLinkId":"105832605"}}},{"Relevance":1.0,"Distance":27.8,"MatchLevel":"houseNumber","MatchQuality":{"Country":1.0,"State":1.0,"County":1.0,"City":1.0,"District":1.0,"Street":[1.0],"HouseNumber":1.0,"PostalCode":1.0},"MatchType":"interpolated","Location":{"LocationId":"NT_ARUezZRcKDOrEOKSgacytD_1MD","LocationType":"point","DisplayPosition":{"Latitude":49.68801,"Longitude":13.65762},"MapView":{"TopLeft":{"Latitude":49.6891342,"Longitude":13.6558824},"BottomRight":{"Latitude":49.6868858,"Longitude":13.6593576}},"Address":{"Label":"náměstí Míru 53, 338 43 Mirošov, Česká Republika","Country":"CZE","State":"Plzeňský kraj","County":"Rokycany","City":"Mirošov","District":"Mirošov","Street":"náměstí Míru","HouseNumber":"53","PostalCode":"338 43","AdditionalData":[{"value":"Česká Republika","key":"CountryName"},{"value":"Plzeňský kraj","key":"StateName"},{"value":"Rokycany","key":"CountyName"}]},"MapReference":{"ReferenceId":"704439729","Spot":0.29,"SideOfStreet":"right","CountryId":"20427915","StateId":"20441121","CountyId":"20442288","CityId":"20442388","DistrictId":"20442389","AddressId":"240224858","RoadLinkId":"105832603"}}},{"Relevance":1.0,"Distance":39.4,"MatchLevel":"houseNumber","MatchQuality":{"Country":1.0,"State":1.0,"County":1.0,"City":1.0,"District":1.0,"Street":[1.0],"HouseNumber":1.0,"PostalCode":1.0},"MatchType":"interpolated","Location":{"LocationId":"NT_ARUezZRcKDOrEOKSgacytD_0YD","LocationType":"point","DisplayPosition":{"Latitude":49.68772,"Longitude":13.65726},"MapView":{"TopLeft":{"Latitude":49.6888442,"Longitude":13.6555224},"BottomRight":{"Latitude":49.6865958,"Longitude":13.6589976}},"Address":{"Label":"náměstí Míru 46, 338 43 Mirošov, Česká Republika","Country":"CZE","State":"Plzeňský kraj","County":"Rokycany","City":"Mirošov","District":"Mirošov","Street":"náměstí Míru","HouseNumber":"46","PostalCode":"338 43","AdditionalData":[{"value":"Česká Republika","key":"CountryName"},{"value":"Plzeňský kraj","key":"StateName"},{"value":"Rokycany","key":"CountyName"}]},"MapReference":{"ReferenceId":"1007426857","Spot":0.61,"SideOfStreet":"right","CountryId":"20427915","StateId":"20441121","CountyId":"20442288","CityId":"20442388","DistrictId":"20442389","AddressId":"240122855","RoadLinkId":"332161883"}}},{"Relevance":1.0,"Distance":49.8,"MatchLevel":"houseNumber","MatchQuality":{"Country":1.0,"State":1.0,"County":1.0,"City":1.0,"District":1.0,"Street":[1.0],"HouseNumber":1.0,"PostalCode":1.0},"MatchType":"interpolated","Location":{"LocationId":"NT_BWDEzAxRIsyc6k98BXGp7B_0cD","LocationType":"point","DisplayPosition":{"Latitude":49.68725,"Longitude":13.65734},"MapView":{"TopLeft":{"Latitude":49.6883742,"Longitude":13.6556024},"BottomRight":{"Latitude":49.6861258,"Longitude":13.6590776}},"Address":{"Label":"Vojtěcha Nejedlého 47, 338 43 Mirošov, Česká Republika","Country":"CZE","State":"Plzeňský kraj","County":"Rokycany","City":"Mirošov","District":"Mirošov","Street":"Vojtěcha Nejedlého","HouseNumber":"47","PostalCode":"338 43","AdditionalData":[{"value":"Česká Republika","key":"CountryName"},{"value":"Plzeňský kraj","key":"StateName"},{"value":"Rokycany","key":"CountyName"}]},"MapReference":{"ReferenceId":"1007426852","Spot":0.34,"SideOfStreet":"left","CountryId":"20427915","StateId":"20441121","CountyId":"20442288","CityId":"20442388","DistrictId":"20442389","AddressId":"241165869","RoadLinkId":"332161876"}}},{"Relevance":1.0,"Distance":59.0,"MatchLevel":"street","MatchQuality":{"Country":1.0,"State":1.0,"County":1.0,"City":1.0,"District":1.0,"PostalCode":1.0},"Location":{"LocationId":"NT_EW29Xb6ykQ7tkQMToze5wD_l_704439716_R","LocationType":"point","DisplayPosition":{"Latitude":49.68798,"Longitude":13.65735},"MapView":{"TopLeft":{"Latitude":49.68881,"Longitude":13.65714},"BottomRight":{"Latitude":49.68798,"Longitude":13.65735}},"Address":{"Label":"338 43 Mirošov, Česká Republika","Country":"CZE","State":"Plzeňský kraj","County":"Rokycany","City":"Mirošov","District":"Mirošov","PostalCode":"338 43","AdditionalData":[{"value":"Česká Republika","key":"CountryName"},{"value":"Plzeňský kraj","key":"StateName"},{"value":"Rokycany","key":"CountyName"}]},"MapReference":{"ReferenceId":"704439716","Spot":0.0,"SideOfStreet":"right","CountryId":"20427915","StateId":"20441121","CountyId":"20442288","CityId":"20442388","DistrictId":"20442389"}}},{"Relevance":1.0,"Distance":64.7,"MatchLevel":"houseNumber","MatchQuality":{"Country":1.0,"State":1.0,"County":1.0,"City":1.0,"District":1.0,"Street":[1.0],"HouseNumber":1.0,"PostalCode":1.0},"MatchType":"interpolated","Location":{"LocationId":"NT_ARUezZRcKDOrEOKSgacytD_xED","LocationType":"point","DisplayPosition":{"Latitude":49.68797,"Longitude":13.65723},"MapView":{"TopLeft":{"Latitude":49.6890942,"Longitude":13.6554924},"BottomRight":{"Latitude":49.6868458,"Longitude":13.6589676}},"Address":{"Label":"náměstí Míru 11, 338 43 Mirošov, Česká Republika","Country":"CZE","State":"Plzeňský kraj","County":"Rokycany","City":"Mirošov","District":"Mirošov","Street":"náměstí Míru","HouseNumber":"11","PostalCode":"338 43","AdditionalData":[{"value":"Česká Republika","key":"CountryName"},{"value":"Plzeňský kraj","key":"StateName"},{"value":"Rokycany","key":"CountyName"}]},"MapReference":{"ReferenceId":"1007426854","Spot":0.8,"SideOfStreet":"left","CountryId":"20427915","StateId":"20441121","CountyId":"20442288","CityId":"20442388","DistrictId":"20442389","AddressId":"239962322","RoadLinkId":"332161878"}}},{"Relevance":1.0,"Distance":70.4,"MatchLevel":"houseNumber","MatchQuality":{"Country":1.0,"State":1.0,"County":1.0,"City":1.0,"District":1.0,"Street":[1.0],"HouseNumber":1.0,"PostalCode":1.0},"MatchType":"interpolated","Location":{"LocationId":"NT_BWDEzAxRIsyc6k98BXGp7B_2ID","LocationType":"point","DisplayPosition":{"Latitude":49.68735,"Longitude":13.65891},"MapView":{"TopLeft":{"Latitude":49.6884742,"Longitude":13.6571724},"BottomRight":{"Latitude":49.6862258,"Longitude":13.6606476}},"Address":{"Label":"Vojtěcha Nejedlého 62, 338 43 Mirošov, Česká Republika","Country":"CZE","State":"Plzeňský kraj","County":"Rokycany","City":"Mirošov","District":"Mirošov","Street":"Vojtěcha Nejedlého","HouseNumber":"62","PostalCode":"338 43","AdditionalData":[{"value":"Česká Republika","key":"CountryName"},{"value":"Plzeňský kraj","key":"StateName"},{"value":"Rokycany","key":"CountyName"}]},"MapReference":{"ReferenceId":"704439725","Spot":0.9,"SideOfStreet":"left","CountryId":"20427915","StateId":"20441121","CountyId":"20442288","CityId":"20442388","DistrictId":"20442389","AddressId":"241135339","RoadLinkId":"105832597"}}},{"Relevance":1.0,"Distance":70.9,"MatchLevel":"houseNumber","MatchQuality":{"Country":1.0,"State":1.0,"County":1.0,"City":1.0,"District":1.0,"Street":[1.0],"HouseNumber":1.0,"PostalCode":1.0},"MatchType":"interpolated","Location":{"LocationId":"NT_RiptfYpiwoszWrA1FY3V3B_2UD","LocationType":"point","DisplayPosition":{"Latitude":49.68722,"Longitude":13.65894},"MapView":{"TopLeft":{"Latitude":49.6883442,"Longitude":13.6572024},"BottomRight":{"Latitude":49.6860958,"Longitude":13.6606776}},"Address":{"Label":"Školní 65, 338 43 Mirošov, Česká Republika","Country":"CZE","State":"Plzeňský kraj","County":"Rokycany","City":"Mirošov","District":"Mirošov","Street":"Školní","HouseNumber":"65","PostalCode":"338 43","AdditionalData":[{"value":"Česká Republika","key":"CountryName"},{"value":"Plzeňský kraj","key":"StateName"},{"value":"Rokycany","key":"CountyName"}]},"MapReference":{"ReferenceId":"1007427982","Spot":0.9,"SideOfStreet":"left","CountryId":"20427915","StateId":"20441121","CountyId":"20442288","CityId":"20442388","DistrictId":"20442389","AddressId":"239626496","RoadLinkId":"332162823"}}},{"Relevance":1.0,"Distance":79.1,"MatchLevel":"houseNumber","MatchQuality":{"Country":1.0,"State":1.0,"County":1.0,"City":1.0,"District":1.0,"Street":[1.0],"HouseNumber":1.0,"PostalCode":1.0},"MatchType":"interpolated","Location":{"LocationId":"NT_ARUezZRcKDOrEOKSgacytD_1QD","LocationType":"point","DisplayPosition":{"Latitude":49.68746,"Longitude":13.65686},"MapView":{"TopLeft":{"Latitude":49.6885842,"Longitude":13.6551224},"BottomRight":{"Latitude":49.6863358,"Longitude":13.6585976}},"Address":{"Label":"náměstí Míru 54, 338 43 Mirošov, Česká Republika","Country":"CZE","State":"Plzeňský kraj","County":"Rokycany","City":"Mirošov","District":"Mirošov","Street":"náměstí Míru","HouseNumber":"54","PostalCode":"338 43","AdditionalData":[{"value":"Česká Republika","key":"CountryName"},{"value":"Plzeňský kraj","key":"StateName"},{"value":"Rokycany","key":"CountyName"}]},"MapReference":{"ReferenceId":"1007426856","Spot":0.0,"SideOfStreet":"left","CountryId":"20427915","StateId":"20441121","CountyId":"20442288","CityId":"20442388","DistrictId":"20442389","AddressId":"240851019","RoadLinkId":"332161882"}}}]}]}}