{"Response":{"MetaInfo":{"Timestamp":"2020-03-28T10:13:05.453+0000","NextPageInformation":"2"},"View":[{"_type":"SearchResultsViewType","ViewId":0,"Result":[{"Relevance":1.0,"Distance":0.0,"Direction":0.0,"MatchLevel":"district","MatchQuality":{"Country":1.0,"State":1.0,"County":1.0,"City":1.0,"District":1.0,"PostalCode":1.0},"Location":{"LocationId":"NT_Mwcr1EWK08s1NLemhufSCC","LocationType":"point","DisplayPosition":{"Latitude":49.6231571,"Longitude":20.9518992},"MapView":{"TopLeft":{"Latitude":49.63135,"Longitude":20.90826},"BottomRight":{"Latitude":49.59432,"Longitude":20.99148}},"Address":{"Label":"Grybów, Woj. Małopolskie, Polska","Country":"POL","State":"Woj. Małopolskie","County":"Powiat Nowosądecki","City":"Grybów","District":"Grybów","PostalCode":"33-330","AdditionalData":[{"value":"Polska","key":"CountryName"},{"value":"Woj. Małopolskie","key":"StateName"},{"value":"Powiat Nowosądecki","key":"CountyName"}]},"MapReference":{"ReferenceId":"1164825939","SideOfStreet":"neither","CountryId":"20624059","StateId":"20626775","CountyId":"20626967","CityId":"20686430","DistrictId":"20686431"}}},{"Relevance":1.0,"Distance":14.4,"MatchLevel":"houseNumber","MatchQuality":{"Country":1.0,"State":1.0,"County":1.0,"City":1.0,"District":1.0,"Street":[1.0],"HouseNumber":1.0,"PostalCode":1.0},"MatchType":"interpolated","Location":{"LocationId":"NT_6dz0EtId1LfZWIMDkO5ctB_xcD","LocationType":"point","DisplayPosition":{"Latitude":49.62295,"Longitude":20.95168},"MapView":{"TopLeft":{"Latitude":49.6240742,"Longitude":20.9499447},"BottomRight":{"Latitude":49.6218258,"Longitude":20.9534153}},"Address":{"Label":"ulica Tadeusza Kościuszki 17, 33-330 Grybów, Polska","Country":"POL","State":"Woj. Małopolskie","County":"Powiat Nowosądecki","City":"Grybów","District":"Grybów","Street":"ulica Tadeusza Kościuszki","HouseNumber":"17","PostalCode":"33-330","AdditionalData":[{"value":"Polska","key":"CountryName"},{"value":"Woj. Małopolskie","key":"StateName"},{"value":"Powiat Nowosądecki","key":"CountyName"}]},"MapReference":{"ReferenceId":"780321659","Spot":1.0,"SideOfStreet":"right","CountryId":"20624059","StateId":"20626775","CountyId":"20626967","CityId":"20686430","DistrictId":"20686431","AddressId":"701758211","RoadLinkId":"173599959"}}},{"Relevance":1.0,"Distance":27.9,"MatchLevel":"street","MatchQuality":{"Country":1.0,"State":1.0,"County":1.0,"City":1.0,"District":1.0,"Street":[1.0],"PostalCode":1.0},"Location":{"LocationId":"NT_QupPBefZ.pMurMXjcy8rHA_l_799962736_R","LocationType":"point","DisplayPosition":{"Latitude":49.62295,"Longitude":20.95168},"MapView":{"TopLeft":{"Latitude":49.62296,"Longitude":20.95146},"BottomRight":{"Latitude":49.62295,"Longitude":20.95168}},"Address":{"Label":"ulica Tadeusza Kościuszki, 33-330 Grybów, Polska","Country":"POL","State":"Woj. Małopolskie","County":"Powiat Nowosądecki","City":"Grybów","District":"Grybów","Street":"ulica Tadeusza Kościuszki","PostalCode":"33-330","AdditionalData":[{"value":"Polska","key":"CountryName"},{"value":"Woj. Małopolskie","key":"StateName"},{"value":"Powiat Nowosądecki","key":"CountyName"}]},"MapReference":{"ReferenceId":"799962736","Spot":0.0,"SideOfStreet":"right","CountryId":"20624059","StateId":"20626775","CountyId":"20626967","CityId":"20686430","DistrictId":"20686431"}}},{"Relevance":1.0,"Distance":46.7,"MatchLevel":"street","MatchQuality":{"Country":1.0,"State":1.0,"County":1.0,"City":1.0,"District":1.0,"Street":[1.0],"PostalCode":1.0},"Location":{"LocationId":"NT_QupPBefZ.pMurMXjcy8rHA_l_594111241_L","LocationType":"point","DisplayPosition":{"Latitude":49.62289,"Longitude":20.9524},"MapView":{"TopLeft":{"Latitude":49.62289,"Longitude":20.9524},"BottomRight":{"Latitude":49.62289,"Longitude":20.95245}},"Address":{"Label":"ulica Tadeusza Kościuszki, 33-330 Grybów, Polska","Country":"POL","State":"Woj. Małopolskie","County":"Powiat Nowosądecki","City":"Grybów","District":"Grybów","Street":"ulica Tadeusza Kościuszki","PostalCode":"33-330","AdditionalData":[{"value":"Polska","key":"CountryName"},{"value":"Woj. Małopolskie","key":"StateName"},{"value":"Powiat Nowosądecki","key":"CountyName"}]},"MapReference":{"ReferenceId":"594111241","Spot":0.0,"SideOfStreet":"left","CountryId":"20624059","StateId":"20626775","CountyId":"20626967","CityId":"20686430","DistrictId":"20686431"}}},{"Relevance":1.0,"Distance":66.9,"MatchLevel":"houseNumber","MatchQuality":{"Country":1.0,"State":1.0,"County":1.0,"City":1.0,"District":1.0,"Street":[1.0],"HouseNumber":1.0,"PostalCode":1.0},"MatchType":"interpolated","Location":{"LocationId":"NT_6dz0EtId1LfZWIMDkO5ctB_xUD","LocationType":"point","DisplayPosition":{"Latitude":49.623,"Longitude":20.95094},"MapView":{"TopLeft":{"Latitude":49.6241242,"Longitude":20.9492047},"BottomRight":{"Latitude":49.6218758,"Longitude":20.9526753}},"Address":{"Label":"ulica Tadeusza Kościuszki 15, 33-330 Grybów, Polska","Country":"POL","State":"Woj. Małopolskie","County":"Powiat Nowosądecki","City":"Grybów","District":"Grybów","Street":"ulica Tadeusza Kościuszki","HouseNumber":"15","PostalCode":"33-330","AdditionalData":[{"value":"Polska","key":"CountryName"},{"value":"Woj. Małopolskie","key":"StateName"},{"value":"Powiat Nowosądecki","key":"CountyName"}]},"MapReference":{"ReferenceId":"1194052280","Spot":0.72,"SideOfStreet":"right","CountryId":"20624059","StateId":"20626775","CountyId":"20626967","CityId":"20686430","DistrictId":"20686431","AddressId":"688828788","RoadLinkId":"503992989"}}},{"Relevance":1.0,"Distance":72.4,"MatchLevel":"houseNumber","MatchQuality":{"Country":1.0,"State":1.0,"County":1.0,"City":1.0,"District":1.0,"Street":[1.0],"HouseNumber":1.0,"PostalCode":1.0},"MatchType":"interpolated","Location":{"LocationId":"NT_6dz0EtId1LfZWIMDkO5ctB_xED","LocationType":"point","DisplayPosition":{"Latitude":49.62389,"Longitude":20.9529},"MapView":{"TopLeft":{"Latitude":49.6250142,"Longitude":20.9511647},"BottomRight":{"Latitude":49.6227658,"Longitude":20.9546353}},"Address":{"Label":"ulica Tadeusza Kościuszki 11, 33-330 Grybów, Polska","Country":"POL","State":"Woj. Małopolskie","County":"Powiat Nowosądecki","City":"Grybów","District":"Grybów","Street":"ulica Tadeusza Kościuszki","HouseNumber":"11","PostalCode":"33-330","AdditionalData":[{"value":"Polska","key":"CountryName"},{"value":"Woj. Małopolskie","key":"StateName"},{"value":"Powiat Nowosądecki","key":"CountyName"}]},"MapReference":{"ReferenceId":"784057397","Spot":0.22,"SideOfStreet":"left","CountryId":"20624059","StateId":"20626775","CountyId":"20626967","CityId":"20686430","DistrictId":"20686431","AddressId":"701757737","RoadLinkId":"176939057"}}},{"Relevance":1.0,"Distance":85.1,"MatchLevel":"street","MatchQuality":{"Country":1.0,"State":1.0,"County":1.0,"City":1.0,"District":1.0,"Street":[1.0],"PostalCode":1.0},"Location":{"LocationId":"NT_6dz0EtId1LfZWIMDkO5ctB_l_1194052281_R","LocationType":"point","DisplayPosition":{"Latitude":49.62301,"Longitude":20.95074},"MapView":{"TopLeft":{"Latitude":49.62303,"Longitude":20.9505},"BottomRight":{"Latitude":49.62301,"Longitude":20.95074}},"Address":{"Label":"ulica Tadeusza Kościuszki, 33-330 Grybów, Polska","Country":"POL","State":"Woj. Małopolskie","County":"Powiat Nowosądecki","City":"Grybów","District":"Grybów","Street":"ulica Tadeusza Kościuszki","PostalCode":"33-330","AdditionalData":[{"value":"Polska","key":"CountryName"},{"value":"Woj. Małopolskie","key":"StateName"},{"value":"Powiat Nowosądecki","key":"CountyName"}]},"MapReference":{"ReferenceId":"1194052281","Spot":0.0,"SideOfStreet":"right","CountryId":"20624059","StateId":"20626775","CountyId":"20626967","CityId":"20686430","DistrictId":"20686431"}}},{"Relevance":1.0,"Distance":98.5,"MatchLevel":"houseNumber","MatchQuality":{"Country":1.0,"State":1.0,"County":1.0,"City":1.0,"District":1.0,"Street":[1.0],"HouseNumber":1.0,"PostalCode":1.0},"MatchType":"interpolated","Location":{"LocationId":"NT_6dz0EtId1LfZWIMDkO5ctB_xkD","LocationType":"point","DisplayPosition":{"Latitude":49.62286,"Longitude":20.95326},"MapView":{"TopLeft":{"Latitude":49.6239842,"Longitude":20.9515247},"BottomRight":{"Latitude":49.6217358,"Longitude":20.9549953}},"Address":{"Label":"ulica Tadeusza Kościuszki 19, 33-330 Grybów, Polska","Country":"POL","State":"Woj. Małopolskie","County":"Powiat Nowosądecki","City":"Grybów","District":"Grybów","Street":"ulica Tadeusza Kościuszki","HouseNumber":"19","PostalCode":"33-330","AdditionalData":[{"value":"Polska","key":"CountryName"},{"value":"Woj. Małopolskie","key":"StateName"},{"value":"Powiat Nowosądecki","key":"CountyName"}]},"MapReference":{"ReferenceId":"1194052278","Spot":0.14,"SideOfStreet":"right","CountryId":"20624059","StateId":"20626775","CountyId":"20626967","CityId":"20686430","DistrictId":"20686431","AddressId":"701757738","RoadLinkId":"503992983"}}},{"Relevance":1.0,"Distance":127.1,"MatchLevel":"houseNumber","MatchQuality":{"Country":1.0,"State":1.0,"County":1.0,"City":1.0,"District":1.0,"Street":[1.0],"HouseNumber":1.0,"PostalCode":1.0},"MatchType":"interpolated","Location":{"LocationId":"NT_6dz0EtId1LfZWIMDkO5ctB_yED","LocationType":"point","DisplayPosition":{"Latitude":49.62305,"Longitude":20.95402},"MapView":{"TopLeft":{"Latitude":49.6241742,"Longitude":20.9522847},"BottomRight":{"Latitude":49.6219258,"Longitude":20.9557553}},"Address":{"Label":"ulica Tadeusza Kościuszki 21, 33-330 Grybów, Polska","Country":"POL","State":"Woj. Małopolskie","County":"Powiat Nowosądecki","City":"Grybów","District":"Grybów","Street":"ulica Tadeusza Kościuszki","HouseNumber":"21","PostalCode":"33-330","AdditionalData":[{"value":"Polska","key":"CountryName"},{"value":"Woj. Małopolskie","key":"StateName"},{"value":"Powiat Nowosądecki","key":"CountyName"}]},"MapReference":{"ReferenceId":"1194052279","Spot":1.0,"SideOfStreet":"left","CountryId":"20624059","StateId":"20626775","CountyId":"20626967","CityId":"20686430","DistrictId":"20686431","AddressId":"701757739","RoadLinkId":"503992984"}}},{"Relevance":1.0,"Distance":139.7,"MatchLevel":"houseNumber","MatchQuality":{"Country":1.0,"State":1.0,"County":1.0,"City":1.0,"District":1.0,"Street":[1.0],"HouseNumber":1.0,"PostalCode":1.0},"MatchType":"interpolated","Location":{"LocationId":"NT_6dz0EtId1LfZWIMDkO5ctB_xMD","LocationType":"point","DisplayPosition":{"Latitude":49.62307,"Longitude":20.94994},"MapView":{"TopLeft":{"Latitude":49.6241942,"Longitude":20.9482047},"BottomRight":{"Latitude":49.6219458,"Longitude":20.9516753}},"Address":{"Label":"ulica Tadeusza Kościuszki 13, 33-330 Grybów, Polska","Country":"POL","State":"Woj. Małopolskie","County":"Powiat Nowosądecki","City":"Grybów","District":"Grybów","Street":"ulica Tadeusza Kościuszki","HouseNumber":"13","PostalCode":"33-330","AdditionalData":[{"value":"Polska","key":"CountryName"},{"value":"Woj. Małopolskie","key":"StateName"},{"value":"Powiat Nowosądecki","key":"CountyName"}]},"MapReference":{"ReferenceId":"891845082","Spot":0.38,"SideOfStreet":"right","CountryId":"20624059","StateId":"20626775","CountyId":"20626967","CityId":"20686430","DistrictId":"20686431","AddressId":"222308575","RoadLinkId":"255762143"}}}]}]}}