{"Response":{"MetaInfo":{"Timestamp":"2020-03-28T12:04:33.400+0000","NextPageInformation":"2"},"View":[{"_type":"SearchResultsViewType","ViewId":0,"Result":[{"Relevance":1.0,"Distance":0.0,"Direction":0.0,"MatchLevel":"district","MatchQuality":{"Country":1.0,"State":1.0,"County":1.0,"City":1.0,"District":1.0,"PostalCode":1.0},"Location":{"LocationId":"NT_bUMbHop4fVojGi7PqXtAdA","LocationType":"point","DisplayPosition":{"Latitude":49.6185955,"Longitude":6.1248757},"MapView":{"TopLeft":{"Latitude":49.62715,"Longitude":6.10577},"BottomRight":{"Latitude":49.61455,"Longitude":6.13164}},"Address":{"Label":"Limpertsberg, Luxembourg","Country":"LUX","State":"Luxembourg","County":"Luxembourg","City":"Luxembourg","District":"Limpertsberg","PostalCode":"1628","AdditionalData":[{"value":"Luxembourg","key":"CountryName"},{"value":"Luxembourg","key":"StateName"},{"value":"Luxembourg","key":"CountyName"}]},"MapReference":{"ReferenceId":"812561967","SideOfStreet":"neither","CountryId":"20128887","StateId":"20199305","CountyId":"20199306","CityId":"20199322"}}},{"Relevance":1.0,"Distance":10.6,"MatchLevel":"houseNumber","MatchQuality":{"Country":1.0,"State":1.0,"County":1.0,"City":1.0,"District":1.0,"Street":[1.0],"HouseNumber":1.0,"PostalCode":1.0},"MatchType":"interpolated","Location":{"LocationId":"NT_H5Ai9-dtyzNwKPXb75MSPC_xA","LocationType":"point","DisplayPosition":{"Latitude":49.61858,"Longitude":6.12506},"MapView":{"TopLeft":{"Latitude":49.6197042,"Longitude":6.1233249},"BottomRight":{"Latitude":49.6174558,"Longitude":6.1267951}},"Address":{"Label":"1 Avenue Victor Hugo, L-1750 Luxembourg, Luxembourg","Country":"LUX","State":"Luxembourg","County":"Luxembourg","City":"Luxembourg","District":"Limpertsberg","Street":"Avenue Victor Hugo","HouseNumber":"1","PostalCode":"1750","AdditionalData":[{"value":"Luxembourg","key":"CountryName"},{"value":"Luxembourg","key":"StateName"},{"value":"Luxembourg","key":"CountyName"}]},"MapReference":{"ReferenceId":"822526180","Spot":0.54,"SideOfStreet":"left","CountryId":"20128887","StateId":"20199305","CountyId":"20199306","CityId":"20199322","AddressId":"376637795","RoadLinkId":"209010706"}}},{"Relevance":1.0,"Distance":13.9,"MatchLevel":"houseNumber","MatchQuality":{"Country":1.0,"State":1.0,"County":1.0,"City":1.0,"District":1.0,"Street":[1.0],"HouseNumber":1.0,"PostalCode":1.0},"MatchType":"interpolated","Location":{"LocationId":"NT_H5Ai9-dtyzNwKPXb75MSPC_zA","LocationType":"point","DisplayPosition":{"Latitude":49.61872,"Longitude":6.12486},"MapView":{"TopLeft":{"Latitude":49.6198442,"Longitude":6.1231249},"BottomRight":{"Latitude":49.6175958,"Longitude":6.1265951}},"Address":{"Label":"3 Avenue Victor Hugo, L-1750 Luxembourg, Luxembourg","Country":"LUX","State":"Luxembourg","County":"Luxembourg","City":"Luxembourg","District":"Limpertsberg","Street":"Avenue Victor Hugo","HouseNumber":"3","PostalCode":"1750","AdditionalData":[{"value":"Luxembourg","key":"CountryName"},{"value":"Luxembourg","key":"StateName"},{"value":"Luxembourg","key":"CountyName"}]},"MapReference":{"ReferenceId":"1198869221","Spot":0.02,"SideOfStreet":"left","CountryId":"20128887","StateId":"20199305","CountyId":"20199306","CityId":"20199322","AddressId":"376568447","RoadLinkId":"510425731"}}},{"Relevance":1.0,"Distance":17.0,"MatchLevel":"houseNumber","MatchQuality":{"Country":1.0,"State":1.0,"County":1.0,"City":1.0,"District":1.0,"Street":[1.0],"HouseNumber":1.0,"PostalCode":1.0},"MatchType":"interpolated","Location":{"LocationId":"NT_.LvIKH38X0SYrQ4r152IRA_0cD","LocationType":"point","DisplayPosition":{"Latitude":49.61835,"Longitude":6.12505},"MapView":{"TopLeft":{"Latitude":49.6194742,"Longitude":6.1233149},"BottomRight":{"Latitude":49.6172258,"Longitude":6.1267851}},"Address":{"Label":"47 Allée Scheffer, L-2520 Luxembourg, Luxembourg","Country":"LUX","State":"Luxembourg","County":"Luxembourg","City":"Luxembourg","District":"Limpertsberg","Street":"Allée Scheffer","HouseNumber":"47","PostalCode":"2520","AdditionalData":[{"value":"Luxembourg","key":"CountryName"},{"value":"Luxembourg","key":"StateName"},{"value":"Luxembourg","key":"CountyName"}]},"MapReference":{"ReferenceId":"907993278","Spot":0.75,"SideOfStreet":"left","CountryId":"20128887","StateId":"20199305","CountyId":"20199306","CityId":"20199322","AddressId":"376600257","RoadLinkId":"268593162"}}},{"Relevance":1.0,"Distance":25.6,"MatchLevel":"houseNumber","MatchQuality":{"Country":1.0,"State":1.0,"County":1.0,"City":1.0,"District":1.0,"Street":[1.0],"HouseNumber":1.0,"PostalCode":1.0},"MatchType":"interpolated","Location":{"LocationId":"NT_.LvIKH38X0SYrQ4r152IRA_0kD","LocationType":"point","DisplayPosition":{"Latitude":49.61852,"Longitude":6.12536},"MapView":{"TopLeft":{"Latitude":49.6196442,"Longitude":6.1236249},"BottomRight":{"Latitude":49.6173958,"Longitude":6.1270951}},"Address":{"Label":"49 Allée Scheffer, L-2520 Luxembourg, Luxembourg","Country":"LUX","State":"Luxembourg","County":"Luxembourg","City":"Luxembourg","District":"Limpertsberg","Street":"Allée Scheffer","HouseNumber":"49","PostalCode":"2520","AdditionalData":[{"value":"Luxembourg","key":"CountryName"},{"value":"Luxembourg","key":"StateName"},{"value":"Luxembourg","key":"CountyName"}]},"MapReference":{"ReferenceId":"812557027","Spot":0.96,"SideOfStreet":"left","CountryId":"20128887","StateId":"20199305","CountyId":"20199306","CityId":"20199322","AddressId":"376608037","RoadLinkId":"199880773"}}},{"Relevance":1.0,"Distance":31.0,"MatchLevel":"street","MatchQuality":{"Country":1.0,"State":1.0,"County":1.0,"City":1.0,"District":1.0,"Street":[1.0],"PostalCode":1.0},"Location":{"LocationId":"NT_H5Ai9-dtyzNwKPXb75MSPC_l_1264092977_L","LocationType":"point","DisplayPosition":{"Latitude":49.61842,"Longitude":6.12521},"MapView":{"TopLeft":{"Latitude":49.61842,"Longitude":6.12521},"BottomRight":{"Latitude":49.6184,"Longitude":6.12522}},"Address":{"Label":"Avenue Victor Hugo, L-1750 Luxembourg, Luxembourg","Country":"LUX","State":"Luxembourg","County":"Luxembourg","City":"Luxembourg","District":"Limpertsberg","Street":"Avenue Victor Hugo","PostalCode":"1750","AdditionalData":[{"value":"Luxembourg","key":"CountryName"},{"value":"Luxembourg","key":"StateName"},{"value":"Luxembourg","key":"CountyName"}]},"MapReference":{"ReferenceId":"1264092977","Spot":1.0,"SideOfStreet":"left","CountryId":"20128887","StateId":"20199305","CountyId":"20199306","CityId":"20199322"}}},{"Relevance":1.0,"Distance":33.0,"MatchLevel":"street","MatchQuality":{"Country":1.0,"State":1.0,"County":1.0,"City":1.0,"District":1.0,"Street":[1.0],"PostalCode":1.0},"Location":{"LocationId":"NT_aGxaE6Ab92ZjOvpprmhdZB_l_1264092976_L","LocationType":"point","DisplayPosition":{"Latitude":49.6184,"Longitude":6.12522},"MapView":{"TopLeft":{"Latitude":49.6184,"Longitude":6.12522},"BottomRight":{"Latitude":49.61815,"Longitude":6.12542}},"Address":{"Label":"Avenue Victor Hugo, L-1750 Luxembourg, Luxembourg","Country":"LUX","State":"Luxembourg","County":"Luxembourg","City":"Luxembourg","District":"Limpertsberg","Street":"Avenue Victor Hugo","PostalCode":"1750","AdditionalData":[{"value":"Luxembourg","key":"CountryName"},{"value":"Luxembourg","key":"StateName"},{"value":"Luxembourg","key":"CountyName"}]},"MapReference":{"ReferenceId":"1264092976","Spot":1.0,"SideOfStreet":"left","CountryId":"20128887","StateId":"20199305","CountyId":"20199306","CityId":"20199322"}}},{"Relevance":1.0,"Distance":36.5,"MatchLevel":"houseNumber","MatchQuality":{"Country":1.0,"State":1.0,"County":1.0,"City":1.0,"District":1.0,"Street":[1.0],"HouseNumber":1.0,"PostalCode":1.0},"MatchType":"interpolated","Location":{"LocationId":"NT_.LvIKH38X0SYrQ4r152IRA_1ED","LocationType":"point","DisplayPosition":{"Latitude":49.6186,"Longitude":6.1255},"MapView":{"TopLeft":{"Latitude":49.6197242,"Longitude":6.1237649},"BottomRight":{"Latitude":49.6174758,"Longitude":6.1272351}},"Address":{"Label":"51 Allée Scheffer, L-2520 Luxembourg, Luxembourg","Country":"LUX","State":"Luxembourg","County":"Luxembourg","City":"Luxembourg","District":"Limpertsberg","Street":"Allée Scheffer","HouseNumber":"51","PostalCode":"2520","AdditionalData":[{"value":"Luxembourg","key":"CountryName"},{"value":"Luxembourg","key":"StateName"},{"value":"Luxembourg","key":"CountyName"}]},"MapReference":{"ReferenceId":"812557028","Spot":0.87,"SideOfStreet":"left","CountryId":"20128887","StateId":"20199305","CountyId":"20199306","CityId":"20199322","AddressId":"376695735","RoadLinkId":"199880774"}}},{"Relevance":1.0,"Distance":42.6,"MatchLevel":"houseNumber","MatchQuality":{"Country":1.0,"State":1.0,"County":1.0,"City":1.0,"District":1.0,"Street":[1.0],"HouseNumber":1.0,"PostalCode":1.0},"MatchType":"interpolated","Location":{"LocationId":"NT_.LvIKH38X0SYrQ4r152IRA_1MD","LocationType":"point","DisplayPosition":{"Latitude":49.61865,"Longitude":6.12558},"MapView":{"TopLeft":{"Latitude":49.6197742,"Longitude":6.1238449},"BottomRight":{"Latitude":49.6175258,"Longitude":6.1273151}},"Address":{"Label":"53 Allée Scheffer, L-2520 Luxembourg, Luxembourg","Country":"LUX","State":"Luxembourg","County":"Luxembourg","City":"Luxembourg","District":"Limpertsberg","Street":"Allée Scheffer","HouseNumber":"53","PostalCode":"2520","AdditionalData":[{"value":"Luxembourg","key":"CountryName"},{"value":"Luxembourg","key":"StateName"},{"value":"Luxembourg","key":"CountyName"}]},"MapReference":{"ReferenceId":"1132972673","Spot":0.42,"SideOfStreet":"left","CountryId":"20128887","StateId":"20199305","CountyId":"20199306","CityId":"20199322","AddressId":"376603544","RoadLinkId":"442950454"}}},{"Relevance":1.0,"Distance":46.4,"MatchLevel":"street","MatchQuality":{"Country":1.0,"State":1.0,"County":1.0,"City":1.0,"District":1.0,"Street":[1.0],"PostalCode":1.0},"Location":{"LocationId":"NT_-fuTzWc4DEcV2SppMa8.1A_l_1264081244_L","LocationType":"point","DisplayPosition":{"Latitude":49.61861,"Longitude":6.12552},"MapView":{"TopLeft":{"Latitude":49.61861,"Longitude":6.12552},"BottomRight":{"Latitude":49.61847,"Longitude":6.12558}},"Address":{"Label":"Boulevard Emmanuel Servais, L-2535 Luxembourg, Luxembourg","Country":"LUX","State":"Luxembourg","County":"Luxembourg","City":"Luxembourg","District":"Limpertsberg","Street":"Boulevard Emmanuel Servais","PostalCode":"2535","AdditionalData":[{"value":"Luxembourg","key":"CountryName"},{"value":"Luxembourg","key":"StateName"},{"value":"Luxembourg","key":"CountyName"}]},"MapReference":{"ReferenceId":"1264081244","Spot":1.0,"SideOfStreet":"left","CountryId":"20128887","StateId":"20199305","CountyId":"20199306","CityId":"20199322"}}}]}]}}