{"Response":{"MetaInfo":{"Timestamp":"2020-03-28T10:18:24.305+0000","NextPageInformation":"2"},"View":[{"_type":"SearchResultsViewType","ViewId":0,"Result":[{"Relevance":1.0,"Distance":0.0,"Direction":0.0,"MatchLevel":"district","MatchQuality":{"Country":1.0,"State":1.0,"County":1.0,"City":1.0,"District":1.0,"PostalCode":1.0},"Location":{"LocationId":"NT_EoE2QP-OZ633f1TGXYgKcC","LocationType":"point","DisplayPosition":{"Latitude":49.6606974,"Longitude":8.4173443},"MapView":{"TopLeft":{"Latitude":49.66451,"Longitude":8.39696},"BottomRight":{"Latitude":49.65348,"Longitude":8.43138}},"Address":{"Label":"Hofheim, Lampertheim, Hessen, Deutschland","Country":"DEU","State":"Hessen","County":"Bergstraße","City":"Lampertheim","District":"Hofheim","PostalCode":"68623","AdditionalData":[{"value":"Deutschland","key":"CountryName"},{"value":"Hessen","key":"StateName"},{"value":"Bergstraße","key":"CountyName"}]},"MapReference":{"ReferenceId":"52672079","SideOfStreet":"neither","CountryId":"20147700","StateId":"20160993","CountyId":"20161050","CityId":"20161103","DistrictId":"20161106"}}},{"Relevance":1.0,"Distance":11.5,"MatchLevel":"houseNumber","MatchQuality":{"Country":1.0,"State":1.0,"County":1.0,"City":1.0,"District":1.0,"Street":[1.0],"HouseNumber":1.0,"PostalCode":1.0},"MatchType":"interpolated","Location":{"LocationId":"NT_7MoGucl4lHk-ABrecgCzKD_ycD","LocationType":"point","DisplayPosition":{"Latitude":49.66067,"Longitude":8.41717},"MapView":{"TopLeft":{"Latitude":49.6617942,"Longitude":8.4154334},"BottomRight":{"Latitude":49.6595458,"Longitude":8.4189066}},"Address":{"Label":"Bibliser Weg 27, 68623 Lampertheim, Deutschland","Country":"DEU","State":"Hessen","County":"Bergstraße","City":"Lampertheim","District":"Hofheim","Street":"Bibliser Weg","HouseNumber":"27","PostalCode":"68623","AdditionalData":[{"value":"Deutschland","key":"CountryName"},{"value":"Hessen","key":"StateName"},{"value":"Bergstraße","key":"CountyName"}]},"MapReference":{"ReferenceId":"52672069","Spot":0.12,"SideOfStreet":"right","CountryId":"20147700","StateId":"20160993","CountyId":"20161050","CityId":"20161103","DistrictId":"20161106","AddressId":"186717179","RoadLinkId":"34154776"}}},{"Relevance":1.0,"Distance":24.7,"MatchLevel":"houseNumber","MatchQuality":{"Country":1.0,"State":1.0,"County":1.0,"City":1.0,"District":1.0,"Street":[1.0],"HouseNumber":1.0,"PostalCode":1.0},"MatchType":"interpolated","Location":{"LocationId":"NT_MvC3dOUdGwYvQqRKTbbPHA_yID","LocationType":"point","DisplayPosition":{"Latitude":49.66066,"Longitude":8.41702},"MapView":{"TopLeft":{"Latitude":49.6617842,"Longitude":8.4152834},"BottomRight":{"Latitude":49.6595358,"Longitude":8.4187566}},"Address":{"Label":"Balthasar-Neumann-Straße 22, 68623 Lampertheim, Deutschland","Country":"DEU","State":"Hessen","County":"Bergstraße","City":"Lampertheim","District":"Hofheim","Street":"Balthasar-Neumann-Straße","HouseNumber":"22","PostalCode":"68623","AdditionalData":[{"value":"Deutschland","key":"CountryName"},{"value":"Hessen","key":"StateName"},{"value":"Bergstraße","key":"CountyName"}]},"MapReference":{"ReferenceId":"63634034","Spot":0.04,"SideOfStreet":"right","CountryId":"20147700","StateId":"20160993","CountyId":"20161050","CityId":"20161103","DistrictId":"20161106","AddressId":"186679515","RoadLinkId":"34156200"}}},{"Relevance":1.0,"Distance":27.8,"MatchLevel":"houseNumber","MatchQuality":{"Country":1.0,"State":1.0,"County":1.0,"City":1.0,"District":1.0,"Street":[1.0],"HouseNumber":1.0,"PostalCode":1.0},"MatchType":"interpolated","Location":{"LocationId":"NT_7MoGucl4lHk-ABrecgCzKD_zED","LocationType":"point","DisplayPosition":{"Latitude":49.6609,"Longitude":8.41757},"MapView":{"TopLeft":{"Latitude":49.6620242,"Longitude":8.4158333},"BottomRight":{"Latitude":49.6597758,"Longitude":8.4193067}},"Address":{"Label":"Bibliser Weg 31, 68623 Lampertheim, Deutschland","Country":"DEU","State":"Hessen","County":"Bergstraße","City":"Lampertheim","District":"Hofheim","Street":"Bibliser Weg","HouseNumber":"31","PostalCode":"68623","AdditionalData":[{"value":"Deutschland","key":"CountryName"},{"value":"Hessen","key":"StateName"},{"value":"Bergstraße","key":"CountyName"}]},"MapReference":{"ReferenceId":"52665153","Spot":0.16,"SideOfStreet":"right","CountryId":"20147700","StateId":"20160993","CountyId":"20161050","CityId":"20161103","DistrictId":"20161106","AddressId":"187287917","RoadLinkId":"33973181"}}},{"Relevance":1.0,"Distance":32.8,"MatchLevel":"houseNumber","MatchQuality":{"Country":1.0,"State":1.0,"County":1.0,"City":1.0,"District":1.0,"Street":[1.0],"HouseNumber":1.0,"PostalCode":1.0},"MatchType":"interpolated","Location":{"LocationId":"NT_7MoGucl4lHk-ABrecgCzKD_yUD","LocationType":"point","DisplayPosition":{"Latitude":49.66054,"Longitude":8.41694},"MapView":{"TopLeft":{"Latitude":49.6616642,"Longitude":8.4152034},"BottomRight":{"Latitude":49.6594158,"Longitude":8.4186766}},"Address":{"Label":"Bibliser Weg 25, 68623 Lampertheim, Deutschland","Country":"DEU","State":"Hessen","County":"Bergstraße","City":"Lampertheim","District":"Hofheim","Street":"Bibliser Weg","HouseNumber":"25","PostalCode":"68623","AdditionalData":[{"value":"Deutschland","key":"CountryName"},{"value":"Hessen","key":"StateName"},{"value":"Bergstraße","key":"CountyName"}]},"MapReference":{"ReferenceId":"52665166","Spot":0.78,"SideOfStreet":"right","CountryId":"20147700","StateId":"20160993","CountyId":"20161050","CityId":"20161103","DistrictId":"20161106","AddressId":"187406374","RoadLinkId":"34449342"}}},{"Relevance":1.0,"Distance":63.0,"MatchLevel":"houseNumber","MatchQuality":{"Country":1.0,"State":1.0,"County":1.0,"City":1.0,"District":1.0,"Street":[1.0],"HouseNumber":1.0,"PostalCode":1.0},"MatchType":"interpolated","Location":{"LocationId":"NT_QG5mEoyFervVhhE8lAiW7D_yA","LocationType":"point","DisplayPosition":{"Latitude":49.66124,"Longitude":8.41709},"MapView":{"TopLeft":{"Latitude":49.6623642,"Longitude":8.4153533},"BottomRight":{"Latitude":49.6601158,"Longitude":8.4188267}},"Address":{"Label":"Ernst-Reuter-Straße 2, 68623 Lampertheim, Deutschland","Country":"DEU","State":"Hessen","County":"Bergstraße","City":"Lampertheim","District":"Hofheim","Street":"Ernst-Reuter-Straße","HouseNumber":"2","PostalCode":"68623","AdditionalData":[{"value":"Deutschland","key":"CountryName"},{"value":"Hessen","key":"StateName"},{"value":"Bergstraße","key":"CountyName"}]},"MapReference":{"ReferenceId":"52672067","Spot":0.37,"SideOfStreet":"left","CountryId":"20147700","StateId":"20160993","CountyId":"20161050","CityId":"20161103","DistrictId":"20161106","AddressId":"187423440","RoadLinkId":"34563178"}}},{"Relevance":1.0,"Distance":66.8,"MatchLevel":"houseNumber","MatchQuality":{"Country":1.0,"State":1.0,"County":1.0,"City":1.0,"District":1.0,"Street":[1.0],"HouseNumber":1.0,"PostalCode":1.0},"MatchType":"interpolated","Location":{"LocationId":"NT_a4ihU-792GT5V2cs3IaWYD_2A","LocationType":"point","DisplayPosition":{"Latitude":49.66006,"Longitude":8.41773},"MapView":{"TopLeft":{"Latitude":49.6611842,"Longitude":8.4159934},"BottomRight":{"Latitude":49.6589358,"Longitude":8.4194666}},"Address":{"Label":"Sankt-Michael-Siedlung 6, 68623 Lampertheim, Deutschland","Country":"DEU","State":"Hessen","County":"Bergstraße","City":"Lampertheim","District":"Hofheim","Street":"Sankt-Michael-Siedlung","HouseNumber":"6","PostalCode":"68623","AdditionalData":[{"value":"Deutschland","key":"CountryName"},{"value":"Hessen","key":"StateName"},{"value":"Bergstraße","key":"CountyName"}]},"MapReference":{"ReferenceId":"52665136","Spot":0.25,"SideOfStreet":"left","CountryId":"20147700","StateId":"20160993","CountyId":"20161050","CityId":"20161103","DistrictId":"20161106","AddressId":"249970781","RoadLinkId":"34591429"}}},{"Relevance":1.0,"Distance":67.4,"MatchLevel":"houseNumber","MatchQuality":{"Country":1.0,"State":1.0,"County":1.0,"City":1.0,"District":1.0,"Street":[1.0],"HouseNumber":1.0,"PostalCode":1.0},"MatchType":"interpolated","Location":{"LocationId":"NT_a4ihU-792GT5V2cs3IaWYD_xID","LocationType":"point","DisplayPosition":{"Latitude":49.66045,"Longitude":8.41837},"MapView":{"TopLeft":{"Latitude":49.6615742,"Longitude":8.4166334},"BottomRight":{"Latitude":49.6593258,"Longitude":8.4201066}},"Address":{"Label":"Sankt-Michael-Siedlung 12, 68623 Lampertheim, Deutschland","Country":"DEU","State":"Hessen","County":"Bergstraße","City":"Lampertheim","District":"Hofheim","Street":"Sankt-Michael-Siedlung","HouseNumber":"12","PostalCode":"68623","AdditionalData":[{"value":"Deutschland","key":"CountryName"},{"value":"Hessen","key":"StateName"},{"value":"Bergstraße","key":"CountyName"}]},"MapReference":{"ReferenceId":"52664989","Spot":0.46,"SideOfStreet":"left","CountryId":"20147700","StateId":"20160993","CountyId":"20161050","CityId":"20161103","DistrictId":"20161106","AddressId":"249968681","RoadLinkId":"34265386"}}},{"Relevance":1.0,"Distance":72.2,"MatchLevel":"houseNumber","MatchQuality":{"Country":1.0,"State":1.0,"County":1.0,"City":1.0,"District":1.0,"Street":[1.0],"HouseNumber":1.0,"PostalCode":1.0},"MatchType":"interpolated","Location":{"LocationId":"NT_a4ihU-792GT5V2cs3IaWYD_0A","LocationType":"point","DisplayPosition":{"Latitude":49.65996,"Longitude":8.41748},"MapView":{"TopLeft":{"Latitude":49.6610842,"Longitude":8.4157434},"BottomRight":{"Latitude":49.6588358,"Longitude":8.4192166}},"Address":{"Label":"Sankt-Michael-Siedlung 4, 68623 Lampertheim, Deutschland","Country":"DEU","State":"Hessen","County":"Bergstraße","City":"Lampertheim","District":"Hofheim","Street":"Sankt-Michael-Siedlung","HouseNumber":"4","PostalCode":"68623","AdditionalData":[{"value":"Deutschland","key":"CountryName"},{"value":"Hessen","key":"StateName"},{"value":"Bergstraße","key":"CountyName"}]},"MapReference":{"ReferenceId":"78652732","Spot":0.81,"SideOfStreet":"left","CountryId":"20147700","StateId":"20160993","CountyId":"20161050","CityId":"20161103","DistrictId":"20161106","AddressId":"250024462","RoadLinkId":"34210658"}}},{"Relevance":1.0,"Distance":81.1,"MatchLevel":"street","MatchQuality":{"Country":1.0,"State":1.0,"County":1.0,"City":1.0,"Street":[1.0],"PostalCode":1.0},"Location":{"LocationId":"NT_NCtSfxOnTQY-FR1832uyBD_l_52664961_R","LocationType":"point","DisplayPosition":{"Latitude":49.66122,"Longitude":8.41813},"MapView":{"TopLeft":{"Latitude":49.66353,"Longitude":8.41813},"BottomRight":{"Latitude":49.66122,"Longitude":8.42145}},"Address":{"Label":"Bibliser Weg, 68623 Lampertheim, Deutschland","Country":"DEU","State":"Hessen","County":"Bergstraße","City":"Lampertheim","Street":"Bibliser Weg","PostalCode":"68623","AdditionalData":[{"value":"Deutschland","key":"CountryName"},{"value":"Hessen","key":"StateName"},{"value":"Bergstraße","key":"CountyName"}]},"MapReference":{"ReferenceId":"52664961","Spot":0.0,"SideOfStreet":"right","CountryId":"20147700","StateId":"20160993","CountyId":"20161050","CityId":"20161103"}}}]}]}}