{"Response":{"MetaInfo":{"Timestamp":"2020-03-28T10:53:49.065+0000","NextPageInformation":"2"},"View":[{"_type":"SearchResultsViewType","ViewId":0,"Result":[{"Relevance":1.0,"Distance":0.0,"Direction":0.0,"MatchLevel":"district","MatchQuality":{"Country":1.0,"State":1.0,"County":1.0,"City":1.0,"District":1.0,"PostalCode":1.0},"Location":{"LocationId":"NT_pafkV9wJAykDHigyDs20uD","LocationType":"point","DisplayPosition":{"Latitude":49.6286189,"Longitude":17.3383759},"MapView":{"TopLeft":{"Latitude":49.63695,"Longitude":17.33209},"BottomRight":{"Latitude":49.6224,"Longitude":17.3488}},"Address":{"Label":"Svatý Kopeček, Olomouc, Olomoucký kraj, Česká Republika","Country":"CZE","State":"Olomoucký kraj","County":"Olomouc","City":"Olomouc","District":"Svatý Kopeček","PostalCode":"779 00","AdditionalData":[{"value":"Česká Republika","key":"CountryName"},{"value":"Olomoucký kraj","key":"StateName"},{"value":"Olomouc","key":"CountyName"}]},"MapReference":{"ReferenceId":"592328894","SideOfStreet":"neither","CountryId":"20427915","StateId":"20437660","CountyId":"20437734","CityId":"20437909","DistrictId":"20473206"}}},{"Relevance":1.0,"Distance":5.8,"MatchLevel":"street","MatchQuality":{"Country":1.0,"State":1.0,"County":1.0,"City":1.0,"District":1.0,"Street":[1.0],"PostalCode":1.0},"Location":{"LocationId":"NT_ZMeYSWapjIanCdYF-30QHB_l_867091108_L","LocationType":"point","DisplayPosition":{"Latitude":49.6286565,"Longitude":17.3384323},"MapView":{"TopLeft":{"Latitude":49.62884,"Longitude":17.33831},"BottomRight":{"Latitude":49.62863,"Longitude":17.33845}},"Address":{"Label":"náměstí Sadové, 779 00 Olomouc, Česká Republika","Country":"CZE","State":"Olomoucký kraj","County":"Olomouc","City":"Olomouc","District":"Svatý Kopeček","Street":"náměstí Sadové","PostalCode":"779 00","AdditionalData":[{"value":"Česká Republika","key":"CountryName"},{"value":"Olomoucký kraj","key":"StateName"},{"value":"Olomouc","key":"CountyName"}]},"MapReference":{"ReferenceId":"867091108","Spot":0.13,"SideOfStreet":"left","CountryId":"20427915","StateId":"20437660","CountyId":"20437734","CityId":"20437909","DistrictId":"20473206"}}},{"Relevance":1.0,"Distance":12.6,"MatchLevel":"houseNumber","MatchQuality":{"Country":1.0,"State":1.0,"County":1.0,"City":1.0,"District":1.0,"Street":[1.0],"HouseNumber":1.0,"PostalCode":1.0},"MatchType":"interpolated","Location":{"LocationId":"NT_ZMeYSWapjIanCdYF-30QHB_xEzLyMD","LocationType":"point","DisplayPosition":{"Latitude":49.62876,"Longitude":17.33817},"MapView":{"TopLeft":{"Latitude":49.6298842,"Longitude":17.3364345},"BottomRight":{"Latitude":49.6276358,"Longitude":17.3399055}},"Address":{"Label":"náměstí Sadové 11/23, 779 00 Olomouc, Česká Republika","Country":"CZE","State":"Olomoucký kraj","County":"Olomouc","City":"Olomouc","District":"Svatý Kopeček","Street":"náměstí Sadové","HouseNumber":"11/23","PostalCode":"779 00","AdditionalData":[{"value":"Česká Republika","key":"CountryName"},{"value":"Olomoucký kraj","key":"StateName"},{"value":"Olomouc","key":"CountyName"}]},"MapReference":{"ReferenceId":"1079145771","Spot":0.23,"SideOfStreet":"right","CountryId":"20427915","StateId":"20437660","CountyId":"20437734","CityId":"20437909","DistrictId":"20473206","AddressId":"240528115","RoadLinkId":"397564267"}}},{"Relevance":1.0,"Distance":18.6,"MatchLevel":"houseNumber","MatchQuality":{"Country":1.0,"State":1.0,"County":1.0,"City":1.0,"District":1.0,"Street":[1.0],"HouseNumber":1.0,"PostalCode":1.0},"MatchType":"interpolated","Location":{"LocationId":"NT_ZMeYSWapjIanCdYF-30QHB_z8yM","LocationType":"point","DisplayPosition":{"Latitude":49.62874,"Longitude":17.33812},"MapView":{"TopLeft":{"Latitude":49.6298642,"Longitude":17.3363845},"BottomRight":{"Latitude":49.6276158,"Longitude":17.3398555}},"Address":{"Label":"náměstí Sadové 3/3, 779 00 Olomouc, Česká Republika","Country":"CZE","State":"Olomoucký kraj","County":"Olomouc","City":"Olomouc","District":"Svatý Kopeček","Street":"náměstí Sadové","HouseNumber":"3/3","PostalCode":"779 00","AdditionalData":[{"value":"Česká Republika","key":"CountryName"},{"value":"Olomoucký kraj","key":"StateName"},{"value":"Olomouc","key":"CountyName"}]},"MapReference":{"ReferenceId":"864834669","Spot":0.73,"SideOfStreet":"right","CountryId":"20427915","StateId":"20437660","CountyId":"20437734","CityId":"20437909","DistrictId":"20473206","AddressId":"240826890","RoadLinkId":"238176724"}}},{"Relevance":1.0,"Distance":19.5,"MatchLevel":"houseNumber","MatchQuality":{"Country":1.0,"State":1.0,"County":1.0,"City":1.0,"District":1.0,"Street":[1.0],"HouseNumber":1.0,"PostalCode":1.0},"MatchType":"interpolated","Location":{"LocationId":"NT_ZMeYSWapjIanCdYF-30QHB_xIzLyID","LocationType":"point","DisplayPosition":{"Latitude":49.62879,"Longitude":17.33826},"MapView":{"TopLeft":{"Latitude":49.6299142,"Longitude":17.3365245},"BottomRight":{"Latitude":49.6276658,"Longitude":17.3399955}},"Address":{"Label":"náměstí Sadové 12/22, 779 00 Olomouc, Česká Republika","Country":"CZE","State":"Olomoucký kraj","County":"Olomouc","City":"Olomouc","District":"Svatý Kopeček","Street":"náměstí Sadové","HouseNumber":"12/22","PostalCode":"779 00","AdditionalData":[{"value":"Česká Republika","key":"CountryName"},{"value":"Olomoucký kraj","key":"StateName"},{"value":"Olomouc","key":"CountyName"}]},"MapReference":{"ReferenceId":"1079145772","Spot":0.24,"SideOfStreet":"right","CountryId":"20427915","StateId":"20437660","CountyId":"20437734","CityId":"20437909","DistrictId":"20473206","AddressId":"240528114","RoadLinkId":"397564268"}}},{"Relevance":1.0,"Distance":25.0,"MatchLevel":"houseNumber","MatchQuality":{"Country":1.0,"State":1.0,"County":1.0,"City":1.0,"District":1.0,"Street":[1.0],"HouseNumber":1.0,"PostalCode":1.0},"MatchType":"interpolated","Location":{"LocationId":"NT_ZMeYSWapjIanCdYF-30QHB_xUzL1A","LocationType":"point","DisplayPosition":{"Latitude":49.62884,"Longitude":17.33831},"MapView":{"TopLeft":{"Latitude":49.6299642,"Longitude":17.3365745},"BottomRight":{"Latitude":49.6277158,"Longitude":17.3400455}},"Address":{"Label":"náměstí Sadové 15/5, 779 00 Olomouc, Česká Republika","Country":"CZE","State":"Olomoucký kraj","County":"Olomouc","City":"Olomouc","District":"Svatý Kopeček","Street":"náměstí Sadové","HouseNumber":"15/5","PostalCode":"779 00","AdditionalData":[{"value":"Česká Republika","key":"CountryName"},{"value":"Olomoucký kraj","key":"StateName"},{"value":"Olomouc","key":"CountyName"}]},"MapReference":{"ReferenceId":"867091107","Spot":0.0,"SideOfStreet":"left","CountryId":"20427915","StateId":"20437660","CountyId":"20437734","CityId":"20437909","DistrictId":"20473206","AddressId":"239801541","RoadLinkId":"239910229"}}},{"Relevance":1.0,"Distance":26.2,"MatchLevel":"street","MatchQuality":{"Country":1.0,"State":1.0,"County":1.0,"City":1.0,"District":1.0,"Street":[1.0],"PostalCode":1.0},"Location":{"LocationId":"NT_2kUJSqt5hKiu2yK8f70OVC_l_864530201_R","LocationType":"point","DisplayPosition":{"Latitude":49.62871,"Longitude":17.33804},"MapView":{"TopLeft":{"Latitude":49.62893,"Longitude":17.33784},"BottomRight":{"Latitude":49.62871,"Longitude":17.33804}},"Address":{"Label":"Návrší Jana Pavla II., 779 00 Olomouc, Česká Republika","Country":"CZE","State":"Olomoucký kraj","County":"Olomouc","City":"Olomouc","District":"Svatý Kopeček","Street":"Návrší Jana Pavla II.","PostalCode":"779 00","AdditionalData":[{"value":"Česká Republika","key":"CountryName"},{"value":"Olomoucký kraj","key":"StateName"},{"value":"Olomouc","key":"CountyName"}]},"MapReference":{"ReferenceId":"864530201","Spot":0.0,"SideOfStreet":"right","CountryId":"20427915","StateId":"20437660","CountyId":"20437734","CityId":"20437909","DistrictId":"20473206"}}},{"Relevance":1.0,"Distance":26.2,"MatchLevel":"street","MatchQuality":{"Country":1.0,"State":1.0,"County":1.0,"City":1.0,"District":1.0,"PostalCode":1.0},"Location":{"LocationId":"NT_5FAGAD7z-f-pAp09SaLUDB_l_864530198_L","LocationType":"point","DisplayPosition":{"Latitude":49.62871,"Longitude":17.33804},"MapView":{"TopLeft":{"Latitude":49.62882,"Longitude":17.3375},"BottomRight":{"Latitude":49.62871,"Longitude":17.33804}},"Address":{"Label":"779 00 Olomouc, Česká Republika","Country":"CZE","State":"Olomoucký kraj","County":"Olomouc","City":"Olomouc","District":"Svatý Kopeček","PostalCode":"779 00","AdditionalData":[{"value":"Česká Republika","key":"CountryName"},{"value":"Olomoucký kraj","key":"StateName"},{"value":"Olomouc","key":"CountyName"}]},"MapReference":{"ReferenceId":"864530198","Spot":0.0,"SideOfStreet":"left","CountryId":"20427915","StateId":"20437660","CountyId":"20437734","CityId":"20437909","DistrictId":"20473206"}}},{"Relevance":1.0,"Distance":29.8,"MatchLevel":"houseNumber","MatchQuality":{"Country":1.0,"State":1.0,"County":1.0,"City":1.0,"District":1.0,"Street":[1.0],"HouseNumber":1.0,"PostalCode":1.0},"MatchType":"interpolated","Location":{"LocationId":"NT_ZMeYSWapjIanCdYF-30QHB_08iM0A","LocationType":"point","DisplayPosition":{"Latitude":49.6287,"Longitude":17.33877},"MapView":{"TopLeft":{"Latitude":49.6298242,"Longitude":17.3370345},"BottomRight":{"Latitude":49.6275758,"Longitude":17.3405055}},"Address":{"Label":"náměstí Sadové 4/24, 779 00 Olomouc, Česká Republika","Country":"CZE","State":"Olomoucký kraj","County":"Olomouc","City":"Olomouc","District":"Svatý Kopeček","Street":"náměstí Sadové","HouseNumber":"4/24","PostalCode":"779 00","AdditionalData":[{"value":"Česká Republika","key":"CountryName"},{"value":"Olomoucký kraj","key":"StateName"},{"value":"Olomouc","key":"CountyName"}]},"MapReference":{"ReferenceId":"717780681","Spot":0.46,"SideOfStreet":"right","CountryId":"20427915","StateId":"20437660","CountyId":"20437734","CityId":"20437909","DistrictId":"20473206","AddressId":"239801952","RoadLinkId":"127329537"}}},{"Relevance":1.0,"Distance":51.8,"MatchLevel":"street","MatchQuality":{"Country":1.0,"State":1.0,"County":1.0,"City":1.0,"District":1.0,"Street":[1.0],"PostalCode":1.0},"Location":{"LocationId":"NT_2kUJSqt5hKiu2yK8f70OVC_l_864530202_R","LocationType":"point","DisplayPosition":{"Latitude":49.62893,"Longitude":17.33784},"MapView":{"TopLeft":{"Latitude":49.62907,"Longitude":17.33773},"BottomRight":{"Latitude":49.62893,"Longitude":17.33784}},"Address":{"Label":"Návrší Jana Pavla II., 779 00 Olomouc, Česká Republika","Country":"CZE","State":"Olomoucký kraj","County":"Olomouc","City":"Olomouc","District":"Svatý Kopeček","Street":"Návrší Jana Pavla II.","PostalCode":"779 00","AdditionalData":[{"value":"Česká Republika","key":"CountryName"},{"value":"Olomoucký kraj","key":"StateName"},{"value":"Olomouc","key":"CountyName"}]},"MapReference":{"ReferenceId":"864530202","Spot":0.0,"SideOfStreet":"right","CountryId":"20427915","StateId":"20437660","CountyId":"20437734","CityId":"20437909","DistrictId":"20473206"}}}]}]}}