{"Response":{"MetaInfo":{"Timestamp":"2020-03-28T11:39:44.509+0000","NextPageInformation":"2"},"View":[{"_type":"SearchResultsViewType","ViewId":0,"Result":[{"Relevance":1.0,"Distance":0.0,"Direction":0.0,"MatchLevel":"district","MatchQuality":{"Country":1.0,"State":1.0,"County":1.0,"City":1.0,"District":1.0,"PostalCode":1.0},"Location":{"LocationId":"NT_3D8RJA0coZFTHe.M-GD2OA","LocationType":"point","DisplayPosition":{"Latitude":49.7442884,"Longitude":13.3718874},"MapView":{"TopLeft":{"Latitude":49.78502,"Longitude":13.30562},"BottomRight":{"Latitude":49.69261,"Longitude":13.44511}},"Address":{"Label":"Plzeň, Plzeňský kraj, Česká Republika","Country":"CZE","State":"Plzeňský kraj","County":"Plzeň-město","City":"Plzeň","District":"Plzeň","PostalCode":"301 00","AdditionalData":[{"value":"Česká Republika","key":"CountryName"},{"value":"Plzeňský kraj","key":"StateName"},{"value":"Plzeň-město","key":"CountyName"}]},"MapReference":{"ReferenceId":"958014669","SideOfStreet":"neither","CountryId":"20427915","StateId":"20441121","CountyId":"20441977","CityId":"20441978","DistrictId":"20441979"}}},{"Relevance":1.0,"Distance":11.4,"MatchLevel":"houseNumber","MatchQuality":{"Country":1.0,"State":1.0,"County":1.0,"City":1.0,"District":1.0,"Street":[1.0],"HouseNumber":1.0,"PostalCode":1.0},"MatchType":"interpolated","Location":{"LocationId":"NT_WjLD-iGavB874zTOo7w7gC_yATOw8SM","LocationType":"point","DisplayPosition":{"Latitude":49.74433,"Longitude":13.37206},"MapView":{"TopLeft":{"Latitude":49.7454542,"Longitude":13.3703204},"BottomRight":{"Latitude":49.7432058,"Longitude":13.3737996}},"Address":{"Label":"Tylova 2090/1, 301 00 Plzeň, Česká Republika","Country":"CZE","State":"Plzeňský kraj","County":"Plzeň-město","City":"Plzeň","District":"Plzeň","Street":"Tylova","HouseNumber":"2090/1","PostalCode":"301 00","AdditionalData":[{"value":"Česká Republika","key":"CountryName"},{"value":"Plzeňský kraj","key":"StateName"},{"value":"Plzeň-město","key":"CountyName"}]},"MapReference":{"ReferenceId":"797950422","Spot":0.53,"SideOfStreet":"left","CountryId":"20427915","StateId":"20441121","CountyId":"20441977","CityId":"20441978","DistrictId":"20441979","AddressId":"239289067","RoadLinkId":"188335843"}}},{"Relevance":1.0,"Distance":13.9,"MatchLevel":"houseNumber","MatchQuality":{"Country":1.0,"State":1.0,"County":1.0,"City":1.0,"District":1.0,"Street":[1.0],"HouseNumber":1.0,"PostalCode":1.0},"MatchType":"interpolated","Location":{"LocationId":"NT_WjLD-iGavB874zTOo7w7gC_ygDM48SMhB","LocationType":"point","DisplayPosition":{"Latitude":49.74437,"Longitude":13.37174},"MapView":{"TopLeft":{"Latitude":49.7454942,"Longitude":13.3700004},"BottomRight":{"Latitude":49.7432458,"Longitude":13.3734796}},"Address":{"Label":"Tylova 2808/1a, 301 00 Plzeň, Česká Republika","Country":"CZE","State":"Plzeňský kraj","County":"Plzeň-město","City":"Plzeň","District":"Plzeň","Street":"Tylova","HouseNumber":"2808/1a","PostalCode":"301 00","AdditionalData":[{"value":"Česká Republika","key":"CountryName"},{"value":"Plzeňský kraj","key":"StateName"},{"value":"Plzeň-město","key":"CountyName"}]},"MapReference":{"ReferenceId":"797950423","Spot":0.06,"SideOfStreet":"left","CountryId":"20427915","StateId":"20441121","CountyId":"20441977","CityId":"20441978","DistrictId":"20441979","AddressId":"384552650","RoadLinkId":"188335844"}}},{"Relevance":1.0,"Distance":24.2,"MatchLevel":"houseNumber","MatchQuality":{"Country":1.0,"State":1.0,"County":1.0,"City":1.0,"District":1.0,"Street":[1.0],"HouseNumber":1.0,"PostalCode":1.0},"MatchType":"interpolated","Location":{"LocationId":"NT_RlwiaBFywWK1wk.1Bk24NA_yATOw8CO","LocationType":"point","DisplayPosition":{"Latitude":49.74415,"Longitude":13.37229},"MapView":{"TopLeft":{"Latitude":49.7452742,"Longitude":13.3705504},"BottomRight":{"Latitude":49.7430258,"Longitude":13.3740296}},"Address":{"Label":"Klatovská třída 2090/8, 301 00 Plzeň, Česká Republika","Country":"CZE","State":"Plzeňský kraj","County":"Plzeň-město","City":"Plzeň","District":"Plzeň","Street":"Klatovská třída","HouseNumber":"2090/8","PostalCode":"301 00","AdditionalData":[{"value":"Česká Republika","key":"CountryName"},{"value":"Plzeňský kraj","key":"StateName"},{"value":"Plzeň-město","key":"CountyName"}]},"MapReference":{"ReferenceId":"565816946","Spot":0.89,"SideOfStreet":"left","CountryId":"20427915","StateId":"20441121","CountyId":"20441977","CityId":"20441978","DistrictId":"20441979","AddressId":"239509927","RoadLinkId":"40283455"}}},{"Relevance":1.0,"Distance":31.8,"MatchLevel":"street","MatchQuality":{"Country":1.0,"State":1.0,"County":1.0,"City":1.0,"District":1.0,"Street":[1.0],"PostalCode":1.0},"Location":{"LocationId":"NT_CVtxscfYLDp.OUgFjAzAlB_l_797950420_L","LocationType":"point","DisplayPosition":{"Latitude":49.7443,"Longitude":13.37233},"MapView":{"TopLeft":{"Latitude":49.74445,"Longitude":13.37233},"BottomRight":{"Latitude":49.7443,"Longitude":13.37238}},"Address":{"Label":"Klatovská třída, 301 00 Plzeň, Česká Republika","Country":"CZE","State":"Plzeňský kraj","County":"Plzeň-město","City":"Plzeň","District":"Plzeň","Street":"Klatovská třída","PostalCode":"301 00","AdditionalData":[{"value":"Česká Republika","key":"CountryName"},{"value":"Plzeňský kraj","key":"StateName"},{"value":"Plzeň-město","key":"CountyName"}]},"MapReference":{"ReferenceId":"797950420","Spot":0.0,"SideOfStreet":"left","CountryId":"20427915","StateId":"20441121","CountyId":"20441977","CityId":"20441978","DistrictId":"20441979"}}},{"Relevance":1.0,"Distance":31.8,"MatchLevel":"street","MatchQuality":{"Country":1.0,"State":1.0,"County":1.0,"City":1.0,"District":1.0,"PostalCode":1.0},"Location":{"LocationId":"NT_xLyG8641UAwSnvIZ6neIDB_l_576921556_L","LocationType":"point","DisplayPosition":{"Latitude":49.7443,"Longitude":13.37233},"MapView":{"TopLeft":{"Latitude":49.7443,"Longitude":13.37233},"BottomRight":{"Latitude":49.74427,"Longitude":13.37249}},"Address":{"Label":"301 00 Plzeň, Česká Republika","Country":"CZE","State":"Plzeňský kraj","County":"Plzeň-město","City":"Plzeň","District":"Plzeň","PostalCode":"301 00","AdditionalData":[{"value":"Česká Republika","key":"CountryName"},{"value":"Plzeňský kraj","key":"StateName"},{"value":"Plzeň-město","key":"CountyName"}]},"MapReference":{"ReferenceId":"576921556","Spot":1.0,"SideOfStreet":"left","CountryId":"20427915","StateId":"20441121","CountyId":"20441977","CityId":"20441978","DistrictId":"20441979"}}},{"Relevance":1.0,"Distance":35.6,"MatchLevel":"houseNumber","MatchQuality":{"Country":1.0,"State":1.0,"County":1.0,"City":1.0,"District":1.0,"Street":[1.0],"HouseNumber":1.0,"PostalCode":1.0},"MatchType":"interpolated","Location":{"LocationId":"NT_RlwiaBFywWK1wk.1Bk24NA_1IDOvYD","LocationType":"point","DisplayPosition":{"Latitude":49.74448,"Longitude":13.37239},"MapView":{"TopLeft":{"Latitude":49.7456042,"Longitude":13.3706504},"BottomRight":{"Latitude":49.7433558,"Longitude":13.3741296}},"Address":{"Label":"Klatovská třída 528/6, 301 00 Plzeň, Česká Republika","Country":"CZE","State":"Plzeňský kraj","County":"Plzeň-město","City":"Plzeň","District":"Plzeň","Street":"Klatovská třída","HouseNumber":"528/6","PostalCode":"301 00","AdditionalData":[{"value":"Česká Republika","key":"CountryName"},{"value":"Plzeňský kraj","key":"StateName"},{"value":"Plzeň-město","key":"CountyName"}]},"MapReference":{"ReferenceId":"1147500475","Spot":0.08,"SideOfStreet":"left","CountryId":"20427915","StateId":"20441121","CountyId":"20441977","CityId":"20441978","DistrictId":"20441979","AddressId":"239511861","RoadLinkId":"452695224"}}},{"Relevance":1.0,"Distance":48.1,"MatchLevel":"houseNumber","MatchQuality":{"Country":1.0,"State":1.0,"County":1.0,"City":1.0,"District":1.0,"Street":[1.0],"HouseNumber":1.0,"PostalCode":1.0},"MatchType":"interpolated","Location":{"LocationId":"NT_RlwiaBFywWK1wk.1Bk24NA_xEzM58SO","LocationType":"point","DisplayPosition":{"Latitude":49.74441,"Longitude":13.37253},"MapView":{"TopLeft":{"Latitude":49.7455342,"Longitude":13.3707904},"BottomRight":{"Latitude":49.7432858,"Longitude":13.3742696}},"Address":{"Label":"Klatovská třída 1139/9, 301 00 Plzeň, Česká Republika","Country":"CZE","State":"Plzeňský kraj","County":"Plzeň-město","City":"Plzeň","District":"Plzeň","Street":"Klatovská třída","HouseNumber":"1139/9","PostalCode":"301 00","AdditionalData":[{"value":"Česká Republika","key":"CountryName"},{"value":"Plzeňský kraj","key":"StateName"},{"value":"Plzeň-město","key":"CountyName"}]},"MapReference":{"ReferenceId":"1147500477","Spot":0.33,"SideOfStreet":"right","CountryId":"20427915","StateId":"20441121","CountyId":"20441977","CityId":"20441978","DistrictId":"20441979","AddressId":"239287514","RoadLinkId":"452695230"}}},{"Relevance":1.0,"Distance":65.6,"MatchLevel":"houseNumber","MatchQuality":{"Country":1.0,"State":1.0,"County":1.0,"City":1.0,"District":1.0,"Street":[1.0],"HouseNumber":1.0,"PostalCode":1.0},"MatchType":"interpolated","Location":{"LocationId":"NT_RlwiaBFywWK1wk.1Bk24NA_4EDOvETM","LocationType":"point","DisplayPosition":{"Latitude":49.74378,"Longitude":13.37235},"MapView":{"TopLeft":{"Latitude":49.7449042,"Longitude":13.3706104},"BottomRight":{"Latitude":49.7426558,"Longitude":13.3740896}},"Address":{"Label":"Klatovská třída 818/11, 301 00 Plzeň, Česká Republika","Country":"CZE","State":"Plzeňský kraj","County":"Plzeň-město","City":"Plzeň","District":"Plzeň","Street":"Klatovská třída","HouseNumber":"818/11","PostalCode":"301 00","AdditionalData":[{"value":"Česká Republika","key":"CountryName"},{"value":"Plzeňský kraj","key":"StateName"},{"value":"Plzeň-město","key":"CountyName"}]},"MapReference":{"ReferenceId":"1147851841","Spot":0.28,"SideOfStreet":"right","CountryId":"20427915","StateId":"20441121","CountyId":"20441977","CityId":"20441978","DistrictId":"20441979","AddressId":"239363993","RoadLinkId":"453050869"}}},{"Relevance":1.0,"Distance":68.2,"MatchLevel":"houseNumber","MatchQuality":{"Country":1.0,"State":1.0,"County":1.0,"City":1.0,"District":1.0,"Street":[1.0],"HouseNumber":1.0,"PostalCode":1.0},"MatchType":"interpolated","Location":{"LocationId":"NT_RlwiaBFywWK1wk.1Bk24NA_zgTNvID","LocationType":"point","DisplayPosition":{"Latitude":49.74482,"Longitude":13.37249},"MapView":{"TopLeft":{"Latitude":49.7459442,"Longitude":13.3707503},"BottomRight":{"Latitude":49.7436958,"Longitude":13.3742297}},"Address":{"Label":"Klatovská třída 385/2, 301 00 Plzeň, Česká Republika","Country":"CZE","State":"Plzeňský kraj","County":"Plzeň-město","City":"Plzeň","District":"Plzeň","Street":"Klatovská třída","HouseNumber":"385/2","PostalCode":"301 00","AdditionalData":[{"value":"Česká Republika","key":"CountryName"},{"value":"Plzeňský kraj","key":"StateName"},{"value":"Plzeň-město","key":"CountyName"}]},"MapReference":{"ReferenceId":"1147500476","Spot":0.0,"SideOfStreet":"left","CountryId":"20427915","StateId":"20441121","CountyId":"20441977","CityId":"20441978","DistrictId":"20441979","AddressId":"240374749","RoadLinkId":"452695225"}}}]}]}}