{"Response":{"MetaInfo":{"Timestamp":"2020-03-28T10:53:55.599+0000","NextPageInformation":"2"},"View":[{"_type":"SearchResultsViewType","ViewId":0,"Result":[{"Relevance":1.0,"Distance":0.0,"Direction":0.0,"MatchLevel":"city","MatchQuality":{"Country":1.0,"State":1.0,"County":1.0,"City":1.0,"PostalCode":1.0},"Location":{"LocationId":"NT_.UbgLSa3gEOV7E5dKRZfgD","LocationType":"point","DisplayPosition":{"Latitude":49.7898517,"Longitude":14.152698},"MapView":{"TopLeft":{"Latitude":49.88537,"Longitude":14.06461},"BottomRight":{"Latitude":49.75898,"Longitude":14.22183}},"Address":{"Label":"Dobříš, Středočeský kraj, Česká Republika","Country":"CZE","State":"Středočeský kraj","County":"Příbram","City":"Dobříš","PostalCode":"263 01","AdditionalData":[{"value":"Česká Republika","key":"CountryName"},{"value":"Středočeský kraj","key":"StateName"},{"value":"Příbram","key":"CountyName"}]},"MapReference":{"ReferenceId":"840801857","SideOfStreet":"neither","CountryId":"20427915","StateId":"20442660","CountyId":"20445500","CityId":"20445549"}}},{"Relevance":1.0,"Distance":59.3,"MatchLevel":"houseNumber","MatchQuality":{"Country":1.0,"State":1.0,"County":1.0,"City":1.0,"Street":[1.0],"HouseNumber":1.0,"PostalCode":1.0},"MatchType":"interpolated","Location":{"LocationId":"NT_T1pI.mFdpseNeeDea4Mb6C_4ITO","LocationType":"point","DisplayPosition":{"Latitude":49.78887,"Longitude":14.1506},"MapView":{"TopLeft":{"Latitude":49.7899942,"Longitude":14.1488588},"BottomRight":{"Latitude":49.7877458,"Longitude":14.1523412}},"Address":{"Label":"Na Čihadlech 829, 263 01 Dobříš, Česká Republika","Country":"CZE","State":"Středočeský kraj","County":"Příbram","City":"Dobříš","Street":"Na Čihadlech","HouseNumber":"829","PostalCode":"263 01","AdditionalData":[{"value":"Česká Republika","key":"CountryName"},{"value":"Středočeský kraj","key":"StateName"},{"value":"Příbram","key":"CountyName"}]},"MapReference":{"ReferenceId":"883621392","Spot":1.0,"SideOfStreet":"right","CountryId":"20427915","StateId":"20442660","CountyId":"20445500","CityId":"20445549","AddressId":"240357421","RoadLinkId":"250791296"}}},{"Relevance":1.0,"Distance":67.7,"MatchLevel":"street","MatchQuality":{"Country":1.0,"State":1.0,"County":1.0,"City":1.0,"PostalCode":1.0},"Location":{"LocationId":"NT_vXp9pa3RyLeUkGLFMsKhcA_l_1197997436_L","LocationType":"point","DisplayPosition":{"Latitude":49.78927,"Longitude":14.15242},"MapView":{"TopLeft":{"Latitude":49.78927,"Longitude":14.15206},"BottomRight":{"Latitude":49.78889,"Longitude":14.15242}},"Address":{"Label":"263 01 Dobříš, Česká Republika","Country":"CZE","State":"Středočeský kraj","County":"Příbram","City":"Dobříš","PostalCode":"263 01","AdditionalData":[{"value":"Česká Republika","key":"CountryName"},{"value":"Středočeský kraj","key":"StateName"},{"value":"Příbram","key":"CountyName"}]},"MapReference":{"ReferenceId":"1197997436","Spot":1.0,"SideOfStreet":"left","CountryId":"20427915","StateId":"20442660","CountyId":"20445500","CityId":"20445549"}}},{"Relevance":1.0,"Distance":102.8,"MatchLevel":"street","MatchQuality":{"Country":1.0,"State":1.0,"County":1.0,"City":1.0,"PostalCode":1.0},"Location":{"LocationId":"NT_vXp9pa3RyLeUkGLFMsKhcA_l_1197997442_R","LocationType":"point","DisplayPosition":{"Latitude":49.78929,"Longitude":14.15156},"MapView":{"TopLeft":{"Latitude":49.78929,"Longitude":14.15122},"BottomRight":{"Latitude":49.78842,"Longitude":14.15156}},"Address":{"Label":"263 01 Dobříš, Česká Republika","Country":"CZE","State":"Středočeský kraj","County":"Příbram","City":"Dobříš","PostalCode":"263 01","AdditionalData":[{"value":"Česká Republika","key":"CountryName"},{"value":"Středočeský kraj","key":"StateName"},{"value":"Příbram","key":"CountyName"}]},"MapReference":{"ReferenceId":"1197997442","Spot":1.0,"SideOfStreet":"right","CountryId":"20427915","StateId":"20442660","CountyId":"20445500","CityId":"20445549"}}},{"Relevance":1.0,"Distance":116.3,"MatchLevel":"street","MatchQuality":{"Country":1.0,"State":1.0,"County":1.0,"City":1.0,"PostalCode":1.0},"Location":{"LocationId":"NT_vXp9pa3RyLeUkGLFMsKhcA_l_1197997435_L","LocationType":"point","DisplayPosition":{"Latitude":49.78889,"Longitude":14.15206},"MapView":{"TopLeft":{"Latitude":49.78889,"Longitude":14.15155},"BottomRight":{"Latitude":49.78836,"Longitude":14.15206}},"Address":{"Label":"263 01 Dobříš, Česká Republika","Country":"CZE","State":"Středočeský kraj","County":"Příbram","City":"Dobříš","PostalCode":"263 01","AdditionalData":[{"value":"Česká Republika","key":"CountryName"},{"value":"Středočeský kraj","key":"StateName"},{"value":"Příbram","key":"CountyName"}]},"MapReference":{"ReferenceId":"1197997435","Spot":1.0,"SideOfStreet":"left","CountryId":"20427915","StateId":"20442660","CountyId":"20445500","CityId":"20445549"}}},{"Relevance":1.0,"Distance":185.2,"MatchLevel":"street","MatchQuality":{"Country":1.0,"State":1.0,"County":1.0,"City":1.0,"PostalCode":1.0},"Location":{"LocationId":"NT_vXp9pa3RyLeUkGLFMsKhcA_l_1197997438_R","LocationType":"point","DisplayPosition":{"Latitude":49.78836,"Longitude":14.15155},"MapView":{"TopLeft":{"Latitude":49.78836,"Longitude":14.15149},"BottomRight":{"Latitude":49.78817,"Longitude":14.15155}},"Address":{"Label":"263 01 Dobříš, Česká Republika","Country":"CZE","State":"Středočeský kraj","County":"Příbram","City":"Dobříš","PostalCode":"263 01","AdditionalData":[{"value":"Česká Republika","key":"CountryName"},{"value":"Středočeský kraj","key":"StateName"},{"value":"Příbram","key":"CountyName"}]},"MapReference":{"ReferenceId":"1197997438","Spot":1.0,"SideOfStreet":"right","CountryId":"20427915","StateId":"20442660","CountyId":"20445500","CityId":"20445549"}}},{"Relevance":1.0,"Distance":186.7,"MatchLevel":"street","MatchQuality":{"Country":1.0,"State":1.0,"County":1.0,"City":1.0,"PostalCode":1.0},"Location":{"LocationId":"NT_vXp9pa3RyLeUkGLFMsKhcA_l_1197997441_R","LocationType":"point","DisplayPosition":{"Latitude":49.78842,"Longitude":14.15134},"MapView":{"TopLeft":{"Latitude":49.78842,"Longitude":14.15134},"BottomRight":{"Latitude":49.78817,"Longitude":14.15149}},"Address":{"Label":"263 01 Dobříš, Česká Republika","Country":"CZE","State":"Středočeský kraj","County":"Příbram","City":"Dobříš","PostalCode":"263 01","AdditionalData":[{"value":"Česká Republika","key":"CountryName"},{"value":"Středočeský kraj","key":"StateName"},{"value":"Příbram","key":"CountyName"}]},"MapReference":{"ReferenceId":"1197997441","Spot":1.0,"SideOfStreet":"right","CountryId":"20427915","StateId":"20442660","CountyId":"20445500","CityId":"20445549"}}},{"Relevance":1.0,"Distance":213.0,"MatchLevel":"houseNumber","MatchQuality":{"Country":1.0,"State":1.0,"County":1.0,"City":1.0,"Street":[1.0],"HouseNumber":1.0,"PostalCode":1.0},"MatchType":"interpolated","Location":{"LocationId":"NT_T1pI.mFdpseNeeDea4Mb6C_4MzM","LocationType":"point","DisplayPosition":{"Latitude":49.78809,"Longitude":14.15146},"MapView":{"TopLeft":{"Latitude":49.7892142,"Longitude":14.1497188},"BottomRight":{"Latitude":49.7869658,"Longitude":14.1532012}},"Address":{"Label":"Na Čihadlech 833, 263 01 Dobříš, Česká Republika","Country":"CZE","State":"Středočeský kraj","County":"Příbram","City":"Dobříš","Street":"Na Čihadlech","HouseNumber":"833","PostalCode":"263 01","AdditionalData":[{"value":"Česká Republika","key":"CountryName"},{"value":"Středočeský kraj","key":"StateName"},{"value":"Příbram","key":"CountyName"}]},"MapReference":{"ReferenceId":"1197997437","Spot":0.69,"SideOfStreet":"right","CountryId":"20427915","StateId":"20442660","CountyId":"20445500","CityId":"20445549","AddressId":"239849534","RoadLinkId":"511598608"}}},{"Relevance":1.0,"Distance":226.4,"MatchLevel":"street","MatchQuality":{"Country":1.0,"State":1.0,"County":1.0,"City":1.0,"District":1.0,"Street":[1.0],"PostalCode":1.0},"Location":{"LocationId":"NT_kjAoYIdrSvm1CdQmGB8QUD_l_704132561_L","LocationType":"point","DisplayPosition":{"Latitude":49.7878158,"Longitude":14.1527756},"MapView":{"TopLeft":{"Latitude":49.78784,"Longitude":14.15199},"BottomRight":{"Latitude":49.7878,"Longitude":14.15341}},"Address":{"Label":"Hostomická, 263 01 Dobříš, Česká Republika","Country":"CZE","State":"Středočeský kraj","County":"Příbram","City":"Dobříš","District":"Dobříš","Street":"Hostomická","PostalCode":"263 01","AdditionalData":[{"value":"Česká Republika","key":"CountryName"},{"value":"Středočeský kraj","key":"StateName"},{"value":"Příbram","key":"CountyName"}]},"MapReference":{"ReferenceId":"704132561","Spot":0.55,"SideOfStreet":"left","CountryId":"20427915","StateId":"20442660","CountyId":"20445500","CityId":"20445549","DistrictId":"20445550"}}},{"Relevance":1.0,"Distance":229.5,"MatchLevel":"street","MatchQuality":{"Country":1.0,"State":1.0,"County":1.0,"City":1.0,"District":1.0,"Street":[1.0],"PostalCode":1.0},"Location":{"LocationId":"NT_PAVeuL8WJe.e90A-J3K56C_l_704132562_L","LocationType":"point","DisplayPosition":{"Latitude":49.78784,"Longitude":14.15341},"MapView":{"TopLeft":{"Latitude":49.78784,"Longitude":14.15341},"BottomRight":{"Latitude":49.78784,"Longitude":14.15394}},"Address":{"Label":"Hostomická, 263 01 Dobříš, Česká Republika","Country":"CZE","State":"Středočeský kraj","County":"Příbram","City":"Dobříš","District":"Dobříš","Street":"Hostomická","PostalCode":"263 01","AdditionalData":[{"value":"Česká Republika","key":"CountryName"},{"value":"Středočeský kraj","key":"StateName"},{"value":"Příbram","key":"CountyName"}]},"MapReference":{"ReferenceId":"704132562","Spot":0.0,"SideOfStreet":"left","CountryId":"20427915","StateId":"20442660","CountyId":"20445500","CityId":"20445549","DistrictId":"20445550"}}}]}]}}