{"Response":{"MetaInfo":{"Timestamp":"2020-03-28T11:10:07.061+0000","NextPageInformation":"2"},"View":[{"_type":"SearchResultsViewType","ViewId":0,"Result":[{"Relevance":1.0,"Distance":-7.7,"MatchLevel":"landmark","MatchQuality":{"Country":1.0,"State":1.0,"County":1.0,"City":1.0,"PostalCode":1.0,"Name":1.0},"Location":{"LocationId":"NT_SYAIjklq6.qILlAT.plV4A_p_bhXw1KSCyy1bEXyXtcOWiC","LocationType":"hospital","Name":"CH de Sedan","DisplayPosition":{"Latitude":49.70494,"Longitude":4.94038},"MapView":{"TopLeft":{"Latitude":49.70668,"Longitude":4.93626},"BottomRight":{"Latitude":49.70429,"Longitude":4.94075}},"Address":{"Label":"08200 Sedan, France","Country":"FRA","State":"Grand Est","County":"Ardennes","City":"Sedan","PostalCode":"08200","AdditionalData":[{"value":"France","key":"CountryName"},{"value":"Grand Est","key":"StateName"},{"value":"Ardennes","key":"CountyName"}]},"MapReference":{"CountryId":"20000001","StateId":"20002047","CountyId":"20008486","CityId":"20009605","PlaceId":"543686737"}}},{"Relevance":1.0,"Distance":0.0,"Direction":0.0,"MatchLevel":"city","MatchQuality":{"Country":1.0,"State":1.0,"County":1.0,"City":1.0,"PostalCode":1.0},"Location":{"LocationId":"NT_x3w2szOa8De3Vyu7-EcyiD","LocationType":"point","DisplayPosition":{"Latitude":49.705814,"Longitude":4.939293},"MapView":{"TopLeft":{"Latitude":49.72646,"Longitude":4.87698},"BottomRight":{"Latitude":49.67233,"Longitude":4.97697}},"Address":{"Label":"Sedan, Grand Est, France","Country":"FRA","State":"Grand Est","County":"Ardennes","City":"Sedan","PostalCode":"08200","AdditionalData":[{"value":"France","key":"CountryName"},{"value":"Grand Est","key":"StateName"},{"value":"Ardennes","key":"CountyName"}]},"MapReference":{"ReferenceId":"563226741","SideOfStreet":"neither","CountryId":"20000001","StateId":"20002047","CountyId":"20008486","CityId":"20009605"}}},{"Relevance":1.0,"Distance":15.2,"MatchLevel":"houseNumber","MatchQuality":{"Country":1.0,"State":1.0,"County":1.0,"City":1.0,"Street":[1.0],"HouseNumber":1.0,"PostalCode":1.0},"MatchType":"interpolated","Location":{"LocationId":"NT_1vob5TkWYpeJF14zn5oEgD_2A","LocationType":"point","DisplayPosition":{"Latitude":49.70577,"Longitude":4.93951},"MapView":{"TopLeft":{"Latitude":49.7068942,"Longitude":4.9377717},"BottomRight":{"Latitude":49.7046458,"Longitude":4.9412483}},"Address":{"Label":"6 Avenue du Général Margueritte, 08200 Sedan, France","Country":"FRA","State":"Grand Est","County":"Ardennes","City":"Sedan","Street":"Avenue du Général Margueritte","HouseNumber":"6","PostalCode":"08200","AdditionalData":[{"value":"France","key":"CountryName"},{"value":"Grand Est","key":"StateName"},{"value":"Ardennes","key":"CountyName"}]},"MapReference":{"ReferenceId":"591202008","Spot":0.29,"SideOfStreet":"left","CountryId":"20000001","StateId":"20002047","CountyId":"20008486","CityId":"20009605","AddressId":"590305174","RoadLinkId":"44736726"}}},{"Relevance":1.0,"Distance":97.4,"MatchLevel":"street","MatchQuality":{"Country":1.0,"State":1.0,"County":1.0,"City":1.0,"PostalCode":1.0},"Location":{"LocationId":"NT_CQD2MHPR5Mi-Yxw2Doe9eA_l_851197347_R","LocationType":"point","DisplayPosition":{"Latitude":49.70498,"Longitude":4.93888},"MapView":{"TopLeft":{"Latitude":49.705,"Longitude":4.93866},"BottomRight":{"Latitude":49.70468,"Longitude":4.94028}},"Address":{"Label":"08200 Sedan, France","Country":"FRA","State":"Grand Est","County":"Ardennes","City":"Sedan","PostalCode":"08200","AdditionalData":[{"value":"France","key":"CountryName"},{"value":"Grand Est","key":"StateName"},{"value":"Ardennes","key":"CountyName"}]},"MapReference":{"ReferenceId":"851197347","Spot":0.87,"SideOfStreet":"right","CountryId":"20000001","StateId":"20002047","CountyId":"20008486","CityId":"20009605"}}},{"Relevance":1.0,"Distance":104.3,"MatchLevel":"street","MatchQuality":{"Country":1.0,"State":1.0,"County":1.0,"City":1.0,"PostalCode":1.0},"Location":{"LocationId":"NT_CQD2MHPR5Mi-Yxw2Doe9eA_l_1133110339_R","LocationType":"point","DisplayPosition":{"Latitude":49.70497,"Longitude":4.93866},"MapView":{"TopLeft":{"Latitude":49.70555,"Longitude":4.93746},"BottomRight":{"Latitude":49.70477,"Longitude":4.93866}},"Address":{"Label":"08200 Sedan, France","Country":"FRA","State":"Grand Est","County":"Ardennes","City":"Sedan","PostalCode":"08200","AdditionalData":[{"value":"France","key":"CountryName"},{"value":"Grand Est","key":"StateName"},{"value":"Ardennes","key":"CountyName"}]},"MapReference":{"ReferenceId":"1133110339","Spot":0.0,"SideOfStreet":"right","CountryId":"20000001","StateId":"20002047","CountyId":"20008486","CityId":"20009605"}}},{"Relevance":1.0,"Distance":119.2,"MatchLevel":"houseNumber","MatchQuality":{"Country":1.0,"State":1.0,"County":1.0,"City":1.0,"Street":[1.0],"HouseNumber":1.0,"PostalCode":1.0},"MatchType":"interpolated","Location":{"LocationId":"NT_1vob5TkWYpeJF14zn5oEgD_yA","LocationType":"point","DisplayPosition":{"Latitude":49.70517,"Longitude":4.9406},"MapView":{"TopLeft":{"Latitude":49.7062942,"Longitude":4.9388618},"BottomRight":{"Latitude":49.7040458,"Longitude":4.9423382}},"Address":{"Label":"2 Avenue du Général Margueritte, 08200 Sedan, France","Country":"FRA","State":"Grand Est","County":"Ardennes","City":"Sedan","Street":"Avenue du Général Margueritte","HouseNumber":"2","PostalCode":"08200","AdditionalData":[{"value":"France","key":"CountryName"},{"value":"Grand Est","key":"StateName"},{"value":"Ardennes","key":"CountyName"}]},"MapReference":{"ReferenceId":"591202009","Spot":0.17,"SideOfStreet":"left","CountryId":"20000001","StateId":"20002047","CountyId":"20008486","CityId":"20009605","AddressId":"316606496","RoadLinkId":"44600764"}}},{"Relevance":1.0,"Distance":124.9,"MatchLevel":"street","MatchQuality":{"Country":1.0,"State":1.0,"County":1.0,"City":1.0,"PostalCode":1.0},"Location":{"LocationId":"NT_CQD2MHPR5Mi-Yxw2Doe9eA_l_851197348_L","LocationType":"point","DisplayPosition":{"Latitude":49.70489,"Longitude":4.94028},"MapView":{"TopLeft":{"Latitude":49.70498,"Longitude":4.94028},"BottomRight":{"Latitude":49.70489,"Longitude":4.94049}},"Address":{"Label":"08200 Sedan, France","Country":"FRA","State":"Grand Est","County":"Ardennes","City":"Sedan","PostalCode":"08200","AdditionalData":[{"value":"France","key":"CountryName"},{"value":"Grand Est","key":"StateName"},{"value":"Ardennes","key":"CountyName"}]},"MapReference":{"ReferenceId":"851197348","Spot":0.0,"SideOfStreet":"left","CountryId":"20000001","StateId":"20002047","CountyId":"20008486","CityId":"20009605"}}},{"Relevance":1.0,"Distance":126.1,"MatchLevel":"houseNumber","MatchQuality":{"Country":1.0,"State":1.0,"County":1.0,"City":1.0,"Street":[1.0],"HouseNumber":1.0,"PostalCode":1.0},"MatchType":"interpolated","Location":{"LocationId":"NT_638k43pwt-d0VjUK90YFOC_3A","LocationType":"point","DisplayPosition":{"Latitude":49.70663,"Longitude":4.93792},"MapView":{"TopLeft":{"Latitude":49.7077542,"Longitude":4.9361817},"BottomRight":{"Latitude":49.7055058,"Longitude":4.9396583}},"Address":{"Label":"7 Rue Cadeau, 08200 Sedan, France","Country":"FRA","State":"Grand Est","County":"Ardennes","City":"Sedan","Street":"Rue Cadeau","HouseNumber":"7","PostalCode":"08200","AdditionalData":[{"value":"France","key":"CountryName"},{"value":"Grand Est","key":"StateName"},{"value":"Ardennes","key":"CountyName"}]},"MapReference":{"ReferenceId":"563223085","Spot":0.93,"SideOfStreet":"right","CountryId":"20000001","StateId":"20002047","CountyId":"20008486","CityId":"20009605","AddressId":"682648407","RoadLinkId":"44631662"}}},{"Relevance":1.0,"Distance":126.5,"MatchLevel":"street","MatchQuality":{"Country":1.0,"State":1.0,"County":1.0,"City":1.0,"Street":[1.0],"PostalCode":1.0},"Location":{"LocationId":"NT_geYeiixXQQLl7b3y1By5MD_l_563217497_R","LocationType":"point","DisplayPosition":{"Latitude":49.70498,"Longitude":4.94049},"MapView":{"TopLeft":{"Latitude":49.70498,"Longitude":4.94049},"BottomRight":{"Latitude":49.70474,"Longitude":4.94075}},"Address":{"Label":"Rue Blanpain, 08200 Sedan, France","Country":"FRA","State":"Grand Est","County":"Ardennes","City":"Sedan","Street":"Rue Blanpain","PostalCode":"08200","AdditionalData":[{"value":"France","key":"CountryName"},{"value":"Grand Est","key":"StateName"},{"value":"Ardennes","key":"CountyName"}]},"MapReference":{"ReferenceId":"563217497","Spot":1.0,"SideOfStreet":"right","CountryId":"20000001","StateId":"20002047","CountyId":"20008486","CityId":"20009605"}}},{"Relevance":1.0,"Distance":126.5,"MatchLevel":"street","MatchQuality":{"Country":1.0,"State":1.0,"County":1.0,"City":1.0,"Street":[1.0],"PostalCode":1.0},"Location":{"LocationId":"NT_h2yrLcFe92duujN34FG6fA_l_563217498_L","LocationType":"point","DisplayPosition":{"Latitude":49.70498,"Longitude":4.94049},"MapView":{"TopLeft":{"Latitude":49.70513,"Longitude":4.94049},"BottomRight":{"Latitude":49.70498,"Longitude":4.9407}},"Address":{"Label":"Place Saint-Vincent de Paul, 08200 Sedan, France","Country":"FRA","State":"Grand Est","County":"Ardennes","City":"Sedan","Street":"Place Saint-Vincent de Paul","PostalCode":"08200","AdditionalData":[{"value":"France","key":"CountryName"},{"value":"Grand Est","key":"StateName"},{"value":"Ardennes","key":"CountyName"}]},"MapReference":{"ReferenceId":"563217498","Spot":0.0,"SideOfStreet":"left","CountryId":"20000001","StateId":"20002047","CountyId":"20008486","CityId":"20009605"}}}]}]}}