{"Response":{"MetaInfo":{"Timestamp":"2020-03-28T10:47:31.059+0000","NextPageInformation":"2"},"View":[{"_type":"SearchResultsViewType","ViewId":0,"Result":[{"Relevance":1.0,"Distance":-797.7,"MatchLevel":"landmark","MatchQuality":{"Country":1.0,"Name":1.0},"Location":{"LocationId":"NT_DVA6SR87aBgKKAkMQsh55B","LocationType":"woodland","Name":"PK Beskidu Małego","DisplayPosition":{"Latitude":49.76585,"Longitude":19.34868},"MapView":{"TopLeft":{"Latitude":49.88062,"Longitude":19.07502},"BottomRight":{"Latitude":49.65108,"Longitude":19.60307}},"Address":{"Label":"Polska","Country":"POL","AdditionalData":[{"value":"Polska","key":"CountryName"}]},"MapReference":{"CountryId":"20624059","PlaceId":"1403500754"}}},{"Relevance":1.0,"Distance":0.0,"Direction":0.0,"MatchLevel":"district","MatchQuality":{"Country":1.0,"State":1.0,"County":1.0,"City":1.0,"District":1.0,"PostalCode":1.0},"Location":{"LocationId":"NT_Aq4KQ2zDqHrsGifHRyvILB","LocationType":"point","DisplayPosition":{"Latitude":49.728865,"Longitude":19.2650074},"MapView":{"TopLeft":{"Latitude":49.74785,"Longitude":19.26479},"BottomRight":{"Latitude":49.72432,"Longitude":19.29987}},"Address":{"Label":"Okrajnik, Łękawica, Woj. Śląskie, Polska","Country":"POL","State":"Woj. Śląskie","County":"Powiat Żywiecki","City":"Łękawica","District":"Okrajnik","PostalCode":"34-321","AdditionalData":[{"value":"Polska","key":"CountryName"},{"value":"Woj. Śląskie","key":"StateName"},{"value":"Powiat Żywiecki","key":"CountyName"}]},"MapReference":{"ReferenceId":"709526334","SideOfStreet":"neither","CountryId":"20624059","StateId":"20629003","CountyId":"20629349","CityId":"20629358","DistrictId":"20694117"}}},{"Relevance":1.0,"Distance":5.7,"MatchLevel":"houseNumber","MatchQuality":{"Country":1.0,"State":1.0,"County":1.0,"City":1.0,"District":1.0,"Street":[1.0],"HouseNumber":1.0,"PostalCode":1.0},"MatchType":"interpolated","Location":{"LocationId":"NT_NCbhoEy4qbqgOHXgovJVoA_1ID","LocationType":"point","DisplayPosition":{"Latitude":49.72909,"Longitude":19.26479},"MapView":{"TopLeft":{"Latitude":49.7302142,"Longitude":19.2630509},"BottomRight":{"Latitude":49.7279658,"Longitude":19.2665291}},"Address":{"Label":"ulica Żywiecka 52, 34-321 Łękawica, Polska","Country":"POL","State":"Woj. Śląskie","County":"Powiat Żywiecki","City":"Łękawica","District":"Łękawica","Street":"ulica Żywiecka","HouseNumber":"52","PostalCode":"34-321","AdditionalData":[{"value":"Polska","key":"CountryName"},{"value":"Woj. Śląskie","key":"StateName"},{"value":"Powiat Żywiecki","key":"CountyName"}]},"MapReference":{"ReferenceId":"1201272223","Spot":0.79,"SideOfStreet":"right","CountryId":"20624059","StateId":"20629003","CountyId":"20629349","CityId":"20629358","DistrictId":"20694115","AddressId":"772184524","RoadLinkId":"513784701"}}},{"Relevance":1.0,"Distance":25.4,"MatchLevel":"houseNumber","MatchQuality":{"Country":1.0,"State":1.0,"County":1.0,"City":1.0,"District":1.0,"Street":[1.0],"HouseNumber":1.0,"PostalCode":1.0},"MatchType":"interpolated","Location":{"LocationId":"NT_sgpcmG.L89-CknLJutOXoB_yA","LocationType":"point","DisplayPosition":{"Latitude":49.72891,"Longitude":19.26545},"MapView":{"TopLeft":{"Latitude":49.7300342,"Longitude":19.2637109},"BottomRight":{"Latitude":49.7277858,"Longitude":19.2671891}},"Address":{"Label":"ulica Pańska 2, 34-321 Okrajnik, Polska","Country":"POL","State":"Woj. Śląskie","County":"Powiat Żywiecki","City":"Łękawica","District":"Okrajnik","Street":"ulica Pańska","HouseNumber":"2","PostalCode":"34-321","AdditionalData":[{"value":"Polska","key":"CountryName"},{"value":"Woj. Śląskie","key":"StateName"},{"value":"Powiat Żywiecki","key":"CountyName"}]},"MapReference":{"ReferenceId":"1201341626","Spot":0.8,"SideOfStreet":"left","CountryId":"20624059","StateId":"20629003","CountyId":"20629349","CityId":"20629358","DistrictId":"20694117","AddressId":"403658928","RoadLinkId":"513874467"}}},{"Relevance":1.0,"Distance":34.6,"MatchLevel":"street","MatchQuality":{"Country":1.0,"State":1.0,"County":1.0,"City":1.0,"District":1.0,"Street":[1.0],"PostalCode":1.0},"Location":{"LocationId":"NT_eOMi1CYOnRLkJwp1tSULYD_l_1201272222_R","LocationType":"point","DisplayPosition":{"Latitude":49.72904,"Longitude":19.26461},"MapView":{"TopLeft":{"Latitude":49.72904,"Longitude":19.26435},"BottomRight":{"Latitude":49.72896,"Longitude":19.26461}},"Address":{"Label":"ulica Żywiecka, 34-321 Łękawica, Polska","Country":"POL","State":"Woj. Śląskie","County":"Powiat Żywiecki","City":"Łękawica","District":"Łękawica","Street":"ulica Żywiecka","PostalCode":"34-321","AdditionalData":[{"value":"Polska","key":"CountryName"},{"value":"Woj. Śląskie","key":"StateName"},{"value":"Powiat Żywiecki","key":"CountyName"}]},"MapReference":{"ReferenceId":"1201272222","Spot":1.0,"SideOfStreet":"right","CountryId":"20624059","StateId":"20629003","CountyId":"20629349","CityId":"20629358","DistrictId":"20694115"}}},{"Relevance":1.0,"Distance":35.8,"MatchLevel":"houseNumber","MatchQuality":{"Country":1.0,"State":1.0,"County":1.0,"City":1.0,"District":1.0,"Street":[1.0],"HouseNumber":1.0,"PostalCode":1.0},"MatchType":"interpolated","Location":{"LocationId":"NT_btrPdqJ6Qk0LXl-EqZXaLC_xA","LocationType":"point","DisplayPosition":{"Latitude":49.72918,"Longitude":19.26511},"MapView":{"TopLeft":{"Latitude":49.7303042,"Longitude":19.2633709},"BottomRight":{"Latitude":49.7280558,"Longitude":19.2668491}},"Address":{"Label":"ulica Żywiecka 1, 34-321 Okrajnik, Polska","Country":"POL","State":"Woj. Śląskie","County":"Powiat Żywiecki","City":"Łękawica","District":"Okrajnik","Street":"ulica Żywiecka","HouseNumber":"1","PostalCode":"34-321","AdditionalData":[{"value":"Polska","key":"CountryName"},{"value":"Woj. Śląskie","key":"StateName"},{"value":"Powiat Żywiecki","key":"CountyName"}]},"MapReference":{"ReferenceId":"1201272731","Spot":0.69,"SideOfStreet":"left","CountryId":"20624059","StateId":"20629003","CountyId":"20629349","CityId":"20629358","DistrictId":"20694117","AddressId":"742907054","RoadLinkId":"513785213"}}},{"Relevance":1.0,"Distance":41.2,"MatchLevel":"houseNumber","MatchQuality":{"Country":1.0,"State":1.0,"County":1.0,"City":1.0,"District":1.0,"Street":[1.0],"HouseNumber":1.0,"PostalCode":1.0},"MatchType":"interpolated","Location":{"LocationId":"NT_NCbhoEy4qbqgOHXgovJVoA_1AD","LocationType":"point","DisplayPosition":{"Latitude":49.72895,"Longitude":19.26431},"MapView":{"TopLeft":{"Latitude":49.7300742,"Longitude":19.2625709},"BottomRight":{"Latitude":49.7278258,"Longitude":19.2660491}},"Address":{"Label":"ulica Żywiecka 50, 34-321 Łękawica, Polska","Country":"POL","State":"Woj. Śląskie","County":"Powiat Żywiecki","City":"Łękawica","District":"Łękawica","Street":"ulica Żywiecka","HouseNumber":"50","PostalCode":"34-321","AdditionalData":[{"value":"Polska","key":"CountryName"},{"value":"Woj. Śląskie","key":"StateName"},{"value":"Powiat Żywiecki","key":"CountyName"}]},"MapReference":{"ReferenceId":"1075139187","Spot":0.91,"SideOfStreet":"right","CountryId":"20624059","StateId":"20629003","CountyId":"20629349","CityId":"20629358","DistrictId":"20694115","AddressId":"367121044","RoadLinkId":"395340428"}}},{"Relevance":1.0,"Distance":54.9,"MatchLevel":"houseNumber","MatchQuality":{"Country":1.0,"State":1.0,"County":1.0,"City":1.0,"District":1.0,"Street":[1.0],"HouseNumber":1.0,"PostalCode":1.0},"MatchType":"interpolated","Location":{"LocationId":"NT_btrPdqJ6Qk0LXl-EqZXaLC_yA","LocationType":"point","DisplayPosition":{"Latitude":49.72928,"Longitude":19.26542},"MapView":{"TopLeft":{"Latitude":49.7304042,"Longitude":19.2636809},"BottomRight":{"Latitude":49.7281558,"Longitude":19.2671591}},"Address":{"Label":"ulica Żywiecka 2, 34-321 Okrajnik, Polska","Country":"POL","State":"Woj. Śląskie","County":"Powiat Żywiecki","City":"Łękawica","District":"Okrajnik","Street":"ulica Żywiecka","HouseNumber":"2","PostalCode":"34-321","AdditionalData":[{"value":"Polska","key":"CountryName"},{"value":"Woj. Śląskie","key":"StateName"},{"value":"Powiat Żywiecki","key":"CountyName"}]},"MapReference":{"ReferenceId":"1201272732","Spot":0.25,"SideOfStreet":"left","CountryId":"20624059","StateId":"20629003","CountyId":"20629349","CityId":"20629358","DistrictId":"20694117","AddressId":"742907051","RoadLinkId":"513785214"}}},{"Relevance":1.0,"Distance":80.3,"MatchLevel":"houseNumber","MatchQuality":{"Country":1.0,"State":1.0,"County":1.0,"City":1.0,"District":1.0,"Street":[1.0],"HouseNumber":1.0,"PostalCode":1.0},"MatchType":"interpolated","Location":{"LocationId":"NT_NCbhoEy4qbqgOHXgovJVoA_0YD","LocationType":"point","DisplayPosition":{"Latitude":49.7288,"Longitude":19.26382},"MapView":{"TopLeft":{"Latitude":49.7299242,"Longitude":19.2620809},"BottomRight":{"Latitude":49.7276758,"Longitude":19.2655591}},"Address":{"Label":"ulica Żywiecka 46, 34-321 Łękawica, Polska","Country":"POL","State":"Woj. Śląskie","County":"Powiat Żywiecki","City":"Łękawica","District":"Łękawica","Street":"ulica Żywiecka","HouseNumber":"46","PostalCode":"34-321","AdditionalData":[{"value":"Polska","key":"CountryName"},{"value":"Woj. Śląskie","key":"StateName"},{"value":"Powiat Żywiecki","key":"CountyName"}]},"MapReference":{"ReferenceId":"1075139186","Spot":0.84,"SideOfStreet":"right","CountryId":"20624059","StateId":"20629003","CountyId":"20629349","CityId":"20629358","DistrictId":"20694115","AddressId":"367121043","RoadLinkId":"395340427"}}},{"Relevance":1.0,"Distance":108.7,"MatchLevel":"houseNumber","MatchQuality":{"Country":1.0,"State":1.0,"County":1.0,"City":1.0,"District":1.0,"Street":[1.0],"HouseNumber":1.0,"PostalCode":1.0},"MatchType":"interpolated","Location":{"LocationId":"NT_YvCwkC2ytZo9k1wXC.HFZC_2A","LocationType":"point","DisplayPosition":{"Latitude":49.72969,"Longitude":19.26333},"MapView":{"TopLeft":{"Latitude":49.7308142,"Longitude":19.2615909},"BottomRight":{"Latitude":49.7285658,"Longitude":19.2650691}},"Address":{"Label":"ulica Firmowa 6, 34-321 Kocierz Moszczanicki, Polska","Country":"POL","State":"Woj. Śląskie","County":"Powiat Żywiecki","City":"Łękawica","District":"Kocierz Moszczanicki","Street":"ulica Firmowa","HouseNumber":"6","PostalCode":"34-321","AdditionalData":[{"value":"Polska","key":"CountryName"},{"value":"Woj. Śląskie","key":"StateName"},{"value":"Powiat Żywiecki","key":"CountyName"}]},"MapReference":{"ReferenceId":"594534133","Spot":0.66,"SideOfStreet":"right","CountryId":"20624059","StateId":"20629003","CountyId":"20629349","CityId":"20629358","DistrictId":"20694113","AddressId":"403667390","RoadLinkId":"96075806"}}}]}]}}