{"Response":{"MetaInfo":{"Timestamp":"2020-03-28T09:34:43.182+0000","NextPageInformation":"2"},"View":[{"_type":"SearchResultsViewType","ViewId":0,"Result":[{"Relevance":1.0,"Distance":0.0,"Direction":0.0,"MatchLevel":"district","MatchQuality":{"Country":1.0,"State":1.0,"County":1.0,"City":1.0,"District":1.0,"PostalCode":1.0},"Location":{"LocationId":"NT_DwidXZKldw3gmKbOOYrHCA","LocationType":"point","DisplayPosition":{"Latitude":49.7972138,"Longitude":12.6341185},"MapView":{"TopLeft":{"Latitude":49.81196,"Longitude":12.61278},"BottomRight":{"Latitude":49.78554,"Longitude":12.67287}},"Address":{"Label":"Tachov, Plzeňský kraj, Česká Republika","Country":"CZE","State":"Plzeňský kraj","County":"Tachov","City":"Tachov","District":"Tachov","PostalCode":"347 01","AdditionalData":[{"value":"Česká Republika","key":"CountryName"},{"value":"Plzeňský kraj","key":"StateName"},{"value":"Tachov","key":"CountyName"}]},"MapReference":{"ReferenceId":"704502021","SideOfStreet":"neither","CountryId":"20427915","StateId":"20441121","CountyId":"20442493","CityId":"20442620","DistrictId":"20442621"}}},{"Relevance":1.0,"Distance":25.1,"MatchLevel":"houseNumber","MatchQuality":{"Country":1.0,"State":1.0,"County":1.0,"City":1.0,"District":1.0,"Street":[1.0],"HouseNumber":1.0,"PostalCode":1.0},"MatchType":"interpolated","Location":{"LocationId":"NT_3yq4M1srWZ86m2DDnfDGzB_xUjNwA","LocationType":"point","DisplayPosition":{"Latitude":49.79734,"Longitude":12.63449},"MapView":{"TopLeft":{"Latitude":49.7984642,"Longitude":12.6327485},"BottomRight":{"Latitude":49.7962158,"Longitude":12.6362315}},"Address":{"Label":"Václavská 1560, 347 01 Tachov, Česká Republika","Country":"CZE","State":"Plzeňský kraj","County":"Tachov","City":"Tachov","District":"Tachov","Street":"Václavská","HouseNumber":"1560","PostalCode":"347 01","AdditionalData":[{"value":"Česká Republika","key":"CountryName"},{"value":"Plzeňský kraj","key":"StateName"},{"value":"Tachov","key":"CountyName"}]},"MapReference":{"ReferenceId":"704540086","Spot":1.0,"SideOfStreet":"left","CountryId":"20427915","StateId":"20441121","CountyId":"20442493","CityId":"20442620","DistrictId":"20442621","AddressId":"240630366","RoadLinkId":"319423256"}}},{"Relevance":1.0,"Distance":30.1,"MatchLevel":"street","MatchQuality":{"Country":1.0,"State":1.0,"County":1.0,"City":1.0,"District":1.0,"PostalCode":1.0},"Location":{"LocationId":"NT_MDr6GSJCz4JfXNzAv48dNB_l_704540087_L","LocationType":"point","DisplayPosition":{"Latitude":49.79734,"Longitude":12.63449},"MapView":{"TopLeft":{"Latitude":49.79742,"Longitude":12.63449},"BottomRight":{"Latitude":49.79734,"Longitude":12.63503}},"Address":{"Label":"347 01 Tachov, Česká Republika","Country":"CZE","State":"Plzeňský kraj","County":"Tachov","City":"Tachov","District":"Tachov","PostalCode":"347 01","AdditionalData":[{"value":"Česká Republika","key":"CountryName"},{"value":"Plzeňský kraj","key":"StateName"},{"value":"Tachov","key":"CountyName"}]},"MapReference":{"ReferenceId":"704540087","Spot":0.0,"SideOfStreet":"left","CountryId":"20427915","StateId":"20441121","CountyId":"20442493","CityId":"20442620","DistrictId":"20442621"}}},{"Relevance":1.0,"Distance":31.7,"MatchLevel":"street","MatchQuality":{"Country":1.0,"State":1.0,"County":1.0,"City":1.0,"District":1.0,"Street":[1.0],"PostalCode":1.0},"Location":{"LocationId":"NT_3yq4M1srWZ86m2DDnfDGzB_l_704540055_L","LocationType":"point","DisplayPosition":{"Latitude":49.79705,"Longitude":12.63448},"MapView":{"TopLeft":{"Latitude":49.79741,"Longitude":12.63448},"BottomRight":{"Latitude":49.79705,"Longitude":12.63503}},"Address":{"Label":"Václavská, 347 01 Tachov, Česká Republika","Country":"CZE","State":"Plzeňský kraj","County":"Tachov","City":"Tachov","District":"Tachov","Street":"Václavská","PostalCode":"347 01","AdditionalData":[{"value":"Česká Republika","key":"CountryName"},{"value":"Plzeňský kraj","key":"StateName"},{"value":"Tachov","key":"CountyName"}]},"MapReference":{"ReferenceId":"704540055","Spot":0.0,"SideOfStreet":"left","CountryId":"20427915","StateId":"20441121","CountyId":"20442493","CityId":"20442620","DistrictId":"20442621"}}},{"Relevance":1.0,"Distance":33.8,"MatchLevel":"street","MatchQuality":{"Country":1.0,"State":1.0,"County":1.0,"City":1.0,"District":1.0,"Street":[1.0],"PostalCode":1.0},"Location":{"LocationId":"NT_3yq4M1srWZ86m2DDnfDGzB_l_704540084_L","LocationType":"point","DisplayPosition":{"Latitude":49.79751,"Longitude":12.63401},"MapView":{"TopLeft":{"Latitude":49.79753,"Longitude":12.63324},"BottomRight":{"Latitude":49.79751,"Longitude":12.63401}},"Address":{"Label":"Václavská, 347 01 Tachov, Česká Republika","Country":"CZE","State":"Plzeňský kraj","County":"Tachov","City":"Tachov","District":"Tachov","Street":"Václavská","PostalCode":"347 01","AdditionalData":[{"value":"Česká Republika","key":"CountryName"},{"value":"Plzeňský kraj","key":"StateName"},{"value":"Tachov","key":"CountyName"}]},"MapReference":{"ReferenceId":"704540084","Spot":0.0,"SideOfStreet":"left","CountryId":"20427915","StateId":"20441121","CountyId":"20442493","CityId":"20442620","DistrictId":"20442621"}}},{"Relevance":1.0,"Distance":34.8,"MatchLevel":"street","MatchQuality":{"Country":1.0,"State":1.0,"County":1.0,"City":1.0,"District":1.0,"Street":[1.0],"PostalCode":1.0},"Location":{"LocationId":"NT_D5cXZvxeh3sV8C-Bg2dfWB_l_704540058_L","LocationType":"point","DisplayPosition":{"Latitude":49.7969512,"Longitude":12.6343812},"MapView":{"TopLeft":{"Latitude":49.79705,"Longitude":12.6342},"BottomRight":{"Latitude":49.79677,"Longitude":12.63448}},"Address":{"Label":"Kostelní, 347 01 Tachov, Česká Republika","Country":"CZE","State":"Plzeňský kraj","County":"Tachov","City":"Tachov","District":"Tachov","Street":"Kostelní","PostalCode":"347 01","AdditionalData":[{"value":"Česká Republika","key":"CountryName"},{"value":"Plzeňský kraj","key":"StateName"},{"value":"Tachov","key":"CountyName"}]},"MapReference":{"ReferenceId":"704540058","Spot":0.65,"SideOfStreet":"left","CountryId":"20427915","StateId":"20441121","CountyId":"20442493","CityId":"20442620","DistrictId":"20442621"}}},{"Relevance":1.0,"Distance":40.8,"MatchLevel":"street","MatchQuality":{"Country":1.0,"State":1.0,"County":1.0,"City":1.0,"District":1.0,"Street":[1.0],"PostalCode":1.0},"Location":{"LocationId":"NT_3yq4M1srWZ86m2DDnfDGzB_l_722926735_R","LocationType":"point","DisplayPosition":{"Latitude":49.79758,"Longitude":12.63409},"MapView":{"TopLeft":{"Latitude":49.79759,"Longitude":12.63324},"BottomRight":{"Latitude":49.79753,"Longitude":12.63409}},"Address":{"Label":"Václavská, 347 01 Tachov, Česká Republika","Country":"CZE","State":"Plzeňský kraj","County":"Tachov","City":"Tachov","District":"Tachov","Street":"Václavská","PostalCode":"347 01","AdditionalData":[{"value":"Česká Republika","key":"CountryName"},{"value":"Plzeňský kraj","key":"StateName"},{"value":"Tachov","key":"CountyName"}]},"MapReference":{"ReferenceId":"722926735","Spot":1.0,"SideOfStreet":"right","CountryId":"20427915","StateId":"20441121","CountyId":"20442493","CityId":"20442620","DistrictId":"20442621"}}},{"Relevance":1.0,"Distance":42.2,"MatchLevel":"houseNumber","MatchQuality":{"Country":1.0,"State":1.0,"County":1.0,"City":1.0,"District":1.0,"Street":[1.0],"HouseNumber":1.0,"PostalCode":1.0},"MatchType":"interpolated","Location":{"LocationId":"NT_D5cXZvxeh3sV8C-Bg2dfWB_1gzM","LocationType":"point","DisplayPosition":{"Latitude":49.79678,"Longitude":12.63378},"MapView":{"TopLeft":{"Latitude":49.7979042,"Longitude":12.6320385},"BottomRight":{"Latitude":49.7956558,"Longitude":12.6355215}},"Address":{"Label":"Kostelní 583, 347 01 Tachov, Česká Republika","Country":"CZE","State":"Plzeňský kraj","County":"Tachov","City":"Tachov","District":"Tachov","Street":"Kostelní","HouseNumber":"583","PostalCode":"347 01","AdditionalData":[{"value":"Česká Republika","key":"CountryName"},{"value":"Plzeňský kraj","key":"StateName"},{"value":"Tachov","key":"CountyName"}]},"MapReference":{"ReferenceId":"722926725","Spot":0.54,"SideOfStreet":"right","CountryId":"20427915","StateId":"20441121","CountyId":"20442493","CityId":"20442620","DistrictId":"20442621","AddressId":"239291790","RoadLinkId":"192277311"}}},{"Relevance":1.0,"Distance":49.2,"MatchLevel":"street","MatchQuality":{"Country":1.0,"State":1.0,"County":1.0,"City":1.0,"District":1.0,"PostalCode":1.0},"Location":{"LocationId":"NT_MDr6GSJCz4JfXNzAv48dNB_l_722926706_L","LocationType":"point","DisplayPosition":{"Latitude":49.796814,"Longitude":12.6344111},"MapView":{"TopLeft":{"Latitude":49.79741,"Longitude":12.63431},"BottomRight":{"Latitude":49.79674,"Longitude":12.63508}},"Address":{"Label":"347 01 Tachov, Česká Republika","Country":"CZE","State":"Plzeňský kraj","County":"Tachov","City":"Tachov","District":"Tachov","PostalCode":"347 01","AdditionalData":[{"value":"Česká Republika","key":"CountryName"},{"value":"Plzeňský kraj","key":"StateName"},{"value":"Tachov","key":"CountyName"}]},"MapReference":{"ReferenceId":"722926706","Spot":0.12,"SideOfStreet":"left","CountryId":"20427915","StateId":"20441121","CountyId":"20442493","CityId":"20442620","DistrictId":"20442621"}}},{"Relevance":1.0,"Distance":49.7,"MatchLevel":"street","MatchQuality":{"Country":1.0,"State":1.0,"County":1.0,"City":1.0,"District":1.0,"Street":[1.0],"PostalCode":1.0},"Location":{"LocationId":"NT_D5cXZvxeh3sV8C-Bg2dfWB_l_722926722_L","LocationType":"point","DisplayPosition":{"Latitude":49.79677,"Longitude":12.6342},"MapView":{"TopLeft":{"Latitude":49.79677,"Longitude":12.63407},"BottomRight":{"Latitude":49.79667,"Longitude":12.6342}},"Address":{"Label":"Kostelní, 347 01 Tachov, Česká Republika","Country":"CZE","State":"Plzeňský kraj","County":"Tachov","City":"Tachov","District":"Tachov","Street":"Kostelní","PostalCode":"347 01","AdditionalData":[{"value":"Česká Republika","key":"CountryName"},{"value":"Plzeňský kraj","key":"StateName"},{"value":"Tachov","key":"CountyName"}]},"MapReference":{"ReferenceId":"722926722","Spot":1.0,"SideOfStreet":"left","CountryId":"20427915","StateId":"20441121","CountyId":"20442493","CityId":"20442620","DistrictId":"20442621"}}}]}]}}