{"Response":{"MetaInfo":{"Timestamp":"2020-03-28T10:49:32.944+0000","NextPageInformation":"2"},"View":[{"_type":"SearchResultsViewType","ViewId":0,"Result":[{"Relevance":1.0,"Distance":0.0,"Direction":0.0,"MatchLevel":"district","MatchQuality":{"Country":1.0,"State":1.0,"County":1.0,"City":1.0,"District":1.0,"PostalCode":1.0},"Location":{"LocationId":"NT_JUjGykqyt7w6ZJzqAP6PqA","LocationType":"point","DisplayPosition":{"Latitude":49.7423306,"Longitude":20.6256101},"MapView":{"TopLeft":{"Latitude":49.7562,"Longitude":20.60592},"BottomRight":{"Latitude":49.73934,"Longitude":20.62994}},"Address":{"Label":"Łososina Dolna, Woj. Małopolskie, Polska","Country":"POL","State":"Woj. Małopolskie","County":"Powiat Nowosądecki","City":"Łososina Dolna","District":"Łososina Dolna","PostalCode":"33-314","AdditionalData":[{"value":"Polska","key":"CountryName"},{"value":"Woj. Małopolskie","key":"StateName"},{"value":"Powiat Nowosądecki","key":"CountyName"}]},"MapReference":{"ReferenceId":"727595986","SideOfStreet":"neither","CountryId":"20624059","StateId":"20626775","CountyId":"20626967","CityId":"20626984","DistrictId":"20686486"}}},{"Relevance":1.0,"Distance":34.5,"MatchLevel":"houseNumber","MatchQuality":{"Country":1.0,"State":1.0,"County":1.0,"City":1.0,"District":1.0,"Street":[1.0],"HouseNumber":1.0,"PostalCode":1.0},"MatchType":"interpolated","Location":{"LocationId":"NT_eYmEE7PknG9oRTu0DMz9GA_zADM","LocationType":"point","DisplayPosition":{"Latitude":49.74264,"Longitude":20.62564},"MapView":{"TopLeft":{"Latitude":49.7437642,"Longitude":20.6239004},"BottomRight":{"Latitude":49.7415158,"Longitude":20.6273796}},"Address":{"Label":"Łososina Dolna 300, 33-314 Łososina Dolna, Polska","Country":"POL","State":"Woj. Małopolskie","County":"Powiat Nowosądecki","City":"Łososina Dolna","District":"Łososina Dolna","Street":"Łososina Dolna","HouseNumber":"300","PostalCode":"33-314","AdditionalData":[{"value":"Polska","key":"CountryName"},{"value":"Woj. Małopolskie","key":"StateName"},{"value":"Powiat Nowosądecki","key":"CountyName"}]},"MapReference":{"ReferenceId":"727595984","Spot":1.0,"SideOfStreet":"left","CountryId":"20624059","StateId":"20626775","CountyId":"20626967","CityId":"20626984","DistrictId":"20686486","AddressId":"403564010","RoadLinkId":"130454844"}}},{"Relevance":1.0,"Distance":56.3,"MatchLevel":"street","MatchQuality":{"Country":1.0,"State":1.0,"County":1.0,"City":1.0,"District":1.0,"PostalCode":1.0},"Location":{"LocationId":"NT_IzJBx.SLTnqtsG-U3JEN9D_l_727595987_R","LocationType":"point","DisplayPosition":{"Latitude":49.74272,"Longitude":20.62511},"MapView":{"TopLeft":{"Latitude":49.74272,"Longitude":20.62413},"BottomRight":{"Latitude":49.74215,"Longitude":20.62511}},"Address":{"Label":"33-314 Łososina Dolna, Polska","Country":"POL","State":"Woj. Małopolskie","County":"Powiat Nowosądecki","City":"Łososina Dolna","District":"Łososina Dolna","PostalCode":"33-314","AdditionalData":[{"value":"Polska","key":"CountryName"},{"value":"Woj. Małopolskie","key":"StateName"},{"value":"Powiat Nowosądecki","key":"CountyName"}]},"MapReference":{"ReferenceId":"727595987","Spot":1.0,"SideOfStreet":"right","CountryId":"20624059","StateId":"20626775","CountyId":"20626967","CityId":"20626984","DistrictId":"20686486"}}},{"Relevance":1.0,"Distance":88.1,"MatchLevel":"street","MatchQuality":{"Country":1.0,"State":1.0,"County":1.0,"City":1.0,"District":1.0,"Street":[1.0],"PostalCode":1.0},"Location":{"LocationId":"NT_57Zz2LYfTVYC9RCJDAhVBD_l_897324996_R","LocationType":"point","DisplayPosition":{"Latitude":49.74176,"Longitude":20.62476},"MapView":{"TopLeft":{"Latitude":49.74182,"Longitude":20.62466},"BottomRight":{"Latitude":49.74176,"Longitude":20.62476}},"Address":{"Label":"75, 33-314 Łososina Dolna, Polska","Country":"POL","State":"Woj. Małopolskie","County":"Powiat Nowosądecki","City":"Łososina Dolna","District":"Łososina Dolna","Street":"75","PostalCode":"33-314","AdditionalData":[{"value":"Polska","key":"CountryName"},{"value":"Woj. Małopolskie","key":"StateName"},{"value":"Powiat Nowosądecki","key":"CountyName"}]},"MapReference":{"ReferenceId":"897324996","Spot":0.0,"SideOfStreet":"right","CountryId":"20624059","StateId":"20626775","CountyId":"20626967","CityId":"20626984","DistrictId":"20686486"}}},{"Relevance":1.0,"Distance":88.8,"MatchLevel":"street","MatchQuality":{"Country":1.0,"State":1.0,"County":1.0,"City":1.0,"District":1.0,"Street":[1.0],"PostalCode":1.0},"Location":{"LocationId":"NT_20BtHYAyvdkTW5w9q5xQzC_l_897324997_R","LocationType":"point","DisplayPosition":{"Latitude":49.74182,"Longitude":20.62466},"MapView":{"TopLeft":{"Latitude":49.74194,"Longitude":20.62446},"BottomRight":{"Latitude":49.74182,"Longitude":20.62466}},"Address":{"Label":"75, 33-314 Łososina Dolna, Polska","Country":"POL","State":"Woj. Małopolskie","County":"Powiat Nowosądecki","City":"Łososina Dolna","District":"Łososina Dolna","Street":"75","PostalCode":"33-314","AdditionalData":[{"value":"Polska","key":"CountryName"},{"value":"Woj. Małopolskie","key":"StateName"},{"value":"Powiat Nowosądecki","key":"CountyName"}]},"MapReference":{"ReferenceId":"897324997","Spot":0.0,"SideOfStreet":"right","CountryId":"20624059","StateId":"20626775","CountyId":"20626967","CityId":"20626984","DistrictId":"20686486"}}},{"Relevance":1.0,"Distance":92.0,"MatchLevel":"street","MatchQuality":{"Country":1.0,"State":1.0,"County":1.0,"City":1.0,"District":1.0,"Street":[1.0],"PostalCode":1.0},"Location":{"LocationId":"NT_20BtHYAyvdkTW5w9q5xQzC_l_799838873_R","LocationType":"point","DisplayPosition":{"Latitude":49.74159,"Longitude":20.62504},"MapView":{"TopLeft":{"Latitude":49.74176,"Longitude":20.62476},"BottomRight":{"Latitude":49.74159,"Longitude":20.62504}},"Address":{"Label":"75, 33-314 Łososina Dolna, Polska","Country":"POL","State":"Woj. Małopolskie","County":"Powiat Nowosądecki","City":"Łososina Dolna","District":"Łososina Dolna","Street":"75","PostalCode":"33-314","AdditionalData":[{"value":"Polska","key":"CountryName"},{"value":"Woj. Małopolskie","key":"StateName"},{"value":"Powiat Nowosądecki","key":"CountyName"}]},"MapReference":{"ReferenceId":"799838873","Spot":0.0,"SideOfStreet":"right","CountryId":"20624059","StateId":"20626775","CountyId":"20626967","CityId":"20626984","DistrictId":"20686486"}}},{"Relevance":1.0,"Distance":93.4,"MatchLevel":"street","MatchQuality":{"Country":1.0,"State":1.0,"County":1.0,"City":1.0,"District":1.0,"Street":[1.0],"PostalCode":1.0},"Location":{"LocationId":"NT_20BtHYAyvdkTW5w9q5xQzC_l_727595985_R","LocationType":"point","DisplayPosition":{"Latitude":49.74194,"Longitude":20.62446},"MapView":{"TopLeft":{"Latitude":49.74215,"Longitude":20.62413},"BottomRight":{"Latitude":49.74194,"Longitude":20.62446}},"Address":{"Label":"75, 33-314 Łososina Dolna, Polska","Country":"POL","State":"Woj. Małopolskie","County":"Powiat Nowosądecki","City":"Łososina Dolna","District":"Łososina Dolna","Street":"75","PostalCode":"33-314","AdditionalData":[{"value":"Polska","key":"CountryName"},{"value":"Woj. Małopolskie","key":"StateName"},{"value":"Powiat Nowosądecki","key":"CountyName"}]},"MapReference":{"ReferenceId":"727595985","Spot":0.0,"SideOfStreet":"right","CountryId":"20624059","StateId":"20626775","CountyId":"20626967","CityId":"20626984","DistrictId":"20686486"}}},{"Relevance":1.0,"Distance":94.4,"MatchLevel":"street","MatchQuality":{"Country":1.0,"State":1.0,"County":1.0,"City":1.0,"District":1.0,"Street":[1.0],"PostalCode":1.0},"Location":{"LocationId":"NT_20BtHYAyvdkTW5w9q5xQzC_l_1194610597_R","LocationType":"point","DisplayPosition":{"Latitude":49.741546,"Longitude":20.6251088},"MapView":{"TopLeft":{"Latitude":49.74159,"Longitude":20.62504},"BottomRight":{"Latitude":49.7407,"Longitude":20.62648}},"Address":{"Label":"75, 33-314 Łososina Dolna, Polska","Country":"POL","State":"Woj. Małopolskie","County":"Powiat Nowosądecki","City":"Łososina Dolna","District":"Łososina Dolna","Street":"75","PostalCode":"33-314","AdditionalData":[{"value":"Polska","key":"CountryName"},{"value":"Woj. Małopolskie","key":"StateName"},{"value":"Powiat Nowosądecki","key":"CountyName"}]},"MapReference":{"ReferenceId":"1194610597","Spot":0.95,"SideOfStreet":"right","CountryId":"20624059","StateId":"20626775","CountyId":"20626967","CityId":"20626984","DistrictId":"20686486"}}},{"Relevance":1.0,"Distance":108.2,"MatchLevel":"street","MatchQuality":{"Country":1.0,"State":1.0,"County":1.0,"City":1.0,"District":1.0,"Street":[1.0],"PostalCode":1.0},"Location":{"LocationId":"NT_20BtHYAyvdkTW5w9q5xQzC_l_727595986_R","LocationType":"point","DisplayPosition":{"Latitude":49.74215,"Longitude":20.62413},"MapView":{"TopLeft":{"Latitude":49.74245,"Longitude":20.62374},"BottomRight":{"Latitude":49.74215,"Longitude":20.62413}},"Address":{"Label":"75, 33-314 Łososina Dolna, Polska","Country":"POL","State":"Woj. Małopolskie","County":"Powiat Nowosądecki","City":"Łososina Dolna","District":"Łososina Dolna","Street":"75","PostalCode":"33-314","AdditionalData":[{"value":"Polska","key":"CountryName"},{"value":"Woj. Małopolskie","key":"StateName"},{"value":"Powiat Nowosądecki","key":"CountyName"}]},"MapReference":{"ReferenceId":"727595986","Spot":0.0,"SideOfStreet":"right","CountryId":"20624059","StateId":"20626775","CountyId":"20626967","CityId":"20626984","DistrictId":"20686486"}}},{"Relevance":1.0,"Distance":135.0,"MatchLevel":"street","MatchQuality":{"Country":1.0,"State":1.0,"County":1.0,"City":1.0,"District":1.0,"Street":[1.0],"PostalCode":1.0},"Location":{"LocationId":"NT_20BtHYAyvdkTW5w9q5xQzC_l_1012030900_R","LocationType":"point","DisplayPosition":{"Latitude":49.74245,"Longitude":20.62374},"MapView":{"TopLeft":{"Latitude":49.74338,"Longitude":20.62351},"BottomRight":{"Latitude":49.74245,"Longitude":20.62374}},"Address":{"Label":"75, 33-314 Łososina Dolna, Polska","Country":"POL","State":"Woj. Małopolskie","County":"Powiat Nowosądecki","City":"Łososina Dolna","District":"Łososina Dolna","Street":"75","PostalCode":"33-314","AdditionalData":[{"value":"Polska","key":"CountryName"},{"value":"Woj. Małopolskie","key":"StateName"},{"value":"Powiat Nowosądecki","key":"CountyName"}]},"MapReference":{"ReferenceId":"1012030900","Spot":0.0,"SideOfStreet":"right","CountryId":"20624059","StateId":"20626775","CountyId":"20626967","CityId":"20626984","DistrictId":"20686486"}}}]}]}}