{"Response":{"MetaInfo":{"Timestamp":"2020-03-28T11:02:52.123+0000","NextPageInformation":"2"},"View":[{"_type":"SearchResultsViewType","ViewId":0,"Result":[{"Relevance":1.0,"Distance":0.0,"Direction":0.0,"MatchLevel":"district","MatchQuality":{"Country":1.0,"State":1.0,"County":1.0,"City":1.0,"District":1.0,"PostalCode":1.0},"Location":{"LocationId":"NT_3LMs.XI2jpwFs987A8AAoB","LocationType":"point","DisplayPosition":{"Latitude":49.702554,"Longitude":10.2655337},"MapView":{"TopLeft":{"Latitude":49.71193,"Longitude":10.24071},"BottomRight":{"Latitude":49.6925,"Longitude":10.27282}},"Address":{"Label":"Iphofen, Bayern, Deutschland","Country":"DEU","State":"Bayern","County":"Kitzingen","City":"Iphofen","District":"Iphofen","PostalCode":"97346","AdditionalData":[{"value":"Deutschland","key":"CountryName"},{"value":"Bayern","key":"StateName"},{"value":"Kitzingen","key":"CountyName"}]},"MapReference":{"ReferenceId":"542186732","SideOfStreet":"neither","CountryId":"20147700","StateId":"20177250","CountyId":"20184524","CityId":"20184553","DistrictId":"20184555"}}},{"Relevance":1.0,"Distance":10.6,"MatchLevel":"street","MatchQuality":{"Country":1.0,"State":1.0,"County":1.0,"City":1.0,"District":1.0,"Street":[1.0],"PostalCode":1.0},"Location":{"LocationId":"NT_61LcL5AUCHi8EQC1HLTMtD_l_836348149_R","LocationType":"point","DisplayPosition":{"Latitude":49.70264,"Longitude":10.26547},"MapView":{"TopLeft":{"Latitude":49.70264,"Longitude":10.26526},"BottomRight":{"Latitude":49.70253,"Longitude":10.26547}},"Address":{"Label":"Birklinger Straße, 97346 Iphofen, Deutschland","Country":"DEU","State":"Bayern","County":"Kitzingen","City":"Iphofen","District":"Iphofen","Street":"Birklinger Straße","PostalCode":"97346","AdditionalData":[{"value":"Deutschland","key":"CountryName"},{"value":"Bayern","key":"StateName"},{"value":"Kitzingen","key":"CountyName"}]},"MapReference":{"ReferenceId":"836348149","Spot":1.0,"SideOfStreet":"right","CountryId":"20147700","StateId":"20177250","CountyId":"20184524","CityId":"20184553","DistrictId":"20184555"}}},{"Relevance":1.0,"Distance":15.2,"MatchLevel":"houseNumber","MatchQuality":{"Country":1.0,"State":1.0,"County":1.0,"City":1.0,"District":1.0,"Street":[1.0],"HouseNumber":1.0,"PostalCode":1.0},"MatchType":"interpolated","Location":{"LocationId":"NT_61LcL5AUCHi8EQC1HLTMtD_xAD","LocationType":"point","DisplayPosition":{"Latitude":49.70269,"Longitude":10.26556},"MapView":{"TopLeft":{"Latitude":49.7038142,"Longitude":10.2638219},"BottomRight":{"Latitude":49.7015658,"Longitude":10.2672981}},"Address":{"Label":"Birklinger Straße 10, 97346 Iphofen, Deutschland","Country":"DEU","State":"Bayern","County":"Kitzingen","City":"Iphofen","District":"Iphofen","Street":"Birklinger Straße","HouseNumber":"10","PostalCode":"97346","AdditionalData":[{"value":"Deutschland","key":"CountryName"},{"value":"Bayern","key":"StateName"},{"value":"Kitzingen","key":"CountyName"}]},"MapReference":{"ReferenceId":"1184850089","Spot":0.13,"SideOfStreet":"right","CountryId":"20147700","StateId":"20177250","CountyId":"20184524","CityId":"20184553","DistrictId":"20184555","AddressId":"185261001","RoadLinkId":"493079140"}}},{"Relevance":1.0,"Distance":16.0,"MatchLevel":"street","MatchQuality":{"Country":1.0,"State":1.0,"County":1.0,"City":1.0,"District":1.0,"Street":[1.0],"PostalCode":1.0},"Location":{"LocationId":"NT_uIpdEOvFE2dwg-4pGm15qD_l_1183121475_R","LocationType":"point","DisplayPosition":{"Latitude":49.702419,"Longitude":10.2654581},"MapView":{"TopLeft":{"Latitude":49.70253,"Longitude":10.26526},"BottomRight":{"Latitude":49.70239,"Longitude":10.26551}},"Address":{"Label":"Einersheimer Straße, 97346 Iphofen, Deutschland","Country":"DEU","State":"Bayern","County":"Kitzingen","City":"Iphofen","District":"Iphofen","Street":"Einersheimer Straße","PostalCode":"97346","AdditionalData":[{"value":"Deutschland","key":"CountryName"},{"value":"Bayern","key":"StateName"},{"value":"Kitzingen","key":"CountyName"}]},"MapReference":{"ReferenceId":"1183121475","Spot":0.21,"SideOfStreet":"right","CountryId":"20147700","StateId":"20177250","CountyId":"20184524","CityId":"20184553","DistrictId":"20184555"}}},{"Relevance":1.0,"Distance":18.3,"MatchLevel":"street","MatchQuality":{"Country":1.0,"State":1.0,"County":1.0,"City":1.0,"District":1.0,"PostalCode":1.0},"Location":{"LocationId":"NT_38NoApbonOWMEenEOXfVWD_l_1183121473_L","LocationType":"point","DisplayPosition":{"Latitude":49.70239,"Longitude":10.26551},"MapView":{"TopLeft":{"Latitude":49.70239,"Longitude":10.26402},"BottomRight":{"Latitude":49.70183,"Longitude":10.26551}},"Address":{"Label":"97346 Iphofen, Deutschland","Country":"DEU","State":"Bayern","County":"Kitzingen","City":"Iphofen","District":"Iphofen","PostalCode":"97346","AdditionalData":[{"value":"Deutschland","key":"CountryName"},{"value":"Bayern","key":"StateName"},{"value":"Kitzingen","key":"CountyName"}]},"MapReference":{"ReferenceId":"1183121473","Spot":1.0,"SideOfStreet":"left","CountryId":"20147700","StateId":"20177250","CountyId":"20184524","CityId":"20184553","DistrictId":"20184555"}}},{"Relevance":1.0,"Distance":19.9,"MatchLevel":"street","MatchQuality":{"Country":1.0,"State":1.0,"County":1.0,"City":1.0,"District":1.0,"Street":[1.0],"PostalCode":1.0},"Location":{"LocationId":"NT_QR2DEyDE2TSgfTjitPnLeC_l_1184850084_R","LocationType":"point","DisplayPosition":{"Latitude":49.70253,"Longitude":10.26526},"MapView":{"TopLeft":{"Latitude":49.70253,"Longitude":10.26405},"BottomRight":{"Latitude":49.70203,"Longitude":10.26526}},"Address":{"Label":"Am Stadtgraben Ost, 97346 Iphofen, Deutschland","Country":"DEU","State":"Bayern","County":"Kitzingen","City":"Iphofen","District":"Iphofen","Street":"Am Stadtgraben Ost","PostalCode":"97346","AdditionalData":[{"value":"Deutschland","key":"CountryName"},{"value":"Bayern","key":"StateName"},{"value":"Kitzingen","key":"CountyName"}]},"MapReference":{"ReferenceId":"1184850084","Spot":1.0,"SideOfStreet":"right","CountryId":"20147700","StateId":"20177250","CountyId":"20184524","CityId":"20184553","DistrictId":"20184555"}}},{"Relevance":1.0,"Distance":38.8,"MatchLevel":"houseNumber","MatchQuality":{"Country":1.0,"State":1.0,"County":1.0,"City":1.0,"District":1.0,"Street":[1.0],"HouseNumber":1.0,"PostalCode":1.0},"MatchType":"interpolated","Location":{"LocationId":"NT_uIpdEOvFE2dwg-4pGm15qD_5A","LocationType":"point","DisplayPosition":{"Latitude":49.70224,"Longitude":10.26577},"MapView":{"TopLeft":{"Latitude":49.7033642,"Longitude":10.2640319},"BottomRight":{"Latitude":49.7011158,"Longitude":10.2675081}},"Address":{"Label":"Einersheimer Straße 9, 97346 Iphofen, Deutschland","Country":"DEU","State":"Bayern","County":"Kitzingen","City":"Iphofen","District":"Iphofen","Street":"Einersheimer Straße","HouseNumber":"9","PostalCode":"97346","AdditionalData":[{"value":"Deutschland","key":"CountryName"},{"value":"Bayern","key":"StateName"},{"value":"Kitzingen","key":"CountyName"}]},"MapReference":{"ReferenceId":"1183121474","Spot":0.73,"SideOfStreet":"right","CountryId":"20147700","StateId":"20177250","CountyId":"20184524","CityId":"20184553","DistrictId":"20184555","AddressId":"183197485","RoadLinkId":"491450717"}}},{"Relevance":1.0,"Distance":45.1,"MatchLevel":"houseNumber","MatchQuality":{"Country":1.0,"State":1.0,"County":1.0,"City":1.0,"District":1.0,"Street":[1.0],"HouseNumber":1.0,"PostalCode":1.0},"MatchType":"interpolated","Location":{"LocationId":"NT_-m3aKQ8vppxo2fcRaHidnC_5IE","LocationType":"point","DisplayPosition":{"Latitude":49.70253,"Longitude":10.2666},"MapView":{"TopLeft":{"Latitude":49.7036542,"Longitude":10.2648619},"BottomRight":{"Latitude":49.7014058,"Longitude":10.2683381}},"Address":{"Label":"Kalbweg 9B, 97346 Iphofen, Deutschland","Country":"DEU","State":"Bayern","County":"Kitzingen","City":"Iphofen","District":"Iphofen","Street":"Kalbweg","HouseNumber":"9B","PostalCode":"97346","AdditionalData":[{"value":"Deutschland","key":"CountryName"},{"value":"Bayern","key":"StateName"},{"value":"Kitzingen","key":"CountyName"}]},"MapReference":{"ReferenceId":"1184850087","Spot":0.79,"SideOfStreet":"left","CountryId":"20147700","StateId":"20177250","CountyId":"20184524","CityId":"20184553","DistrictId":"20184555","AddressId":"249246964","RoadLinkId":"493079136"}}},{"Relevance":1.0,"Distance":57.9,"MatchLevel":"houseNumber","MatchQuality":{"Country":1.0,"State":1.0,"County":1.0,"City":1.0,"District":1.0,"Street":[1.0],"HouseNumber":1.0,"PostalCode":1.0},"MatchType":"interpolated","Location":{"LocationId":"NT_uIpdEOvFE2dwg-4pGm15qD_3A","LocationType":"point","DisplayPosition":{"Latitude":49.70281,"Longitude":10.26481},"MapView":{"TopLeft":{"Latitude":49.7039342,"Longitude":10.2630719},"BottomRight":{"Latitude":49.7016858,"Longitude":10.2665481}},"Address":{"Label":"Einersheimer Straße 7, 97346 Iphofen, Deutschland","Country":"DEU","State":"Bayern","County":"Kitzingen","City":"Iphofen","District":"Iphofen","Street":"Einersheimer Straße","HouseNumber":"7","PostalCode":"97346","AdditionalData":[{"value":"Deutschland","key":"CountryName"},{"value":"Bayern","key":"StateName"},{"value":"Kitzingen","key":"CountyName"}]},"MapReference":{"ReferenceId":"554359580","Spot":0.4,"SideOfStreet":"right","CountryId":"20147700","StateId":"20177250","CountyId":"20184524","CityId":"20184553","DistrictId":"20184555","AddressId":"183405890","RoadLinkId":"32867903"}}},{"Relevance":1.0,"Distance":69.0,"MatchLevel":"street","MatchQuality":{"Country":1.0,"State":1.0,"County":1.0,"City":1.0,"District":1.0,"Street":[1.0],"PostalCode":1.0},"Location":{"LocationId":"NT_d6vQoIz5lsd2pctdHBeMCB_l_1184850090_R","LocationType":"point","DisplayPosition":{"Latitude":49.70303,"Longitude":10.26615},"MapView":{"TopLeft":{"Latitude":49.70353,"Longitude":10.26615},"BottomRight":{"Latitude":49.70303,"Longitude":10.26701}},"Address":{"Label":"Birklinger Straße, 97346 Iphofen, Deutschland","Country":"DEU","State":"Bayern","County":"Kitzingen","City":"Iphofen","District":"Iphofen","Street":"Birklinger Straße","PostalCode":"97346","AdditionalData":[{"value":"Deutschland","key":"CountryName"},{"value":"Bayern","key":"StateName"},{"value":"Kitzingen","key":"CountyName"}]},"MapReference":{"ReferenceId":"1184850090","Spot":0.0,"SideOfStreet":"right","CountryId":"20147700","StateId":"20177250","CountyId":"20184524","CityId":"20184553","DistrictId":"20184555"}}}]}]}}