{"Response":{"MetaInfo":{"Timestamp":"2020-03-28T11:31:17.371+0000","NextPageInformation":"2"},"View":[{"_type":"SearchResultsViewType","ViewId":0,"Result":[{"Relevance":1.0,"Distance":0.0,"Direction":0.0,"MatchLevel":"district","MatchQuality":{"Country":1.0,"State":1.0,"County":1.0,"City":1.0,"District":1.0,"PostalCode":1.0},"Location":{"LocationId":"NT_V-mxakTqjI8TbnaAYtmbRD","LocationType":"point","DisplayPosition":{"Latitude":49.7718594,"Longitude":19.090354},"MapView":{"TopLeft":{"Latitude":49.77566,"Longitude":19.07473},"BottomRight":{"Latitude":49.74449,"Longitude":19.12503}},"Address":{"Label":"Wilkowice, Woj. Śląskie, Polska","Country":"POL","State":"Woj. Śląskie","County":"Powiat Bielski","City":"Wilkowice","District":"Wilkowice","PostalCode":"43-365","AdditionalData":[{"value":"Polska","key":"CountryName"},{"value":"Woj. Śląskie","key":"StateName"},{"value":"Powiat Bielski","key":"CountyName"}]},"MapReference":{"ReferenceId":"901325381","SideOfStreet":"neither","CountryId":"20624059","StateId":"20629003","CountyId":"20629056","CityId":"20629075","DistrictId":"20693278"}}},{"Relevance":1.0,"Distance":8.4,"MatchLevel":"street","MatchQuality":{"Country":1.0,"State":1.0,"County":1.0,"City":1.0,"District":1.0,"Street":[1.0],"PostalCode":1.0},"Location":{"LocationId":"NT_BZQEimFpgbePR-DoBstqKA_l_806100384_R","LocationType":"point","DisplayPosition":{"Latitude":49.7718105,"Longitude":19.0902643},"MapView":{"TopLeft":{"Latitude":49.77191,"Longitude":19.09021},"BottomRight":{"Latitude":49.77173,"Longitude":19.0903}},"Address":{"Label":"ulica Żywiecka, 43-365 Wilkowice, Polska","Country":"POL","State":"Woj. Śląskie","County":"Powiat Bielski","City":"Wilkowice","District":"Wilkowice","Street":"ulica Żywiecka","PostalCode":"43-365","AdditionalData":[{"value":"Polska","key":"CountryName"},{"value":"Woj. Śląskie","key":"StateName"},{"value":"Powiat Bielski","key":"CountyName"}]},"MapReference":{"ReferenceId":"806100384","Spot":0.44,"SideOfStreet":"right","CountryId":"20624059","StateId":"20629003","CountyId":"20629056","CityId":"20629075","DistrictId":"20693278"}}},{"Relevance":1.0,"Distance":11.3,"MatchLevel":"street","MatchQuality":{"Country":1.0,"State":1.0,"County":1.0,"City":1.0,"District":1.0,"PostalCode":1.0},"Location":{"LocationId":"NT_f3H4BtEAg3vgYtrtF2gRWC_l_708358993_R","LocationType":"point","DisplayPosition":{"Latitude":49.7719564,"Longitude":19.090308},"MapView":{"TopLeft":{"Latitude":49.77206,"Longitude":19.09021},"BottomRight":{"Latitude":49.77191,"Longitude":19.09044}},"Address":{"Label":"43-365 Wilkowice, Polska","Country":"POL","State":"Woj. Śląskie","County":"Powiat Bielski","City":"Wilkowice","District":"Wilkowice","PostalCode":"43-365","AdditionalData":[{"value":"Polska","key":"CountryName"},{"value":"Woj. Śląskie","key":"StateName"},{"value":"Powiat Bielski","key":"CountyName"}]},"MapReference":{"ReferenceId":"708358993","Spot":0.38,"SideOfStreet":"right","CountryId":"20624059","StateId":"20629003","CountyId":"20629056","CityId":"20629075","DistrictId":"20693278"}}},{"Relevance":1.0,"Distance":11.8,"MatchLevel":"street","MatchQuality":{"Country":1.0,"State":1.0,"County":1.0,"City":1.0,"District":1.0,"Street":[1.0],"PostalCode":1.0},"Location":{"LocationId":"NT_BZQEimFpgbePR-DoBstqKA_l_594421563_R","LocationType":"point","DisplayPosition":{"Latitude":49.77191,"Longitude":19.09021},"MapView":{"TopLeft":{"Latitude":49.77208,"Longitude":19.09009},"BottomRight":{"Latitude":49.77191,"Longitude":19.09021}},"Address":{"Label":"ulica Żywiecka, 43-365 Wilkowice, Polska","Country":"POL","State":"Woj. Śląskie","County":"Powiat Bielski","City":"Wilkowice","District":"Wilkowice","Street":"ulica Żywiecka","PostalCode":"43-365","AdditionalData":[{"value":"Polska","key":"CountryName"},{"value":"Woj. Śląskie","key":"StateName"},{"value":"Powiat Bielski","key":"CountyName"}]},"MapReference":{"ReferenceId":"594421563","Spot":0.0,"SideOfStreet":"right","CountryId":"20624059","StateId":"20629003","CountyId":"20629056","CityId":"20629075","DistrictId":"20693278"}}},{"Relevance":1.0,"Distance":23.1,"MatchLevel":"street","MatchQuality":{"Country":1.0,"State":1.0,"County":1.0,"City":1.0,"District":1.0,"PostalCode":1.0},"Location":{"LocationId":"NT_f3H4BtEAg3vgYtrtF2gRWC_l_708358994_L","LocationType":"point","DisplayPosition":{"Latitude":49.77206,"Longitude":19.09044},"MapView":{"TopLeft":{"Latitude":49.7723,"Longitude":19.09044},"BottomRight":{"Latitude":49.77206,"Longitude":19.09045}},"Address":{"Label":"43-365 Wilkowice, Polska","Country":"POL","State":"Woj. Śląskie","County":"Powiat Bielski","City":"Wilkowice","District":"Wilkowice","PostalCode":"43-365","AdditionalData":[{"value":"Polska","key":"CountryName"},{"value":"Woj. Śląskie","key":"StateName"},{"value":"Powiat Bielski","key":"CountyName"}]},"MapReference":{"ReferenceId":"708358994","Spot":0.0,"SideOfStreet":"left","CountryId":"20624059","StateId":"20629003","CountyId":"20629056","CityId":"20629075","DistrictId":"20693278"}}},{"Relevance":1.0,"Distance":31.1,"MatchLevel":"houseNumber","MatchQuality":{"Country":1.0,"State":1.0,"County":1.0,"City":1.0,"District":1.0,"Street":[1.0],"HouseNumber":1.0,"PostalCode":1.0},"MatchType":"interpolated","Location":{"LocationId":"NT_BZQEimFpgbePR-DoBstqKA_yMD","LocationType":"point","DisplayPosition":{"Latitude":49.77158,"Longitude":19.09034},"MapView":{"TopLeft":{"Latitude":49.7727042,"Longitude":19.0885994},"BottomRight":{"Latitude":49.7704558,"Longitude":19.0920806}},"Address":{"Label":"ulica Żywiecka 23, 43-365 Wilkowice, Polska","Country":"POL","State":"Woj. Śląskie","County":"Powiat Bielski","City":"Wilkowice","District":"Wilkowice","Street":"ulica Żywiecka","HouseNumber":"23","PostalCode":"43-365","AdditionalData":[{"value":"Polska","key":"CountryName"},{"value":"Woj. Śląskie","key":"StateName"},{"value":"Powiat Bielski","key":"CountyName"}]},"MapReference":{"ReferenceId":"806100386","Spot":0.7,"SideOfStreet":"right","CountryId":"20624059","StateId":"20629003","CountyId":"20629056","CityId":"20629075","DistrictId":"20693278","AddressId":"353143602","RoadLinkId":"193817637"}}},{"Relevance":1.0,"Distance":31.9,"MatchLevel":"houseNumber","MatchQuality":{"Country":1.0,"State":1.0,"County":1.0,"City":1.0,"District":1.0,"Street":[1.0],"HouseNumber":1.0,"PostalCode":1.0},"MatchType":"interpolated","Location":{"LocationId":"NT_yCP4PGafdA2aRErBdP0fJA_zA","LocationType":"point","DisplayPosition":{"Latitude":49.77176,"Longitude":19.08979},"MapView":{"TopLeft":{"Latitude":49.7728842,"Longitude":19.0880494},"BottomRight":{"Latitude":49.7706358,"Longitude":19.0915306}},"Address":{"Label":"ulica Warzywna 3, 43-365 Wilkowice, Polska","Country":"POL","State":"Woj. Śląskie","County":"Powiat Bielski","City":"Wilkowice","District":"Wilkowice","Street":"ulica Warzywna","HouseNumber":"3","PostalCode":"43-365","AdditionalData":[{"value":"Polska","key":"CountryName"},{"value":"Woj. Śląskie","key":"StateName"},{"value":"Powiat Bielski","key":"CountyName"}]},"MapReference":{"ReferenceId":"594421599","Spot":0.71,"SideOfStreet":"right","CountryId":"20624059","StateId":"20629003","CountyId":"20629056","CityId":"20629075","DistrictId":"20693278","AddressId":"353328326","RoadLinkId":"96497815"}}},{"Relevance":1.0,"Distance":49.5,"MatchLevel":"street","MatchQuality":{"Country":1.0,"State":1.0,"County":1.0,"City":1.0,"District":1.0,"PostalCode":1.0},"Location":{"LocationId":"NT_f3H4BtEAg3vgYtrtF2gRWC_l_594421546_L","LocationType":"point","DisplayPosition":{"Latitude":49.7723,"Longitude":19.09045},"MapView":{"TopLeft":{"Latitude":49.773,"Longitude":19.09011},"BottomRight":{"Latitude":49.7723,"Longitude":19.09045}},"Address":{"Label":"43-365 Wilkowice, Polska","Country":"POL","State":"Woj. Śląskie","County":"Powiat Bielski","City":"Wilkowice","District":"Wilkowice","PostalCode":"43-365","AdditionalData":[{"value":"Polska","key":"CountryName"},{"value":"Woj. Śląskie","key":"StateName"},{"value":"Powiat Bielski","key":"CountyName"}]},"MapReference":{"ReferenceId":"594421546","Spot":0.0,"SideOfStreet":"left","CountryId":"20624059","StateId":"20629003","CountyId":"20629056","CityId":"20629075","DistrictId":"20693278"}}},{"Relevance":1.0,"Distance":49.5,"MatchLevel":"street","MatchQuality":{"Country":1.0,"State":1.0,"County":1.0,"City":1.0,"District":1.0,"PostalCode":1.0},"Location":{"LocationId":"NT_f3H4BtEAg3vgYtrtF2gRWC_l_594421545_R","LocationType":"point","DisplayPosition":{"Latitude":49.7723,"Longitude":19.09045},"MapView":{"TopLeft":{"Latitude":49.77255,"Longitude":19.09045},"BottomRight":{"Latitude":49.7723,"Longitude":19.09106}},"Address":{"Label":"43-365 Wilkowice, Polska","Country":"POL","State":"Woj. Śląskie","County":"Powiat Bielski","City":"Wilkowice","District":"Wilkowice","PostalCode":"43-365","AdditionalData":[{"value":"Polska","key":"CountryName"},{"value":"Woj. Śląskie","key":"StateName"},{"value":"Powiat Bielski","key":"CountyName"}]},"MapReference":{"ReferenceId":"594421545","Spot":0.0,"SideOfStreet":"right","CountryId":"20624059","StateId":"20629003","CountyId":"20629056","CityId":"20629075","DistrictId":"20693278"}}},{"Relevance":1.0,"Distance":52.1,"MatchLevel":"houseNumber","MatchQuality":{"Country":1.0,"State":1.0,"County":1.0,"City":1.0,"District":1.0,"Street":[1.0],"HouseNumber":1.0,"PostalCode":1.0},"MatchType":"interpolated","Location":{"LocationId":"NT_Nt-r.TtOPcVP6vp6meWocD_1A","LocationType":"point","DisplayPosition":{"Latitude":49.77164,"Longitude":19.09131},"MapView":{"TopLeft":{"Latitude":49.7727642,"Longitude":19.0895694},"BottomRight":{"Latitude":49.7705158,"Longitude":19.0930506}},"Address":{"Label":"ulica Borowa 5, 43-365 Wilkowice, Polska","Country":"POL","State":"Woj. Śląskie","County":"Powiat Bielski","City":"Wilkowice","District":"Wilkowice","Street":"ulica Borowa","HouseNumber":"5","PostalCode":"43-365","AdditionalData":[{"value":"Polska","key":"CountryName"},{"value":"Woj. Śląskie","key":"StateName"},{"value":"Powiat Bielski","key":"CountyName"}]},"MapReference":{"ReferenceId":"594421606","Spot":0.4,"SideOfStreet":"left","CountryId":"20624059","StateId":"20629003","CountyId":"20629056","CityId":"20629075","DistrictId":"20693278","AddressId":"353286480","RoadLinkId":"96515381"}}}]}]}}