{"Response":{"MetaInfo":{"Timestamp":"2020-03-28T11:42:44.374+0000","NextPageInformation":"2"},"View":[{"_type":"SearchResultsViewType","ViewId":0,"Result":[{"Relevance":1.0,"Distance":0.0,"Direction":0.0,"MatchLevel":"district","MatchQuality":{"Country":1.0,"State":1.0,"County":1.0,"City":1.0,"District":1.0,"PostalCode":1.0},"Location":{"LocationId":"NT_6V2jbD6L8A9iIzidYS-5KB","LocationType":"point","DisplayPosition":{"Latitude":49.7340158,"Longitude":8.573439},"MapView":{"TopLeft":{"Latitude":49.74165,"Longitude":8.56469},"BottomRight":{"Latitude":49.73221,"Longitude":8.58017}},"Address":{"Label":"Hähnlein, Alsbach-Hähnlein, Hessen, Deutschland","Country":"DEU","State":"Hessen","County":"Darmstadt-Dieburg","City":"Alsbach-Hähnlein","District":"Hähnlein","PostalCode":"64665","AdditionalData":[{"value":"Deutschland","key":"CountryName"},{"value":"Hessen","key":"StateName"},{"value":"Darmstadt-Dieburg","key":"CountyName"}]},"MapReference":{"ReferenceId":"956179465","SideOfStreet":"neither","CountryId":"20147700","StateId":"20160993","CountyId":"20161151","CityId":"20161152","DistrictId":"20161154"}}},{"Relevance":1.0,"Distance":4.1,"MatchLevel":"houseNumber","MatchQuality":{"Country":1.0,"State":1.0,"County":1.0,"City":1.0,"District":1.0,"Street":[1.0],"HouseNumber":1.0,"PostalCode":1.0},"MatchType":"interpolated","Location":{"LocationId":"NT_qtw-dEI.NsRfTZ6ha3DMtB_zcD","LocationType":"point","DisplayPosition":{"Latitude":49.73402,"Longitude":8.57352},"MapView":{"TopLeft":{"Latitude":49.7351442,"Longitude":8.5717807},"BottomRight":{"Latitude":49.7328958,"Longitude":8.5752593}},"Address":{"Label":"Rodauer Straße 37, 64665 Alsbach-Hähnlein, Deutschland","Country":"DEU","State":"Hessen","County":"Darmstadt-Dieburg","City":"Alsbach-Hähnlein","District":"Hähnlein","Street":"Rodauer Straße","HouseNumber":"37","PostalCode":"64665","AdditionalData":[{"value":"Deutschland","key":"CountryName"},{"value":"Hessen","key":"StateName"},{"value":"Darmstadt-Dieburg","key":"CountyName"}]},"MapReference":{"ReferenceId":"61984487","Spot":0.74,"SideOfStreet":"left","CountryId":"20147700","StateId":"20160993","CountyId":"20161151","CityId":"20161152","DistrictId":"20161154","AddressId":"187740404","RoadLinkId":"34616892"}}},{"Relevance":1.0,"Distance":49.9,"MatchLevel":"houseNumber","MatchQuality":{"Country":1.0,"State":1.0,"County":1.0,"City":1.0,"District":1.0,"Street":[1.0],"HouseNumber":1.0,"PostalCode":1.0},"MatchType":"interpolated","Location":{"LocationId":"NT_-tqYGfMFrTqgD.ttnB2g5C_xYTQ","LocationType":"point","DisplayPosition":{"Latitude":49.73321,"Longitude":8.57433},"MapView":{"TopLeft":{"Latitude":49.7343342,"Longitude":8.5725908},"BottomRight":{"Latitude":49.7320858,"Longitude":8.5760692}},"Address":{"Label":"Am Holzlachgraben 16A, 64665 Alsbach-Hähnlein, Deutschland","Country":"DEU","State":"Hessen","County":"Darmstadt-Dieburg","City":"Alsbach-Hähnlein","District":"Hähnlein","Street":"Am Holzlachgraben","HouseNumber":"16A","PostalCode":"64665","AdditionalData":[{"value":"Deutschland","key":"CountryName"},{"value":"Hessen","key":"StateName"},{"value":"Darmstadt-Dieburg","key":"CountyName"}]},"MapReference":{"ReferenceId":"61984387","Spot":0.57,"SideOfStreet":"left","CountryId":"20147700","StateId":"20160993","CountyId":"20161151","CityId":"20161152","DistrictId":"20161154","AddressId":"186805669","RoadLinkId":"34308891"}}},{"Relevance":1.0,"Distance":63.3,"MatchLevel":"houseNumber","MatchQuality":{"Country":1.0,"State":1.0,"County":1.0,"City":1.0,"District":1.0,"Street":[1.0],"HouseNumber":1.0,"PostalCode":1.0},"MatchType":"interpolated","Location":{"LocationId":"NT_UIUtADoM00B3U3luLRsHzC_zED","LocationType":"point","DisplayPosition":{"Latitude":49.7346,"Longitude":8.57286},"MapView":{"TopLeft":{"Latitude":49.7357242,"Longitude":8.5711207},"BottomRight":{"Latitude":49.7334758,"Longitude":8.5745993}},"Address":{"Label":"Ringweg 31, 64665 Alsbach-Hähnlein, Deutschland","Country":"DEU","State":"Hessen","County":"Darmstadt-Dieburg","City":"Alsbach-Hähnlein","District":"Hähnlein","Street":"Ringweg","HouseNumber":"31","PostalCode":"64665","AdditionalData":[{"value":"Deutschland","key":"CountryName"},{"value":"Hessen","key":"StateName"},{"value":"Darmstadt-Dieburg","key":"CountyName"}]},"MapReference":{"ReferenceId":"61984482","Spot":0.8,"SideOfStreet":"right","CountryId":"20147700","StateId":"20160993","CountyId":"20161151","CityId":"20161152","DistrictId":"20161154","AddressId":"186567073","RoadLinkId":"33937232"}}},{"Relevance":1.0,"Distance":71.4,"MatchLevel":"houseNumber","MatchQuality":{"Country":1.0,"State":1.0,"County":1.0,"City":1.0,"District":1.0,"Street":[1.0],"HouseNumber":1.0,"PostalCode":1.0},"MatchType":"interpolated","Location":{"LocationId":"NT_qtw-dEI.NsRfTZ6ha3DMtB_ycTQ","LocationType":"point","DisplayPosition":{"Latitude":49.73449,"Longitude":8.57412},"MapView":{"TopLeft":{"Latitude":49.7356142,"Longitude":8.5723807},"BottomRight":{"Latitude":49.7333658,"Longitude":8.5758593}},"Address":{"Label":"Rodauer Straße 27A, 64665 Alsbach-Hähnlein, Deutschland","Country":"DEU","State":"Hessen","County":"Darmstadt-Dieburg","City":"Alsbach-Hähnlein","District":"Hähnlein","Street":"Rodauer Straße","HouseNumber":"27A","PostalCode":"64665","AdditionalData":[{"value":"Deutschland","key":"CountryName"},{"value":"Hessen","key":"StateName"},{"value":"Darmstadt-Dieburg","key":"CountyName"}]},"MapReference":{"ReferenceId":"61984488","Spot":0.03,"SideOfStreet":"left","CountryId":"20147700","StateId":"20160993","CountyId":"20161151","CityId":"20161152","DistrictId":"20161154","AddressId":"187750013","RoadLinkId":"34038514"}}},{"Relevance":1.0,"Distance":94.7,"MatchLevel":"houseNumber","MatchQuality":{"Country":1.0,"State":1.0,"County":1.0,"City":1.0,"District":1.0,"Street":[1.0],"HouseNumber":1.0,"PostalCode":1.0},"MatchType":"interpolated","Location":{"LocationId":"NT_CCXKDc6wXOTCZaBASxJCLA_zA","LocationType":"point","DisplayPosition":{"Latitude":49.7342,"Longitude":8.57479},"MapView":{"TopLeft":{"Latitude":49.7353242,"Longitude":8.5730507},"BottomRight":{"Latitude":49.7330758,"Longitude":8.5765293}},"Address":{"Label":"Täubchesweg 3, 64665 Alsbach-Hähnlein, Deutschland","Country":"DEU","State":"Hessen","County":"Darmstadt-Dieburg","City":"Alsbach-Hähnlein","District":"Hähnlein","Street":"Täubchesweg","HouseNumber":"3","PostalCode":"64665","AdditionalData":[{"value":"Deutschland","key":"CountryName"},{"value":"Hessen","key":"StateName"},{"value":"Darmstadt-Dieburg","key":"CountyName"}]},"MapReference":{"ReferenceId":"567294532","Spot":0.35,"SideOfStreet":"left","CountryId":"20147700","StateId":"20160993","CountyId":"20161151","CityId":"20161152","DistrictId":"20161154","AddressId":"186645550","RoadLinkId":"34849350"}}},{"Relevance":1.0,"Distance":101.5,"MatchLevel":"houseNumber","MatchQuality":{"Country":1.0,"State":1.0,"County":1.0,"City":1.0,"District":1.0,"Street":[1.0],"HouseNumber":1.0,"PostalCode":1.0},"MatchType":"interpolated","Location":{"LocationId":"NT_I0ec8mlliabAh2bWTfRUlB_yA","LocationType":"point","DisplayPosition":{"Latitude":49.73497,"Longitude":8.57383},"MapView":{"TopLeft":{"Latitude":49.7360942,"Longitude":8.5720907},"BottomRight":{"Latitude":49.7338458,"Longitude":8.5755693}},"Address":{"Label":"Marktstraße 2, 64665 Alsbach-Hähnlein, Deutschland","Country":"DEU","State":"Hessen","County":"Darmstadt-Dieburg","City":"Alsbach-Hähnlein","District":"Hähnlein","Street":"Marktstraße","HouseNumber":"2","PostalCode":"64665","AdditionalData":[{"value":"Deutschland","key":"CountryName"},{"value":"Hessen","key":"StateName"},{"value":"Darmstadt-Dieburg","key":"CountyName"}]},"MapReference":{"ReferenceId":"61984481","Spot":0.59,"SideOfStreet":"left","CountryId":"20147700","StateId":"20160993","CountyId":"20161151","CityId":"20161152","DistrictId":"20161154","AddressId":"187718667","RoadLinkId":"34226213"}}},{"Relevance":1.0,"Distance":111.3,"MatchLevel":"houseNumber","MatchQuality":{"Country":1.0,"State":1.0,"County":1.0,"City":1.0,"District":1.0,"Street":[1.0],"HouseNumber":1.0,"PostalCode":1.0},"MatchType":"interpolated","Location":{"LocationId":"NT_4IZfZm-FQKa7kvVrt9OZgB_yA","LocationType":"point","DisplayPosition":{"Latitude":49.73491,"Longitude":8.57243},"MapView":{"TopLeft":{"Latitude":49.7360342,"Longitude":8.5706907},"BottomRight":{"Latitude":49.7337858,"Longitude":8.5741693}},"Address":{"Label":"Gartenstraße 2, 64665 Alsbach-Hähnlein, Deutschland","Country":"DEU","State":"Hessen","County":"Darmstadt-Dieburg","City":"Alsbach-Hähnlein","District":"Hähnlein","Street":"Gartenstraße","HouseNumber":"2","PostalCode":"64665","AdditionalData":[{"value":"Deutschland","key":"CountryName"},{"value":"Hessen","key":"StateName"},{"value":"Darmstadt-Dieburg","key":"CountyName"}]},"MapReference":{"ReferenceId":"61984485","Spot":0.87,"SideOfStreet":"right","CountryId":"20147700","StateId":"20160993","CountyId":"20161151","CityId":"20161152","DistrictId":"20161154","AddressId":"186709567","RoadLinkId":"33939673"}}},{"Relevance":1.0,"Distance":115.6,"MatchLevel":"houseNumber","MatchQuality":{"Country":1.0,"State":1.0,"County":1.0,"City":1.0,"District":1.0,"Street":[1.0],"HouseNumber":1.0,"PostalCode":1.0},"MatchType":"interpolated","Location":{"LocationId":"NT_I0ec8mlliabAh2bWTfRUlB_0A","LocationType":"point","DisplayPosition":{"Latitude":49.73511,"Longitude":8.5733},"MapView":{"TopLeft":{"Latitude":49.7362342,"Longitude":8.5715607},"BottomRight":{"Latitude":49.7339858,"Longitude":8.5750393}},"Address":{"Label":"Marktstraße 4, 64665 Alsbach-Hähnlein, Deutschland","Country":"DEU","State":"Hessen","County":"Darmstadt-Dieburg","City":"Alsbach-Hähnlein","District":"Hähnlein","Street":"Marktstraße","HouseNumber":"4","PostalCode":"64665","AdditionalData":[{"value":"Deutschland","key":"CountryName"},{"value":"Hessen","key":"StateName"},{"value":"Darmstadt-Dieburg","key":"CountyName"}]},"MapReference":{"ReferenceId":"61984483","Spot":0.2,"SideOfStreet":"left","CountryId":"20147700","StateId":"20160993","CountyId":"20161151","CityId":"20161152","DistrictId":"20161154","AddressId":"187659308","RoadLinkId":"34558348"}}},{"Relevance":1.0,"Distance":126.2,"MatchLevel":"houseNumber","MatchQuality":{"Country":1.0,"State":1.0,"County":1.0,"City":1.0,"District":1.0,"Street":[1.0],"HouseNumber":1.0,"PostalCode":1.0},"MatchType":"interpolated","Location":{"LocationId":"NT_qtw-dEI.NsRfTZ6ha3DMtB_ygD","LocationType":"point","DisplayPosition":{"Latitude":49.73491,"Longitude":8.57452},"MapView":{"TopLeft":{"Latitude":49.7360342,"Longitude":8.5727807},"BottomRight":{"Latitude":49.7337858,"Longitude":8.5762593}},"Address":{"Label":"Rodauer Straße 28, 64665 Alsbach-Hähnlein, Deutschland","Country":"DEU","State":"Hessen","County":"Darmstadt-Dieburg","City":"Alsbach-Hähnlein","District":"Hähnlein","Street":"Rodauer Straße","HouseNumber":"28","PostalCode":"64665","AdditionalData":[{"value":"Deutschland","key":"CountryName"},{"value":"Hessen","key":"StateName"},{"value":"Darmstadt-Dieburg","key":"CountyName"}]},"MapReference":{"ReferenceId":"52606245","Spot":0.09,"SideOfStreet":"right","CountryId":"20147700","StateId":"20160993","CountyId":"20161151","CityId":"20161152","DistrictId":"20161154","AddressId":"187629647","RoadLinkId":"34275193"}}}]}]}}