{"Response":{"MetaInfo":{"Timestamp":"2020-03-28T11:39:36.453+0000","NextPageInformation":"2"},"View":[{"_type":"SearchResultsViewType","ViewId":0,"Result":[{"Relevance":1.0,"Distance":0.0,"Direction":0.0,"MatchLevel":"city","MatchQuality":{"Country":1.0,"State":1.0,"County":1.0,"City":1.0,"PostalCode":1.0},"Location":{"LocationId":"NT_d15c50OH6XUXzzhtyt0s7A","LocationType":"point","DisplayPosition":{"Latitude":49.7950117,"Longitude":5.0708006},"MapView":{"TopLeft":{"Latitude":49.88353,"Longitude":4.96832},"BottomRight":{"Latitude":49.70938,"Longitude":5.18965}},"Address":{"Label":"Bouillon, Wallonie, Belgique","Country":"BEL","State":"Wallonie","County":"Luxembourg","City":"Bouillon","PostalCode":"6830","AdditionalData":[{"value":"Belgique","key":"CountryName"},{"value":"Wallonie","key":"StateName"},{"value":"Luxembourg","key":"CountyName"}]},"MapReference":{"ReferenceId":"567262250","SideOfStreet":"neither","CountryId":"20128886","StateId":"20205526","CountyId":"20206990","CityId":"20207173"}}},{"Relevance":1.0,"Distance":7.2,"MatchLevel":"houseNumber","MatchQuality":{"Country":1.0,"State":1.0,"County":1.0,"City":1.0,"Street":[1.0],"HouseNumber":1.0,"PostalCode":1.0},"MatchType":"interpolated","Location":{"LocationId":"NT_gCbU0BwpdLWuX0Ltn8XitB_0A","LocationType":"point","DisplayPosition":{"Latitude":49.79493,"Longitude":5.07097},"MapView":{"TopLeft":{"Latitude":49.7960542,"Longitude":5.0692285},"BottomRight":{"Latitude":49.7938058,"Longitude":5.0727115}},"Address":{"Label":"Rue de la Maladrerie 4, 6830 Bouillon, Belgique","Country":"BEL","State":"Wallonie","County":"Luxembourg","City":"Bouillon","Street":"Rue de la Maladrerie","HouseNumber":"4","PostalCode":"6830","AdditionalData":[{"value":"Belgique","key":"CountryName"},{"value":"Wallonie","key":"StateName"},{"value":"Luxembourg","key":"CountyName"}]},"MapReference":{"ReferenceId":"53976153","Spot":0.41,"SideOfStreet":"left","CountryId":"20128886","StateId":"20205526","CountyId":"20206990","CityId":"20207173","AddressId":"673744471","RoadLinkId":"30442725"}}},{"Relevance":1.0,"Distance":11.3,"MatchLevel":"houseNumber","MatchQuality":{"Country":1.0,"State":1.0,"County":1.0,"City":1.0,"Street":[1.0],"HouseNumber":1.0,"PostalCode":1.0},"MatchType":"interpolated","Location":{"LocationId":"NT_udw-h0j7I6CfqZAg3c.ZTA_yA","LocationType":"point","DisplayPosition":{"Latitude":49.79492,"Longitude":5.0707},"MapView":{"TopLeft":{"Latitude":49.7960442,"Longitude":5.0689585},"BottomRight":{"Latitude":49.7937958,"Longitude":5.0724415}},"Address":{"Label":"Quai de la Maladrerie 2, 6830 Bouillon, Belgique","Country":"BEL","State":"Wallonie","County":"Luxembourg","City":"Bouillon","Street":"Quai de la Maladrerie","HouseNumber":"2","PostalCode":"6830","AdditionalData":[{"value":"Belgique","key":"CountryName"},{"value":"Wallonie","key":"StateName"},{"value":"Luxembourg","key":"CountyName"}]},"MapReference":{"ReferenceId":"53976151","Spot":0.41,"SideOfStreet":"right","CountryId":"20128886","StateId":"20205526","CountyId":"20206990","CityId":"20207173","AddressId":"673740436","RoadLinkId":"30341074"}}},{"Relevance":1.0,"Distance":18.0,"MatchLevel":"houseNumber","MatchQuality":{"Country":1.0,"State":1.0,"County":1.0,"City":1.0,"Street":[1.0],"HouseNumber":1.0,"PostalCode":1.0},"MatchType":"interpolated","Location":{"LocationId":"NT_Zv-Koc1sSvveLe10f1Fs-A_5A","LocationType":"point","DisplayPosition":{"Latitude":49.79472,"Longitude":5.07069},"MapView":{"TopLeft":{"Latitude":49.7958442,"Longitude":5.0689486},"BottomRight":{"Latitude":49.7935958,"Longitude":5.0724314}},"Address":{"Label":"Place Saint-Arnould 9, 6830 Bouillon, Belgique","Country":"BEL","State":"Wallonie","County":"Luxembourg","City":"Bouillon","Street":"Place Saint-Arnould","HouseNumber":"9","PostalCode":"6830","AdditionalData":[{"value":"Belgique","key":"CountryName"},{"value":"Wallonie","key":"StateName"},{"value":"Luxembourg","key":"CountyName"}]},"MapReference":{"ReferenceId":"53905399","Spot":0.53,"SideOfStreet":"right","CountryId":"20128886","StateId":"20205526","CountyId":"20206990","CityId":"20207173","AddressId":"673722238","RoadLinkId":"30987602"}}},{"Relevance":1.0,"Distance":23.1,"MatchLevel":"street","MatchQuality":{"Country":1.0,"State":1.0,"County":1.0,"City":1.0,"Street":[1.0],"PostalCode":1.0},"Location":{"LocationId":"NT_Sf93YqidRhh4SUqJ994g.D_l_53976149_L","LocationType":"point","DisplayPosition":{"Latitude":49.7952183,"Longitude":5.0708312},"MapView":{"TopLeft":{"Latitude":49.79522,"Longitude":5.07082},"BottomRight":{"Latitude":49.79518,"Longitude":5.07109}},"Address":{"Label":"Rue de la Clouterie, 6830 Bouillon, Belgique","Country":"BEL","State":"Wallonie","County":"Luxembourg","City":"Bouillon","Street":"Rue de la Clouterie","PostalCode":"6830","AdditionalData":[{"value":"Belgique","key":"CountryName"},{"value":"Wallonie","key":"StateName"},{"value":"Luxembourg","key":"CountyName"}]},"MapReference":{"ReferenceId":"53976149","Spot":0.96,"SideOfStreet":"left","CountryId":"20128886","StateId":"20205526","CountyId":"20206990","CityId":"20207173"}}},{"Relevance":1.0,"Distance":24.8,"MatchLevel":"street","MatchQuality":{"Country":1.0,"State":1.0,"County":1.0,"City":1.0,"Street":[1.0],"PostalCode":1.0},"Location":{"LocationId":"NT_XKmNaB4mnivRjOl8hIfs6C_l_567264077_R","LocationType":"point","DisplayPosition":{"Latitude":49.79488,"Longitude":5.07108},"MapView":{"TopLeft":{"Latitude":49.79488,"Longitude":5.07108},"BottomRight":{"Latitude":49.79471,"Longitude":5.07197}},"Address":{"Label":"Sentier du Moniquet, 6830 Bouillon, Belgique","Country":"BEL","State":"Wallonie","County":"Luxembourg","City":"Bouillon","Street":"Sentier du Moniquet","PostalCode":"6830","AdditionalData":[{"value":"Belgique","key":"CountryName"},{"value":"Wallonie","key":"StateName"},{"value":"Luxembourg","key":"CountyName"}]},"MapReference":{"ReferenceId":"567264077","Spot":1.0,"SideOfStreet":"right","CountryId":"20128886","StateId":"20205526","CountyId":"20206990","CityId":"20207173"}}},{"Relevance":1.0,"Distance":26.4,"MatchLevel":"street","MatchQuality":{"Country":1.0,"State":1.0,"County":1.0,"City":1.0,"Street":[1.0],"PostalCode":1.0},"Location":{"LocationId":"NT_yjdnodbjBGvtUN4Aa7aqBC_l_567264074_L","LocationType":"point","DisplayPosition":{"Latitude":49.7947893,"Longitude":5.0709303},"MapView":{"TopLeft":{"Latitude":49.79488,"Longitude":5.07088},"BottomRight":{"Latitude":49.79476,"Longitude":5.07108}},"Address":{"Label":"Voie Jocquée, 6830 Bouillon, Belgique","Country":"BEL","State":"Wallonie","County":"Luxembourg","City":"Bouillon","Street":"Voie Jocquée","PostalCode":"6830","AdditionalData":[{"value":"Belgique","key":"CountryName"},{"value":"Wallonie","key":"StateName"},{"value":"Luxembourg","key":"CountyName"}]},"MapReference":{"ReferenceId":"567264074","Spot":0.25,"SideOfStreet":"left","CountryId":"20128886","StateId":"20205526","CountyId":"20206990","CityId":"20207173"}}},{"Relevance":1.0,"Distance":26.6,"MatchLevel":"houseNumber","MatchQuality":{"Country":1.0,"State":1.0,"County":1.0,"City":1.0,"Street":[1.0],"HouseNumber":1.0,"PostalCode":1.0},"MatchType":"interpolated","Location":{"LocationId":"NT_udw-h0j7I6CfqZAg3c.ZTA_xATQ","LocationType":"point","DisplayPosition":{"Latitude":49.79525,"Longitude":5.07083},"MapView":{"TopLeft":{"Latitude":49.7963742,"Longitude":5.0690885},"BottomRight":{"Latitude":49.7941258,"Longitude":5.0725715}},"Address":{"Label":"Quai de la Maladrerie 10A, 6830 Bouillon, Belgique","Country":"BEL","State":"Wallonie","County":"Luxembourg","City":"Bouillon","Street":"Quai de la Maladrerie","HouseNumber":"10A","PostalCode":"6830","AdditionalData":[{"value":"Belgique","key":"CountryName"},{"value":"Wallonie","key":"StateName"},{"value":"Luxembourg","key":"CountyName"}]},"MapReference":{"ReferenceId":"843979684","Spot":0.2,"SideOfStreet":"right","CountryId":"20128886","StateId":"20205526","CountyId":"20206990","CityId":"20207173","AddressId":"673918270","RoadLinkId":"225432846"}}},{"Relevance":1.0,"Distance":28.6,"MatchLevel":"street","MatchQuality":{"Country":1.0,"State":1.0,"County":1.0,"City":1.0,"Street":[1.0],"PostalCode":1.0},"Location":{"LocationId":"NT_p0G2lvnEcUvpp5HGfTrMjB_l_53811853_L","LocationType":"point","DisplayPosition":{"Latitude":49.79476,"Longitude":5.07088},"MapView":{"TopLeft":{"Latitude":49.79476,"Longitude":5.07073},"BottomRight":{"Latitude":49.79463,"Longitude":5.07088}},"Address":{"Label":"Rue de la Maladrerie, 6830 Bouillon, Belgique","Country":"BEL","State":"Wallonie","County":"Luxembourg","City":"Bouillon","Street":"Rue de la Maladrerie","PostalCode":"6830","AdditionalData":[{"value":"Belgique","key":"CountryName"},{"value":"Wallonie","key":"StateName"},{"value":"Luxembourg","key":"CountyName"}]},"MapReference":{"ReferenceId":"53811853","Spot":1.0,"SideOfStreet":"left","CountryId":"20128886","StateId":"20205526","CountyId":"20206990","CityId":"20207173"}}},{"Relevance":1.0,"Distance":28.9,"MatchLevel":"houseNumber","MatchQuality":{"Country":1.0,"State":1.0,"County":1.0,"City":1.0,"Street":[1.0],"HouseNumber":1.0,"PostalCode":1.0},"MatchType":"interpolated","Location":{"LocationId":"NT_gCbU0BwpdLWuX0Ltn8XitB_xAD","LocationType":"point","DisplayPosition":{"Latitude":49.79521,"Longitude":5.0711},"MapView":{"TopLeft":{"Latitude":49.7963342,"Longitude":5.0693585},"BottomRight":{"Latitude":49.7940858,"Longitude":5.0728415}},"Address":{"Label":"Rue de la Maladrerie 10, 6830 Bouillon, Belgique","Country":"BEL","State":"Wallonie","County":"Luxembourg","City":"Bouillon","Street":"Rue de la Maladrerie","HouseNumber":"10","PostalCode":"6830","AdditionalData":[{"value":"Belgique","key":"CountryName"},{"value":"Wallonie","key":"StateName"},{"value":"Luxembourg","key":"CountyName"}]},"MapReference":{"ReferenceId":"567274500","Spot":0.07,"SideOfStreet":"left","CountryId":"20128886","StateId":"20205526","CountyId":"20206990","CityId":"20207173","AddressId":"673877668","RoadLinkId":"30644463"}}}]}]}}