{"Response":{"MetaInfo":{"Timestamp":"2020-03-28T11:44:18.341+0000","NextPageInformation":"2"},"View":[{"_type":"SearchResultsViewType","ViewId":0,"Result":[{"Relevance":1.0,"Distance":0.0,"Direction":0.0,"MatchLevel":"district","MatchQuality":{"Country":1.0,"State":1.0,"County":1.0,"City":1.0,"District":1.0,"PostalCode":1.0},"Location":{"LocationId":"NT_B4Aq0wVFDzDw39cZDEBA8D","LocationType":"point","DisplayPosition":{"Latitude":49.7125894,"Longitude":8.8377499},"MapView":{"TopLeft":{"Latitude":49.72133,"Longitude":8.82968},"BottomRight":{"Latitude":49.704,"Longitude":8.85055}},"Address":{"Label":"Reichelsheim (Odenwald), Hessen, Deutschland","Country":"DEU","State":"Hessen","County":"Odenwaldkreis","City":"Reichelsheim (Odenwald)","District":"Reichelsheim (Odenwald)","PostalCode":"64385","AdditionalData":[{"value":"Deutschland","key":"CountryName"},{"value":"Hessen","key":"StateName"},{"value":"Odenwaldkreis","key":"CountyName"}]},"MapReference":{"ReferenceId":"1037751480","SideOfStreet":"neither","CountryId":"20147700","StateId":"20160993","CountyId":"20161671","CityId":"20161741","DistrictId":"20161746"}}},{"Relevance":1.0,"Distance":11.9,"MatchLevel":"houseNumber","MatchQuality":{"Country":1.0,"State":1.0,"County":1.0,"City":1.0,"District":1.0,"Street":[1.0],"HouseNumber":1.0,"PostalCode":1.0},"MatchType":"interpolated","Location":{"LocationId":"NT_Ck3qbnr1eyQGFmzzUj9sFB_xUD","LocationType":"point","DisplayPosition":{"Latitude":49.71238,"Longitude":8.83789},"MapView":{"TopLeft":{"Latitude":49.7135042,"Longitude":8.8361515},"BottomRight":{"Latitude":49.7112558,"Longitude":8.8396285}},"Address":{"Label":"Heidelberger Straße 15, 64385 Reichelsheim (Odenwald), Deutschland","Country":"DEU","State":"Hessen","County":"Odenwaldkreis","City":"Reichelsheim (Odenwald)","District":"Reichelsheim (Odenwald)","Street":"Heidelberger Straße","HouseNumber":"15","PostalCode":"64385","AdditionalData":[{"value":"Deutschland","key":"CountryName"},{"value":"Hessen","key":"StateName"},{"value":"Odenwaldkreis","key":"CountyName"}]},"MapReference":{"ReferenceId":"61548888","Spot":0.49,"SideOfStreet":"left","CountryId":"20147700","StateId":"20160993","CountyId":"20161671","CityId":"20161741","DistrictId":"20161746","AddressId":"187634354","RoadLinkId":"34205010"}}},{"Relevance":1.0,"Distance":53.0,"MatchLevel":"houseNumber","MatchQuality":{"Country":1.0,"State":1.0,"County":1.0,"City":1.0,"District":1.0,"Street":[1.0],"HouseNumber":1.0,"PostalCode":1.0},"MatchType":"interpolated","Location":{"LocationId":"NT_Ck3qbnr1eyQGFmzzUj9sFB_yUD","LocationType":"point","DisplayPosition":{"Latitude":49.71234,"Longitude":8.83709},"MapView":{"TopLeft":{"Latitude":49.7134642,"Longitude":8.8353515},"BottomRight":{"Latitude":49.7112158,"Longitude":8.8388285}},"Address":{"Label":"Heidelberger Straße 25, 64385 Reichelsheim (Odenwald), Deutschland","Country":"DEU","State":"Hessen","County":"Odenwaldkreis","City":"Reichelsheim (Odenwald)","District":"Reichelsheim (Odenwald)","Street":"Heidelberger Straße","HouseNumber":"25","PostalCode":"64385","AdditionalData":[{"value":"Deutschland","key":"CountryName"},{"value":"Hessen","key":"StateName"},{"value":"Odenwaldkreis","key":"CountyName"}]},"MapReference":{"ReferenceId":"61548887","Spot":0.89,"SideOfStreet":"left","CountryId":"20147700","StateId":"20160993","CountyId":"20161671","CityId":"20161741","DistrictId":"20161746","AddressId":"187645539","RoadLinkId":"34635008"}}},{"Relevance":1.0,"Distance":54.9,"MatchLevel":"street","MatchQuality":{"Country":1.0,"State":1.0,"County":1.0,"City":1.0,"District":1.0,"Street":[1.0],"PostalCode":1.0},"Location":{"LocationId":"NT_ViSmUxLbo3Mb9AKkrhJ50D_l_61548934_L","LocationType":"point","DisplayPosition":{"Latitude":49.7126233,"Longitude":8.8385123},"MapView":{"TopLeft":{"Latitude":49.71314,"Longitude":8.8385},"BottomRight":{"Latitude":49.71245,"Longitude":8.83852}},"Address":{"Label":"Reichenberger Straße, 64385 Reichelsheim (Odenwald), Deutschland","Country":"DEU","State":"Hessen","County":"Odenwaldkreis","City":"Reichelsheim (Odenwald)","District":"Reichelsheim (Odenwald)","Street":"Reichenberger Straße","PostalCode":"64385","AdditionalData":[{"value":"Deutschland","key":"CountryName"},{"value":"Hessen","key":"StateName"},{"value":"Odenwaldkreis","key":"CountyName"}]},"MapReference":{"ReferenceId":"61548934","Spot":0.25,"SideOfStreet":"left","CountryId":"20147700","StateId":"20160993","CountyId":"20161671","CityId":"20161741","DistrictId":"20161746"}}},{"Relevance":1.0,"Distance":59.0,"MatchLevel":"houseNumber","MatchQuality":{"Country":1.0,"State":1.0,"County":1.0,"City":1.0,"District":1.0,"Street":[1.0],"HouseNumber":1.0,"PostalCode":1.0},"MatchType":"interpolated","Location":{"LocationId":"NT_hKtRP1nQ8SZTY3VjmO2i-B_yA","LocationType":"point","DisplayPosition":{"Latitude":49.7122,"Longitude":8.83718},"MapView":{"TopLeft":{"Latitude":49.7133242,"Longitude":8.8354415},"BottomRight":{"Latitude":49.7110758,"Longitude":8.8389185}},"Address":{"Label":"Alter Weg 2, 64385 Reichelsheim (Odenwald), Deutschland","Country":"DEU","State":"Hessen","County":"Odenwaldkreis","City":"Reichelsheim (Odenwald)","District":"Reichelsheim (Odenwald)","Street":"Alter Weg","HouseNumber":"2","PostalCode":"64385","AdditionalData":[{"value":"Deutschland","key":"CountryName"},{"value":"Hessen","key":"StateName"},{"value":"Odenwaldkreis","key":"CountyName"}]},"MapReference":{"ReferenceId":"61548931","Spot":0.88,"SideOfStreet":"right","CountryId":"20147700","StateId":"20160993","CountyId":"20161671","CityId":"20161741","DistrictId":"20161746","AddressId":"186723522","RoadLinkId":"34854423"}}},{"Relevance":1.0,"Distance":72.9,"MatchLevel":"houseNumber","MatchQuality":{"Country":1.0,"State":1.0,"County":1.0,"City":1.0,"District":1.0,"Street":[1.0],"HouseNumber":1.0,"PostalCode":1.0},"MatchType":"interpolated","Location":{"LocationId":"NT_Ck3qbnr1eyQGFmzzUj9sFB_3A","LocationType":"point","DisplayPosition":{"Latitude":49.71247,"Longitude":8.83877},"MapView":{"TopLeft":{"Latitude":49.7135942,"Longitude":8.8370315},"BottomRight":{"Latitude":49.7113458,"Longitude":8.8405085}},"Address":{"Label":"Heidelberger Straße 7, 64385 Reichelsheim (Odenwald), Deutschland","Country":"DEU","State":"Hessen","County":"Odenwaldkreis","City":"Reichelsheim (Odenwald)","District":"Reichelsheim (Odenwald)","Street":"Heidelberger Straße","HouseNumber":"7","PostalCode":"64385","AdditionalData":[{"value":"Deutschland","key":"CountryName"},{"value":"Hessen","key":"StateName"},{"value":"Odenwaldkreis","key":"CountyName"}]},"MapReference":{"ReferenceId":"832603699","Spot":0.76,"SideOfStreet":"left","CountryId":"20147700","StateId":"20160993","CountyId":"20161671","CityId":"20161741","DistrictId":"20161746","AddressId":"186730198","RoadLinkId":"215737603"}}},{"Relevance":1.0,"Distance":82.1,"MatchLevel":"street","MatchQuality":{"Country":1.0,"State":1.0,"County":1.0,"City":1.0,"District":1.0,"Street":[1.0],"PostalCode":1.0},"Location":{"LocationId":"NT_ViSmUxLbo3Mb9AKkrhJ50D_l_61548969_L","LocationType":"point","DisplayPosition":{"Latitude":49.71314,"Longitude":8.83851},"MapView":{"TopLeft":{"Latitude":49.71331,"Longitude":8.83851},"BottomRight":{"Latitude":49.71314,"Longitude":8.83859}},"Address":{"Label":"Reichenberger Straße, 64385 Reichelsheim (Odenwald), Deutschland","Country":"DEU","State":"Hessen","County":"Odenwaldkreis","City":"Reichelsheim (Odenwald)","District":"Reichelsheim (Odenwald)","Street":"Reichenberger Straße","PostalCode":"64385","AdditionalData":[{"value":"Deutschland","key":"CountryName"},{"value":"Hessen","key":"StateName"},{"value":"Odenwaldkreis","key":"CountyName"}]},"MapReference":{"ReferenceId":"61548969","Spot":0.0,"SideOfStreet":"left","CountryId":"20147700","StateId":"20160993","CountyId":"20161671","CityId":"20161741","DistrictId":"20161746"}}},{"Relevance":1.0,"Distance":82.3,"MatchLevel":"houseNumber","MatchQuality":{"Country":1.0,"State":1.0,"County":1.0,"City":1.0,"District":1.0,"Street":[1.0],"HouseNumber":1.0,"PostalCode":1.0},"MatchType":"interpolated","Location":{"LocationId":"NT_Ck3qbnr1eyQGFmzzUj9sFB_xID","LocationType":"point","DisplayPosition":{"Latitude":49.71247,"Longitude":8.83888},"MapView":{"TopLeft":{"Latitude":49.7135942,"Longitude":8.8371415},"BottomRight":{"Latitude":49.7113458,"Longitude":8.8406185}},"Address":{"Label":"Heidelberger Straße 12, 64385 Reichelsheim (Odenwald), Deutschland","Country":"DEU","State":"Hessen","County":"Odenwaldkreis","City":"Reichelsheim (Odenwald)","District":"Reichelsheim (Odenwald)","Street":"Heidelberger Straße","HouseNumber":"12","PostalCode":"64385","AdditionalData":[{"value":"Deutschland","key":"CountryName"},{"value":"Hessen","key":"StateName"},{"value":"Odenwaldkreis","key":"CountyName"}]},"MapReference":{"ReferenceId":"832603700","Spot":0.23,"SideOfStreet":"right","CountryId":"20147700","StateId":"20160993","CountyId":"20161671","CityId":"20161741","DistrictId":"20161746","AddressId":"187398005","RoadLinkId":"215737604"}}},{"Relevance":1.0,"Distance":84.0,"MatchLevel":"houseNumber","MatchQuality":{"Country":1.0,"State":1.0,"County":1.0,"City":1.0,"District":1.0,"Street":[1.0],"HouseNumber":1.0,"PostalCode":1.0},"MatchType":"interpolated","Location":{"LocationId":"NT_h1dcTu9bXOj7gihAB8JKuB_zEE","LocationType":"point","DisplayPosition":{"Latitude":49.71217,"Longitude":8.83902},"MapView":{"TopLeft":{"Latitude":49.7132942,"Longitude":8.8372815},"BottomRight":{"Latitude":49.7110458,"Longitude":8.8407585}},"Address":{"Label":"Krautweg 3A, 64385 Reichelsheim (Odenwald), Deutschland","Country":"DEU","State":"Hessen","County":"Odenwaldkreis","City":"Reichelsheim (Odenwald)","District":"Reichelsheim (Odenwald)","Street":"Krautweg","HouseNumber":"3A","PostalCode":"64385","AdditionalData":[{"value":"Deutschland","key":"CountryName"},{"value":"Hessen","key":"StateName"},{"value":"Odenwaldkreis","key":"CountyName"}]},"MapReference":{"ReferenceId":"61548949","Spot":0.81,"SideOfStreet":"left","CountryId":"20147700","StateId":"20160993","CountyId":"20161671","CityId":"20161741","DistrictId":"20161746","AddressId":"621879050","RoadLinkId":"34158168"}}},{"Relevance":1.0,"Distance":100.3,"MatchLevel":"street","MatchQuality":{"Country":1.0,"State":1.0,"County":1.0,"City":1.0,"District":1.0,"Street":[1.0],"PostalCode":1.0},"Location":{"LocationId":"NT_ViSmUxLbo3Mb9AKkrhJ50D_l_61560251_L","LocationType":"point","DisplayPosition":{"Latitude":49.71331,"Longitude":8.83859},"MapView":{"TopLeft":{"Latitude":49.71349,"Longitude":8.83859},"BottomRight":{"Latitude":49.71331,"Longitude":8.83877}},"Address":{"Label":"Reichenberger Straße, 64385 Reichelsheim (Odenwald), Deutschland","Country":"DEU","State":"Hessen","County":"Odenwaldkreis","City":"Reichelsheim (Odenwald)","District":"Reichelsheim (Odenwald)","Street":"Reichenberger Straße","PostalCode":"64385","AdditionalData":[{"value":"Deutschland","key":"CountryName"},{"value":"Hessen","key":"StateName"},{"value":"Odenwaldkreis","key":"CountyName"}]},"MapReference":{"ReferenceId":"61560251","Spot":0.0,"SideOfStreet":"left","CountryId":"20147700","StateId":"20160993","CountyId":"20161671","CityId":"20161741","DistrictId":"20161746"}}}]}]}}