{"Response":{"MetaInfo":{"Timestamp":"2020-03-28T10:56:05.391+0000","NextPageInformation":"2"},"View":[{"_type":"SearchResultsViewType","ViewId":0,"Result":[{"Relevance":1.0,"Distance":-4.9,"MatchLevel":"landmark","MatchQuality":{"Country":1.0,"State":1.0,"County":1.0,"City":1.0,"District":1.0,"PostalCode":1.0,"Name":1.0},"Location":{"LocationId":"NT_ZgCTJDlbB.Z-471YjMHO0A","LocationType":"hospital","Name":"Ev. Krankenhaus Elisabethenstift","DisplayPosition":{"Latitude":49.87385,"Longitude":8.66533},"MapView":{"TopLeft":{"Latitude":49.87475,"Longitude":8.66358},"BottomRight":{"Latitude":49.87294,"Longitude":8.66722}},"Address":{"Label":"64283 Darmstadt, Deutschland","Country":"DEU","State":"Hessen","County":"Darmstadt","City":"Darmstadt","District":"Darmstadt","PostalCode":"64283","AdditionalData":[{"value":"Deutschland","key":"CountryName"},{"value":"Hessen","key":"StateName"},{"value":"Darmstadt","key":"CountyName"}]},"MapReference":{"CountryId":"20147700","StateId":"20160993","CountyId":"20160994","CityId":"20160995","DistrictId":"20160997","PlaceId":"77703635"}}},{"Relevance":1.0,"Distance":0.0,"Direction":0.0,"MatchLevel":"district","MatchQuality":{"Country":1.0,"State":1.0,"County":1.0,"City":1.0,"District":1.0,"PostalCode":1.0},"Location":{"LocationId":"NT_ybFD2oPzP6y1byhyK2hE4A","LocationType":"point","DisplayPosition":{"Latitude":49.8742814,"Longitude":8.663683},"MapView":{"TopLeft":{"Latitude":49.90576,"Longitude":8.61519},"BottomRight":{"Latitude":49.84322,"Longitude":8.68592}},"Address":{"Label":"Darmstadt, Hessen, Deutschland","Country":"DEU","State":"Hessen","County":"Darmstadt","City":"Darmstadt","District":"Darmstadt","PostalCode":"64283","AdditionalData":[{"value":"Deutschland","key":"CountryName"},{"value":"Hessen","key":"StateName"},{"value":"Darmstadt","key":"CountyName"}]},"MapReference":{"ReferenceId":"920081269","SideOfStreet":"neither","CountryId":"20147700","StateId":"20160993","CountyId":"20160994","CityId":"20160995","DistrictId":"20160997"}}},{"Relevance":1.0,"Distance":19.4,"MatchLevel":"houseNumber","MatchQuality":{"Country":1.0,"State":1.0,"County":1.0,"City":1.0,"District":1.0,"Street":[1.0],"HouseNumber":1.0,"PostalCode":1.0},"MatchType":"interpolated","Location":{"LocationId":"NT_QwtrgBtTYuj9sZKqCEzxqD_l_52392498_L_ykD","LocationType":"point","DisplayPosition":{"Latitude":49.8744501,"Longitude":8.663615},"MapView":{"TopLeft":{"Latitude":49.8755743,"Longitude":8.6618707},"BottomRight":{"Latitude":49.873326,"Longitude":8.6653593}},"Address":{"Label":"Stiftstraße 29, 64287 Darmstadt, Deutschland","Country":"DEU","State":"Hessen","County":"Darmstadt","City":"Darmstadt","District":"Darmstadt","Street":"Stiftstraße","HouseNumber":"29","PostalCode":"64287","AdditionalData":[{"value":"Deutschland","key":"CountryName"},{"value":"Hessen","key":"StateName"},{"value":"Darmstadt","key":"CountyName"}]},"MapReference":{"ReferenceId":"52392498","Spot":0.5,"SideOfStreet":"left","CountryId":"20147700","StateId":"20160993","CountyId":"20160994","CityId":"20160995","DistrictId":"20160997"}}},{"Relevance":1.0,"Distance":32.7,"MatchLevel":"houseNumber","MatchQuality":{"Country":1.0,"State":1.0,"County":1.0,"City":1.0,"District":1.0,"Street":[1.0],"HouseNumber":1.0,"PostalCode":1.0},"MatchType":"interpolated","Location":{"LocationId":"NT_QwtrgBtTYuj9sZKqCEzxqD_xITQ","LocationType":"point","DisplayPosition":{"Latitude":49.87399,"Longitude":8.66359},"MapView":{"TopLeft":{"Latitude":49.8751142,"Longitude":8.6618457},"BottomRight":{"Latitude":49.8728658,"Longitude":8.6653343}},"Address":{"Label":"Stiftstraße 12A, 64287 Darmstadt, Deutschland","Country":"DEU","State":"Hessen","County":"Darmstadt","City":"Darmstadt","District":"Darmstadt","Street":"Stiftstraße","HouseNumber":"12A","PostalCode":"64287","AdditionalData":[{"value":"Deutschland","key":"CountryName"},{"value":"Hessen","key":"StateName"},{"value":"Darmstadt","key":"CountyName"}]},"MapReference":{"ReferenceId":"52616218","Spot":0.23,"SideOfStreet":"right","CountryId":"20147700","StateId":"20160993","CountyId":"20160994","CityId":"20160995","DistrictId":"20160997","AddressId":"187223402","RoadLinkId":"34676611"}}},{"Relevance":1.0,"Distance":43.2,"MatchLevel":"houseNumber","MatchQuality":{"Country":1.0,"State":1.0,"County":1.0,"City":1.0,"District":1.0,"Street":[1.0],"HouseNumber":1.0,"PostalCode":1.0},"MatchType":"interpolated","Location":{"LocationId":"NT_dFQAbj2NU3m1JhXSqh7c-A_xcD","LocationType":"point","DisplayPosition":{"Latitude":49.87442,"Longitude":8.66312},"MapView":{"TopLeft":{"Latitude":49.8755442,"Longitude":8.6613757},"BottomRight":{"Latitude":49.8732958,"Longitude":8.6648643}},"Address":{"Label":"Erbacher Straße 17, 64287 Darmstadt, Deutschland","Country":"DEU","State":"Hessen","County":"Darmstadt","City":"Darmstadt","District":"Darmstadt","Street":"Erbacher Straße","HouseNumber":"17","PostalCode":"64287","AdditionalData":[{"value":"Deutschland","key":"CountryName"},{"value":"Hessen","key":"StateName"},{"value":"Darmstadt","key":"CountyName"}]},"MapReference":{"ReferenceId":"52392478","Spot":0.62,"SideOfStreet":"left","CountryId":"20147700","StateId":"20160993","CountyId":"20160994","CityId":"20160995","DistrictId":"20160997","AddressId":"187043518","RoadLinkId":"34775071"}}},{"Relevance":1.0,"Distance":46.5,"MatchLevel":"houseNumber","MatchQuality":{"Country":1.0,"State":1.0,"County":1.0,"City":1.0,"District":1.0,"Street":[1.0],"HouseNumber":1.0,"PostalCode":1.0},"MatchType":"interpolated","Location":{"LocationId":"NT_dFQAbj2NU3m1JhXSqh7c-A_yUD","LocationType":"point","DisplayPosition":{"Latitude":49.87441,"Longitude":8.6643},"MapView":{"TopLeft":{"Latitude":49.8755342,"Longitude":8.6625557},"BottomRight":{"Latitude":49.8732858,"Longitude":8.6660443}},"Address":{"Label":"Erbacher Straße 25, 64287 Darmstadt, Deutschland","Country":"DEU","State":"Hessen","County":"Darmstadt","City":"Darmstadt","District":"Darmstadt","Street":"Erbacher Straße","HouseNumber":"25","PostalCode":"64287","AdditionalData":[{"value":"Deutschland","key":"CountryName"},{"value":"Hessen","key":"StateName"},{"value":"Darmstadt","key":"CountyName"}]},"MapReference":{"ReferenceId":"983696281","Spot":0.34,"SideOfStreet":"right","CountryId":"20147700","StateId":"20160993","CountyId":"20160994","CityId":"20160995","DistrictId":"20160997","AddressId":"186723885","RoadLinkId":"314956729"}}},{"Relevance":1.0,"Distance":49.5,"MatchLevel":"houseNumber","MatchQuality":{"Country":1.0,"State":1.0,"County":1.0,"City":1.0,"District":1.0,"Street":[1.0],"HouseNumber":1.0,"PostalCode":1.0},"MatchType":"interpolated","Location":{"LocationId":"NT_CQvwaoyAFGtrvPZrTsNx-C_xA","LocationType":"point","DisplayPosition":{"Latitude":49.87468,"Longitude":8.66399},"MapView":{"TopLeft":{"Latitude":49.8758042,"Longitude":8.6622457},"BottomRight":{"Latitude":49.8735558,"Longitude":8.6657343}},"Address":{"Label":"Prinz-Christians-Weg 1, 64287 Darmstadt, Deutschland","Country":"DEU","State":"Hessen","County":"Darmstadt","City":"Darmstadt","District":"Darmstadt","Street":"Prinz-Christians-Weg","HouseNumber":"1","PostalCode":"64287","AdditionalData":[{"value":"Deutschland","key":"CountryName"},{"value":"Hessen","key":"StateName"},{"value":"Darmstadt","key":"CountyName"}]},"MapReference":{"ReferenceId":"52387708","Spot":0.14,"SideOfStreet":"right","CountryId":"20147700","StateId":"20160993","CountyId":"20160994","CityId":"20160995","DistrictId":"20160997","AddressId":"187370042","RoadLinkId":"34699511"}}},{"Relevance":1.0,"Distance":59.0,"MatchLevel":"houseNumber","MatchQuality":{"Country":1.0,"State":1.0,"County":1.0,"City":1.0,"District":1.0,"Street":[1.0],"HouseNumber":1.0,"PostalCode":1.0},"MatchType":"interpolated","Location":{"LocationId":"NT_ViD7NNU34SxUriw0woII5C_xYD","LocationType":"point","DisplayPosition":{"Latitude":49.87459,"Longitude":8.66281},"MapView":{"TopLeft":{"Latitude":49.8757142,"Longitude":8.6610657},"BottomRight":{"Latitude":49.8734658,"Longitude":8.6645543}},"Address":{"Label":"Pützerstraße 16, 64287 Darmstadt, Deutschland","Country":"DEU","State":"Hessen","County":"Darmstadt","City":"Darmstadt","District":"Darmstadt","Street":"Pützerstraße","HouseNumber":"16","PostalCode":"64287","AdditionalData":[{"value":"Deutschland","key":"CountryName"},{"value":"Hessen","key":"StateName"},{"value":"Darmstadt","key":"CountyName"}]},"MapReference":{"ReferenceId":"1199376722","Spot":0.61,"SideOfStreet":"right","CountryId":"20147700","StateId":"20160993","CountyId":"20160994","CityId":"20160995","DistrictId":"20160997","AddressId":"187681834","RoadLinkId":"511272546"}}},{"Relevance":1.0,"Distance":60.1,"MatchLevel":"houseNumber","MatchQuality":{"Country":1.0,"State":1.0,"County":1.0,"City":1.0,"District":1.0,"Street":[1.0],"HouseNumber":1.0,"PostalCode":1.0},"MatchType":"interpolated","Location":{"LocationId":"NT_QwtrgBtTYuj9sZKqCEzxqD_zcD","LocationType":"point","DisplayPosition":{"Latitude":49.87392,"Longitude":8.66304},"MapView":{"TopLeft":{"Latitude":49.8750442,"Longitude":8.6612957},"BottomRight":{"Latitude":49.8727958,"Longitude":8.6647843}},"Address":{"Label":"Stiftstraße 37, 64287 Darmstadt, Deutschland","Country":"DEU","State":"Hessen","County":"Darmstadt","City":"Darmstadt","District":"Darmstadt","Street":"Stiftstraße","HouseNumber":"37","PostalCode":"64287","AdditionalData":[{"value":"Deutschland","key":"CountryName"},{"value":"Hessen","key":"StateName"},{"value":"Darmstadt","key":"CountyName"}]},"MapReference":{"ReferenceId":"1246403370","Spot":0.9,"SideOfStreet":"right","CountryId":"20147700","StateId":"20160993","CountyId":"20160994","CityId":"20160995","DistrictId":"20160997","AddressId":"790157535","RoadLinkId":"567998164"}}},{"Relevance":1.0,"Distance":65.9,"MatchLevel":"houseNumber","MatchQuality":{"Country":1.0,"State":1.0,"County":1.0,"City":1.0,"District":1.0,"Street":[1.0],"HouseNumber":1.0,"PostalCode":1.0},"MatchType":"interpolated","Location":{"LocationId":"NT_QwtrgBtTYuj9sZKqCEzxqD_xQD","LocationType":"point","DisplayPosition":{"Latitude":49.87368,"Longitude":8.66358},"MapView":{"TopLeft":{"Latitude":49.8748042,"Longitude":8.6618357},"BottomRight":{"Latitude":49.8725558,"Longitude":8.6653243}},"Address":{"Label":"Stiftstraße 14, 64287 Darmstadt, Deutschland","Country":"DEU","State":"Hessen","County":"Darmstadt","City":"Darmstadt","District":"Darmstadt","Street":"Stiftstraße","HouseNumber":"14","PostalCode":"64287","AdditionalData":[{"value":"Deutschland","key":"CountryName"},{"value":"Hessen","key":"StateName"},{"value":"Darmstadt","key":"CountyName"}]},"MapReference":{"ReferenceId":"983696291","Spot":0.5,"SideOfStreet":"right","CountryId":"20147700","StateId":"20160993","CountyId":"20160994","CityId":"20160995","DistrictId":"20160997","AddressId":"187561213","RoadLinkId":"314956739"}}}]}]}}