{"Response":{"MetaInfo":{"Timestamp":"2020-03-28T10:25:53.160+0000","NextPageInformation":"2"},"View":[{"_type":"SearchResultsViewType","ViewId":0,"Result":[{"Relevance":1.0,"Distance":0.0,"Direction":0.0,"MatchLevel":"district","MatchQuality":{"Country":1.0,"State":1.0,"County":1.0,"City":1.0,"District":1.0,"PostalCode":1.0},"Location":{"LocationId":"NT_Il9FV2qPpHlGL3Gj-gctQA","LocationType":"point","DisplayPosition":{"Latitude":49.8950124,"Longitude":10.3529639},"MapView":{"TopLeft":{"Latitude":49.9103,"Longitude":10.33444},"BottomRight":{"Latitude":49.88921,"Longitude":10.36091}},"Address":{"Label":"Gerolzhofen, Bayern, Deutschland","Country":"DEU","State":"Bayern","County":"Schweinfurt (Landkreis)","City":"Gerolzhofen","District":"Gerolzhofen","PostalCode":"97447","AdditionalData":[{"value":"Deutschland","key":"CountryName"},{"value":"Bayern","key":"StateName"},{"value":"Schweinfurt (Landkreis)","key":"CountyName"}]},"MapReference":{"ReferenceId":"841781142","SideOfStreet":"neither","CountryId":"20147700","StateId":"20177250","CountyId":"20184943","CityId":"20184973","DistrictId":"20184975"}}},{"Relevance":1.0,"Distance":9.8,"MatchLevel":"street","MatchQuality":{"Country":1.0,"State":1.0,"County":1.0,"City":1.0,"District":1.0,"PostalCode":1.0},"Location":{"LocationId":"NT_LVYjMDpSir9e6y.czS8V7B_l_1259021556_R","LocationType":"point","DisplayPosition":{"Latitude":49.895014,"Longitude":10.3528272},"MapView":{"TopLeft":{"Latitude":49.89526,"Longitude":10.35282},"BottomRight":{"Latitude":49.89439,"Longitude":10.35283}},"Address":{"Label":"97447 Gerolzhofen, Deutschland","Country":"DEU","State":"Bayern","County":"Schweinfurt (Landkreis)","City":"Gerolzhofen","District":"Gerolzhofen","PostalCode":"97447","AdditionalData":[{"value":"Deutschland","key":"CountryName"},{"value":"Bayern","key":"StateName"},{"value":"Schweinfurt (Landkreis)","key":"CountyName"}]},"MapReference":{"ReferenceId":"1259021556","Spot":0.72,"SideOfStreet":"right","CountryId":"20147700","StateId":"20177250","CountyId":"20184943","CityId":"20184973","DistrictId":"20184975"}}},{"Relevance":1.0,"Distance":26.6,"MatchLevel":"houseNumber","MatchQuality":{"Country":1.0,"State":1.0,"County":1.0,"City":1.0,"District":1.0,"Street":[1.0],"HouseNumber":1.0,"PostalCode":1.0},"MatchType":"interpolated","Location":{"LocationId":"NT_HnJ7VSg0Sc5XUy6YiiLQEA_xA","LocationType":"point","DisplayPosition":{"Latitude":49.8951,"Longitude":10.35331},"MapView":{"TopLeft":{"Latitude":49.8962242,"Longitude":10.3515649},"BottomRight":{"Latitude":49.8939758,"Longitude":10.3550551}},"Address":{"Label":"Wiebelsberger Straße 1, 97447 Gerolzhofen, Deutschland","Country":"DEU","State":"Bayern","County":"Schweinfurt (Landkreis)","City":"Gerolzhofen","District":"Gerolzhofen","Street":"Wiebelsberger Straße","HouseNumber":"1","PostalCode":"97447","AdditionalData":[{"value":"Deutschland","key":"CountryName"},{"value":"Bayern","key":"StateName"},{"value":"Schweinfurt (Landkreis)","key":"CountyName"}]},"MapReference":{"ReferenceId":"1194450848","Spot":0.83,"SideOfStreet":"right","CountryId":"20147700","StateId":"20177250","CountyId":"20184943","CityId":"20184973","DistrictId":"20184975","AddressId":"184313670","RoadLinkId":"504493949"}}},{"Relevance":1.0,"Distance":29.2,"MatchLevel":"street","MatchQuality":{"Country":1.0,"State":1.0,"County":1.0,"City":1.0,"District":1.0,"Street":[1.0],"PostalCode":1.0},"Location":{"LocationId":"NT_AJkwdo.M30q1j4VaQjoOaB_l_1184732836_R","LocationType":"point","DisplayPosition":{"Latitude":49.89526,"Longitude":10.35283},"MapView":{"TopLeft":{"Latitude":49.89541,"Longitude":10.35283},"BottomRight":{"Latitude":49.89526,"Longitude":10.35302}},"Address":{"Label":"Sixtstraße, 97447 Gerolzhofen, Deutschland","Country":"DEU","State":"Bayern","County":"Schweinfurt (Landkreis)","City":"Gerolzhofen","District":"Gerolzhofen","Street":"Sixtstraße","PostalCode":"97447","AdditionalData":[{"value":"Deutschland","key":"CountryName"},{"value":"Bayern","key":"StateName"},{"value":"Schweinfurt (Landkreis)","key":"CountyName"}]},"MapReference":{"ReferenceId":"1184732836","Spot":0.0,"SideOfStreet":"right","CountryId":"20147700","StateId":"20177250","CountyId":"20184943","CityId":"20184973","DistrictId":"20184975"}}},{"Relevance":1.0,"Distance":29.2,"MatchLevel":"street","MatchQuality":{"Country":1.0,"State":1.0,"County":1.0,"City":1.0,"District":1.0,"Street":[1.0],"PostalCode":1.0},"Location":{"LocationId":"NT_HnJ7VSg0Sc5XUy6YiiLQEA_l_541731506_L","LocationType":"point","DisplayPosition":{"Latitude":49.89526,"Longitude":10.35283},"MapView":{"TopLeft":{"Latitude":49.8953,"Longitude":10.35247},"BottomRight":{"Latitude":49.89526,"Longitude":10.35283}},"Address":{"Label":"Wiebelsberger Straße, 97447 Gerolzhofen, Deutschland","Country":"DEU","State":"Bayern","County":"Schweinfurt (Landkreis)","City":"Gerolzhofen","District":"Gerolzhofen","Street":"Wiebelsberger Straße","PostalCode":"97447","AdditionalData":[{"value":"Deutschland","key":"CountryName"},{"value":"Bayern","key":"StateName"},{"value":"Schweinfurt (Landkreis)","key":"CountyName"}]},"MapReference":{"ReferenceId":"541731506","Spot":0.0,"SideOfStreet":"left","CountryId":"20147700","StateId":"20177250","CountyId":"20184943","CityId":"20184973","DistrictId":"20184975"}}},{"Relevance":1.0,"Distance":32.2,"MatchLevel":"street","MatchQuality":{"Country":1.0,"State":1.0,"County":1.0,"City":1.0,"District":1.0,"PostalCode":1.0},"Location":{"LocationId":"NT_LVYjMDpSir9e6y.czS8V7B_l_1184732839_L","LocationType":"point","DisplayPosition":{"Latitude":49.89527,"Longitude":10.35317},"MapView":{"TopLeft":{"Latitude":49.89541,"Longitude":10.35302},"BottomRight":{"Latitude":49.89513,"Longitude":10.35359}},"Address":{"Label":"97447 Gerolzhofen, Deutschland","Country":"DEU","State":"Bayern","County":"Schweinfurt (Landkreis)","City":"Gerolzhofen","District":"Gerolzhofen","PostalCode":"97447","AdditionalData":[{"value":"Deutschland","key":"CountryName"},{"value":"Bayern","key":"StateName"},{"value":"Schweinfurt (Landkreis)","key":"CountyName"}]},"MapReference":{"ReferenceId":"1184732839","Spot":0.69,"SideOfStreet":"left","CountryId":"20147700","StateId":"20177250","CountyId":"20184943","CityId":"20184973","DistrictId":"20184975"}}},{"Relevance":1.0,"Distance":33.4,"MatchLevel":"street","MatchQuality":{"Country":1.0,"State":1.0,"County":1.0,"City":1.0,"District":1.0,"Street":[1.0],"PostalCode":1.0},"Location":{"LocationId":"NT_u5153WMLXiiy3u.10AiolB_l_1183125219_R","LocationType":"point","DisplayPosition":{"Latitude":49.8949663,"Longitude":10.3525034},"MapView":{"TopLeft":{"Latitude":49.8953,"Longitude":10.35247},"BottomRight":{"Latitude":49.8945,"Longitude":10.35255}},"Address":{"Label":"Schallfelder Straße, 97447 Gerolzhofen, Deutschland","Country":"DEU","State":"Bayern","County":"Schweinfurt (Landkreis)","City":"Gerolzhofen","District":"Gerolzhofen","Street":"Schallfelder Straße","PostalCode":"97447","AdditionalData":[{"value":"Deutschland","key":"CountryName"},{"value":"Bayern","key":"StateName"},{"value":"Schweinfurt (Landkreis)","key":"CountyName"}]},"MapReference":{"ReferenceId":"1183125219","Spot":0.58,"SideOfStreet":"right","CountryId":"20147700","StateId":"20177250","CountyId":"20184943","CityId":"20184973","DistrictId":"20184975"}}},{"Relevance":1.0,"Distance":44.4,"MatchLevel":"street","MatchQuality":{"Country":1.0,"State":1.0,"County":1.0,"City":1.0,"District":1.0,"PostalCode":1.0},"Location":{"LocationId":"NT_LVYjMDpSir9e6y.czS8V7B_l_1184732838_L","LocationType":"point","DisplayPosition":{"Latitude":49.89541,"Longitude":10.35302},"MapView":{"TopLeft":{"Latitude":49.89559,"Longitude":10.35245},"BottomRight":{"Latitude":49.89541,"Longitude":10.35302}},"Address":{"Label":"97447 Gerolzhofen, Deutschland","Country":"DEU","State":"Bayern","County":"Schweinfurt (Landkreis)","City":"Gerolzhofen","District":"Gerolzhofen","PostalCode":"97447","AdditionalData":[{"value":"Deutschland","key":"CountryName"},{"value":"Bayern","key":"StateName"},{"value":"Schweinfurt (Landkreis)","key":"CountyName"}]},"MapReference":{"ReferenceId":"1184732838","Spot":0.0,"SideOfStreet":"left","CountryId":"20147700","StateId":"20177250","CountyId":"20184943","CityId":"20184973","DistrictId":"20184975"}}},{"Relevance":1.0,"Distance":47.7,"MatchLevel":"street","MatchQuality":{"Country":1.0,"State":1.0,"County":1.0,"City":1.0,"District":1.0,"Street":[1.0],"PostalCode":1.0},"Location":{"LocationId":"NT_KkGFslvkhW3Uicl2lEYosD_l_1184732834_R","LocationType":"point","DisplayPosition":{"Latitude":49.8953,"Longitude":10.35247},"MapView":{"TopLeft":{"Latitude":49.89559,"Longitude":10.35245},"BottomRight":{"Latitude":49.8953,"Longitude":10.35247}},"Address":{"Label":"Schallfelder Straße, 97447 Gerolzhofen, Deutschland","Country":"DEU","State":"Bayern","County":"Schweinfurt (Landkreis)","City":"Gerolzhofen","District":"Gerolzhofen","Street":"Schallfelder Straße","PostalCode":"97447","AdditionalData":[{"value":"Deutschland","key":"CountryName"},{"value":"Bayern","key":"StateName"},{"value":"Schweinfurt (Landkreis)","key":"CountyName"}]},"MapReference":{"ReferenceId":"1184732834","Spot":0.0,"SideOfStreet":"right","CountryId":"20147700","StateId":"20177250","CountyId":"20184943","CityId":"20184973","DistrictId":"20184975"}}},{"Relevance":1.0,"Distance":47.8,"MatchLevel":"street","MatchQuality":{"Country":1.0,"State":1.0,"County":1.0,"City":1.0,"District":1.0,"PostalCode":1.0},"Location":{"LocationId":"NT_LVYjMDpSir9e6y.czS8V7B_l_1183126018_L","LocationType":"point","DisplayPosition":{"Latitude":49.89516,"Longitude":10.35359},"MapView":{"TopLeft":{"Latitude":49.89516,"Longitude":10.35359},"BottomRight":{"Latitude":49.89317,"Longitude":10.35586}},"Address":{"Label":"97447 Gerolzhofen, Deutschland","Country":"DEU","State":"Bayern","County":"Schweinfurt (Landkreis)","City":"Gerolzhofen","District":"Gerolzhofen","PostalCode":"97447","AdditionalData":[{"value":"Deutschland","key":"CountryName"},{"value":"Bayern","key":"StateName"},{"value":"Schweinfurt (Landkreis)","key":"CountyName"}]},"MapReference":{"ReferenceId":"1183126018","Spot":1.0,"SideOfStreet":"left","CountryId":"20147700","StateId":"20177250","CountyId":"20184943","CityId":"20184973","DistrictId":"20184975"}}}]}]}}