{"Response":{"MetaInfo":{"Timestamp":"2020-03-28T11:48:59.142+0000","NextPageInformation":"2"},"View":[{"_type":"SearchResultsViewType","ViewId":0,"Result":[{"Relevance":1.0,"Distance":0.0,"Direction":0.0,"MatchLevel":"district","MatchQuality":{"Country":1.0,"State":1.0,"County":1.0,"City":1.0,"District":1.0,"PostalCode":1.0},"Location":{"LocationId":"NT_0lsi1aBRkCCZY1TAWaehmC","LocationType":"point","DisplayPosition":{"Latitude":49.889163,"Longitude":2.310862},"MapView":{"TopLeft":{"Latitude":49.89055,"Longitude":2.30292},"BottomRight":{"Latitude":49.87891,"Longitude":2.31884}},"Address":{"Label":"Sainte-Anne-Fbg. Noyon, Amiens, Hauts-de-France, France","Country":"FRA","State":"Hauts-de-France","County":"Somme","City":"Amiens","District":"Sainte-Anne-Fbg. Noyon","PostalCode":"80000","AdditionalData":[{"value":"France","key":"CountryName"},{"value":"Hauts-de-France","key":"StateName"},{"value":"Somme","key":"CountyName"}]},"MapReference":{"ReferenceId":"58907337","SideOfStreet":"neither","CountryId":"20000001","StateId":"20000002","CountyId":"20038939","CityId":"20038996"}}},{"Relevance":1.0,"Distance":0.8,"MatchLevel":"houseNumber","MatchQuality":{"Country":1.0,"State":1.0,"County":1.0,"City":1.0,"District":1.0,"Street":[1.0],"HouseNumber":1.0,"PostalCode":1.0},"MatchType":"interpolated","Location":{"LocationId":"NT_jkxhCvFNr07chkUdeDpyzB_1MD","LocationType":"point","DisplayPosition":{"Latitude":49.88913,"Longitude":2.31082},"MapView":{"TopLeft":{"Latitude":49.8902542,"Longitude":2.3090752},"BottomRight":{"Latitude":49.8880058,"Longitude":2.3125648}},"Address":{"Label":"53 Rue Jules Barni, 80000 Amiens, France","Country":"FRA","State":"Hauts-de-France","County":"Somme","City":"Amiens","District":"Saint-Acheul","Street":"Rue Jules Barni","HouseNumber":"53","PostalCode":"80000","AdditionalData":[{"value":"France","key":"CountryName"},{"value":"Hauts-de-France","key":"StateName"},{"value":"Somme","key":"CountyName"}]},"MapReference":{"ReferenceId":"1148884010","Spot":0.81,"SideOfStreet":"right","CountryId":"20000001","StateId":"20000002","CountyId":"20038939","CityId":"20038996","AddressId":"321255606","RoadLinkId":"454179207"}}},{"Relevance":1.0,"Distance":7.3,"MatchLevel":"houseNumber","MatchQuality":{"Country":1.0,"State":1.0,"County":1.0,"City":1.0,"District":1.0,"Street":[1.0],"HouseNumber":1.0,"PostalCode":1.0},"MatchType":"interpolated","Location":{"LocationId":"NT_jkxhCvFNr07chkUdeDpyzB_0kD","LocationType":"point","DisplayPosition":{"Latitude":49.88917,"Longitude":2.31074},"MapView":{"TopLeft":{"Latitude":49.8902942,"Longitude":2.3089951},"BottomRight":{"Latitude":49.8880458,"Longitude":2.3124849}},"Address":{"Label":"49 Rue Jules Barni, 80000 Amiens, France","Country":"FRA","State":"Hauts-de-France","County":"Somme","City":"Amiens","District":"Saint-Acheul","Street":"Rue Jules Barni","HouseNumber":"49","PostalCode":"80000","AdditionalData":[{"value":"France","key":"CountryName"},{"value":"Hauts-de-France","key":"StateName"},{"value":"Somme","key":"CountyName"}]},"MapReference":{"ReferenceId":"1176380091","Spot":0.26,"SideOfStreet":"right","CountryId":"20000001","StateId":"20000002","CountyId":"20038939","CityId":"20038996","AddressId":"321255600","RoadLinkId":"483998579"}}},{"Relevance":1.0,"Distance":15.4,"MatchLevel":"street","MatchQuality":{"Country":1.0,"State":1.0,"County":1.0,"City":1.0,"District":1.0,"PostalCode":1.0},"Location":{"LocationId":"NT_S-lUFqmWLFHUOI1.VQgT0B_l_1176380088_L","LocationType":"point","DisplayPosition":{"Latitude":49.88921,"Longitude":2.31066},"MapView":{"TopLeft":{"Latitude":49.88925,"Longitude":2.31053},"BottomRight":{"Latitude":49.88918,"Longitude":2.31066}},"Address":{"Label":"80000 Amiens, France","Country":"FRA","State":"Hauts-de-France","County":"Somme","City":"Amiens","District":"Sainte-Anne-Fbg. Noyon","PostalCode":"80000","AdditionalData":[{"value":"France","key":"CountryName"},{"value":"Hauts-de-France","key":"StateName"},{"value":"Somme","key":"CountyName"}]},"MapReference":{"ReferenceId":"1176380088","Spot":0.0,"SideOfStreet":"left","CountryId":"20000001","StateId":"20000002","CountyId":"20038939","CityId":"20038996"}}},{"Relevance":1.0,"Distance":15.6,"MatchLevel":"street","MatchQuality":{"Country":1.0,"State":1.0,"County":1.0,"City":1.0,"District":1.0,"PostalCode":1.0},"Location":{"LocationId":"NT_kQHrGS4PlvTmX8z3j5OCnD_l_1176736264_R","LocationType":"point","DisplayPosition":{"Latitude":49.88923,"Longitude":2.31067},"MapView":{"TopLeft":{"Latitude":49.88927,"Longitude":2.31064},"BottomRight":{"Latitude":49.88921,"Longitude":2.31067}},"Address":{"Label":"80000 Amiens, France","Country":"FRA","State":"Hauts-de-France","County":"Somme","City":"Amiens","District":"Saint-Acheul","PostalCode":"80000","AdditionalData":[{"value":"France","key":"CountryName"},{"value":"Hauts-de-France","key":"StateName"},{"value":"Somme","key":"CountyName"}]},"MapReference":{"ReferenceId":"1176736264","Spot":0.31,"SideOfStreet":"right","CountryId":"20000001","StateId":"20000002","CountyId":"20038939","CityId":"20038996"}}},{"Relevance":1.0,"Distance":19.9,"MatchLevel":"street","MatchQuality":{"Country":1.0,"State":1.0,"County":1.0,"City":1.0,"District":1.0,"PostalCode":1.0},"Location":{"LocationId":"NT_kQHrGS4PlvTmX8z3j5OCnD_l_1176380089_R","LocationType":"point","DisplayPosition":{"Latitude":49.88927,"Longitude":2.31064},"MapView":{"TopLeft":{"Latitude":49.88928,"Longitude":2.31054},"BottomRight":{"Latitude":49.88925,"Longitude":2.31064}},"Address":{"Label":"80000 Amiens, France","Country":"FRA","State":"Hauts-de-France","County":"Somme","City":"Amiens","District":"Saint-Acheul","PostalCode":"80000","AdditionalData":[{"value":"France","key":"CountryName"},{"value":"Hauts-de-France","key":"StateName"},{"value":"Somme","key":"CountyName"}]},"MapReference":{"ReferenceId":"1176380089","Spot":1.0,"SideOfStreet":"right","CountryId":"20000001","StateId":"20000002","CountyId":"20038939","CityId":"20038996"}}},{"Relevance":1.0,"Distance":20.0,"MatchLevel":"houseNumber","MatchQuality":{"Country":1.0,"State":1.0,"County":1.0,"City":1.0,"District":1.0,"Street":[1.0],"HouseNumber":1.0,"PostalCode":1.0},"MatchType":"interpolated","Location":{"LocationId":"NT_RMpyh9a6K52XiGwRurY8XA_0A","LocationType":"point","DisplayPosition":{"Latitude":49.88931,"Longitude":2.31067},"MapView":{"TopLeft":{"Latitude":49.8904342,"Longitude":2.3089251},"BottomRight":{"Latitude":49.8881858,"Longitude":2.3124149}},"Address":{"Label":"4 Rue Riolan, 80000 Amiens, France","Country":"FRA","State":"Hauts-de-France","County":"Somme","City":"Amiens","District":"Saint-Acheul","Street":"Rue Riolan","HouseNumber":"4","PostalCode":"80000","AdditionalData":[{"value":"France","key":"CountryName"},{"value":"Hauts-de-France","key":"StateName"},{"value":"Somme","key":"CountyName"}]},"MapReference":{"ReferenceId":"58906927","Spot":0.07,"SideOfStreet":"right","CountryId":"20000001","StateId":"20000002","CountyId":"20038939","CityId":"20038996","AddressId":"572953438","RoadLinkId":"44627309"}}},{"Relevance":1.0,"Distance":28.5,"MatchLevel":"houseNumber","MatchQuality":{"Country":1.0,"State":1.0,"County":1.0,"City":1.0,"District":1.0,"Street":[1.0],"HouseNumber":1.0,"PostalCode":1.0},"MatchType":"interpolated","Location":{"LocationId":"NT_oM5HUQm.bM3aUZG13D896A_0AD","LocationType":"point","DisplayPosition":{"Latitude":49.88927,"Longitude":2.3105},"MapView":{"TopLeft":{"Latitude":49.8903942,"Longitude":2.3087551},"BottomRight":{"Latitude":49.8881458,"Longitude":2.3122449}},"Address":{"Label":"40 Rue Jules Barni, 80000 Amiens, France","Country":"FRA","State":"Hauts-de-France","County":"Somme","City":"Amiens","District":"Sainte-Anne-Fbg. Noyon","Street":"Rue Jules Barni","HouseNumber":"40","PostalCode":"80000","AdditionalData":[{"value":"France","key":"CountryName"},{"value":"Hauts-de-France","key":"StateName"},{"value":"Somme","key":"CountyName"}]},"MapReference":{"ReferenceId":"1176380092","Spot":0.41,"SideOfStreet":"left","CountryId":"20000001","StateId":"20000002","CountyId":"20038939","CityId":"20038996","AddressId":"379810749","RoadLinkId":"483998580"}}},{"Relevance":1.0,"Distance":28.7,"MatchLevel":"houseNumber","MatchQuality":{"Country":1.0,"State":1.0,"County":1.0,"City":1.0,"District":1.0,"Street":[1.0],"HouseNumber":1.0,"PostalCode":1.0},"MatchType":"interpolated","Location":{"LocationId":"NT_jkxhCvFNr07chkUdeDpyzB_2cD","LocationType":"point","DisplayPosition":{"Latitude":49.88899,"Longitude":2.31116},"MapView":{"TopLeft":{"Latitude":49.8901142,"Longitude":2.3094152},"BottomRight":{"Latitude":49.8878658,"Longitude":2.3129048}},"Address":{"Label":"67 Rue Jules Barni, 80000 Amiens, France","Country":"FRA","State":"Hauts-de-France","County":"Somme","City":"Amiens","District":"Saint-Acheul","Street":"Rue Jules Barni","HouseNumber":"67","PostalCode":"80000","AdditionalData":[{"value":"France","key":"CountryName"},{"value":"Hauts-de-France","key":"StateName"},{"value":"Somme","key":"CountyName"}]},"MapReference":{"ReferenceId":"1148884009","Spot":0.54,"SideOfStreet":"right","CountryId":"20000001","StateId":"20000002","CountyId":"20038939","CityId":"20038996","AddressId":"321255601","RoadLinkId":"454179206"}}},{"Relevance":1.0,"Distance":35.6,"MatchLevel":"houseNumber","MatchQuality":{"Country":1.0,"State":1.0,"County":1.0,"City":1.0,"District":1.0,"Street":[1.0],"HouseNumber":1.0,"PostalCode":1.0},"MatchType":"interpolated","Location":{"LocationId":"NT_jkxhCvFNr07chkUdeDpyzB_zkD","LocationType":"point","DisplayPosition":{"Latitude":49.88929,"Longitude":2.31041},"MapView":{"TopLeft":{"Latitude":49.8904142,"Longitude":2.3086651},"BottomRight":{"Latitude":49.8881658,"Longitude":2.3121549}},"Address":{"Label":"39 Rue Jules Barni, 80000 Amiens, France","Country":"FRA","State":"Hauts-de-France","County":"Somme","City":"Amiens","District":"Saint-Acheul","Street":"Rue Jules Barni","HouseNumber":"39","PostalCode":"80000","AdditionalData":[{"value":"France","key":"CountryName"},{"value":"Hauts-de-France","key":"StateName"},{"value":"Somme","key":"CountyName"}]},"MapReference":{"ReferenceId":"1176305637","Spot":0.05,"SideOfStreet":"right","CountryId":"20000001","StateId":"20000002","CountyId":"20038939","CityId":"20038996","AddressId":"573064076","RoadLinkId":"483907499"}}}]}]}}