{"Response":{"MetaInfo":{"Timestamp":"2020-03-28T10:19:02.797+0000","NextPageInformation":"2"},"View":[{"_type":"SearchResultsViewType","ViewId":0,"Result":[{"Relevance":1.0,"Distance":0.0,"Direction":0.0,"MatchLevel":"district","MatchQuality":{"Country":1.0,"State":1.0,"County":1.0,"City":1.0,"District":1.0,"PostalCode":1.0},"Location":{"LocationId":"NT_hSmurH6nNKniNrQMKHpYuD","LocationType":"point","DisplayPosition":{"Latitude":49.8453357,"Longitude":7.8137205},"MapView":{"TopLeft":{"Latitude":49.85006,"Longitude":7.8016},"BottomRight":{"Latitude":49.84205,"Longitude":7.82739}},"Address":{"Label":"Rüdesheim, Rheinland-Pfalz, Deutschland","Country":"DEU","State":"Rheinland-Pfalz","County":"Bad Kreuznach","City":"Rüdesheim","District":"Rüdesheim","PostalCode":"55593","AdditionalData":[{"value":"Deutschland","key":"CountryName"},{"value":"Rheinland-Pfalz","key":"StateName"},{"value":"Bad Kreuznach","key":"CountyName"}]},"MapReference":{"ReferenceId":"833538291","SideOfStreet":"neither","CountryId":"20147700","StateId":"20164001","CountyId":"20164643","CityId":"20164987","DistrictId":"20164989"}}},{"Relevance":1.0,"Distance":12.0,"MatchLevel":"houseNumber","MatchQuality":{"Country":1.0,"State":1.0,"County":1.0,"City":1.0,"District":1.0,"Street":[1.0],"HouseNumber":1.0,"PostalCode":1.0},"MatchType":"interpolated","Location":{"LocationId":"NT_R2cqdMkloIsTsQZVjbi50B_0cD","LocationType":"point","DisplayPosition":{"Latitude":49.84516,"Longitude":7.81386},"MapView":{"TopLeft":{"Latitude":49.8462842,"Longitude":7.8121167},"BottomRight":{"Latitude":49.8440358,"Longitude":7.8156033}},"Address":{"Label":"Nahestraße 47, 55593 Rüdesheim, Deutschland","Country":"DEU","State":"Rheinland-Pfalz","County":"Bad Kreuznach","City":"Rüdesheim","District":"Rüdesheim","Street":"Nahestraße","HouseNumber":"47","PostalCode":"55593","AdditionalData":[{"value":"Deutschland","key":"CountryName"},{"value":"Rheinland-Pfalz","key":"StateName"},{"value":"Bad Kreuznach","key":"CountyName"}]},"MapReference":{"ReferenceId":"548436175","Spot":0.02,"SideOfStreet":"left","CountryId":"20147700","StateId":"20164001","CountyId":"20164643","CityId":"20164987","DistrictId":"20164989","AddressId":"188342132","RoadLinkId":"34716779"}}},{"Relevance":1.0,"Distance":13.3,"MatchLevel":"houseNumber","MatchQuality":{"Country":1.0,"State":1.0,"County":1.0,"City":1.0,"District":1.0,"Street":[1.0],"HouseNumber":1.0,"PostalCode":1.0},"MatchType":"interpolated","Location":{"LocationId":"NT_R2cqdMkloIsTsQZVjbi50B_0UD","LocationType":"point","DisplayPosition":{"Latitude":49.84515,"Longitude":7.81362},"MapView":{"TopLeft":{"Latitude":49.8462742,"Longitude":7.8118767},"BottomRight":{"Latitude":49.8440258,"Longitude":7.8153633}},"Address":{"Label":"Nahestraße 45, 55593 Rüdesheim, Deutschland","Country":"DEU","State":"Rheinland-Pfalz","County":"Bad Kreuznach","City":"Rüdesheim","District":"Rüdesheim","Street":"Nahestraße","HouseNumber":"45","PostalCode":"55593","AdditionalData":[{"value":"Deutschland","key":"CountryName"},{"value":"Rheinland-Pfalz","key":"StateName"},{"value":"Bad Kreuznach","key":"CountyName"}]},"MapReference":{"ReferenceId":"833538287","Spot":0.75,"SideOfStreet":"left","CountryId":"20147700","StateId":"20164001","CountyId":"20164643","CityId":"20164987","DistrictId":"20164989","AddressId":"188368104","RoadLinkId":"216848925"}}},{"Relevance":1.0,"Distance":40.1,"MatchLevel":"houseNumber","MatchQuality":{"Country":1.0,"State":1.0,"County":1.0,"City":1.0,"District":1.0,"Street":[1.0],"HouseNumber":1.0,"PostalCode":1.0},"MatchType":"interpolated","Location":{"LocationId":"NT_EqvDX02zbko4RYHj-8WhkB_0A","LocationType":"point","DisplayPosition":{"Latitude":49.84561,"Longitude":7.81322},"MapView":{"TopLeft":{"Latitude":49.8467342,"Longitude":7.8114767},"BottomRight":{"Latitude":49.8444858,"Longitude":7.8149633}},"Address":{"Label":"Max-Planck-Straße 4, 55593 Rüdesheim, Deutschland","Country":"DEU","State":"Rheinland-Pfalz","County":"Bad Kreuznach","City":"Rüdesheim","District":"Rüdesheim","Street":"Max-Planck-Straße","HouseNumber":"4","PostalCode":"55593","AdditionalData":[{"value":"Deutschland","key":"CountryName"},{"value":"Rheinland-Pfalz","key":"StateName"},{"value":"Bad Kreuznach","key":"CountyName"}]},"MapReference":{"ReferenceId":"548436127","Spot":0.34,"SideOfStreet":"right","CountryId":"20147700","StateId":"20164001","CountyId":"20164643","CityId":"20164987","DistrictId":"20164989","AddressId":"188470012","RoadLinkId":"34312789"}}},{"Relevance":1.0,"Distance":55.0,"MatchLevel":"street","MatchQuality":{"Country":1.0,"State":1.0,"County":1.0,"City":1.0,"District":1.0,"Street":[1.0],"PostalCode":1.0},"Location":{"LocationId":"NT_R2cqdMkloIsTsQZVjbi50B_l_833538286_L","LocationType":"point","DisplayPosition":{"Latitude":49.84512,"Longitude":7.81303},"MapView":{"TopLeft":{"Latitude":49.84512,"Longitude":7.81284},"BottomRight":{"Latitude":49.84511,"Longitude":7.81303}},"Address":{"Label":"Nahestraße, 55593 Rüdesheim, Deutschland","Country":"DEU","State":"Rheinland-Pfalz","County":"Bad Kreuznach","City":"Rüdesheim","District":"Rüdesheim","Street":"Nahestraße","PostalCode":"55593","AdditionalData":[{"value":"Deutschland","key":"CountryName"},{"value":"Rheinland-Pfalz","key":"StateName"},{"value":"Bad Kreuznach","key":"CountyName"}]},"MapReference":{"ReferenceId":"833538286","Spot":1.0,"SideOfStreet":"left","CountryId":"20147700","StateId":"20164001","CountyId":"20164643","CityId":"20164987","DistrictId":"20164989"}}},{"Relevance":1.0,"Distance":67.9,"MatchLevel":"street","MatchQuality":{"Country":1.0,"State":1.0,"County":1.0,"City":1.0,"District":1.0,"Street":[1.0],"PostalCode":1.0},"Location":{"LocationId":"NT_R2cqdMkloIsTsQZVjbi50B_l_548436166_L","LocationType":"point","DisplayPosition":{"Latitude":49.84511,"Longitude":7.81284},"MapView":{"TopLeft":{"Latitude":49.84511,"Longitude":7.81275},"BottomRight":{"Latitude":49.8451,"Longitude":7.81284}},"Address":{"Label":"Nahestraße, 55593 Rüdesheim, Deutschland","Country":"DEU","State":"Rheinland-Pfalz","County":"Bad Kreuznach","City":"Rüdesheim","District":"Rüdesheim","Street":"Nahestraße","PostalCode":"55593","AdditionalData":[{"value":"Deutschland","key":"CountryName"},{"value":"Rheinland-Pfalz","key":"StateName"},{"value":"Bad Kreuznach","key":"CountyName"}]},"MapReference":{"ReferenceId":"548436166","Spot":1.0,"SideOfStreet":"left","CountryId":"20147700","StateId":"20164001","CountyId":"20164643","CityId":"20164987","DistrictId":"20164989"}}},{"Relevance":1.0,"Distance":67.9,"MatchLevel":"street","MatchQuality":{"Country":1.0,"State":1.0,"County":1.0,"City":1.0,"District":1.0,"Street":[1.0],"PostalCode":1.0},"Location":{"LocationId":"NT_ZI0np5H-snS2q9z18NCQlC_l_548436131_R","LocationType":"point","DisplayPosition":{"Latitude":49.84511,"Longitude":7.81284},"MapView":{"TopLeft":{"Latitude":49.84527,"Longitude":7.81277},"BottomRight":{"Latitude":49.84511,"Longitude":7.81284}},"Address":{"Label":"Roxheimer Straße, 55593 Rüdesheim, Deutschland","Country":"DEU","State":"Rheinland-Pfalz","County":"Bad Kreuznach","City":"Rüdesheim","District":"Rüdesheim","Street":"Roxheimer Straße","PostalCode":"55593","AdditionalData":[{"value":"Deutschland","key":"CountryName"},{"value":"Rheinland-Pfalz","key":"StateName"},{"value":"Bad Kreuznach","key":"CountyName"}]},"MapReference":{"ReferenceId":"548436131","Spot":0.0,"SideOfStreet":"right","CountryId":"20147700","StateId":"20164001","CountyId":"20164643","CityId":"20164987","DistrictId":"20164989"}}},{"Relevance":1.0,"Distance":68.5,"MatchLevel":"street","MatchQuality":{"Country":1.0,"State":1.0,"County":1.0,"City":1.0,"District":1.0,"Street":[1.0],"PostalCode":1.0},"Location":{"LocationId":"NT_ZI0np5H-snS2q9z18NCQlC_l_548436212_R","LocationType":"point","DisplayPosition":{"Latitude":49.84527,"Longitude":7.81277},"MapView":{"TopLeft":{"Latitude":49.84549,"Longitude":7.81266},"BottomRight":{"Latitude":49.84527,"Longitude":7.81277}},"Address":{"Label":"Roxheimer Straße, 55593 Rüdesheim, Deutschland","Country":"DEU","State":"Rheinland-Pfalz","County":"Bad Kreuznach","City":"Rüdesheim","District":"Rüdesheim","Street":"Roxheimer Straße","PostalCode":"55593","AdditionalData":[{"value":"Deutschland","key":"CountryName"},{"value":"Rheinland-Pfalz","key":"StateName"},{"value":"Bad Kreuznach","key":"CountyName"}]},"MapReference":{"ReferenceId":"548436212","Spot":0.0,"SideOfStreet":"right","CountryId":"20147700","StateId":"20164001","CountyId":"20164643","CityId":"20164987","DistrictId":"20164989"}}},{"Relevance":1.0,"Distance":74.4,"MatchLevel":"street","MatchQuality":{"Country":1.0,"State":1.0,"County":1.0,"City":1.0,"District":1.0,"Street":[1.0],"PostalCode":1.0},"Location":{"LocationId":"NT_997tn36uRWJD1kg.qJ2CkC_l_548436167_R","LocationType":"point","DisplayPosition":{"Latitude":49.8451,"Longitude":7.81275},"MapView":{"TopLeft":{"Latitude":49.8451,"Longitude":7.81258},"BottomRight":{"Latitude":49.84481,"Longitude":7.81275}},"Address":{"Label":"Schäferstraße, 55593 Rüdesheim, Deutschland","Country":"DEU","State":"Rheinland-Pfalz","County":"Bad Kreuznach","City":"Rüdesheim","District":"Rüdesheim","Street":"Schäferstraße","PostalCode":"55593","AdditionalData":[{"value":"Deutschland","key":"CountryName"},{"value":"Rheinland-Pfalz","key":"StateName"},{"value":"Bad Kreuznach","key":"CountyName"}]},"MapReference":{"ReferenceId":"548436167","Spot":1.0,"SideOfStreet":"right","CountryId":"20147700","StateId":"20164001","CountyId":"20164643","CityId":"20164987","DistrictId":"20164989"}}},{"Relevance":1.0,"Distance":76.8,"MatchLevel":"houseNumber","MatchQuality":{"Country":1.0,"State":1.0,"County":1.0,"City":1.0,"District":1.0,"Street":[1.0],"HouseNumber":1.0,"PostalCode":1.0},"MatchType":"interpolated","Location":{"LocationId":"NT_997tn36uRWJD1kg.qJ2CkC_xEE","LocationType":"point","DisplayPosition":{"Latitude":49.84483,"Longitude":7.81299},"MapView":{"TopLeft":{"Latitude":49.8459542,"Longitude":7.8112467},"BottomRight":{"Latitude":49.8437058,"Longitude":7.8147333}},"Address":{"Label":"Schäferstraße 1A, 55593 Rüdesheim, Deutschland","Country":"DEU","State":"Rheinland-Pfalz","County":"Bad Kreuznach","City":"Rüdesheim","District":"Rüdesheim","Street":"Schäferstraße","HouseNumber":"1A","PostalCode":"55593","AdditionalData":[{"value":"Deutschland","key":"CountryName"},{"value":"Rheinland-Pfalz","key":"StateName"},{"value":"Bad Kreuznach","key":"CountyName"}]},"MapReference":{"ReferenceId":"548436164","Spot":0.51,"SideOfStreet":"right","CountryId":"20147700","StateId":"20164001","CountyId":"20164643","CityId":"20164987","DistrictId":"20164989","AddressId":"188808647","RoadLinkId":"34760896"}}}]}]}}