{"Response":{"MetaInfo":{"Timestamp":"2020-03-28T10:02:10.318+0000","NextPageInformation":"2"},"View":[{"_type":"SearchResultsViewType","ViewId":0,"Result":[{"Relevance":1.0,"Distance":0.0,"Direction":0.0,"MatchLevel":"district","MatchQuality":{"Country":1.0,"State":1.0,"County":1.0,"City":1.0,"District":1.0,"PostalCode":1.0},"Location":{"LocationId":"NT_9iEuIr-7dC1cwhPXj2W2iA","LocationType":"point","DisplayPosition":{"Latitude":49.8757271,"Longitude":17.8742435},"MapView":{"TopLeft":{"Latitude":49.88395,"Longitude":17.86768},"BottomRight":{"Latitude":49.86303,"Longitude":17.89044}},"Address":{"Label":"Hradec nad Moravicí, Moravskoslezský kraj, Česká Republika","Country":"CZE","State":"Moravskoslezský kraj","County":"Opava","City":"Hradec nad Moravicí","District":"Hradec nad Moravicí","PostalCode":"747 41","AdditionalData":[{"value":"Česká Republika","key":"CountryName"},{"value":"Moravskoslezský kraj","key":"StateName"},{"value":"Opava","key":"CountyName"}]},"MapReference":{"ReferenceId":"1224076268","SideOfStreet":"neither","CountryId":"20427915","StateId":"20438848","CountyId":"20439516","CityId":"20439604","DistrictId":"20439605"}}},{"Relevance":1.0,"Distance":9.6,"MatchLevel":"houseNumber","MatchQuality":{"Country":1.0,"State":1.0,"County":1.0,"City":1.0,"District":1.0,"Street":[1.0],"HouseNumber":1.0,"PostalCode":1.0},"MatchType":"interpolated","Location":{"LocationId":"NT_I.ZRY4-wfs6An17lGm8-wC_zYDO","LocationType":"point","DisplayPosition":{"Latitude":49.87558,"Longitude":17.874},"MapView":{"TopLeft":{"Latitude":49.8767042,"Longitude":17.8722556},"BottomRight":{"Latitude":49.8744558,"Longitude":17.8757444}},"Address":{"Label":"Slezská 368, 747 41 Hradec nad Moravicí, Česká Republika","Country":"CZE","State":"Moravskoslezský kraj","County":"Opava","City":"Hradec nad Moravicí","District":"Hradec nad Moravicí","Street":"Slezská","HouseNumber":"368","PostalCode":"747 41","AdditionalData":[{"value":"Česká Republika","key":"CountryName"},{"value":"Moravskoslezský kraj","key":"StateName"},{"value":"Opava","key":"CountyName"}]},"MapReference":{"ReferenceId":"706821352","Spot":0.1,"SideOfStreet":"right","CountryId":"20427915","StateId":"20438848","CountyId":"20439516","CityId":"20439604","DistrictId":"20439605","AddressId":"240594175","RoadLinkId":"112629979"}}},{"Relevance":1.0,"Distance":22.1,"MatchLevel":"houseNumber","MatchQuality":{"Country":1.0,"State":1.0,"County":1.0,"City":1.0,"District":1.0,"Street":[1.0],"HouseNumber":1.0,"PostalCode":1.0},"MatchType":"interpolated","Location":{"LocationId":"NT_I.ZRY4-wfs6An17lGm8-wC_1ETN","LocationType":"point","DisplayPosition":{"Latitude":49.87578,"Longitude":17.87458},"MapView":{"TopLeft":{"Latitude":49.8769042,"Longitude":17.8728356},"BottomRight":{"Latitude":49.8746558,"Longitude":17.8763244}},"Address":{"Label":"Slezská 515, 747 41 Hradec nad Moravicí, Česká Republika","Country":"CZE","State":"Moravskoslezský kraj","County":"Opava","City":"Hradec nad Moravicí","District":"Hradec nad Moravicí","Street":"Slezská","HouseNumber":"515","PostalCode":"747 41","AdditionalData":[{"value":"Česká Republika","key":"CountryName"},{"value":"Moravskoslezský kraj","key":"StateName"},{"value":"Opava","key":"CountyName"}]},"MapReference":{"ReferenceId":"1189800769","Spot":0.37,"SideOfStreet":"left","CountryId":"20427915","StateId":"20438848","CountyId":"20439516","CityId":"20439604","DistrictId":"20439605","AddressId":"240176296","RoadLinkId":"502467009"}}},{"Relevance":1.0,"Distance":36.5,"MatchLevel":"houseNumber","MatchQuality":{"Country":1.0,"State":1.0,"County":1.0,"City":1.0,"District":1.0,"Street":[1.0],"HouseNumber":1.0,"PostalCode":1.0},"MatchType":"interpolated","Location":{"LocationId":"NT_I.ZRY4-wfs6An17lGm8-wC_0UzM","LocationType":"point","DisplayPosition":{"Latitude":49.87543,"Longitude":17.87446},"MapView":{"TopLeft":{"Latitude":49.8765542,"Longitude":17.8727156},"BottomRight":{"Latitude":49.8743058,"Longitude":17.8762044}},"Address":{"Label":"Slezská 453, 747 41 Hradec nad Moravicí, Česká Republika","Country":"CZE","State":"Moravskoslezský kraj","County":"Opava","City":"Hradec nad Moravicí","District":"Hradec nad Moravicí","Street":"Slezská","HouseNumber":"453","PostalCode":"747 41","AdditionalData":[{"value":"Česká Republika","key":"CountryName"},{"value":"Moravskoslezský kraj","key":"StateName"},{"value":"Opava","key":"CountyName"}]},"MapReference":{"ReferenceId":"706821345","Spot":0.71,"SideOfStreet":"right","CountryId":"20427915","StateId":"20438848","CountyId":"20439516","CityId":"20439604","DistrictId":"20439605","AddressId":"240811506","RoadLinkId":"112629972"}}},{"Relevance":1.0,"Distance":62.6,"MatchLevel":"houseNumber","MatchQuality":{"Country":1.0,"State":1.0,"County":1.0,"City":1.0,"District":1.0,"Street":[1.0],"HouseNumber":1.0,"PostalCode":1.0},"MatchType":"interpolated","Location":{"LocationId":"NT_mjXDnW.lYoMwLpoBWmYG6C_3AjM","LocationType":"point","DisplayPosition":{"Latitude":49.87653,"Longitude":17.87414},"MapView":{"TopLeft":{"Latitude":49.8776542,"Longitude":17.8723956},"BottomRight":{"Latitude":49.8754058,"Longitude":17.8758844}},"Address":{"Label":"Pod Hanuší 702, 747 41 Hradec nad Moravicí, Česká Republika","Country":"CZE","State":"Moravskoslezský kraj","County":"Opava","City":"Hradec nad Moravicí","District":"Hradec nad Moravicí","Street":"Pod Hanuší","HouseNumber":"702","PostalCode":"747 41","AdditionalData":[{"value":"Česká Republika","key":"CountryName"},{"value":"Moravskoslezský kraj","key":"StateName"},{"value":"Opava","key":"CountyName"}]},"MapReference":{"ReferenceId":"706821356","Spot":0.47,"SideOfStreet":"left","CountryId":"20427915","StateId":"20438848","CountyId":"20439516","CityId":"20439604","DistrictId":"20439605","AddressId":"239518402","RoadLinkId":"112629983"}}},{"Relevance":1.0,"Distance":82.4,"MatchLevel":"houseNumber","MatchQuality":{"Country":1.0,"State":1.0,"County":1.0,"City":1.0,"District":1.0,"Street":[1.0],"HouseNumber":1.0,"PostalCode":1.0},"MatchType":"interpolated","Location":{"LocationId":"NT_mjXDnW.lYoMwLpoBWmYG6C_0MDN","LocationType":"point","DisplayPosition":{"Latitude":49.87597,"Longitude":17.87564},"MapView":{"TopLeft":{"Latitude":49.8770942,"Longitude":17.8738956},"BottomRight":{"Latitude":49.8748458,"Longitude":17.8773844}},"Address":{"Label":"Pod Hanuší 434, 747 41 Hradec nad Moravicí, Česká Republika","Country":"CZE","State":"Moravskoslezský kraj","County":"Opava","City":"Hradec nad Moravicí","District":"Hradec nad Moravicí","Street":"Pod Hanuší","HouseNumber":"434","PostalCode":"747 41","AdditionalData":[{"value":"Česká Republika","key":"CountryName"},{"value":"Moravskoslezský kraj","key":"StateName"},{"value":"Opava","key":"CountyName"}]},"MapReference":{"ReferenceId":"706821348","Spot":0.81,"SideOfStreet":"left","CountryId":"20427915","StateId":"20438848","CountyId":"20439516","CityId":"20439604","DistrictId":"20439605","AddressId":"239830359","RoadLinkId":"112629975"}}},{"Relevance":1.0,"Distance":89.9,"MatchLevel":"street","MatchQuality":{"Country":1.0,"State":1.0,"County":1.0,"City":1.0,"District":1.0,"Street":[1.0],"PostalCode":1.0},"Location":{"LocationId":"NT_mjXDnW.lYoMwLpoBWmYG6C_l_707025575_L","LocationType":"point","DisplayPosition":{"Latitude":49.87621,"Longitude":17.87525},"MapView":{"TopLeft":{"Latitude":49.87621,"Longitude":17.87525},"BottomRight":{"Latitude":49.8762,"Longitude":17.87564}},"Address":{"Label":"Pod Hanuší, 747 41 Hradec nad Moravicí, Česká Republika","Country":"CZE","State":"Moravskoslezský kraj","County":"Opava","City":"Hradec nad Moravicí","District":"Hradec nad Moravicí","Street":"Pod Hanuší","PostalCode":"747 41","AdditionalData":[{"value":"Česká Republika","key":"CountryName"},{"value":"Moravskoslezský kraj","key":"StateName"},{"value":"Opava","key":"CountyName"}]},"MapReference":{"ReferenceId":"707025575","Spot":1.0,"SideOfStreet":"left","CountryId":"20427915","StateId":"20438848","CountyId":"20439516","CityId":"20439604","DistrictId":"20439605"}}},{"Relevance":1.0,"Distance":93.2,"MatchLevel":"houseNumber","MatchQuality":{"Country":1.0,"State":1.0,"County":1.0,"City":1.0,"District":1.0,"Street":[1.0],"HouseNumber":1.0,"PostalCode":1.0},"MatchType":"interpolated","Location":{"LocationId":"NT_TvL3wLKg9BjbQqXbI1X5UD_zkTN","LocationType":"point","DisplayPosition":{"Latitude":49.8747,"Longitude":17.87382},"MapView":{"TopLeft":{"Latitude":49.8758242,"Longitude":17.8720757},"BottomRight":{"Latitude":49.8735758,"Longitude":17.8755643}},"Address":{"Label":"Zahradní 395, 747 41 Hradec nad Moravicí, Česká Republika","Country":"CZE","State":"Moravskoslezský kraj","County":"Opava","City":"Hradec nad Moravicí","District":"Hradec nad Moravicí","Street":"Zahradní","HouseNumber":"395","PostalCode":"747 41","AdditionalData":[{"value":"Česká Republika","key":"CountryName"},{"value":"Moravskoslezský kraj","key":"StateName"},{"value":"Opava","key":"CountyName"}]},"MapReference":{"ReferenceId":"706821338","Spot":0.87,"SideOfStreet":"left","CountryId":"20427915","StateId":"20438848","CountyId":"20439516","CityId":"20439604","DistrictId":"20439605","AddressId":"239830360","RoadLinkId":"112629965"}}},{"Relevance":1.0,"Distance":94.4,"MatchLevel":"street","MatchQuality":{"Country":1.0,"State":1.0,"County":1.0,"City":1.0,"District":1.0,"PostalCode":1.0},"Location":{"LocationId":"NT_GCAZd4jJK1oCXteTt-GN9C_l_706821337_L","LocationType":"point","DisplayPosition":{"Latitude":49.8750385,"Longitude":17.8750147},"MapView":{"TopLeft":{"Latitude":49.87519,"Longitude":17.87465},"BottomRight":{"Latitude":49.87463,"Longitude":17.87515}},"Address":{"Label":"747 41 Hradec nad Moravicí, Česká Republika","Country":"CZE","State":"Moravskoslezský kraj","County":"Opava","City":"Hradec nad Moravicí","District":"Hradec nad Moravicí","PostalCode":"747 41","AdditionalData":[{"value":"Česká Republika","key":"CountryName"},{"value":"Moravskoslezský kraj","key":"StateName"},{"value":"Opava","key":"CountyName"}]},"MapReference":{"ReferenceId":"706821337","Spot":0.73,"SideOfStreet":"left","CountryId":"20427915","StateId":"20438848","CountyId":"20439516","CityId":"20439604","DistrictId":"20439605"}}},{"Relevance":1.0,"Distance":98.7,"MatchLevel":"houseNumber","MatchQuality":{"Country":1.0,"State":1.0,"County":1.0,"City":1.0,"District":1.0,"Street":[1.0],"HouseNumber":1.0,"PostalCode":1.0},"MatchType":"interpolated","Location":{"LocationId":"NT_I.ZRY4-wfs6An17lGm8-wC_zczN","LocationType":"point","DisplayPosition":{"Latitude":49.87515,"Longitude":17.87529},"MapView":{"TopLeft":{"Latitude":49.8762742,"Longitude":17.8735457},"BottomRight":{"Latitude":49.8740258,"Longitude":17.8770343}},"Address":{"Label":"Slezská 377, 747 41 Hradec nad Moravicí, Česká Republika","Country":"CZE","State":"Moravskoslezský kraj","County":"Opava","City":"Hradec nad Moravicí","District":"Hradec nad Moravicí","Street":"Slezská","HouseNumber":"377","PostalCode":"747 41","AdditionalData":[{"value":"Česká Republika","key":"CountryName"},{"value":"Moravskoslezský kraj","key":"StateName"},{"value":"Opava","key":"CountyName"}]},"MapReference":{"ReferenceId":"706821347","Spot":0.72,"SideOfStreet":"right","CountryId":"20427915","StateId":"20438848","CountyId":"20439516","CityId":"20439604","DistrictId":"20439605","AddressId":"240178546","RoadLinkId":"112629974"}}}]}]}}