{"Response":{"MetaInfo":{"Timestamp":"2020-03-28T12:05:56.724+0000","NextPageInformation":"2"},"View":[{"_type":"SearchResultsViewType","ViewId":0,"Result":[{"Relevance":1.0,"Distance":0.0,"Direction":0.0,"MatchLevel":"district","MatchQuality":{"Country":1.0,"State":1.0,"County":1.0,"City":1.0,"District":1.0,"PostalCode":1.0},"Location":{"LocationId":"NT_17PrlcvVp4Ol7CjGDIfMmD","LocationType":"point","DisplayPosition":{"Latitude":49.8139939,"Longitude":19.0351686},"MapView":{"TopLeft":{"Latitude":49.88752,"Longitude":18.94997},"BottomRight":{"Latitude":49.76295,"Longitude":19.13212}},"Address":{"Label":"Bielsko-Biała, Woj. Śląskie, Polska","Country":"POL","State":"Woj. Śląskie","County":"Bielsko-Biała","City":"Bielsko-Biała","District":"Bielsko-Biała","PostalCode":"43-300","AdditionalData":[{"value":"Polska","key":"CountryName"},{"value":"Woj. Śląskie","key":"StateName"},{"value":"Bielsko-Biała","key":"CountyName"}]},"MapReference":{"ReferenceId":"1054020440","SideOfStreet":"neither","CountryId":"20624059","StateId":"20629003","CountyId":"20629004","CityId":"20629005","DistrictId":"20646631"}}},{"Relevance":1.0,"Distance":7.6,"MatchLevel":"houseNumber","MatchQuality":{"Country":1.0,"State":1.0,"County":1.0,"City":1.0,"District":1.0,"Street":[1.0],"HouseNumber":1.0,"PostalCode":1.0},"MatchType":"interpolated","Location":{"LocationId":"NT_2iYO8kt-qVqqGHMdCET6tC_yAD","LocationType":"point","DisplayPosition":{"Latitude":49.81383,"Longitude":19.03518},"MapView":{"TopLeft":{"Latitude":49.8149542,"Longitude":19.0334379},"BottomRight":{"Latitude":49.8127058,"Longitude":19.0369221}},"Address":{"Label":"ulica prof. M. Michałowicza 20, 43-300 Bielsko-Biała, Polska","Country":"POL","State":"Woj. Śląskie","County":"Bielsko-Biała","City":"Bielsko-Biała","District":"Bielsko-Biała","Street":"ulica prof. M. Michałowicza","HouseNumber":"20","PostalCode":"43-300","AdditionalData":[{"value":"Polska","key":"CountryName"},{"value":"Woj. Śląskie","key":"StateName"},{"value":"Bielsko-Biała","key":"CountyName"}]},"MapReference":{"ReferenceId":"1052283370","Spot":0.22,"SideOfStreet":"left","CountryId":"20624059","StateId":"20629003","CountyId":"20629004","CityId":"20629005","DistrictId":"20646631","AddressId":"210588166","RoadLinkId":"371932781"}}},{"Relevance":1.0,"Distance":26.2,"MatchLevel":"street","MatchQuality":{"Country":1.0,"State":1.0,"County":1.0,"City":1.0,"District":1.0,"Street":[1.0],"PostalCode":1.0},"Location":{"LocationId":"NT_2iYO8kt-qVqqGHMdCET6tC_l_1052283368_L","LocationType":"point","DisplayPosition":{"Latitude":49.81396,"Longitude":19.03553},"MapView":{"TopLeft":{"Latitude":49.81405,"Longitude":19.03553},"BottomRight":{"Latitude":49.81396,"Longitude":19.03581}},"Address":{"Label":"ulica prof. M. Michałowicza, 43-300 Bielsko-Biała, Polska","Country":"POL","State":"Woj. Śląskie","County":"Bielsko-Biała","City":"Bielsko-Biała","District":"Bielsko-Biała","Street":"ulica prof. M. Michałowicza","PostalCode":"43-300","AdditionalData":[{"value":"Polska","key":"CountryName"},{"value":"Woj. Śląskie","key":"StateName"},{"value":"Bielsko-Biała","key":"CountyName"}]},"MapReference":{"ReferenceId":"1052283368","Spot":0.0,"SideOfStreet":"left","CountryId":"20624059","StateId":"20629003","CountyId":"20629004","CityId":"20629005","DistrictId":"20646631"}}},{"Relevance":1.0,"Distance":31.7,"MatchLevel":"houseNumber","MatchQuality":{"Country":1.0,"State":1.0,"County":1.0,"City":1.0,"District":1.0,"Street":[1.0],"HouseNumber":1.0,"PostalCode":1.0},"MatchType":"interpolated","Location":{"LocationId":"NT_2iYO8kt-qVqqGHMdCET6tC_yID","LocationType":"point","DisplayPosition":{"Latitude":49.81375,"Longitude":19.03494},"MapView":{"TopLeft":{"Latitude":49.8148742,"Longitude":19.0331979},"BottomRight":{"Latitude":49.8126258,"Longitude":19.0366821}},"Address":{"Label":"ulica prof. M. Michałowicza 22, 43-300 Bielsko-Biała, Polska","Country":"POL","State":"Woj. Śląskie","County":"Bielsko-Biała","City":"Bielsko-Biała","District":"Bielsko-Biała","Street":"ulica prof. M. Michałowicza","HouseNumber":"22","PostalCode":"43-300","AdditionalData":[{"value":"Polska","key":"CountryName"},{"value":"Woj. Śląskie","key":"StateName"},{"value":"Bielsko-Biała","key":"CountyName"}]},"MapReference":{"ReferenceId":"1053722891","Spot":0.76,"SideOfStreet":"left","CountryId":"20624059","StateId":"20629003","CountyId":"20629004","CityId":"20629005","DistrictId":"20646631","AddressId":"210013199","RoadLinkId":"373360339"}}},{"Relevance":1.0,"Distance":32.8,"MatchLevel":"houseNumber","MatchQuality":{"Country":1.0,"State":1.0,"County":1.0,"City":1.0,"District":1.0,"Street":[1.0],"HouseNumber":1.0,"PostalCode":1.0},"MatchType":"interpolated","Location":{"LocationId":"NT_VFzDgOo96fDtf4wzI9PB8B_yUD","LocationType":"point","DisplayPosition":{"Latitude":49.81423,"Longitude":19.03563},"MapView":{"TopLeft":{"Latitude":49.8153542,"Longitude":19.0338879},"BottomRight":{"Latitude":49.8131058,"Longitude":19.0373721}},"Address":{"Label":"ulica Kamińskiego 25, 43-300 Bielsko-Biała, Polska","Country":"POL","State":"Woj. Śląskie","County":"Bielsko-Biała","City":"Bielsko-Biała","District":"Bielsko-Biała","Street":"ulica Kamińskiego","HouseNumber":"25","PostalCode":"43-300","AdditionalData":[{"value":"Polska","key":"CountryName"},{"value":"Woj. Śląskie","key":"StateName"},{"value":"Bielsko-Biała","key":"CountyName"}]},"MapReference":{"ReferenceId":"594417090","Spot":0.23,"SideOfStreet":"left","CountryId":"20624059","StateId":"20629003","CountyId":"20629004","CityId":"20629005","DistrictId":"20646631","AddressId":"582369516","RoadLinkId":"96505796"}}},{"Relevance":1.0,"Distance":54.8,"MatchLevel":"houseNumber","MatchQuality":{"Country":1.0,"State":1.0,"County":1.0,"City":1.0,"District":1.0,"Street":[1.0],"HouseNumber":1.0,"PostalCode":1.0},"MatchType":"interpolated","Location":{"LocationId":"NT_2iYO8kt-qVqqGHMdCET6tC_0UD","LocationType":"point","DisplayPosition":{"Latitude":49.81408,"Longitude":19.03592},"MapView":{"TopLeft":{"Latitude":49.8152042,"Longitude":19.0341779},"BottomRight":{"Latitude":49.8129558,"Longitude":19.0376621}},"Address":{"Label":"ulica prof. M. Michałowicza 45, 43-300 Bielsko-Biała, Polska","Country":"POL","State":"Woj. Śląskie","County":"Bielsko-Biała","City":"Bielsko-Biała","District":"Bielsko-Biała","Street":"ulica prof. M. Michałowicza","HouseNumber":"45","PostalCode":"43-300","AdditionalData":[{"value":"Polska","key":"CountryName"},{"value":"Woj. Śląskie","key":"StateName"},{"value":"Bielsko-Biała","key":"CountyName"}]},"MapReference":{"ReferenceId":"1053722892","Spot":1.0,"SideOfStreet":"right","CountryId":"20624059","StateId":"20629003","CountyId":"20629004","CityId":"20629005","DistrictId":"20646631","AddressId":"209534666","RoadLinkId":"373360340"}}},{"Relevance":1.0,"Distance":66.2,"MatchLevel":"houseNumber","MatchQuality":{"Country":1.0,"State":1.0,"County":1.0,"City":1.0,"District":1.0,"Street":[1.0],"HouseNumber":1.0,"PostalCode":1.0},"MatchType":"interpolated","Location":{"LocationId":"NT_2iYO8kt-qVqqGHMdCET6tC_xQD","LocationType":"point","DisplayPosition":{"Latitude":49.81412,"Longitude":19.03607},"MapView":{"TopLeft":{"Latitude":49.8152442,"Longitude":19.0343279},"BottomRight":{"Latitude":49.8129958,"Longitude":19.0378121}},"Address":{"Label":"ulica prof. M. Michałowicza 14, 43-300 Bielsko-Biała, Polska","Country":"POL","State":"Woj. Śląskie","County":"Bielsko-Biała","City":"Bielsko-Biała","District":"Bielsko-Biała","Street":"ulica prof. M. Michałowicza","HouseNumber":"14","PostalCode":"43-300","AdditionalData":[{"value":"Polska","key":"CountryName"},{"value":"Woj. Śląskie","key":"StateName"},{"value":"Bielsko-Biała","key":"CountyName"}]},"MapReference":{"ReferenceId":"1053722893","Spot":1.0,"SideOfStreet":"left","CountryId":"20624059","StateId":"20629003","CountyId":"20629004","CityId":"20629005","DistrictId":"20646631","AddressId":"209225342","RoadLinkId":"373360341"}}},{"Relevance":1.0,"Distance":75.3,"MatchLevel":"houseNumber","MatchQuality":{"Country":1.0,"State":1.0,"County":1.0,"City":1.0,"District":1.0,"Street":[1.0],"HouseNumber":1.0,"PostalCode":1.0},"MatchType":"interpolated","Location":{"LocationId":"NT_2iYO8kt-qVqqGHMdCET6tC_yQD","LocationType":"point","DisplayPosition":{"Latitude":49.81354,"Longitude":19.03439},"MapView":{"TopLeft":{"Latitude":49.8146642,"Longitude":19.0326479},"BottomRight":{"Latitude":49.8124158,"Longitude":19.0361321}},"Address":{"Label":"ulica prof. M. Michałowicza 24, 43-300 Bielsko-Biała, Polska","Country":"POL","State":"Woj. Śląskie","County":"Bielsko-Biała","City":"Bielsko-Biała","District":"Bielsko-Biała","Street":"ulica prof. M. Michałowicza","HouseNumber":"24","PostalCode":"43-300","AdditionalData":[{"value":"Polska","key":"CountryName"},{"value":"Woj. Śląskie","key":"StateName"},{"value":"Bielsko-Biała","key":"CountyName"}]},"MapReference":{"ReferenceId":"1053722890","Spot":0.63,"SideOfStreet":"left","CountryId":"20624059","StateId":"20629003","CountyId":"20629004","CityId":"20629005","DistrictId":"20646631","AddressId":"210284215","RoadLinkId":"373360338"}}},{"Relevance":1.0,"Distance":76.5,"MatchLevel":"houseNumber","MatchQuality":{"Country":1.0,"State":1.0,"County":1.0,"City":1.0,"District":1.0,"Street":[1.0],"HouseNumber":1.0,"PostalCode":1.0},"MatchType":"interpolated","Location":{"LocationId":"NT_VFzDgOo96fDtf4wzI9PB8B_xkD","LocationType":"point","DisplayPosition":{"Latitude":49.81354,"Longitude":19.03616},"MapView":{"TopLeft":{"Latitude":49.8146642,"Longitude":19.0344179},"BottomRight":{"Latitude":49.8124158,"Longitude":19.0379021}},"Address":{"Label":"ulica Kamińskiego 19, 43-300 Bielsko-Biała, Polska","Country":"POL","State":"Woj. Śląskie","County":"Bielsko-Biała","City":"Bielsko-Biała","District":"Bielsko-Biała","Street":"ulica Kamińskiego","HouseNumber":"19","PostalCode":"43-300","AdditionalData":[{"value":"Polska","key":"CountryName"},{"value":"Woj. Śląskie","key":"StateName"},{"value":"Bielsko-Biała","key":"CountyName"}]},"MapReference":{"ReferenceId":"594417467","Spot":0.78,"SideOfStreet":"left","CountryId":"20624059","StateId":"20629003","CountyId":"20629004","CityId":"20629005","DistrictId":"20646631","AddressId":"210302077","RoadLinkId":"96335192"}}},{"Relevance":1.0,"Distance":87.5,"MatchLevel":"houseNumber","MatchQuality":{"Country":1.0,"State":1.0,"County":1.0,"City":1.0,"District":1.0,"Street":[1.0],"HouseNumber":1.0,"PostalCode":1.0},"MatchType":"interpolated","Location":{"LocationId":"NT_2iYO8kt-qVqqGHMdCET6tC_xYD","LocationType":"point","DisplayPosition":{"Latitude":49.81419,"Longitude":19.03635},"MapView":{"TopLeft":{"Latitude":49.8153142,"Longitude":19.0346079},"BottomRight":{"Latitude":49.8130658,"Longitude":19.0380921}},"Address":{"Label":"ulica prof. M. Michałowicza 16, 43-300 Bielsko-Biała, Polska","Country":"POL","State":"Woj. Śląskie","County":"Bielsko-Biała","City":"Bielsko-Biała","District":"Bielsko-Biała","Street":"ulica prof. M. Michałowicza","HouseNumber":"16","PostalCode":"43-300","AdditionalData":[{"value":"Polska","key":"CountryName"},{"value":"Woj. Śląskie","key":"StateName"},{"value":"Bielsko-Biała","key":"CountyName"}]},"MapReference":{"ReferenceId":"1052283366","Spot":0.9,"SideOfStreet":"left","CountryId":"20624059","StateId":"20629003","CountyId":"20629004","CityId":"20629005","DistrictId":"20646631","AddressId":"210771580","RoadLinkId":"371932777"}}}]}]}}