{"Response":{"MetaInfo":{"Timestamp":"2020-03-28T11:39:50.062+0000","NextPageInformation":"2"},"View":[{"_type":"SearchResultsViewType","ViewId":0,"Result":[{"Relevance":1.0,"Distance":0.0,"Direction":0.0,"MatchLevel":"district","MatchQuality":{"Country":1.0,"State":1.0,"County":1.0,"City":1.0,"District":1.0,"PostalCode":1.0},"Location":{"LocationId":"NT_yKhVP826rriSSGZIz7n7bB","LocationType":"point","DisplayPosition":{"Latitude":49.8646944,"Longitude":16.3124823},"MapView":{"TopLeft":{"Latitude":49.88494,"Longitude":16.28526},"BottomRight":{"Latitude":49.85466,"Longitude":16.33424}},"Address":{"Label":"Litomyšl, Pardubický kraj, Česká Republika","Country":"CZE","State":"Pardubický kraj","County":"Svitavy","City":"Litomyšl","District":"Litomyšl","PostalCode":"570 01","AdditionalData":[{"value":"Česká Republika","key":"CountryName"},{"value":"Pardubický kraj","key":"StateName"},{"value":"Svitavy","key":"CountyName"}]},"MapReference":{"ReferenceId":"1124943738","SideOfStreet":"neither","CountryId":"20427915","StateId":"20439757","CountyId":"20440444","CityId":"20440607","DistrictId":"20440608"}}},{"Relevance":1.0,"Distance":14.7,"MatchLevel":"houseNumber","MatchQuality":{"Country":1.0,"State":1.0,"County":1.0,"City":1.0,"District":1.0,"Street":[1.0],"HouseNumber":1.0,"PostalCode":1.0},"MatchType":"interpolated","Location":{"LocationId":"NT_iFBvNoRD5KYWzbwdBzqXkA_xATO2A","LocationType":"point","DisplayPosition":{"Latitude":49.86475,"Longitude":16.31212},"MapView":{"TopLeft":{"Latitude":49.8658742,"Longitude":16.310376},"BottomRight":{"Latitude":49.8636258,"Longitude":16.313864}},"Address":{"Label":"J. E. Purkyně 1096, 570 01 Litomyšl, Česká Republika","Country":"CZE","State":"Pardubický kraj","County":"Svitavy","City":"Litomyšl","District":"Litomyšl","Street":"J. E. Purkyně","HouseNumber":"1096","PostalCode":"570 01","AdditionalData":[{"value":"Česká Republika","key":"CountryName"},{"value":"Pardubický kraj","key":"StateName"},{"value":"Svitavy","key":"CountyName"}]},"MapReference":{"ReferenceId":"908067462","Spot":0.95,"SideOfStreet":"right","CountryId":"20427915","StateId":"20439757","CountyId":"20440444","CityId":"20440607","DistrictId":"20440608","AddressId":"384605762","RoadLinkId":"268664790"}}},{"Relevance":1.0,"Distance":30.0,"MatchLevel":"street","MatchQuality":{"Country":1.0,"State":1.0,"County":1.0,"City":1.0,"District":1.0,"Street":[1.0],"PostalCode":1.0},"Location":{"LocationId":"NT_iFBvNoRD5KYWzbwdBzqXkA_l_705849339_L","LocationType":"point","DisplayPosition":{"Latitude":49.86444,"Longitude":16.31262},"MapView":{"TopLeft":{"Latitude":49.86444,"Longitude":16.31262},"BottomRight":{"Latitude":49.86355,"Longitude":16.31306}},"Address":{"Label":"J. E. Purkyně, 570 01 Litomyšl, Česká Republika","Country":"CZE","State":"Pardubický kraj","County":"Svitavy","City":"Litomyšl","District":"Litomyšl","Street":"J. E. Purkyně","PostalCode":"570 01","AdditionalData":[{"value":"Česká Republika","key":"CountryName"},{"value":"Pardubický kraj","key":"StateName"},{"value":"Svitavy","key":"CountyName"}]},"MapReference":{"ReferenceId":"705849339","Spot":1.0,"SideOfStreet":"left","CountryId":"20427915","StateId":"20439757","CountyId":"20440444","CityId":"20440607","DistrictId":"20440608"}}},{"Relevance":1.0,"Distance":30.4,"MatchLevel":"houseNumber","MatchQuality":{"Country":1.0,"State":1.0,"County":1.0,"City":1.0,"District":1.0,"Street":[1.0],"HouseNumber":1.0,"PostalCode":1.0},"MatchType":"interpolated","Location":{"LocationId":"NT_iFBvNoRD5KYWzbwdBzqXkA_3YDO","LocationType":"point","DisplayPosition":{"Latitude":49.86495,"Longitude":16.31319},"MapView":{"TopLeft":{"Latitude":49.8660742,"Longitude":16.311446},"BottomRight":{"Latitude":49.8638258,"Longitude":16.314934}},"Address":{"Label":"J. E. Purkyně 768, 570 01 Litomyšl, Česká Republika","Country":"CZE","State":"Pardubický kraj","County":"Svitavy","City":"Litomyšl","District":"Litomyšl","Street":"J. E. Purkyně","HouseNumber":"768","PostalCode":"570 01","AdditionalData":[{"value":"Česká Republika","key":"CountryName"},{"value":"Pardubický kraj","key":"StateName"},{"value":"Svitavy","key":"CountyName"}]},"MapReference":{"ReferenceId":"1083673871","Spot":0.24,"SideOfStreet":"left","CountryId":"20427915","StateId":"20439757","CountyId":"20440444","CityId":"20440607","DistrictId":"20440608","AddressId":"240378644","RoadLinkId":"400083265"}}},{"Relevance":1.0,"Distance":42.8,"MatchLevel":"street","MatchQuality":{"Country":1.0,"State":1.0,"County":1.0,"City":1.0,"District":1.0,"Street":[1.0],"PostalCode":1.0},"Location":{"LocationId":"NT_iFBvNoRD5KYWzbwdBzqXkA_l_705849361_R","LocationType":"point","DisplayPosition":{"Latitude":49.8644319,"Longitude":16.3120448},"MapView":{"TopLeft":{"Latitude":49.86469,"Longitude":16.31189},"BottomRight":{"Latitude":49.86379,"Longitude":16.31243}},"Address":{"Label":"J. E. Purkyně, 570 01 Litomyšl, Česká Republika","Country":"CZE","State":"Pardubický kraj","County":"Svitavy","City":"Litomyšl","District":"Litomyšl","Street":"J. E. Purkyně","PostalCode":"570 01","AdditionalData":[{"value":"Česká Republika","key":"CountryName"},{"value":"Pardubický kraj","key":"StateName"},{"value":"Svitavy","key":"CountyName"}]},"MapReference":{"ReferenceId":"705849361","Spot":0.71,"SideOfStreet":"right","CountryId":"20427915","StateId":"20439757","CountyId":"20440444","CityId":"20440607","DistrictId":"20440608"}}},{"Relevance":1.0,"Distance":44.5,"MatchLevel":"houseNumber","MatchQuality":{"Country":1.0,"State":1.0,"County":1.0,"City":1.0,"District":1.0,"Street":[1.0],"HouseNumber":1.0,"PostalCode":1.0},"MatchType":"interpolated","Location":{"LocationId":"NT_iFBvNoRD5KYWzbwdBzqXkA_2UjM","LocationType":"point","DisplayPosition":{"Latitude":49.865,"Longitude":16.31198},"MapView":{"TopLeft":{"Latitude":49.8661242,"Longitude":16.310236},"BottomRight":{"Latitude":49.8638758,"Longitude":16.313724}},"Address":{"Label":"J. E. Purkyně 652, 570 01 Litomyšl, Česká Republika","Country":"CZE","State":"Pardubický kraj","County":"Svitavy","City":"Litomyšl","District":"Litomyšl","Street":"J. E. Purkyně","HouseNumber":"652","PostalCode":"570 01","AdditionalData":[{"value":"Česká Republika","key":"CountryName"},{"value":"Pardubický kraj","key":"StateName"},{"value":"Svitavy","key":"CountyName"}]},"MapReference":{"ReferenceId":"1083673868","Spot":0.96,"SideOfStreet":"right","CountryId":"20427915","StateId":"20439757","CountyId":"20440444","CityId":"20440607","DistrictId":"20440608","AddressId":"239669725","RoadLinkId":"400083260"}}},{"Relevance":1.0,"Distance":50.3,"MatchLevel":"street","MatchQuality":{"Country":1.0,"State":1.0,"County":1.0,"City":1.0,"District":1.0,"Street":[1.0],"PostalCode":1.0},"Location":{"LocationId":"NT_iFBvNoRD5KYWzbwdBzqXkA_l_1083673869_R","LocationType":"point","DisplayPosition":{"Latitude":49.86501,"Longitude":16.31198},"MapView":{"TopLeft":{"Latitude":49.86583,"Longitude":16.31149},"BottomRight":{"Latitude":49.86501,"Longitude":16.31198}},"Address":{"Label":"J. E. Purkyně, 570 01 Litomyšl, Česká Republika","Country":"CZE","State":"Pardubický kraj","County":"Svitavy","City":"Litomyšl","District":"Litomyšl","Street":"J. E. Purkyně","PostalCode":"570 01","AdditionalData":[{"value":"Česká Republika","key":"CountryName"},{"value":"Pardubický kraj","key":"StateName"},{"value":"Svitavy","key":"CountyName"}]},"MapReference":{"ReferenceId":"1083673869","Spot":0.0,"SideOfStreet":"right","CountryId":"20427915","StateId":"20439757","CountyId":"20440444","CityId":"20440607","DistrictId":"20440608"}}},{"Relevance":1.0,"Distance":54.7,"MatchLevel":"street","MatchQuality":{"Country":1.0,"State":1.0,"County":1.0,"City":1.0,"District":1.0,"Street":[1.0],"PostalCode":1.0},"Location":{"LocationId":"NT_iFBvNoRD5KYWzbwdBzqXkA_l_1083673872_R","LocationType":"point","DisplayPosition":{"Latitude":49.8651404,"Longitude":16.3121612},"MapView":{"TopLeft":{"Latitude":49.86537,"Longitude":16.31198},"BottomRight":{"Latitude":49.86501,"Longitude":16.31248}},"Address":{"Label":"J. E. Purkyně, 570 01 Litomyšl, Česká Republika","Country":"CZE","State":"Pardubický kraj","County":"Svitavy","City":"Litomyšl","District":"Litomyšl","Street":"J. E. Purkyně","PostalCode":"570 01","AdditionalData":[{"value":"Česká Republika","key":"CountryName"},{"value":"Pardubický kraj","key":"StateName"},{"value":"Svitavy","key":"CountyName"}]},"MapReference":{"ReferenceId":"1083673872","Spot":0.36,"SideOfStreet":"right","CountryId":"20427915","StateId":"20439757","CountyId":"20440444","CityId":"20440607","DistrictId":"20440608"}}},{"Relevance":1.0,"Distance":58.5,"MatchLevel":"houseNumber","MatchQuality":{"Country":1.0,"State":1.0,"County":1.0,"City":1.0,"District":1.0,"Street":[1.0],"HouseNumber":1.0,"PostalCode":1.0},"MatchType":"interpolated","Location":{"LocationId":"NT_iFBvNoRD5KYWzbwdBzqXkA_xEDO3A","LocationType":"point","DisplayPosition":{"Latitude":49.86472,"Longitude":16.31153},"MapView":{"TopLeft":{"Latitude":49.8658442,"Longitude":16.309786},"BottomRight":{"Latitude":49.8635958,"Longitude":16.313274}},"Address":{"Label":"J. E. Purkyně 1187, 570 01 Litomyšl, Česká Republika","Country":"CZE","State":"Pardubický kraj","County":"Svitavy","City":"Litomyšl","District":"Litomyšl","Street":"J. E. Purkyně","HouseNumber":"1187","PostalCode":"570 01","AdditionalData":[{"value":"Česká Republika","key":"CountryName"},{"value":"Pardubický kraj","key":"StateName"},{"value":"Svitavy","key":"CountyName"}]},"MapReference":{"ReferenceId":"705849355","Spot":0.26,"SideOfStreet":"right","CountryId":"20427915","StateId":"20439757","CountyId":"20440444","CityId":"20440607","DistrictId":"20440608","AddressId":"384426006","RoadLinkId":"112027579"}}},{"Relevance":1.0,"Distance":68.4,"MatchLevel":"houseNumber","MatchQuality":{"Country":1.0,"State":1.0,"County":1.0,"City":1.0,"District":1.0,"Street":[1.0],"HouseNumber":1.0,"PostalCode":1.0},"MatchType":"interpolated","Location":{"LocationId":"NT_iFBvNoRD5KYWzbwdBzqXkA_5EDO","LocationType":"point","DisplayPosition":{"Latitude":49.8643,"Longitude":16.31175},"MapView":{"TopLeft":{"Latitude":49.8654242,"Longitude":16.310006},"BottomRight":{"Latitude":49.8631758,"Longitude":16.313494}},"Address":{"Label":"J. E. Purkyně 918, 570 01 Litomyšl, Česká Republika","Country":"CZE","State":"Pardubický kraj","County":"Svitavy","City":"Litomyšl","District":"Litomyšl","Street":"J. E. Purkyně","HouseNumber":"918","PostalCode":"570 01","AdditionalData":[{"value":"Česká Republika","key":"CountryName"},{"value":"Pardubický kraj","key":"StateName"},{"value":"Svitavy","key":"CountyName"}]},"MapReference":{"ReferenceId":"705849357","Spot":0.73,"SideOfStreet":"left","CountryId":"20427915","StateId":"20439757","CountyId":"20440444","CityId":"20440607","DistrictId":"20440608","AddressId":"240011195","RoadLinkId":"112027581"}}}]}]}}