{"Response":{"MetaInfo":{"Timestamp":"2020-03-28T10:53:59.624+0000","NextPageInformation":"2"},"View":[{"_type":"SearchResultsViewType","ViewId":0,"Result":[{"Relevance":1.0,"Distance":-3.8,"MatchLevel":"landmark","MatchQuality":{"Country":1.0,"State":1.0,"County":1.0,"City":1.0,"District":1.0,"Street":[1.0],"HouseNumber":1.0,"PostalCode":1.0,"Name":1.0},"Location":{"LocationId":"NT_ukYMZPGjsykncPvP71KO4D_p_ZIXnq.u1GZMxGS4w09nWgB","LocationType":"hospital","Name":"Nemocnice Hořovice","DisplayPosition":{"Latitude":49.84104,"Longitude":13.91518},"MapView":{"TopLeft":{"Latitude":49.8421642,"Longitude":13.9134369},"BottomRight":{"Latitude":49.8399158,"Longitude":13.9169231}},"Address":{"Label":"K Nemocnici 14, 268 01 Hořovice, Česká Republika","Country":"CZE","State":"Středočeský kraj","County":"Beroun","City":"Hořovice","District":"Hořovice","Street":"K Nemocnici","HouseNumber":"14","PostalCode":"268 01","AdditionalData":[{"value":"Česká Republika","key":"CountryName"},{"value":"Středočeský kraj","key":"StateName"},{"value":"Beroun","key":"CountyName"}]},"MapReference":{"CountryId":"20427915","StateId":"20442660","CountyId":"20443004","CityId":"20443056","DistrictId":"20443057","PlaceId":"1024265913"}}},{"Relevance":1.0,"Distance":0.0,"Direction":0.0,"MatchLevel":"district","MatchQuality":{"Country":1.0,"State":1.0,"County":1.0,"City":1.0,"District":1.0,"PostalCode":1.0},"Location":{"LocationId":"NT_eKRC59GHkJDrb2FLecdNKD","LocationType":"point","DisplayPosition":{"Latitude":49.8403843,"Longitude":13.9136748},"MapView":{"TopLeft":{"Latitude":49.8488,"Longitude":13.87433},"BottomRight":{"Latitude":49.82688,"Longitude":13.92625}},"Address":{"Label":"Hořovice, Středočeský kraj, Česká Republika","Country":"CZE","State":"Středočeský kraj","County":"Beroun","City":"Hořovice","District":"Hořovice","PostalCode":"268 01","AdditionalData":[{"value":"Česká Republika","key":"CountryName"},{"value":"Středočeský kraj","key":"StateName"},{"value":"Beroun","key":"CountyName"}]},"MapReference":{"ReferenceId":"927482774","SideOfStreet":"neither","CountryId":"20427915","StateId":"20442660","CountyId":"20443004","CityId":"20443056","DistrictId":"20443057"}}},{"Relevance":1.0,"Distance":3.9,"MatchLevel":"street","MatchQuality":{"Country":1.0,"State":1.0,"County":1.0,"City":1.0,"District":1.0,"Street":[1.0],"PostalCode":1.0},"Location":{"LocationId":"NT_htsQ1vES6OPxh2VH7MxIcA_l_917823244_R","LocationType":"point","DisplayPosition":{"Latitude":49.8403547,"Longitude":13.9136453},"MapView":{"TopLeft":{"Latitude":49.84042,"Longitude":13.91358},"BottomRight":{"Latitude":49.8402,"Longitude":13.9138}},"Address":{"Label":"K Nemocnici, 268 01 Hořovice, Česká Republika","Country":"CZE","State":"Středočeský kraj","County":"Beroun","City":"Hořovice","District":"Hořovice","Street":"K Nemocnici","PostalCode":"268 01","AdditionalData":[{"value":"Česká Republika","key":"CountryName"},{"value":"Středočeský kraj","key":"StateName"},{"value":"Beroun","key":"CountyName"}]},"MapReference":{"ReferenceId":"917823244","Spot":0.7,"SideOfStreet":"right","CountryId":"20427915","StateId":"20442660","CountyId":"20443004","CityId":"20443056","DistrictId":"20443057"}}},{"Relevance":1.0,"Distance":7.9,"MatchLevel":"street","MatchQuality":{"Country":1.0,"State":1.0,"County":1.0,"City":1.0,"District":1.0,"Street":[1.0],"PostalCode":1.0},"Location":{"LocationId":"NT_htsQ1vES6OPxh2VH7MxIcA_l_596999363_R","LocationType":"point","DisplayPosition":{"Latitude":49.84042,"Longitude":13.91358},"MapView":{"TopLeft":{"Latitude":49.84042,"Longitude":13.91347},"BottomRight":{"Latitude":49.84035,"Longitude":13.91358}},"Address":{"Label":"K Nemocnici, 268 01 Hořovice, Česká Republika","Country":"CZE","State":"Středočeský kraj","County":"Beroun","City":"Hořovice","District":"Hořovice","Street":"K Nemocnici","PostalCode":"268 01","AdditionalData":[{"value":"Česká Republika","key":"CountryName"},{"value":"Středočeský kraj","key":"StateName"},{"value":"Beroun","key":"CountyName"}]},"MapReference":{"ReferenceId":"596999363","Spot":1.0,"SideOfStreet":"right","CountryId":"20427915","StateId":"20442660","CountyId":"20443004","CityId":"20443056","DistrictId":"20443057"}}},{"Relevance":1.0,"Distance":8.1,"MatchLevel":"street","MatchQuality":{"Country":1.0,"State":1.0,"County":1.0,"City":1.0,"District":1.0,"Street":[1.0],"PostalCode":1.0},"Location":{"LocationId":"NT_htsQ1vES6OPxh2VH7MxIcA_l_596999360_R","LocationType":"point","DisplayPosition":{"Latitude":49.8404524,"Longitude":13.9136334},"MapView":{"TopLeft":{"Latitude":49.84118,"Longitude":13.91358},"BottomRight":{"Latitude":49.84042,"Longitude":13.91483}},"Address":{"Label":"K Nemocnici, 268 01 Hořovice, Česká Republika","Country":"CZE","State":"Středočeský kraj","County":"Beroun","City":"Hořovice","District":"Hořovice","Street":"K Nemocnici","PostalCode":"268 01","AdditionalData":[{"value":"Česká Republika","key":"CountryName"},{"value":"Středočeský kraj","key":"StateName"},{"value":"Beroun","key":"CountyName"}]},"MapReference":{"ReferenceId":"596999360","Spot":0.04,"SideOfStreet":"right","CountryId":"20427915","StateId":"20442660","CountyId":"20443004","CityId":"20443056","DistrictId":"20443057"}}},{"Relevance":1.0,"Distance":15.2,"MatchLevel":"street","MatchQuality":{"Country":1.0,"State":1.0,"County":1.0,"City":1.0,"District":1.0,"Street":[1.0],"PostalCode":1.0},"Location":{"LocationId":"NT_htsQ1vES6OPxh2VH7MxIcA_l_596999346_R","LocationType":"point","DisplayPosition":{"Latitude":49.84035,"Longitude":13.91347},"MapView":{"TopLeft":{"Latitude":49.84035,"Longitude":13.91324},"BottomRight":{"Latitude":49.83994,"Longitude":13.91347}},"Address":{"Label":"K Nemocnici, 268 01 Hořovice, Česká Republika","Country":"CZE","State":"Středočeský kraj","County":"Beroun","City":"Hořovice","District":"Hořovice","Street":"K Nemocnici","PostalCode":"268 01","AdditionalData":[{"value":"Česká Republika","key":"CountryName"},{"value":"Středočeský kraj","key":"StateName"},{"value":"Beroun","key":"CountyName"}]},"MapReference":{"ReferenceId":"596999346","Spot":1.0,"SideOfStreet":"right","CountryId":"20427915","StateId":"20442660","CountyId":"20443004","CityId":"20443056","DistrictId":"20443057"}}},{"Relevance":1.0,"Distance":15.2,"MatchLevel":"street","MatchQuality":{"Country":1.0,"State":1.0,"County":1.0,"City":1.0,"District":1.0,"PostalCode":1.0},"Location":{"LocationId":"NT_06R6CQ4yEC5kKJtNIYqUtA_l_596999350_R","LocationType":"point","DisplayPosition":{"Latitude":49.84035,"Longitude":13.91347},"MapView":{"TopLeft":{"Latitude":49.84035,"Longitude":13.91283},"BottomRight":{"Latitude":49.84022,"Longitude":13.91347}},"Address":{"Label":"268 01 Hořovice, Česká Republika","Country":"CZE","State":"Středočeský kraj","County":"Beroun","City":"Hořovice","District":"Hořovice","PostalCode":"268 01","AdditionalData":[{"value":"Česká Republika","key":"CountryName"},{"value":"Středočeský kraj","key":"StateName"},{"value":"Beroun","key":"CountyName"}]},"MapReference":{"ReferenceId":"596999350","Spot":1.0,"SideOfStreet":"right","CountryId":"20427915","StateId":"20442660","CountyId":"20443004","CityId":"20443056","DistrictId":"20443057"}}},{"Relevance":1.0,"Distance":22.4,"MatchLevel":"street","MatchQuality":{"Country":1.0,"State":1.0,"County":1.0,"City":1.0,"District":1.0,"PostalCode":1.0},"Location":{"LocationId":"NT_06R6CQ4yEC5kKJtNIYqUtA_l_927094660_R","LocationType":"point","DisplayPosition":{"Latitude":49.8402,"Longitude":13.9138},"MapView":{"TopLeft":{"Latitude":49.8402,"Longitude":13.9138},"BottomRight":{"Latitude":49.84015,"Longitude":13.91387}},"Address":{"Label":"268 01 Hořovice, Česká Republika","Country":"CZE","State":"Středočeský kraj","County":"Beroun","City":"Hořovice","District":"Hořovice","PostalCode":"268 01","AdditionalData":[{"value":"Česká Republika","key":"CountryName"},{"value":"Středočeský kraj","key":"StateName"},{"value":"Beroun","key":"CountyName"}]},"MapReference":{"ReferenceId":"927094660","Spot":1.0,"SideOfStreet":"right","CountryId":"20427915","StateId":"20442660","CountyId":"20443004","CityId":"20443056","DistrictId":"20443057"}}},{"Relevance":1.0,"Distance":23.2,"MatchLevel":"street","MatchQuality":{"Country":1.0,"State":1.0,"County":1.0,"City":1.0,"District":1.0,"Street":[1.0],"PostalCode":1.0},"Location":{"LocationId":"NT_htsQ1vES6OPxh2VH7MxIcA_l_927092415_L","LocationType":"point","DisplayPosition":{"Latitude":49.8401816,"Longitude":13.9137508},"MapView":{"TopLeft":{"Latitude":49.8402,"Longitude":13.91353},"BottomRight":{"Latitude":49.83977,"Longitude":13.9138}},"Address":{"Label":"K Nemocnici, 268 01 Hořovice, Česká Republika","Country":"CZE","State":"Středočeský kraj","County":"Beroun","City":"Hořovice","District":"Hořovice","Street":"K Nemocnici","PostalCode":"268 01","AdditionalData":[{"value":"Česká Republika","key":"CountryName"},{"value":"Středočeský kraj","key":"StateName"},{"value":"Beroun","key":"CountyName"}]},"MapReference":{"ReferenceId":"927092415","Spot":0.91,"SideOfStreet":"left","CountryId":"20427915","StateId":"20442660","CountyId":"20443004","CityId":"20443056","DistrictId":"20443057"}}},{"Relevance":1.0,"Distance":29.6,"MatchLevel":"street","MatchQuality":{"Country":1.0,"State":1.0,"County":1.0,"City":1.0,"District":1.0,"PostalCode":1.0},"Location":{"LocationId":"NT_06R6CQ4yEC5kKJtNIYqUtA_l_927094662_R","LocationType":"point","DisplayPosition":{"Latitude":49.84015,"Longitude":13.91387},"MapView":{"TopLeft":{"Latitude":49.84015,"Longitude":13.91387},"BottomRight":{"Latitude":49.83994,"Longitude":13.91417}},"Address":{"Label":"268 01 Hořovice, Česká Republika","Country":"CZE","State":"Středočeský kraj","County":"Beroun","City":"Hořovice","District":"Hořovice","PostalCode":"268 01","AdditionalData":[{"value":"Česká Republika","key":"CountryName"},{"value":"Středočeský kraj","key":"StateName"},{"value":"Beroun","key":"CountyName"}]},"MapReference":{"ReferenceId":"927094662","Spot":1.0,"SideOfStreet":"right","CountryId":"20427915","StateId":"20442660","CountyId":"20443004","CityId":"20443056","DistrictId":"20443057"}}}]}]}}