{"Response":{"MetaInfo":{"Timestamp":"2020-03-28T11:47:47.047+0000","NextPageInformation":"2"},"View":[{"_type":"SearchResultsViewType","ViewId":0,"Result":[{"Relevance":1.0,"Distance":0.0,"Direction":0.0,"MatchLevel":"city","MatchQuality":{"Country":1.0,"State":1.0,"County":1.0,"City":1.0,"PostalCode":1.0},"Location":{"LocationId":"NT_.d.fW5-pJnJOcgpYMXknSB","LocationType":"point","DisplayPosition":{"Latitude":49.8573439,"Longitude":2.2371928},"MapView":{"TopLeft":{"Latitude":49.87825,"Longitude":2.18212},"BottomRight":{"Latitude":49.84635,"Longitude":2.25591}},"Address":{"Label":"Saleux, Hauts-de-France, France","Country":"FRA","State":"Hauts-de-France","County":"Somme","City":"Saleux","PostalCode":"80480","AdditionalData":[{"value":"France","key":"CountryName"},{"value":"Hauts-de-France","key":"StateName"},{"value":"Somme","key":"CountyName"}]},"MapReference":{"ReferenceId":"1198750138","SideOfStreet":"neither","CountryId":"20000001","StateId":"20000002","CountyId":"20038939","CityId":"20040985"}}},{"Relevance":1.0,"Distance":8.4,"MatchLevel":"houseNumber","MatchQuality":{"Country":1.0,"State":1.0,"County":1.0,"City":1.0,"Street":[1.0],"HouseNumber":1.0,"PostalCode":1.0},"MatchType":"interpolated","Location":{"LocationId":"NT_gcSgmpUIQVwEkbJfpJFPMD_xQzM","LocationType":"point","DisplayPosition":{"Latitude":49.85715,"Longitude":2.23732},"MapView":{"TopLeft":{"Latitude":49.8582742,"Longitude":2.2355763},"BottomRight":{"Latitude":49.8560258,"Longitude":2.2390637}},"Address":{"Label":"143 Rue Jean Catelas, 80480 Saleux, France","Country":"FRA","State":"Hauts-de-France","County":"Somme","City":"Saleux","Street":"Rue Jean Catelas","HouseNumber":"143","PostalCode":"80480","AdditionalData":[{"value":"France","key":"CountryName"},{"value":"Hauts-de-France","key":"StateName"},{"value":"Somme","key":"CountyName"}]},"MapReference":{"ReferenceId":"80818034","Spot":0.33,"SideOfStreet":"left","CountryId":"20000001","StateId":"20000002","CountyId":"20038939","CityId":"20040985","AddressId":"321155597","RoadLinkId":"44337221"}}},{"Relevance":1.0,"Distance":46.4,"MatchLevel":"houseNumber","MatchQuality":{"Country":1.0,"State":1.0,"County":1.0,"City":1.0,"Street":[1.0],"HouseNumber":1.0,"PostalCode":1.0},"MatchType":"interpolated","Location":{"LocationId":"NT_gcSgmpUIQVwEkbJfpJFPMD_xQzN","LocationType":"point","DisplayPosition":{"Latitude":49.8569,"Longitude":2.23705},"MapView":{"TopLeft":{"Latitude":49.8580242,"Longitude":2.2353063},"BottomRight":{"Latitude":49.8557758,"Longitude":2.2387937}},"Address":{"Label":"147 Rue Jean Catelas, 80480 Saleux, France","Country":"FRA","State":"Hauts-de-France","County":"Somme","City":"Saleux","Street":"Rue Jean Catelas","HouseNumber":"147","PostalCode":"80480","AdditionalData":[{"value":"France","key":"CountryName"},{"value":"Hauts-de-France","key":"StateName"},{"value":"Somme","key":"CountyName"}]},"MapReference":{"ReferenceId":"58903360","Spot":0.87,"SideOfStreet":"left","CountryId":"20000001","StateId":"20000002","CountyId":"20038939","CityId":"20040985","AddressId":"321187836","RoadLinkId":"44361785"}}},{"Relevance":1.0,"Distance":57.2,"MatchLevel":"houseNumber","MatchQuality":{"Country":1.0,"State":1.0,"County":1.0,"City":1.0,"Street":[1.0],"HouseNumber":1.0,"PostalCode":1.0},"MatchType":"interpolated","Location":{"LocationId":"NT_gcSgmpUIQVwEkbJfpJFPMD_xITO","LocationType":"point","DisplayPosition":{"Latitude":49.85764,"Longitude":2.23783},"MapView":{"TopLeft":{"Latitude":49.8587642,"Longitude":2.2360863},"BottomRight":{"Latitude":49.8565158,"Longitude":2.2395737}},"Address":{"Label":"129 Rue Jean Catelas, 80480 Saleux, France","Country":"FRA","State":"Hauts-de-France","County":"Somme","City":"Saleux","Street":"Rue Jean Catelas","HouseNumber":"129","PostalCode":"80480","AdditionalData":[{"value":"France","key":"CountryName"},{"value":"Hauts-de-France","key":"StateName"},{"value":"Somme","key":"CountyName"}]},"MapReference":{"ReferenceId":"80818036","Spot":0.35,"SideOfStreet":"left","CountryId":"20000001","StateId":"20000002","CountyId":"20038939","CityId":"20040985","AddressId":"321359844","RoadLinkId":"43903539"}}},{"Relevance":1.0,"Distance":58.8,"MatchLevel":"houseNumber","MatchQuality":{"Country":1.0,"State":1.0,"County":1.0,"City":1.0,"Street":[1.0],"HouseNumber":1.0,"PostalCode":1.0},"MatchType":"interpolated","Location":{"LocationId":"NT_gcSgmpUIQVwEkbJfpJFPMD_xMjNCB","LocationType":"point","DisplayPosition":{"Latitude":49.85753,"Longitude":2.23796},"MapView":{"TopLeft":{"Latitude":49.8586542,"Longitude":2.2362163},"BottomRight":{"Latitude":49.8564058,"Longitude":2.2397037}},"Address":{"Label":"136B Rue Jean Catelas, 80480 Saleux, France","Country":"FRA","State":"Hauts-de-France","County":"Somme","City":"Saleux","Street":"Rue Jean Catelas","HouseNumber":"136B","PostalCode":"80480","AdditionalData":[{"value":"France","key":"CountryName"},{"value":"Hauts-de-France","key":"StateName"},{"value":"Somme","key":"CountyName"}]},"MapReference":{"ReferenceId":"1082569752","Spot":0.17,"SideOfStreet":"left","CountryId":"20000001","StateId":"20000002","CountyId":"20038939","CityId":"20040985","AddressId":"573060183","RoadLinkId":"399312707"}}},{"Relevance":1.0,"Distance":64.9,"MatchLevel":"houseNumber","MatchQuality":{"Country":1.0,"State":1.0,"County":1.0,"City":1.0,"Street":[1.0],"HouseNumber":1.0,"PostalCode":1.0},"MatchType":"interpolated","Location":{"LocationId":"NT_gcSgmpUIQVwEkbJfpJFPMD_xMjM","LocationType":"point","DisplayPosition":{"Latitude":49.85758,"Longitude":2.23802},"MapView":{"TopLeft":{"Latitude":49.8587042,"Longitude":2.2362763},"BottomRight":{"Latitude":49.8564558,"Longitude":2.2397637}},"Address":{"Label":"132 Rue Jean Catelas, 80480 Saleux, France","Country":"FRA","State":"Hauts-de-France","County":"Somme","City":"Saleux","Street":"Rue Jean Catelas","HouseNumber":"132","PostalCode":"80480","AdditionalData":[{"value":"France","key":"CountryName"},{"value":"Hauts-de-France","key":"StateName"},{"value":"Somme","key":"CountyName"}]},"MapReference":{"ReferenceId":"1082569753","Spot":0.15,"SideOfStreet":"right","CountryId":"20000001","StateId":"20000002","CountyId":"20038939","CityId":"20040985","AddressId":"376454943","RoadLinkId":"399312708"}}},{"Relevance":1.0,"Distance":67.5,"MatchLevel":"houseNumber","MatchQuality":{"Country":1.0,"State":1.0,"County":1.0,"City":1.0,"Street":[1.0],"HouseNumber":1.0,"PostalCode":1.0},"MatchType":"interpolated","Location":{"LocationId":"NT_eLKgDYXZ3JZI0wzuA0saqD_xMjM","LocationType":"point","DisplayPosition":{"Latitude":49.85748,"Longitude":2.23811},"MapView":{"TopLeft":{"Latitude":49.8586042,"Longitude":2.2363663},"BottomRight":{"Latitude":49.8563558,"Longitude":2.2398537}},"Address":{"Label":"132 Place Raymond Gourdain, 80480 Saleux, France","Country":"FRA","State":"Hauts-de-France","County":"Somme","City":"Saleux","Street":"Place Raymond Gourdain","HouseNumber":"132","PostalCode":"80480","AdditionalData":[{"value":"France","key":"CountryName"},{"value":"Hauts-de-France","key":"StateName"},{"value":"Somme","key":"CountyName"}]},"MapReference":{"ReferenceId":"1082569754","Spot":0.5,"SideOfStreet":"right","CountryId":"20000001","StateId":"20000002","CountyId":"20038939","CityId":"20040985","AddressId":"673565095","RoadLinkId":"399312709"}}},{"Relevance":1.0,"Distance":76.4,"MatchLevel":"street","MatchQuality":{"Country":1.0,"State":1.0,"County":1.0,"City":1.0,"Street":[1.0],"PostalCode":1.0},"Location":{"LocationId":"NT_gcSgmpUIQVwEkbJfpJFPMD_l_80818038_L","LocationType":"point","DisplayPosition":{"Latitude":49.8578,"Longitude":2.23799},"MapView":{"TopLeft":{"Latitude":49.8578,"Longitude":2.23799},"BottomRight":{"Latitude":49.85776,"Longitude":2.2381}},"Address":{"Label":"Rue Jean Catelas, 80480 Saleux, France","Country":"FRA","State":"Hauts-de-France","County":"Somme","City":"Saleux","Street":"Rue Jean Catelas","PostalCode":"80480","AdditionalData":[{"value":"France","key":"CountryName"},{"value":"Hauts-de-France","key":"StateName"},{"value":"Somme","key":"CountyName"}]},"MapReference":{"ReferenceId":"80818038","Spot":1.0,"SideOfStreet":"left","CountryId":"20000001","StateId":"20000002","CountyId":"20038939","CityId":"20040985"}}},{"Relevance":1.0,"Distance":82.8,"MatchLevel":"houseNumber","MatchQuality":{"Country":1.0,"State":1.0,"County":1.0,"City":1.0,"Street":[1.0],"HouseNumber":1.0,"PostalCode":1.0},"MatchType":"interpolated","Location":{"LocationId":"NT_wEfv7A3aBnsGc1RbRpOZZD_1A","LocationType":"point","DisplayPosition":{"Latitude":49.85666,"Longitude":2.23765},"MapView":{"TopLeft":{"Latitude":49.8577842,"Longitude":2.2359063},"BottomRight":{"Latitude":49.8555358,"Longitude":2.2393937}},"Address":{"Label":"5 Rue Jean Jaurès, 80480 Saleux, France","Country":"FRA","State":"Hauts-de-France","County":"Somme","City":"Saleux","Street":"Rue Jean Jaurès","HouseNumber":"5","PostalCode":"80480","AdditionalData":[{"value":"France","key":"CountryName"},{"value":"Hauts-de-France","key":"StateName"},{"value":"Somme","key":"CountyName"}]},"MapReference":{"ReferenceId":"58908959","Spot":0.39,"SideOfStreet":"right","CountryId":"20000001","StateId":"20000002","CountyId":"20038939","CityId":"20040985","AddressId":"321125699","RoadLinkId":"44069889"}}},{"Relevance":1.0,"Distance":84.9,"MatchLevel":"houseNumber","MatchQuality":{"Country":1.0,"State":1.0,"County":1.0,"City":1.0,"Street":[1.0],"HouseNumber":1.0,"PostalCode":1.0},"MatchType":"interpolated","Location":{"LocationId":"NT_gcSgmpUIQVwEkbJfpJFPMD_xITN","LocationType":"point","DisplayPosition":{"Latitude":49.85786,"Longitude":2.23805},"MapView":{"TopLeft":{"Latitude":49.8589842,"Longitude":2.2363063},"BottomRight":{"Latitude":49.8567358,"Longitude":2.2397937}},"Address":{"Label":"125 Rue Jean Catelas, 80480 Saleux, France","Country":"FRA","State":"Hauts-de-France","County":"Somme","City":"Saleux","Street":"Rue Jean Catelas","HouseNumber":"125","PostalCode":"80480","AdditionalData":[{"value":"France","key":"CountryName"},{"value":"Hauts-de-France","key":"StateName"},{"value":"Somme","key":"CountyName"}]},"MapReference":{"ReferenceId":"80818037","Spot":0.24,"SideOfStreet":"left","CountryId":"20000001","StateId":"20000002","CountyId":"20038939","CityId":"20040985","AddressId":"321252983","RoadLinkId":"44859183"}}}]}]}}