{"Response":{"MetaInfo":{"Timestamp":"2020-03-28T10:23:19.363+0000","NextPageInformation":"2"},"View":[{"_type":"SearchResultsViewType","ViewId":0,"Result":[{"Relevance":1.0,"Distance":0.0,"Direction":0.0,"MatchLevel":"district","MatchQuality":{"Country":1.0,"State":1.0,"County":1.0,"City":1.0,"District":1.0,"PostalCode":1.0},"Location":{"LocationId":"NT_citLDOHTdAlvdGy9vK9agB","LocationType":"point","DisplayPosition":{"Latitude":49.8646491,"Longitude":7.8132223},"MapView":{"TopLeft":{"Latitude":49.86757,"Longitude":7.80014},"BottomRight":{"Latitude":49.85779,"Longitude":7.81954}},"Address":{"Label":"Roxheim, Rheinland-Pfalz, Deutschland","Country":"DEU","State":"Rheinland-Pfalz","County":"Bad Kreuznach","City":"Roxheim","District":"Roxheim","PostalCode":"55595","AdditionalData":[{"value":"Deutschland","key":"CountryName"},{"value":"Rheinland-Pfalz","key":"StateName"},{"value":"Bad Kreuznach","key":"CountyName"}]},"MapReference":{"ReferenceId":"548433062","SideOfStreet":"neither","CountryId":"20147700","StateId":"20164001","CountyId":"20164643","CityId":"20164897","DistrictId":"20164899"}}},{"Relevance":1.0,"Distance":4.3,"MatchLevel":"houseNumber","MatchQuality":{"Country":1.0,"State":1.0,"County":1.0,"City":1.0,"District":1.0,"Street":[1.0],"HouseNumber":1.0,"PostalCode":1.0},"MatchType":"interpolated","Location":{"LocationId":"NT_cpjAli37XKqhsKVn2hiDhB_xUD","LocationType":"point","DisplayPosition":{"Latitude":49.86472,"Longitude":7.81314},"MapView":{"TopLeft":{"Latitude":49.8658442,"Longitude":7.811396},"BottomRight":{"Latitude":49.8635958,"Longitude":7.814884}},"Address":{"Label":"Hauptstraße 15, 55595 Roxheim, Deutschland","Country":"DEU","State":"Rheinland-Pfalz","County":"Bad Kreuznach","City":"Roxheim","District":"Roxheim","Street":"Hauptstraße","HouseNumber":"15","PostalCode":"55595","AdditionalData":[{"value":"Deutschland","key":"CountryName"},{"value":"Rheinland-Pfalz","key":"StateName"},{"value":"Bad Kreuznach","key":"CountyName"}]},"MapReference":{"ReferenceId":"548433070","Spot":0.53,"SideOfStreet":"right","CountryId":"20147700","StateId":"20164001","CountyId":"20164643","CityId":"20164897","DistrictId":"20164899","AddressId":"188368399","RoadLinkId":"34450493"}}},{"Relevance":1.0,"Distance":44.4,"MatchLevel":"street","MatchQuality":{"Country":1.0,"State":1.0,"County":1.0,"City":1.0,"District":1.0,"Street":[1.0],"PostalCode":1.0},"Location":{"LocationId":"NT_cpjAli37XKqhsKVn2hiDhB_l_548432695_R","LocationType":"point","DisplayPosition":{"Latitude":49.86481,"Longitude":7.81379},"MapView":{"TopLeft":{"Latitude":49.86496,"Longitude":7.81379},"BottomRight":{"Latitude":49.86481,"Longitude":7.8144}},"Address":{"Label":"Hauptstraße, 55595 Roxheim, Deutschland","Country":"DEU","State":"Rheinland-Pfalz","County":"Bad Kreuznach","City":"Roxheim","District":"Roxheim","Street":"Hauptstraße","PostalCode":"55595","AdditionalData":[{"value":"Deutschland","key":"CountryName"},{"value":"Rheinland-Pfalz","key":"StateName"},{"value":"Bad Kreuznach","key":"CountyName"}]},"MapReference":{"ReferenceId":"548432695","Spot":0.0,"SideOfStreet":"right","CountryId":"20147700","StateId":"20164001","CountyId":"20164643","CityId":"20164897","DistrictId":"20164899"}}},{"Relevance":1.0,"Distance":61.9,"MatchLevel":"houseNumber","MatchQuality":{"Country":1.0,"State":1.0,"County":1.0,"City":1.0,"District":1.0,"Street":[1.0],"HouseNumber":1.0,"PostalCode":1.0},"MatchType":"interpolated","Location":{"LocationId":"NT_XKNu2tF.9h6YSxeYENF2.C_xA","LocationType":"point","DisplayPosition":{"Latitude":49.86482,"Longitude":7.81235},"MapView":{"TopLeft":{"Latitude":49.8659442,"Longitude":7.810606},"BottomRight":{"Latitude":49.8636958,"Longitude":7.814094}},"Address":{"Label":"Neugartenstraße 1, 55595 Roxheim, Deutschland","Country":"DEU","State":"Rheinland-Pfalz","County":"Bad Kreuznach","City":"Roxheim","District":"Roxheim","Street":"Neugartenstraße","HouseNumber":"1","PostalCode":"55595","AdditionalData":[{"value":"Deutschland","key":"CountryName"},{"value":"Rheinland-Pfalz","key":"StateName"},{"value":"Bad Kreuznach","key":"CountyName"}]},"MapReference":{"ReferenceId":"550061243","Spot":0.16,"SideOfStreet":"right","CountryId":"20147700","StateId":"20164001","CountyId":"20164643","CityId":"20164897","DistrictId":"20164899","AddressId":"187819646","RoadLinkId":"34301471"}}},{"Relevance":1.0,"Distance":64.2,"MatchLevel":"houseNumber","MatchQuality":{"Country":1.0,"State":1.0,"County":1.0,"City":1.0,"District":1.0,"Street":[1.0],"HouseNumber":1.0,"PostalCode":1.0},"MatchType":"interpolated","Location":{"LocationId":"NT_cpjAli37XKqhsKVn2hiDhB_xkD","LocationType":"point","DisplayPosition":{"Latitude":49.86461,"Longitude":7.81232},"MapView":{"TopLeft":{"Latitude":49.8657342,"Longitude":7.810576},"BottomRight":{"Latitude":49.8634858,"Longitude":7.814064}},"Address":{"Label":"Hauptstraße 19, 55595 Roxheim, Deutschland","Country":"DEU","State":"Rheinland-Pfalz","County":"Bad Kreuznach","City":"Roxheim","District":"Roxheim","Street":"Hauptstraße","HouseNumber":"19","PostalCode":"55595","AdditionalData":[{"value":"Deutschland","key":"CountryName"},{"value":"Rheinland-Pfalz","key":"StateName"},{"value":"Bad Kreuznach","key":"CountyName"}]},"MapReference":{"ReferenceId":"548433069","Spot":0.81,"SideOfStreet":"right","CountryId":"20147700","StateId":"20164001","CountyId":"20164643","CityId":"20164897","DistrictId":"20164899","AddressId":"188165999","RoadLinkId":"34578695"}}},{"Relevance":1.0,"Distance":65.1,"MatchLevel":"houseNumber","MatchQuality":{"Country":1.0,"State":1.0,"County":1.0,"City":1.0,"District":1.0,"Street":[1.0],"HouseNumber":1.0,"PostalCode":1.0},"MatchType":"interpolated","Location":{"LocationId":"NT_4PXHJ-F7yKzagzlZiLNiAC_yIE","LocationType":"point","DisplayPosition":{"Latitude":49.86528,"Longitude":7.81369},"MapView":{"TopLeft":{"Latitude":49.8664042,"Longitude":7.811946},"BottomRight":{"Latitude":49.8641558,"Longitude":7.815434}},"Address":{"Label":"In der Lehmkaul 2B, 55595 Roxheim, Deutschland","Country":"DEU","State":"Rheinland-Pfalz","County":"Bad Kreuznach","City":"Roxheim","District":"Roxheim","Street":"In der Lehmkaul","HouseNumber":"2B","PostalCode":"55595","AdditionalData":[{"value":"Deutschland","key":"CountryName"},{"value":"Rheinland-Pfalz","key":"StateName"},{"value":"Bad Kreuznach","key":"CountyName"}]},"MapReference":{"ReferenceId":"548433117","Spot":0.61,"SideOfStreet":"left","CountryId":"20147700","StateId":"20164001","CountyId":"20164643","CityId":"20164897","DistrictId":"20164899","AddressId":"832832831","RoadLinkId":"34532574"}}},{"Relevance":1.0,"Distance":90.0,"MatchLevel":"houseNumber","MatchQuality":{"Country":1.0,"State":1.0,"County":1.0,"City":1.0,"District":1.0,"Street":[1.0],"HouseNumber":1.0,"PostalCode":1.0},"MatchType":"interpolated","Location":{"LocationId":"NT_v8w1nmoprkJe2rj8d.BONA_xUD","LocationType":"point","DisplayPosition":{"Latitude":49.86371,"Longitude":7.81327},"MapView":{"TopLeft":{"Latitude":49.8648342,"Longitude":7.8115261},"BottomRight":{"Latitude":49.8625858,"Longitude":7.8150139}},"Address":{"Label":"Hinter Zäunen 15, 55595 Roxheim, Deutschland","Country":"DEU","State":"Rheinland-Pfalz","County":"Bad Kreuznach","City":"Roxheim","District":"Roxheim","Street":"Hinter Zäunen","HouseNumber":"15","PostalCode":"55595","AdditionalData":[{"value":"Deutschland","key":"CountryName"},{"value":"Rheinland-Pfalz","key":"StateName"},{"value":"Bad Kreuznach","key":"CountyName"}]},"MapReference":{"ReferenceId":"548433646","Spot":0.47,"SideOfStreet":"right","CountryId":"20147700","StateId":"20164001","CountyId":"20164643","CityId":"20164897","DistrictId":"20164899","AddressId":"188563839","RoadLinkId":"34233668"}}},{"Relevance":1.0,"Distance":90.3,"MatchLevel":"houseNumber","MatchQuality":{"Country":1.0,"State":1.0,"County":1.0,"City":1.0,"District":1.0,"Street":[1.0],"HouseNumber":1.0,"PostalCode":1.0},"MatchType":"interpolated","Location":{"LocationId":"NT_4PXHJ-F7yKzagzlZiLNiAC_5A","LocationType":"point","DisplayPosition":{"Latitude":49.86507,"Longitude":7.81438},"MapView":{"TopLeft":{"Latitude":49.8661942,"Longitude":7.812636},"BottomRight":{"Latitude":49.8639458,"Longitude":7.816124}},"Address":{"Label":"In der Lehmkaul 9, 55595 Roxheim, Deutschland","Country":"DEU","State":"Rheinland-Pfalz","County":"Bad Kreuznach","City":"Roxheim","District":"Roxheim","Street":"In der Lehmkaul","HouseNumber":"9","PostalCode":"55595","AdditionalData":[{"value":"Deutschland","key":"CountryName"},{"value":"Rheinland-Pfalz","key":"StateName"},{"value":"Bad Kreuznach","key":"CountyName"}]},"MapReference":{"ReferenceId":"548433125","Spot":0.17,"SideOfStreet":"left","CountryId":"20147700","StateId":"20164001","CountyId":"20164643","CityId":"20164897","DistrictId":"20164899","AddressId":"188452855","RoadLinkId":"34404571"}}},{"Relevance":1.0,"Distance":91.9,"MatchLevel":"street","MatchQuality":{"Country":1.0,"State":1.0,"County":1.0,"City":1.0,"District":1.0,"Street":[1.0],"PostalCode":1.0},"Location":{"LocationId":"NT_v8w1nmoprkJe2rj8d.BONA_l_548432997_R","LocationType":"point","DisplayPosition":{"Latitude":49.8642461,"Longitude":7.812103},"MapView":{"TopLeft":{"Latitude":49.86456,"Longitude":7.81199},"BottomRight":{"Latitude":49.86406,"Longitude":7.81217}},"Address":{"Label":"Hinter Zäunen, 55595 Roxheim, Deutschland","Country":"DEU","State":"Rheinland-Pfalz","County":"Bad Kreuznach","City":"Roxheim","District":"Roxheim","Street":"Hinter Zäunen","PostalCode":"55595","AdditionalData":[{"value":"Deutschland","key":"CountryName"},{"value":"Rheinland-Pfalz","key":"StateName"},{"value":"Bad Kreuznach","key":"CountyName"}]},"MapReference":{"ReferenceId":"548432997","Spot":0.37,"SideOfStreet":"right","CountryId":"20147700","StateId":"20164001","CountyId":"20164643","CityId":"20164897","DistrictId":"20164899"}}},{"Relevance":1.0,"Distance":106.6,"MatchLevel":"houseNumber","MatchQuality":{"Country":1.0,"State":1.0,"County":1.0,"City":1.0,"District":1.0,"Street":[1.0],"HouseNumber":1.0,"PostalCode":1.0},"MatchType":"interpolated","Location":{"LocationId":"NT_4PXHJ-F7yKzagzlZiLNiAC_0EE","LocationType":"point","DisplayPosition":{"Latitude":49.86559,"Longitude":7.81363},"MapView":{"TopLeft":{"Latitude":49.8667142,"Longitude":7.811886},"BottomRight":{"Latitude":49.8644658,"Longitude":7.815374}},"Address":{"Label":"In der Lehmkaul 4A, 55595 Roxheim, Deutschland","Country":"DEU","State":"Rheinland-Pfalz","County":"Bad Kreuznach","City":"Roxheim","District":"Roxheim","Street":"In der Lehmkaul","HouseNumber":"4A","PostalCode":"55595","AdditionalData":[{"value":"Deutschland","key":"CountryName"},{"value":"Rheinland-Pfalz","key":"StateName"},{"value":"Bad Kreuznach","key":"CountyName"}]},"MapReference":{"ReferenceId":"548433135","Spot":0.1,"SideOfStreet":"left","CountryId":"20147700","StateId":"20164001","CountyId":"20164643","CityId":"20164897","DistrictId":"20164899","AddressId":"188447404","RoadLinkId":"34700479"}}}]}]}}