{"Response":{"MetaInfo":{"Timestamp":"2020-03-28T10:47:46.639+0000","NextPageInformation":"2"},"View":[{"_type":"SearchResultsViewType","ViewId":0,"Result":[{"Relevance":1.0,"Distance":0.0,"Direction":0.0,"MatchLevel":"district","MatchQuality":{"Country":1.0,"State":1.0,"County":1.0,"City":1.0,"District":1.0,"PostalCode":1.0},"Location":{"LocationId":"NT_Zc7zJ5-3mMJnEOEcj.retD","LocationType":"point","DisplayPosition":{"Latitude":49.8546321,"Longitude":19.8959665},"MapView":{"TopLeft":{"Latitude":49.86758,"Longitude":19.86711},"BottomRight":{"Latitude":49.84948,"Longitude":19.92165}},"Address":{"Label":"Jawornik, Myślenice, Woj. Małopolskie, Polska","Country":"POL","State":"Woj. Małopolskie","County":"Powiat Myślenicki","City":"Myślenice","District":"Jawornik","PostalCode":"32-400","AdditionalData":[{"value":"Polska","key":"CountryName"},{"value":"Woj. Małopolskie","key":"StateName"},{"value":"Powiat Myślenicki","key":"CountyName"}]},"MapReference":{"ReferenceId":"943769101","SideOfStreet":"neither","CountryId":"20624059","StateId":"20626775","CountyId":"20626946","CityId":"20626951","DistrictId":"20686356"}}},{"Relevance":1.0,"Distance":14.9,"MatchLevel":"houseNumber","MatchQuality":{"Country":1.0,"State":1.0,"County":1.0,"City":1.0,"District":1.0,"Street":[1.0],"HouseNumber":1.0,"PostalCode":1.0},"MatchType":"interpolated","Location":{"LocationId":"NT_44GTxK.6S9Ey.PmZdxEbKC_2QTM","LocationType":"point","DisplayPosition":{"Latitude":49.85466,"Longitude":19.89641},"MapView":{"TopLeft":{"Latitude":49.8557842,"Longitude":19.8946664},"BottomRight":{"Latitude":49.8535358,"Longitude":19.8981536}},"Address":{"Label":"Jawornik 641, 32-400 Jawornik, Polska","Country":"POL","State":"Woj. Małopolskie","County":"Powiat Myślenicki","City":"Myślenice","District":"Jawornik","Street":"Jawornik","HouseNumber":"641","PostalCode":"32-400","AdditionalData":[{"value":"Polska","key":"CountryName"},{"value":"Woj. Małopolskie","key":"StateName"},{"value":"Powiat Myślenicki","key":"CountyName"}]},"MapReference":{"ReferenceId":"943776098","Spot":0.81,"SideOfStreet":"left","CountryId":"20624059","StateId":"20626775","CountyId":"20626946","CityId":"20626951","DistrictId":"20686356","AddressId":"267793216","RoadLinkId":"293318836"}}},{"Relevance":1.0,"Distance":37.2,"MatchLevel":"street","MatchQuality":{"Country":1.0,"State":1.0,"County":1.0,"City":1.0,"District":1.0,"Street":[1.0],"PostalCode":1.0},"Location":{"LocationId":"NT_BVHaai71fbpGWe43Nk.5DD_l_940688407_R","LocationType":"point","DisplayPosition":{"Latitude":49.85496,"Longitude":19.89607},"MapView":{"TopLeft":{"Latitude":49.85497,"Longitude":19.89607},"BottomRight":{"Latitude":49.85496,"Longitude":19.89628}},"Address":{"Label":"955, 32-400 Jawornik, Polska","Country":"POL","State":"Woj. Małopolskie","County":"Powiat Myślenicki","City":"Myślenice","District":"Jawornik","Street":"955","PostalCode":"32-400","AdditionalData":[{"value":"Polska","key":"CountryName"},{"value":"Woj. Małopolskie","key":"StateName"},{"value":"Powiat Myślenicki","key":"CountyName"}]},"MapReference":{"ReferenceId":"940688407","Spot":0.0,"SideOfStreet":"right","CountryId":"20624059","StateId":"20626775","CountyId":"20626946","CityId":"20626951","DistrictId":"20686356"}}},{"Relevance":1.0,"Distance":61.0,"MatchLevel":"houseNumber","MatchQuality":{"Country":1.0,"State":1.0,"County":1.0,"City":1.0,"District":1.0,"Street":[1.0],"HouseNumber":1.0,"PostalCode":1.0},"MatchType":"interpolated","Location":{"LocationId":"NT_44GTxK.6S9Ey.PmZdxEbKC_yQjN","LocationType":"point","DisplayPosition":{"Latitude":49.85521,"Longitude":19.89617},"MapView":{"TopLeft":{"Latitude":49.8563342,"Longitude":19.8944264},"BottomRight":{"Latitude":49.8540858,"Longitude":19.8979136}},"Address":{"Label":"Jawornik 246, 32-400 Jawornik, Polska","Country":"POL","State":"Woj. Małopolskie","County":"Powiat Myślenicki","City":"Myślenice","District":"Jawornik","Street":"Jawornik","HouseNumber":"246","PostalCode":"32-400","AdditionalData":[{"value":"Polska","key":"CountryName"},{"value":"Woj. Małopolskie","key":"StateName"},{"value":"Powiat Myślenicki","key":"CountyName"}]},"MapReference":{"ReferenceId":"943776099","Spot":0.14,"SideOfStreet":"left","CountryId":"20624059","StateId":"20626775","CountyId":"20626946","CityId":"20626951","DistrictId":"20686356","AddressId":"267796152","RoadLinkId":"293318837"}}},{"Relevance":1.0,"Distance":70.6,"MatchLevel":"houseNumber","MatchQuality":{"Country":1.0,"State":1.0,"County":1.0,"City":1.0,"District":1.0,"Street":[1.0],"HouseNumber":1.0,"PostalCode":1.0},"MatchType":"interpolated","Location":{"LocationId":"NT_BVHaai71fbpGWe43Nk.5DD_3AD","LocationType":"point","DisplayPosition":{"Latitude":49.85499,"Longitude":19.89678},"MapView":{"TopLeft":{"Latitude":49.8561142,"Longitude":19.8950364},"BottomRight":{"Latitude":49.8538658,"Longitude":19.8985236}},"Address":{"Label":"955 70, 32-400 Jawornik, Polska","Country":"POL","State":"Woj. Małopolskie","County":"Powiat Myślenicki","City":"Myślenice","District":"Jawornik","Street":"955","HouseNumber":"70","PostalCode":"32-400","AdditionalData":[{"value":"Polska","key":"CountryName"},{"value":"Woj. Małopolskie","key":"StateName"},{"value":"Powiat Myślenicki","key":"CountyName"}]},"MapReference":{"ReferenceId":"943776100","Spot":0.39,"SideOfStreet":"left","CountryId":"20624059","StateId":"20626775","CountyId":"20626946","CityId":"20626951","DistrictId":"20686356","AddressId":"267586368","RoadLinkId":"293318838"}}},{"Relevance":1.0,"Distance":71.1,"MatchLevel":"houseNumber","MatchQuality":{"Country":1.0,"State":1.0,"County":1.0,"City":1.0,"District":1.0,"Street":[1.0],"HouseNumber":1.0,"PostalCode":1.0},"MatchType":"interpolated","Location":{"LocationId":"NT_BVHaai71fbpGWe43Nk.5DD_2gTO","LocationType":"point","DisplayPosition":{"Latitude":49.85492,"Longitude":19.89495},"MapView":{"TopLeft":{"Latitude":49.8560442,"Longitude":19.8932064},"BottomRight":{"Latitude":49.8537958,"Longitude":19.8966936}},"Address":{"Label":"955 689, 32-400 Jawornik, Polska","Country":"POL","State":"Woj. Małopolskie","County":"Powiat Myślenicki","City":"Myślenice","District":"Jawornik","Street":"955","HouseNumber":"689","PostalCode":"32-400","AdditionalData":[{"value":"Polska","key":"CountryName"},{"value":"Woj. Małopolskie","key":"StateName"},{"value":"Powiat Myślenicki","key":"CountyName"}]},"MapReference":{"ReferenceId":"943776089","Spot":0.25,"SideOfStreet":"right","CountryId":"20624059","StateId":"20626775","CountyId":"20626946","CityId":"20626951","DistrictId":"20686356","AddressId":"267796147","RoadLinkId":"293318824"}}},{"Relevance":1.0,"Distance":74.3,"MatchLevel":"houseNumber","MatchQuality":{"Country":1.0,"State":1.0,"County":1.0,"City":1.0,"District":1.0,"Street":[1.0],"HouseNumber":1.0,"PostalCode":1.0},"MatchType":"interpolated","Location":{"LocationId":"NT_44GTxK.6S9Ey.PmZdxEbKC_2kDM","LocationType":"point","DisplayPosition":{"Latitude":49.85426,"Longitude":19.89491},"MapView":{"TopLeft":{"Latitude":49.8553842,"Longitude":19.8931664},"BottomRight":{"Latitude":49.8531358,"Longitude":19.8966536}},"Address":{"Label":"Jawornik 690, 32-400 Jawornik, Polska","Country":"POL","State":"Woj. Małopolskie","County":"Powiat Myślenicki","City":"Myślenice","District":"Jawornik","Street":"Jawornik","HouseNumber":"690","PostalCode":"32-400","AdditionalData":[{"value":"Polska","key":"CountryName"},{"value":"Woj. Małopolskie","key":"StateName"},{"value":"Powiat Myślenicki","key":"CountyName"}]},"MapReference":{"ReferenceId":"943776090","Spot":0.0,"SideOfStreet":"right","CountryId":"20624059","StateId":"20626775","CountyId":"20626946","CityId":"20626951","DistrictId":"20686356","AddressId":"267793213","RoadLinkId":"293318827"}}},{"Relevance":1.0,"Distance":115.8,"MatchLevel":"houseNumber","MatchQuality":{"Country":1.0,"State":1.0,"County":1.0,"City":1.0,"District":1.0,"Street":[1.0],"HouseNumber":1.0,"PostalCode":1.0},"MatchType":"interpolated","Location":{"LocationId":"NT_BVHaai71fbpGWe43Nk.5DD_2gzM","LocationType":"point","DisplayPosition":{"Latitude":49.85491,"Longitude":19.89441},"MapView":{"TopLeft":{"Latitude":49.8560342,"Longitude":19.8926664},"BottomRight":{"Latitude":49.8537858,"Longitude":19.8961536}},"Address":{"Label":"955 683, 32-400 Jawornik, Polska","Country":"POL","State":"Woj. Małopolskie","County":"Powiat Myślenicki","City":"Myślenice","District":"Jawornik","Street":"955","HouseNumber":"683","PostalCode":"32-400","AdditionalData":[{"value":"Polska","key":"CountryName"},{"value":"Woj. Małopolskie","key":"StateName"},{"value":"Powiat Myślenicki","key":"CountyName"}]},"MapReference":{"ReferenceId":"943776092","Spot":0.55,"SideOfStreet":"right","CountryId":"20624059","StateId":"20626775","CountyId":"20626946","CityId":"20626951","DistrictId":"20686356","AddressId":"267796132","RoadLinkId":"293318831"}}},{"Relevance":1.0,"Distance":121.8,"MatchLevel":"street","MatchQuality":{"Country":1.0,"State":1.0,"County":1.0,"City":1.0,"District":1.0,"PostalCode":1.0},"Location":{"LocationId":"NT_HfUD2SCfStPEl22zKk0lmC_l_943776104_L","LocationType":"point","DisplayPosition":{"Latitude":49.85503,"Longitude":19.89755},"MapView":{"TopLeft":{"Latitude":49.85503,"Longitude":19.89755},"BottomRight":{"Latitude":49.8537,"Longitude":19.89809}},"Address":{"Label":"32-400 Jawornik, Polska","Country":"POL","State":"Woj. Małopolskie","County":"Powiat Myślenicki","City":"Myślenice","District":"Jawornik","PostalCode":"32-400","AdditionalData":[{"value":"Polska","key":"CountryName"},{"value":"Woj. Małopolskie","key":"StateName"},{"value":"Powiat Myślenicki","key":"CountyName"}]},"MapReference":{"ReferenceId":"943776104","Spot":1.0,"SideOfStreet":"left","CountryId":"20624059","StateId":"20626775","CountyId":"20626946","CityId":"20626951","DistrictId":"20686356"}}},{"Relevance":1.0,"Distance":126.0,"MatchLevel":"houseNumber","MatchQuality":{"Country":1.0,"State":1.0,"County":1.0,"City":1.0,"District":1.0,"Street":[1.0],"HouseNumber":1.0,"PostalCode":1.0},"MatchType":"interpolated","Location":{"LocationId":"NT_BVHaai71fbpGWe43Nk.5DD_2YDM","LocationType":"point","DisplayPosition":{"Latitude":49.8549,"Longitude":19.8942},"MapView":{"TopLeft":{"Latitude":49.8560242,"Longitude":19.8924564},"BottomRight":{"Latitude":49.8537758,"Longitude":19.8959436}},"Address":{"Label":"955 660, 32-400 Jawornik, Polska","Country":"POL","State":"Woj. Małopolskie","County":"Powiat Myślenicki","City":"Myślenice","District":"Jawornik","Street":"955","HouseNumber":"660","PostalCode":"32-400","AdditionalData":[{"value":"Polska","key":"CountryName"},{"value":"Woj. Małopolskie","key":"StateName"},{"value":"Powiat Myślenicki","key":"CountyName"}]},"MapReference":{"ReferenceId":"943776091","Spot":1.0,"SideOfStreet":"right","CountryId":"20624059","StateId":"20626775","CountyId":"20626946","CityId":"20626951","DistrictId":"20686356","AddressId":"267796141","RoadLinkId":"293318830"}}}]}]}}