{"Response":{"MetaInfo":{"Timestamp":"2020-03-28T11:32:35.804+0000","NextPageInformation":"2"},"View":[{"_type":"SearchResultsViewType","ViewId":0,"Result":[{"Relevance":1.0,"Distance":0.0,"Direction":0.0,"MatchLevel":"district","MatchQuality":{"Country":1.0,"State":1.0,"County":1.0,"City":1.0,"District":1.0,"PostalCode":1.0},"Location":{"LocationId":"NT_O8J-rZplD9BTNivel05owB","LocationType":"point","DisplayPosition":{"Latitude":49.8834167,"Longitude":22.101222},"MapView":{"TopLeft":{"Latitude":49.89577,"Longitude":22.08033},"BottomRight":{"Latitude":49.87473,"Longitude":22.11071}},"Address":{"Label":"Błażowa, Woj. Podkarpackie, Polska","Country":"POL","State":"Woj. Podkarpackie","County":"Powiat Rzeszowski","City":"Błażowa","District":"Błażowa","PostalCode":"36-030","AdditionalData":[{"value":"Polska","key":"CountryName"},{"value":"Woj. Podkarpackie","key":"StateName"},{"value":"Powiat Rzeszowski","key":"CountyName"}]},"MapReference":{"ReferenceId":"716188754","SideOfStreet":"neither","CountryId":"20624059","StateId":"20628101","CountyId":"20628372","CityId":"20628373","DistrictId":"20691668"}}},{"Relevance":1.0,"Distance":13.6,"MatchLevel":"street","MatchQuality":{"Country":1.0,"State":1.0,"County":1.0,"City":1.0,"District":1.0,"PostalCode":1.0},"Location":{"LocationId":"NT_NOyXJjcEyAAa.OQQi0dP6D_l_778257584_R","LocationType":"point","DisplayPosition":{"Latitude":49.88353,"Longitude":22.10115},"MapView":{"TopLeft":{"Latitude":49.88384,"Longitude":22.10115},"BottomRight":{"Latitude":49.88353,"Longitude":22.10131}},"Address":{"Label":"36-030 Błażowa, Polska","Country":"POL","State":"Woj. Podkarpackie","County":"Powiat Rzeszowski","City":"Błażowa","District":"Błażowa","PostalCode":"36-030","AdditionalData":[{"value":"Polska","key":"CountryName"},{"value":"Woj. Podkarpackie","key":"StateName"},{"value":"Powiat Rzeszowski","key":"CountyName"}]},"MapReference":{"ReferenceId":"778257584","Spot":0.0,"SideOfStreet":"right","CountryId":"20624059","StateId":"20628101","CountyId":"20628372","CityId":"20628373","DistrictId":"20691668"}}},{"Relevance":1.0,"Distance":14.3,"MatchLevel":"houseNumber","MatchQuality":{"Country":1.0,"State":1.0,"County":1.0,"City":1.0,"District":1.0,"Street":[1.0],"HouseNumber":1.0,"PostalCode":1.0},"MatchType":"interpolated","Location":{"LocationId":"NT_JMkvhUMIIqifJ7DnE7wa8D_2A","LocationType":"point","DisplayPosition":{"Latitude":49.88347,"Longitude":22.10146},"MapView":{"TopLeft":{"Latitude":49.8845942,"Longitude":22.0997154},"BottomRight":{"Latitude":49.8823458,"Longitude":22.1032046}},"Address":{"Label":"ulica Józefa Piłsudskiego 6, 36-030 Błażowa, Polska","Country":"POL","State":"Woj. Podkarpackie","County":"Powiat Rzeszowski","City":"Błażowa","District":"Błażowa","Street":"ulica Józefa Piłsudskiego","HouseNumber":"6","PostalCode":"36-030","AdditionalData":[{"value":"Polska","key":"CountryName"},{"value":"Woj. Podkarpackie","key":"StateName"},{"value":"Powiat Rzeszowski","key":"CountyName"}]},"MapReference":{"ReferenceId":"778257580","Spot":0.87,"SideOfStreet":"left","CountryId":"20624059","StateId":"20628101","CountyId":"20628372","CityId":"20628373","DistrictId":"20691668","AddressId":"222347918","RoadLinkId":"171655738"}}},{"Relevance":1.0,"Distance":41.2,"MatchLevel":"houseNumber","MatchQuality":{"Country":1.0,"State":1.0,"County":1.0,"City":1.0,"District":1.0,"Street":[1.0],"HouseNumber":1.0,"PostalCode":1.0},"MatchType":"interpolated","Location":{"LocationId":"NT_noFgtFysmoQTE9w4WWoLuC_xA","LocationType":"point","DisplayPosition":{"Latitude":49.88405,"Longitude":22.10179},"MapView":{"TopLeft":{"Latitude":49.8851742,"Longitude":22.1000453},"BottomRight":{"Latitude":49.8829258,"Longitude":22.1035347}},"Address":{"Label":"ulica Jagiellońska 1, 36-030 Błażowa, Polska","Country":"POL","State":"Woj. Podkarpackie","County":"Powiat Rzeszowski","City":"Błażowa","District":"Błażowa","Street":"ulica Jagiellońska","HouseNumber":"1","PostalCode":"36-030","AdditionalData":[{"value":"Polska","key":"CountryName"},{"value":"Woj. Podkarpackie","key":"StateName"},{"value":"Powiat Rzeszowski","key":"CountyName"}]},"MapReference":{"ReferenceId":"778257582","Spot":0.94,"SideOfStreet":"left","CountryId":"20624059","StateId":"20628101","CountyId":"20628372","CityId":"20628373","DistrictId":"20691668","AddressId":"731492435","RoadLinkId":"171655740"}}},{"Relevance":1.0,"Distance":47.5,"MatchLevel":"street","MatchQuality":{"Country":1.0,"State":1.0,"County":1.0,"City":1.0,"District":1.0,"PostalCode":1.0},"Location":{"LocationId":"NT_NOyXJjcEyAAa.OQQi0dP6D_l_778257586_L","LocationType":"point","DisplayPosition":{"Latitude":49.88384,"Longitude":22.10131},"MapView":{"TopLeft":{"Latitude":49.88389,"Longitude":22.10111},"BottomRight":{"Latitude":49.88384,"Longitude":22.10131}},"Address":{"Label":"36-030 Błażowa, Polska","Country":"POL","State":"Woj. Podkarpackie","County":"Powiat Rzeszowski","City":"Błażowa","District":"Błażowa","PostalCode":"36-030","AdditionalData":[{"value":"Polska","key":"CountryName"},{"value":"Woj. Podkarpackie","key":"StateName"},{"value":"Powiat Rzeszowski","key":"CountyName"}]},"MapReference":{"ReferenceId":"778257586","Spot":0.0,"SideOfStreet":"left","CountryId":"20624059","StateId":"20628101","CountyId":"20628372","CityId":"20628373","DistrictId":"20691668"}}},{"Relevance":1.0,"Distance":47.5,"MatchLevel":"street","MatchQuality":{"Country":1.0,"State":1.0,"County":1.0,"City":1.0,"District":1.0,"PostalCode":1.0},"Location":{"LocationId":"NT_NOyXJjcEyAAa.OQQi0dP6D_l_778257585_R","LocationType":"point","DisplayPosition":{"Latitude":49.88384,"Longitude":22.10131},"MapView":{"TopLeft":{"Latitude":49.88414,"Longitude":22.10131},"BottomRight":{"Latitude":49.88384,"Longitude":22.10153}},"Address":{"Label":"36-030 Błażowa, Polska","Country":"POL","State":"Woj. Podkarpackie","County":"Powiat Rzeszowski","City":"Błażowa","District":"Błażowa","PostalCode":"36-030","AdditionalData":[{"value":"Polska","key":"CountryName"},{"value":"Woj. Podkarpackie","key":"StateName"},{"value":"Powiat Rzeszowski","key":"CountyName"}]},"MapReference":{"ReferenceId":"778257585","Spot":0.0,"SideOfStreet":"right","CountryId":"20624059","StateId":"20628101","CountyId":"20628372","CityId":"20628373","DistrictId":"20691668"}}},{"Relevance":1.0,"Distance":51.8,"MatchLevel":"houseNumber","MatchQuality":{"Country":1.0,"State":1.0,"County":1.0,"City":1.0,"District":1.0,"Street":[1.0],"HouseNumber":1.0,"PostalCode":1.0},"MatchType":"interpolated","Location":{"LocationId":"NT_QUWspb1giqAeto9RIkkKfB_1A","LocationType":"point","DisplayPosition":{"Latitude":49.88318,"Longitude":22.1006},"MapView":{"TopLeft":{"Latitude":49.8843042,"Longitude":22.0988554},"BottomRight":{"Latitude":49.8820558,"Longitude":22.1023446}},"Address":{"Label":"ulica gen. Władysława Sikorskiego 5, 36-030 Błażowa, Polska","Country":"POL","State":"Woj. Podkarpackie","County":"Powiat Rzeszowski","City":"Błażowa","District":"Błażowa","Street":"ulica gen. Władysława Sikorskiego","HouseNumber":"5","PostalCode":"36-030","AdditionalData":[{"value":"Polska","key":"CountryName"},{"value":"Woj. Podkarpackie","key":"StateName"},{"value":"Powiat Rzeszowski","key":"CountyName"}]},"MapReference":{"ReferenceId":"716188753","Spot":0.44,"SideOfStreet":"right","CountryId":"20624059","StateId":"20628101","CountyId":"20628372","CityId":"20628373","DistrictId":"20691668","AddressId":"222335995","RoadLinkId":"121088261"}}},{"Relevance":1.0,"Distance":70.9,"MatchLevel":"houseNumber","MatchQuality":{"Country":1.0,"State":1.0,"County":1.0,"City":1.0,"District":1.0,"Street":[1.0],"HouseNumber":1.0,"PostalCode":1.0},"MatchType":"interpolated","Location":{"LocationId":"NT_BZl3V.mRGzdaJ8.XKXHDmD_3A","LocationType":"point","DisplayPosition":{"Latitude":49.88418,"Longitude":22.10008},"MapView":{"TopLeft":{"Latitude":49.8853042,"Longitude":22.0983353},"BottomRight":{"Latitude":49.8830558,"Longitude":22.1018247}},"Address":{"Label":"plac Jana Pawła II 7, 36-030 Błażowa, Polska","Country":"POL","State":"Woj. Podkarpackie","County":"Powiat Rzeszowski","City":"Błażowa","District":"Błażowa","Street":"plac Jana Pawła II","HouseNumber":"7","PostalCode":"36-030","AdditionalData":[{"value":"Polska","key":"CountryName"},{"value":"Woj. Podkarpackie","key":"StateName"},{"value":"Powiat Rzeszowski","key":"CountyName"}]},"MapReference":{"ReferenceId":"966815844","Spot":0.17,"SideOfStreet":"right","CountryId":"20624059","StateId":"20628101","CountyId":"20628372","CityId":"20628373","DistrictId":"20691668","AddressId":"731594720","RoadLinkId":"305176309"}}},{"Relevance":1.0,"Distance":79.3,"MatchLevel":"houseNumber","MatchQuality":{"Country":1.0,"State":1.0,"County":1.0,"City":1.0,"District":1.0,"Street":[1.0],"HouseNumber":1.0,"PostalCode":1.0},"MatchType":"interpolated","Location":{"LocationId":"NT_JMkvhUMIIqifJ7DnE7wa8D_yA","LocationType":"point","DisplayPosition":{"Latitude":49.88372,"Longitude":22.10022},"MapView":{"TopLeft":{"Latitude":49.8848442,"Longitude":22.0984753},"BottomRight":{"Latitude":49.8825958,"Longitude":22.1019647}},"Address":{"Label":"ulica Józefa Piłsudskiego 2, 36-030 Błażowa, Polska","Country":"POL","State":"Woj. Podkarpackie","County":"Powiat Rzeszowski","City":"Błażowa","District":"Błażowa","Street":"ulica Józefa Piłsudskiego","HouseNumber":"2","PostalCode":"36-030","AdditionalData":[{"value":"Polska","key":"CountryName"},{"value":"Woj. Podkarpackie","key":"StateName"},{"value":"Powiat Rzeszowski","key":"CountyName"}]},"MapReference":{"ReferenceId":"778257581","Spot":0.73,"SideOfStreet":"left","CountryId":"20624059","StateId":"20628101","CountyId":"20628372","CityId":"20628373","DistrictId":"20691668","AddressId":"222347920","RoadLinkId":"171655739"}}},{"Relevance":1.0,"Distance":86.1,"MatchLevel":"houseNumber","MatchQuality":{"Country":1.0,"State":1.0,"County":1.0,"City":1.0,"District":1.0,"Street":[1.0],"HouseNumber":1.0,"PostalCode":1.0},"MatchType":"interpolated","Location":{"LocationId":"NT_noFgtFysmoQTE9w4WWoLuC_2A","LocationType":"point","DisplayPosition":{"Latitude":49.88422,"Longitude":22.1013},"MapView":{"TopLeft":{"Latitude":49.8853442,"Longitude":22.0995553},"BottomRight":{"Latitude":49.8830958,"Longitude":22.1030447}},"Address":{"Label":"ulica Jagiellońska 6, 36-030 Błażowa, Polska","Country":"POL","State":"Woj. Podkarpackie","County":"Powiat Rzeszowski","City":"Błażowa","District":"Błażowa","Street":"ulica Jagiellońska","HouseNumber":"6","PostalCode":"36-030","AdditionalData":[{"value":"Polska","key":"CountryName"},{"value":"Woj. Podkarpackie","key":"StateName"},{"value":"Powiat Rzeszowski","key":"CountyName"}]},"MapReference":{"ReferenceId":"778257583","Spot":0.19,"SideOfStreet":"left","CountryId":"20624059","StateId":"20628101","CountyId":"20628372","CityId":"20628373","DistrictId":"20691668","AddressId":"210370352","RoadLinkId":"171655741"}}}]}]}}