{"Response":{"MetaInfo":{"Timestamp":"2020-03-28T10:54:11.821+0000","NextPageInformation":"2"},"View":[{"_type":"SearchResultsViewType","ViewId":0,"Result":[{"Relevance":1.0,"Distance":-18.9,"MatchLevel":"landmark","MatchQuality":{"Country":1.0,"State":1.0,"County":1.0,"City":1.0,"District":1.0,"Street":[1.0],"PostalCode":1.0,"Name":1.0},"Location":{"LocationId":"NT_Z3ifSdvY6qo47QX10z7ApB_p_0u4ED6-JZzK.gyHwjU6UBC","LocationType":"hospital","Name":"NSP Karviná-Ráj","DisplayPosition":{"Latitude":49.87593,"Longitude":18.4349},"MapView":{"TopLeft":{"Latitude":49.87678,"Longitude":18.4318},"BottomRight":{"Latitude":49.87417,"Longitude":18.43738}},"Address":{"Label":"Masarykova třída, 735 14 Orlová, Česká Republika","Country":"CZE","State":"Moravskoslezský kraj","County":"Karviná","City":"Orlová","District":"Orlová","Street":"Masarykova třída","PostalCode":"735 14","AdditionalData":[{"value":"Česká Republika","key":"CountryName"},{"value":"Moravskoslezský kraj","key":"StateName"},{"value":"Karviná","key":"CountyName"}]},"MapReference":{"CountryId":"20427915","StateId":"20438848","CountyId":"20439295","CityId":"20439326","DistrictId":"20439327","PlaceId":"892726221"}}},{"Relevance":1.0,"Distance":0.0,"Direction":0.0,"MatchLevel":"district","MatchQuality":{"Country":1.0,"State":1.0,"County":1.0,"City":1.0,"District":1.0,"PostalCode":1.0},"Location":{"LocationId":"NT_Cl8Av98NR.De3wxMiJBAVC","LocationType":"point","DisplayPosition":{"Latitude":49.8746773,"Longitude":18.4333752},"MapView":{"TopLeft":{"Latitude":49.88572,"Longitude":18.40141},"BottomRight":{"Latitude":49.81774,"Longitude":18.45227}},"Address":{"Label":"Orlová, Moravskoslezský kraj, Česká Republika","Country":"CZE","State":"Moravskoslezský kraj","County":"Karviná","City":"Orlová","District":"Orlová","PostalCode":"735 14","AdditionalData":[{"value":"Česká Republika","key":"CountryName"},{"value":"Moravskoslezský kraj","key":"StateName"},{"value":"Karviná","key":"CountyName"}]},"MapReference":{"ReferenceId":"792745680","SideOfStreet":"neither","CountryId":"20427915","StateId":"20438848","CountyId":"20439295","CityId":"20439326","DistrictId":"20439327"}}},{"Relevance":1.0,"Distance":46.1,"MatchLevel":"street","MatchQuality":{"Country":1.0,"State":1.0,"County":1.0,"City":1.0,"District":1.0,"PostalCode":1.0},"Location":{"LocationId":"NT_64To0cHXkcIG9kCdEccvGC_l_707536037_L","LocationType":"point","DisplayPosition":{"Latitude":49.87507,"Longitude":18.43358},"MapView":{"TopLeft":{"Latitude":49.87556,"Longitude":18.43358},"BottomRight":{"Latitude":49.87507,"Longitude":18.43388}},"Address":{"Label":"735 14 Orlová, Česká Republika","Country":"CZE","State":"Moravskoslezský kraj","County":"Karviná","City":"Orlová","District":"Orlová","PostalCode":"735 14","AdditionalData":[{"value":"Česká Republika","key":"CountryName"},{"value":"Moravskoslezský kraj","key":"StateName"},{"value":"Karviná","key":"CountyName"}]},"MapReference":{"ReferenceId":"707536037","Spot":0.0,"SideOfStreet":"left","CountryId":"20427915","StateId":"20438848","CountyId":"20439295","CityId":"20439326","DistrictId":"20439327"}}},{"Relevance":1.0,"Distance":46.2,"MatchLevel":"street","MatchQuality":{"Country":1.0,"State":1.0,"County":1.0,"City":1.0,"District":1.0,"Street":[1.0],"PostalCode":1.0},"Location":{"LocationId":"NT_3liXiUfpUoGNwTDJAvADPC_l_707536038_L","LocationType":"point","DisplayPosition":{"Latitude":49.8750913,"Longitude":18.4334365},"MapView":{"TopLeft":{"Latitude":49.87515,"Longitude":18.43304},"BottomRight":{"Latitude":49.87507,"Longitude":18.43358}},"Address":{"Label":"Školní, 735 14 Orlová, Česká Republika","Country":"CZE","State":"Moravskoslezský kraj","County":"Karviná","City":"Orlová","District":"Orlová","Street":"Školní","PostalCode":"735 14","AdditionalData":[{"value":"Česká Republika","key":"CountryName"},{"value":"Moravskoslezský kraj","key":"StateName"},{"value":"Karviná","key":"CountyName"}]},"MapReference":{"ReferenceId":"707536038","Spot":0.27,"SideOfStreet":"left","CountryId":"20427915","StateId":"20438848","CountyId":"20439295","CityId":"20439326","DistrictId":"20439327"}}},{"Relevance":1.0,"Distance":49.5,"MatchLevel":"houseNumber","MatchQuality":{"Country":1.0,"State":1.0,"County":1.0,"City":1.0,"District":1.0,"Street":[1.0],"HouseNumber":1.0,"PostalCode":1.0},"MatchType":"interpolated","Location":{"LocationId":"NT_3liXiUfpUoGNwTDJAvADPC_4YzN","LocationType":"point","DisplayPosition":{"Latitude":49.8744,"Longitude":18.43257},"MapView":{"TopLeft":{"Latitude":49.8755242,"Longitude":18.4308257},"BottomRight":{"Latitude":49.8732758,"Longitude":18.4343143}},"Address":{"Label":"Školní 867, 735 14 Orlová, Česká Republika","Country":"CZE","State":"Moravskoslezský kraj","County":"Karviná","City":"Orlová","District":"Orlová","Street":"Školní","HouseNumber":"867","PostalCode":"735 14","AdditionalData":[{"value":"Česká Republika","key":"CountryName"},{"value":"Moravskoslezský kraj","key":"StateName"},{"value":"Karviná","key":"CountyName"}]},"MapReference":{"ReferenceId":"707536046","Spot":0.17,"SideOfStreet":"right","CountryId":"20427915","StateId":"20438848","CountyId":"20439295","CityId":"20439326","DistrictId":"20439327","AddressId":"240765509","RoadLinkId":"113082066"}}},{"Relevance":1.0,"Distance":54.0,"MatchLevel":"houseNumber","MatchQuality":{"Country":1.0,"State":1.0,"County":1.0,"City":1.0,"District":1.0,"Street":[1.0],"HouseNumber":1.0,"PostalCode":1.0},"MatchType":"interpolated","Location":{"LocationId":"NT_3liXiUfpUoGNwTDJAvADPC_4YjN","LocationType":"point","DisplayPosition":{"Latitude":49.87409,"Longitude":18.43277},"MapView":{"TopLeft":{"Latitude":49.8752142,"Longitude":18.4310257},"BottomRight":{"Latitude":49.8729658,"Longitude":18.4345143}},"Address":{"Label":"Školní 866, 735 14 Orlová, Česká Republika","Country":"CZE","State":"Moravskoslezský kraj","County":"Karviná","City":"Orlová","District":"Orlová","Street":"Školní","HouseNumber":"866","PostalCode":"735 14","AdditionalData":[{"value":"Česká Republika","key":"CountryName"},{"value":"Moravskoslezský kraj","key":"StateName"},{"value":"Karviná","key":"CountyName"}]},"MapReference":{"ReferenceId":"707536048","Spot":0.66,"SideOfStreet":"right","CountryId":"20427915","StateId":"20438848","CountyId":"20439295","CityId":"20439326","DistrictId":"20439327","AddressId":"240661344","RoadLinkId":"113082068"}}},{"Relevance":1.0,"Distance":57.8,"MatchLevel":"street","MatchQuality":{"Country":1.0,"State":1.0,"County":1.0,"City":1.0,"District":1.0,"Street":[1.0],"PostalCode":1.0},"Location":{"LocationId":"NT_3liXiUfpUoGNwTDJAvADPC_l_723590577_R","LocationType":"point","DisplayPosition":{"Latitude":49.87515,"Longitude":18.43304},"MapView":{"TopLeft":{"Latitude":49.87522,"Longitude":18.43216},"BottomRight":{"Latitude":49.87502,"Longitude":18.43304}},"Address":{"Label":"Školní, 735 14 Orlová, Česká Republika","Country":"CZE","State":"Moravskoslezský kraj","County":"Karviná","City":"Orlová","District":"Orlová","Street":"Školní","PostalCode":"735 14","AdditionalData":[{"value":"Česká Republika","key":"CountryName"},{"value":"Moravskoslezský kraj","key":"StateName"},{"value":"Karviná","key":"CountyName"}]},"MapReference":{"ReferenceId":"723590577","Spot":1.0,"SideOfStreet":"right","CountryId":"20427915","StateId":"20438848","CountyId":"20439295","CityId":"20439326","DistrictId":"20439327"}}},{"Relevance":1.0,"Distance":57.8,"MatchLevel":"street","MatchQuality":{"Country":1.0,"State":1.0,"County":1.0,"City":1.0,"District":1.0,"PostalCode":1.0},"Location":{"LocationId":"NT_64To0cHXkcIG9kCdEccvGC_l_707536035_R","LocationType":"point","DisplayPosition":{"Latitude":49.87515,"Longitude":18.43304},"MapView":{"TopLeft":{"Latitude":49.87546,"Longitude":18.43295},"BottomRight":{"Latitude":49.87515,"Longitude":18.43306}},"Address":{"Label":"735 14 Orlová, Česká Republika","Country":"CZE","State":"Moravskoslezský kraj","County":"Karviná","City":"Orlová","District":"Orlová","PostalCode":"735 14","AdditionalData":[{"value":"Česká Republika","key":"CountryName"},{"value":"Moravskoslezský kraj","key":"StateName"},{"value":"Karviná","key":"CountyName"}]},"MapReference":{"ReferenceId":"707536035","Spot":0.0,"SideOfStreet":"right","CountryId":"20427915","StateId":"20438848","CountyId":"20439295","CityId":"20439326","DistrictId":"20439327"}}},{"Relevance":1.0,"Distance":62.5,"MatchLevel":"houseNumber","MatchQuality":{"Country":1.0,"State":1.0,"County":1.0,"City":1.0,"District":1.0,"Street":[1.0],"HouseNumber":1.0,"PostalCode":1.0},"MatchType":"interpolated","Location":{"LocationId":"NT_3liXiUfpUoGNwTDJAvADPC_xIDO2A","LocationType":"point","DisplayPosition":{"Latitude":49.87497,"Longitude":18.43412},"MapView":{"TopLeft":{"Latitude":49.8760942,"Longitude":18.4323757},"BottomRight":{"Latitude":49.8738458,"Longitude":18.4358643}},"Address":{"Label":"Školní 1286, 735 14 Orlová, Česká Republika","Country":"CZE","State":"Moravskoslezský kraj","County":"Karviná","City":"Orlová","District":"Orlová","Street":"Školní","HouseNumber":"1286","PostalCode":"735 14","AdditionalData":[{"value":"Česká Republika","key":"CountryName"},{"value":"Moravskoslezský kraj","key":"StateName"},{"value":"Karviná","key":"CountyName"}]},"MapReference":{"ReferenceId":"707536039","Spot":0.0,"SideOfStreet":"left","CountryId":"20427915","StateId":"20438848","CountyId":"20439295","CityId":"20439326","DistrictId":"20439327","AddressId":"384589902","RoadLinkId":"301795845"}}},{"Relevance":1.0,"Distance":65.9,"MatchLevel":"street","MatchQuality":{"Country":1.0,"State":1.0,"County":1.0,"City":1.0,"District":1.0,"PostalCode":1.0},"Location":{"LocationId":"NT_64To0cHXkcIG9kCdEccvGC_l_707536047_L","LocationType":"point","DisplayPosition":{"Latitude":49.87438,"Longitude":18.43258},"MapView":{"TopLeft":{"Latitude":49.87438,"Longitude":18.43185},"BottomRight":{"Latitude":49.87421,"Longitude":18.43258}},"Address":{"Label":"735 14 Orlová, Česká Republika","Country":"CZE","State":"Moravskoslezský kraj","County":"Karviná","City":"Orlová","District":"Orlová","PostalCode":"735 14","AdditionalData":[{"value":"Česká Republika","key":"CountryName"},{"value":"Moravskoslezský kraj","key":"StateName"},{"value":"Karviná","key":"CountyName"}]},"MapReference":{"ReferenceId":"707536047","Spot":1.0,"SideOfStreet":"left","CountryId":"20427915","StateId":"20438848","CountyId":"20439295","CityId":"20439326","DistrictId":"20439327"}}}]}]}}