{"Response":{"MetaInfo":{"Timestamp":"2020-03-28T11:28:19.167+0000","NextPageInformation":"2"},"View":[{"_type":"SearchResultsViewType","ViewId":0,"Result":[{"Relevance":1.0,"Distance":0.0,"Direction":0.0,"MatchLevel":"district","MatchQuality":{"Country":1.0,"State":1.0,"County":1.0,"City":1.0,"District":1.0,"PostalCode":1.0},"Location":{"LocationId":"NT_tVGbeOz5YleE2AkHLqV43A","LocationType":"point","DisplayPosition":{"Latitude":49.8438373,"Longitude":6.0987895},"MapView":{"TopLeft":{"Latitude":49.85416,"Longitude":6.07216},"BottomRight":{"Latitude":49.83714,"Longitude":6.11072}},"Address":{"Label":"Ettelbrück, Diekirch, Luxembourg","Country":"LUX","State":"Diekirch","County":"Diekirch","City":"Ettelbrück","District":"Ettelbrück","PostalCode":"9064","AdditionalData":[{"value":"Luxembourg","key":"CountryName"},{"value":"Diekirch","key":"StateName"},{"value":"Diekirch","key":"CountyName"}]},"MapReference":{"ReferenceId":"54075896","SideOfStreet":"neither","CountryId":"20128887","StateId":"20199554","CountyId":"20199633","CityId":"20199667","DistrictId":"20199669"}}},{"Relevance":1.0,"Distance":7.3,"MatchLevel":"houseNumber","MatchQuality":{"Country":1.0,"State":1.0,"County":1.0,"City":1.0,"District":1.0,"Street":[1.0],"HouseNumber":1.0,"PostalCode":1.0},"MatchType":"interpolated","Location":{"LocationId":"NT_SEWMGCWDeMo5EFR4NLCn8C_1A","LocationType":"point","DisplayPosition":{"Latitude":49.84385,"Longitude":6.09869},"MapView":{"TopLeft":{"Latitude":49.8449742,"Longitude":6.0969468},"BottomRight":{"Latitude":49.8427258,"Longitude":6.1004332}},"Address":{"Label":"5 Avenue des Alliés, L-9012 Ettelbrück, Luxembourg","Country":"LUX","State":"Diekirch","County":"Diekirch","City":"Ettelbrück","District":"Ettelbrück","Street":"Avenue des Alliés","HouseNumber":"5","PostalCode":"9012","AdditionalData":[{"value":"Luxembourg","key":"CountryName"},{"value":"Diekirch","key":"StateName"},{"value":"Diekirch","key":"CountyName"}]},"MapReference":{"ReferenceId":"907968766","Spot":0.48,"SideOfStreet":"right","CountryId":"20128887","StateId":"20199554","CountyId":"20199633","CityId":"20199667","DistrictId":"20199669","AddressId":"376617113","RoadLinkId":"325020500"}}},{"Relevance":1.0,"Distance":21.3,"MatchLevel":"street","MatchQuality":{"Country":1.0,"State":1.0,"County":1.0,"City":1.0,"District":1.0,"Street":[1.0],"PostalCode":1.0},"Location":{"LocationId":"NT_ECIAXo7UgxDLTIcFRQ6qNA_l_907968767_R","LocationType":"point","DisplayPosition":{"Latitude":49.84401,"Longitude":6.09866},"MapView":{"TopLeft":{"Latitude":49.84415,"Longitude":6.09863},"BottomRight":{"Latitude":49.84401,"Longitude":6.09866}},"Address":{"Label":"N7, L-9044 Ettelbrück, Luxembourg","Country":"LUX","State":"Diekirch","County":"Diekirch","City":"Ettelbrück","District":"Ettelbrück","Street":"N7","PostalCode":"9044","AdditionalData":[{"value":"Luxembourg","key":"CountryName"},{"value":"Diekirch","key":"StateName"},{"value":"Diekirch","key":"CountyName"}]},"MapReference":{"ReferenceId":"907968767","Spot":0.0,"SideOfStreet":"right","CountryId":"20128887","StateId":"20199554","CountyId":"20199633","CityId":"20199667","DistrictId":"20199669"}}},{"Relevance":1.0,"Distance":35.3,"MatchLevel":"houseNumber","MatchQuality":{"Country":1.0,"State":1.0,"County":1.0,"City":1.0,"District":1.0,"Street":[1.0],"HouseNumber":1.0,"PostalCode":1.0},"MatchType":"interpolated","Location":{"LocationId":"NT_SEWMGCWDeMo5EFR4NLCn8C_xUD","LocationType":"point","DisplayPosition":{"Latitude":49.84352,"Longitude":6.09876},"MapView":{"TopLeft":{"Latitude":49.8446442,"Longitude":6.0970168},"BottomRight":{"Latitude":49.8423958,"Longitude":6.1005032}},"Address":{"Label":"15 Avenue des Alliés, L-9012 Ettelbrück, Luxembourg","Country":"LUX","State":"Diekirch","County":"Diekirch","City":"Ettelbrück","District":"Ettelbrück","Street":"Avenue des Alliés","HouseNumber":"15","PostalCode":"9012","AdditionalData":[{"value":"Luxembourg","key":"CountryName"},{"value":"Diekirch","key":"StateName"},{"value":"Diekirch","key":"CountyName"}]},"MapReference":{"ReferenceId":"1167996118","Spot":0.76,"SideOfStreet":"right","CountryId":"20128887","StateId":"20199554","CountyId":"20199633","CityId":"20199667","DistrictId":"20199669","AddressId":"376617112","RoadLinkId":"474677185"}}},{"Relevance":1.0,"Distance":36.6,"MatchLevel":"street","MatchQuality":{"Country":1.0,"State":1.0,"County":1.0,"City":1.0,"District":1.0,"PostalCode":1.0},"Location":{"LocationId":"NT_yjOCiB7.4o9lmaG8y-Z5SD_l_54103158_L","LocationType":"point","DisplayPosition":{"Latitude":49.84415,"Longitude":6.09863},"MapView":{"TopLeft":{"Latitude":49.84418,"Longitude":6.09849},"BottomRight":{"Latitude":49.84415,"Longitude":6.09863}},"Address":{"Label":"L-9020 Ettelbrück, Luxembourg","Country":"LUX","State":"Diekirch","County":"Diekirch","City":"Ettelbrück","District":"Ettelbrück","PostalCode":"9020","AdditionalData":[{"value":"Luxembourg","key":"CountryName"},{"value":"Diekirch","key":"StateName"},{"value":"Diekirch","key":"CountyName"}]},"MapReference":{"ReferenceId":"54103158","Spot":0.0,"SideOfStreet":"left","CountryId":"20128887","StateId":"20199554","CountyId":"20199633","CityId":"20199667","DistrictId":"20199669"}}},{"Relevance":1.0,"Distance":36.9,"MatchLevel":"street","MatchQuality":{"Country":1.0,"State":1.0,"County":1.0,"City":1.0,"District":1.0,"PostalCode":1.0},"Location":{"LocationId":"NT_yjOCiB7.4o9lmaG8y-Z5SD_l_54103159_R","LocationType":"point","DisplayPosition":{"Latitude":49.84416,"Longitude":6.09867},"MapView":{"TopLeft":{"Latitude":49.84429,"Longitude":6.09863},"BottomRight":{"Latitude":49.84415,"Longitude":6.09875}},"Address":{"Label":"L-9020 Ettelbrück, Luxembourg","Country":"LUX","State":"Diekirch","County":"Diekirch","City":"Ettelbrück","District":"Ettelbrück","PostalCode":"9020","AdditionalData":[{"value":"Luxembourg","key":"CountryName"},{"value":"Diekirch","key":"StateName"},{"value":"Diekirch","key":"CountyName"}]},"MapReference":{"ReferenceId":"54103159","Spot":0.2,"SideOfStreet":"right","CountryId":"20128887","StateId":"20199554","CountyId":"20199633","CityId":"20199667","DistrictId":"20199669"}}},{"Relevance":1.0,"Distance":42.9,"MatchLevel":"houseNumber","MatchQuality":{"Country":1.0,"State":1.0,"County":1.0,"City":1.0,"District":1.0,"Street":[1.0],"HouseNumber":1.0,"PostalCode":1.0},"MatchType":"interpolated","Location":{"LocationId":"NT_RtaH.7MJWz1rB6vsfEybqC_xA","LocationType":"point","DisplayPosition":{"Latitude":49.84414,"Longitude":6.09827},"MapView":{"TopLeft":{"Latitude":49.8452642,"Longitude":6.0965268},"BottomRight":{"Latitude":49.8430158,"Longitude":6.1000132}},"Address":{"Label":"1 Rue du Deich, L-9012 Ettelbrück, Luxembourg","Country":"LUX","State":"Diekirch","County":"Diekirch","City":"Ettelbrück","District":"Ettelbrück","Street":"Rue du Deich","HouseNumber":"1","PostalCode":"9012","AdditionalData":[{"value":"Luxembourg","key":"CountryName"},{"value":"Diekirch","key":"StateName"},{"value":"Diekirch","key":"CountyName"}]},"MapReference":{"ReferenceId":"1168020825","Spot":0.71,"SideOfStreet":"right","CountryId":"20128887","StateId":"20199554","CountyId":"20199633","CityId":"20199667","DistrictId":"20199669","AddressId":"376627930","RoadLinkId":"474703724"}}},{"Relevance":1.0,"Distance":43.7,"MatchLevel":"street","MatchQuality":{"Country":1.0,"State":1.0,"County":1.0,"City":1.0,"District":1.0,"PostalCode":1.0},"Location":{"LocationId":"NT_yjOCiB7.4o9lmaG8y-Z5SD_l_77212732_L","LocationType":"point","DisplayPosition":{"Latitude":49.84418,"Longitude":6.09849},"MapView":{"TopLeft":{"Latitude":49.84429,"Longitude":6.09842},"BottomRight":{"Latitude":49.84418,"Longitude":6.09849}},"Address":{"Label":"L-9020 Ettelbrück, Luxembourg","Country":"LUX","State":"Diekirch","County":"Diekirch","City":"Ettelbrück","District":"Ettelbrück","PostalCode":"9020","AdditionalData":[{"value":"Luxembourg","key":"CountryName"},{"value":"Diekirch","key":"StateName"},{"value":"Diekirch","key":"CountyName"}]},"MapReference":{"ReferenceId":"77212732","Spot":0.0,"SideOfStreet":"left","CountryId":"20128887","StateId":"20199554","CountyId":"20199633","CityId":"20199667","DistrictId":"20199669"}}},{"Relevance":1.0,"Distance":50.4,"MatchLevel":"street","MatchQuality":{"Country":1.0,"State":1.0,"County":1.0,"City":1.0,"District":1.0,"Street":[1.0],"PostalCode":1.0},"Location":{"LocationId":"NT_Wp9IieeMr1NdbqpBv.kPVC_l_77203045_R","LocationType":"point","DisplayPosition":{"Latitude":49.84429,"Longitude":6.09875},"MapView":{"TopLeft":{"Latitude":49.8444,"Longitude":6.09875},"BottomRight":{"Latitude":49.84429,"Longitude":6.09907}},"Address":{"Label":"Boulevard Grande Duchesse Charlotte, L-9024 Ettelbrück, Luxembourg","Country":"LUX","State":"Diekirch","County":"Diekirch","City":"Ettelbrück","District":"Ettelbrück","Street":"Boulevard Grande Duchesse Charlotte","PostalCode":"9024","AdditionalData":[{"value":"Luxembourg","key":"CountryName"},{"value":"Diekirch","key":"StateName"},{"value":"Diekirch","key":"CountyName"}]},"MapReference":{"ReferenceId":"77203045","Spot":0.0,"SideOfStreet":"right","CountryId":"20128887","StateId":"20199554","CountyId":"20199633","CityId":"20199667","DistrictId":"20199669"}}},{"Relevance":1.0,"Distance":50.4,"MatchLevel":"street","MatchQuality":{"Country":1.0,"State":1.0,"County":1.0,"City":1.0,"District":1.0,"PostalCode":1.0},"Location":{"LocationId":"NT_yjOCiB7.4o9lmaG8y-Z5SD_l_54103160_L","LocationType":"point","DisplayPosition":{"Latitude":49.84429,"Longitude":6.09875},"MapView":{"TopLeft":{"Latitude":49.84437,"Longitude":6.09859},"BottomRight":{"Latitude":49.84429,"Longitude":6.09875}},"Address":{"Label":"L-9020 Ettelbrück, Luxembourg","Country":"LUX","State":"Diekirch","County":"Diekirch","City":"Ettelbrück","District":"Ettelbrück","PostalCode":"9020","AdditionalData":[{"value":"Luxembourg","key":"CountryName"},{"value":"Diekirch","key":"StateName"},{"value":"Diekirch","key":"CountyName"}]},"MapReference":{"ReferenceId":"54103160","Spot":0.0,"SideOfStreet":"left","CountryId":"20128887","StateId":"20199554","CountyId":"20199633","CityId":"20199667","DistrictId":"20199669"}}}]}]}}