{"Response":{"MetaInfo":{"Timestamp":"2020-03-28T10:46:25.033+0000","NextPageInformation":"2"},"View":[{"_type":"SearchResultsViewType","ViewId":0,"Result":[{"Relevance":1.0,"Distance":-2083.1,"MatchLevel":"landmark","MatchQuality":{"Country":1.0,"Name":1.0},"Location":{"LocationId":"NT_DVA6SR87aBgKKAkMQsh55B","LocationType":"woodland","Name":"PK Beskidu Małego","DisplayPosition":{"Latitude":49.76585,"Longitude":19.34868},"MapView":{"TopLeft":{"Latitude":49.88062,"Longitude":19.07502},"BottomRight":{"Latitude":49.65108,"Longitude":19.60307}},"Address":{"Label":"Polska","Country":"POL","AdditionalData":[{"value":"Polska","key":"CountryName"}]},"MapReference":{"CountryId":"20624059","PlaceId":"1403500754"}}},{"Relevance":1.0,"Distance":0.0,"Direction":0.0,"MatchLevel":"district","MatchQuality":{"Country":1.0,"State":1.0,"County":1.0,"City":1.0,"District":1.0,"PostalCode":1.0},"Location":{"LocationId":"NT_FgAza7xjPlKd9S77-.ExCC","LocationType":"point","DisplayPosition":{"Latitude":49.847782,"Longitude":19.1471327},"MapView":{"TopLeft":{"Latitude":49.86683,"Longitude":19.11783},"BottomRight":{"Latitude":49.82244,"Longitude":19.16622}},"Address":{"Label":"Kozy, Woj. Śląskie, Polska","Country":"POL","State":"Woj. Śląskie","County":"Powiat Bielski","City":"Kozy","District":"Kozy","PostalCode":"43-340","AdditionalData":[{"value":"Polska","key":"CountryName"},{"value":"Woj. Śląskie","key":"StateName"},{"value":"Powiat Bielski","key":"CountyName"}]},"MapReference":{"ReferenceId":"1194470456","SideOfStreet":"neither","CountryId":"20624059","StateId":"20629003","CountyId":"20629056","CityId":"20629065","DistrictId":"20693258"}}},{"Relevance":1.0,"Distance":14.8,"MatchLevel":"houseNumber","MatchQuality":{"Country":1.0,"State":1.0,"County":1.0,"City":1.0,"District":1.0,"Street":[1.0],"HouseNumber":1.0,"PostalCode":1.0},"MatchType":"interpolated","Location":{"LocationId":"NT_jy9BfjPHJClfNfcnXmDorC_yA","LocationType":"point","DisplayPosition":{"Latitude":49.84802,"Longitude":19.14711},"MapView":{"TopLeft":{"Latitude":49.8491442,"Longitude":19.1453666},"BottomRight":{"Latitude":49.8468958,"Longitude":19.1488534}},"Address":{"Label":"ulica Lipowa 2, 43-340 Kozy, Polska","Country":"POL","State":"Woj. Śląskie","County":"Powiat Bielski","City":"Kozy","District":"Kozy","Street":"ulica Lipowa","HouseNumber":"2","PostalCode":"43-340","AdditionalData":[{"value":"Polska","key":"CountryName"},{"value":"Woj. Śląskie","key":"StateName"},{"value":"Powiat Bielski","key":"CountyName"}]},"MapReference":{"ReferenceId":"594413705","Spot":0.17,"SideOfStreet":"right","CountryId":"20624059","StateId":"20629003","CountyId":"20629056","CityId":"20629065","DistrictId":"20693258","AddressId":"731975783","RoadLinkId":"96413287"}}},{"Relevance":1.0,"Distance":20.8,"MatchLevel":"street","MatchQuality":{"Country":1.0,"State":1.0,"County":1.0,"City":1.0,"District":1.0,"Street":[1.0],"PostalCode":1.0},"Location":{"LocationId":"NT_by9kFw7xzUaBFE2inY824D_l_1061257145_R","LocationType":"point","DisplayPosition":{"Latitude":49.84774,"Longitude":19.14685},"MapView":{"TopLeft":{"Latitude":49.84784,"Longitude":19.14674},"BottomRight":{"Latitude":49.84774,"Longitude":19.14685}},"Address":{"Label":"ulica Przecznia, 43-340 Kozy, Polska","Country":"POL","State":"Woj. Śląskie","County":"Powiat Bielski","City":"Kozy","District":"Kozy","Street":"ulica Przecznia","PostalCode":"43-340","AdditionalData":[{"value":"Polska","key":"CountryName"},{"value":"Woj. Śląskie","key":"StateName"},{"value":"Powiat Bielski","key":"CountyName"}]},"MapReference":{"ReferenceId":"1061257145","Spot":0.0,"SideOfStreet":"right","CountryId":"20624059","StateId":"20629003","CountyId":"20629056","CityId":"20629065","DistrictId":"20693258"}}},{"Relevance":1.0,"Distance":28.9,"MatchLevel":"street","MatchQuality":{"Country":1.0,"State":1.0,"County":1.0,"City":1.0,"District":1.0,"Street":[1.0],"PostalCode":1.0},"Location":{"LocationId":"NT_by9kFw7xzUaBFE2inY824D_l_1061226006_R","LocationType":"point","DisplayPosition":{"Latitude":49.84784,"Longitude":19.14674},"MapView":{"TopLeft":{"Latitude":49.84839,"Longitude":19.14613},"BottomRight":{"Latitude":49.84784,"Longitude":19.14674}},"Address":{"Label":"ulica Przecznia, 43-340 Kozy, Polska","Country":"POL","State":"Woj. Śląskie","County":"Powiat Bielski","City":"Kozy","District":"Kozy","Street":"ulica Przecznia","PostalCode":"43-340","AdditionalData":[{"value":"Polska","key":"CountryName"},{"value":"Woj. Śląskie","key":"StateName"},{"value":"Powiat Bielski","key":"CountyName"}]},"MapReference":{"ReferenceId":"1061226006","Spot":0.0,"SideOfStreet":"right","CountryId":"20624059","StateId":"20629003","CountyId":"20629056","CityId":"20629065","DistrictId":"20693258"}}},{"Relevance":1.0,"Distance":59.8,"MatchLevel":"houseNumber","MatchQuality":{"Country":1.0,"State":1.0,"County":1.0,"City":1.0,"District":1.0,"Street":[1.0],"HouseNumber":1.0,"PostalCode":1.0},"MatchType":"interpolated","Location":{"LocationId":"NT_by9kFw7xzUaBFE2inY824D_yA","LocationType":"point","DisplayPosition":{"Latitude":49.84727,"Longitude":19.14739},"MapView":{"TopLeft":{"Latitude":49.8483942,"Longitude":19.1456467},"BottomRight":{"Latitude":49.8461458,"Longitude":19.1491333}},"Address":{"Label":"ulica Przecznia 2, 43-340 Kozy, Polska","Country":"POL","State":"Woj. Śląskie","County":"Powiat Bielski","City":"Kozy","District":"Kozy","Street":"ulica Przecznia","HouseNumber":"2","PostalCode":"43-340","AdditionalData":[{"value":"Polska","key":"CountryName"},{"value":"Woj. Śląskie","key":"StateName"},{"value":"Powiat Bielski","key":"CountyName"}]},"MapReference":{"ReferenceId":"1061257144","Spot":0.17,"SideOfStreet":"right","CountryId":"20624059","StateId":"20629003","CountyId":"20629056","CityId":"20629065","DistrictId":"20693258","AddressId":"367147575","RoadLinkId":"383338095"}}},{"Relevance":1.0,"Distance":71.9,"MatchLevel":"street","MatchQuality":{"Country":1.0,"State":1.0,"County":1.0,"City":1.0,"District":1.0,"Street":[1.0],"PostalCode":1.0},"Location":{"LocationId":"NT_by9kFw7xzUaBFE2inY824D_l_1061226002_R","LocationType":"point","DisplayPosition":{"Latitude":49.84718,"Longitude":19.1475},"MapView":{"TopLeft":{"Latitude":49.84718,"Longitude":19.1475},"BottomRight":{"Latitude":49.847,"Longitude":19.14771}},"Address":{"Label":"ulica Przecznia, 43-340 Kozy, Polska","Country":"POL","State":"Woj. Śląskie","County":"Powiat Bielski","City":"Kozy","District":"Kozy","Street":"ulica Przecznia","PostalCode":"43-340","AdditionalData":[{"value":"Polska","key":"CountryName"},{"value":"Woj. Śląskie","key":"StateName"},{"value":"Powiat Bielski","key":"CountyName"}]},"MapReference":{"ReferenceId":"1061226002","Spot":1.0,"SideOfStreet":"right","CountryId":"20624059","StateId":"20629003","CountyId":"20629056","CityId":"20629065","DistrictId":"20693258"}}},{"Relevance":1.0,"Distance":79.7,"MatchLevel":"houseNumber","MatchQuality":{"Country":1.0,"State":1.0,"County":1.0,"City":1.0,"District":1.0,"Street":[1.0],"HouseNumber":1.0,"PostalCode":1.0},"MatchType":"interpolated","Location":{"LocationId":"NT_IdbHL9peIwtuvnLh-7bezD_yAD","LocationType":"point","DisplayPosition":{"Latitude":49.8475,"Longitude":19.14606},"MapView":{"TopLeft":{"Latitude":49.8486242,"Longitude":19.1443167},"BottomRight":{"Latitude":49.8463758,"Longitude":19.1478033}},"Address":{"Label":"ulica Szkolna 20, 43-340 Kozy, Polska","Country":"POL","State":"Woj. Śląskie","County":"Powiat Bielski","City":"Kozy","District":"Kozy","Street":"ulica Szkolna","HouseNumber":"20","PostalCode":"43-340","AdditionalData":[{"value":"Polska","key":"CountryName"},{"value":"Woj. Śląskie","key":"StateName"},{"value":"Powiat Bielski","key":"CountyName"}]},"MapReference":{"ReferenceId":"995845163","Spot":0.74,"SideOfStreet":"right","CountryId":"20624059","StateId":"20629003","CountyId":"20629056","CityId":"20629065","DistrictId":"20693258","AddressId":"367082497","RoadLinkId":"323510481"}}},{"Relevance":1.0,"Distance":94.1,"MatchLevel":"houseNumber","MatchQuality":{"Country":1.0,"State":1.0,"County":1.0,"City":1.0,"District":1.0,"Street":[1.0],"HouseNumber":1.0,"PostalCode":1.0},"MatchType":"interpolated","Location":{"LocationId":"NT_PenGNe3.jLl3GgujFcz0PA_ygD","LocationType":"point","DisplayPosition":{"Latitude":49.84711,"Longitude":19.14793},"MapView":{"TopLeft":{"Latitude":49.8482342,"Longitude":19.1461867},"BottomRight":{"Latitude":49.8459858,"Longitude":19.1496733}},"Address":{"Label":"ulica Krakowska 28, 43-340 Kozy, Polska","Country":"POL","State":"Woj. Śląskie","County":"Powiat Bielski","City":"Kozy","District":"Kozy","Street":"ulica Krakowska","HouseNumber":"28","PostalCode":"43-340","AdditionalData":[{"value":"Polska","key":"CountryName"},{"value":"Woj. Śląskie","key":"StateName"},{"value":"Powiat Bielski","key":"CountyName"}]},"MapReference":{"ReferenceId":"1194470456","Spot":0.45,"SideOfStreet":"right","CountryId":"20624059","StateId":"20629003","CountyId":"20629056","CityId":"20629065","DistrictId":"20693258","AddressId":"367157435","RoadLinkId":"504519214"}}},{"Relevance":1.0,"Distance":96.3,"MatchLevel":"street","MatchQuality":{"Country":1.0,"State":1.0,"County":1.0,"City":1.0,"District":1.0,"Street":[1.0],"PostalCode":1.0},"Location":{"LocationId":"NT_PwMA5T.6IAK6VUm2mzsjyC_l_1194470455_L","LocationType":"point","DisplayPosition":{"Latitude":49.847,"Longitude":19.14771},"MapView":{"TopLeft":{"Latitude":49.84705,"Longitude":19.14771},"BottomRight":{"Latitude":49.847,"Longitude":19.14781}},"Address":{"Label":"ulica Krakowska, 43-340 Kozy, Polska","Country":"POL","State":"Woj. Śląskie","County":"Powiat Bielski","City":"Kozy","District":"Kozy","Street":"ulica Krakowska","PostalCode":"43-340","AdditionalData":[{"value":"Polska","key":"CountryName"},{"value":"Woj. Śląskie","key":"StateName"},{"value":"Powiat Bielski","key":"CountyName"}]},"MapReference":{"ReferenceId":"1194470455","Spot":0.0,"SideOfStreet":"left","CountryId":"20624059","StateId":"20629003","CountyId":"20629056","CityId":"20629065","DistrictId":"20693258"}}}]}]}}