{"Response":{"MetaInfo":{"Timestamp":"2020-03-28T10:47:45.447+0000","NextPageInformation":"2"},"View":[{"_type":"SearchResultsViewType","ViewId":0,"Result":[{"Relevance":1.0,"Distance":0.0,"Direction":0.0,"MatchLevel":"district","MatchQuality":{"Country":1.0,"State":1.0,"County":1.0,"City":1.0,"District":1.0,"PostalCode":1.0},"Location":{"LocationId":"NT_S.X93MMiBMX3RKhLdJbTLA","LocationType":"point","DisplayPosition":{"Latitude":49.8816275,"Longitude":21.4131029},"MapView":{"TopLeft":{"Latitude":49.89147,"Longitude":21.38893},"BottomRight":{"Latitude":49.86592,"Longitude":21.43864}},"Address":{"Label":"Brzostek, Woj. Podkarpackie, Polska","Country":"POL","State":"Woj. Podkarpackie","County":"Powiat Dębicki","City":"Brzostek","District":"Brzostek","PostalCode":"39-230","AdditionalData":[{"value":"Polska","key":"CountryName"},{"value":"Woj. Podkarpackie","key":"StateName"},{"value":"Powiat Dębicki","key":"CountyName"}]},"MapReference":{"ReferenceId":"897407198","SideOfStreet":"neither","CountryId":"20624059","StateId":"20628101","CountyId":"20628129","CityId":"20628130","DistrictId":"20690828"}}},{"Relevance":1.0,"Distance":40.1,"MatchLevel":"houseNumber","MatchQuality":{"Country":1.0,"State":1.0,"County":1.0,"City":1.0,"District":1.0,"Street":[1.0],"HouseNumber":1.0,"PostalCode":1.0},"MatchType":"interpolated","Location":{"LocationId":"NT_u18rgHIpn-LqY0WZHeHCQD_3A","LocationType":"point","DisplayPosition":{"Latitude":49.88116,"Longitude":21.41315},"MapView":{"TopLeft":{"Latitude":49.8822842,"Longitude":21.4114054},"BottomRight":{"Latitude":49.8800358,"Longitude":21.4148946}},"Address":{"Label":"ulica Mariana Nałęcza-Mysłowskiego 7, 39-230 Brzostek, Polska","Country":"POL","State":"Woj. Podkarpackie","County":"Powiat Dębicki","City":"Brzostek","District":"Brzostek","Street":"ulica Mariana Nałęcza-Mysłowskiego","HouseNumber":"7","PostalCode":"39-230","AdditionalData":[{"value":"Polska","key":"CountryName"},{"value":"Woj. Podkarpackie","key":"StateName"},{"value":"Powiat Dębicki","key":"CountyName"}]},"MapReference":{"ReferenceId":"852122122","Spot":0.23,"SideOfStreet":"right","CountryId":"20624059","StateId":"20628101","CountyId":"20628129","CityId":"20628130","DistrictId":"20690828","AddressId":"688817894","RoadLinkId":"231525719"}}},{"Relevance":1.0,"Distance":50.2,"MatchLevel":"houseNumber","MatchQuality":{"Country":1.0,"State":1.0,"County":1.0,"City":1.0,"District":1.0,"Street":[1.0],"HouseNumber":1.0,"PostalCode":1.0},"MatchType":"interpolated","Location":{"LocationId":"NT_u18rgHIpn-LqY0WZHeHCQD_xMD","LocationType":"point","DisplayPosition":{"Latitude":49.8813,"Longitude":21.4139},"MapView":{"TopLeft":{"Latitude":49.8824242,"Longitude":21.4121554},"BottomRight":{"Latitude":49.8801758,"Longitude":21.4156446}},"Address":{"Label":"ulica Mariana Nałęcza-Mysłowskiego 13, 39-230 Brzostek, Polska","Country":"POL","State":"Woj. Podkarpackie","County":"Powiat Dębicki","City":"Brzostek","District":"Brzostek","Street":"ulica Mariana Nałęcza-Mysłowskiego","HouseNumber":"13","PostalCode":"39-230","AdditionalData":[{"value":"Polska","key":"CountryName"},{"value":"Woj. Podkarpackie","key":"StateName"},{"value":"Powiat Dębicki","key":"CountyName"}]},"MapReference":{"ReferenceId":"979153270","Spot":0.32,"SideOfStreet":"left","CountryId":"20624059","StateId":"20628101","CountyId":"20628129","CityId":"20628130","DistrictId":"20690828","AddressId":"688963163","RoadLinkId":"312236830"}}},{"Relevance":1.0,"Distance":68.5,"MatchLevel":"street","MatchQuality":{"Country":1.0,"State":1.0,"County":1.0,"City":1.0,"Street":[1.0],"PostalCode":1.0},"Location":{"LocationId":"NT_bbWHjFxl-YsbL6zhcXD9WA_l_594064322_L","LocationType":"point","DisplayPosition":{"Latitude":49.88104,"Longitude":21.41339},"MapView":{"TopLeft":{"Latitude":49.88104,"Longitude":21.41321},"BottomRight":{"Latitude":49.88087,"Longitude":21.41339}},"Address":{"Label":"ulica Mariana Nałęcza-Mysłowskiego, 39-230, Polska","Country":"POL","State":"Woj. Podkarpackie","County":"Powiat Dębicki","City":"Brzostek","Street":"ulica Mariana Nałęcza-Mysłowskiego","PostalCode":"39-230","AdditionalData":[{"value":"Polska","key":"CountryName"},{"value":"Woj. Podkarpackie","key":"StateName"},{"value":"Powiat Dębicki","key":"CountyName"}]},"MapReference":{"ReferenceId":"594064322","Spot":1.0,"SideOfStreet":"left","CountryId":"20624059","StateId":"20628101","CountyId":"20628129","CityId":"20628130"}}},{"Relevance":1.0,"Distance":110.8,"MatchLevel":"houseNumber","MatchQuality":{"Country":1.0,"State":1.0,"County":1.0,"City":1.0,"District":1.0,"Street":[1.0],"HouseNumber":1.0,"PostalCode":1.0},"MatchType":"interpolated","Location":{"LocationId":"NT_6o3oqi8qC-MpewCZZSie1C_0YD","LocationType":"point","DisplayPosition":{"Latitude":49.88278,"Longitude":21.41273},"MapView":{"TopLeft":{"Latitude":49.8839042,"Longitude":21.4109854},"BottomRight":{"Latitude":49.8816558,"Longitude":21.4144746}},"Address":{"Label":"ulica Przedmieście 46, 39-230 Brzostek, Polska","Country":"POL","State":"Woj. Podkarpackie","County":"Powiat Dębicki","City":"Brzostek","District":"Brzostek","Street":"ulica Przedmieście","HouseNumber":"46","PostalCode":"39-230","AdditionalData":[{"value":"Polska","key":"CountryName"},{"value":"Woj. Podkarpackie","key":"StateName"},{"value":"Powiat Dębicki","key":"CountyName"}]},"MapReference":{"ReferenceId":"852122112","Spot":0.62,"SideOfStreet":"left","CountryId":"20624059","StateId":"20628101","CountyId":"20628129","CityId":"20628130","DistrictId":"20690828","AddressId":"211074557","RoadLinkId":"231525709"}}},{"Relevance":1.0,"Distance":143.9,"MatchLevel":"street","MatchQuality":{"Country":1.0,"State":1.0,"County":1.0,"City":1.0,"District":1.0,"Street":[1.0],"PostalCode":1.0},"Location":{"LocationId":"NT_u18rgHIpn-LqY0WZHeHCQD_l_979153271_L","LocationType":"point","DisplayPosition":{"Latitude":49.88158,"Longitude":21.41511},"MapView":{"TopLeft":{"Latitude":49.88164,"Longitude":21.41511},"BottomRight":{"Latitude":49.88158,"Longitude":21.41544}},"Address":{"Label":"ulica Mariana Nałęcza-Mysłowskiego, 39-230 Brzostek, Polska","Country":"POL","State":"Woj. Podkarpackie","County":"Powiat Dębicki","City":"Brzostek","District":"Brzostek","Street":"ulica Mariana Nałęcza-Mysłowskiego","PostalCode":"39-230","AdditionalData":[{"value":"Polska","key":"CountryName"},{"value":"Woj. Podkarpackie","key":"StateName"},{"value":"Powiat Dębicki","key":"CountyName"}]},"MapReference":{"ReferenceId":"979153271","Spot":0.0,"SideOfStreet":"left","CountryId":"20624059","StateId":"20628101","CountyId":"20628129","CityId":"20628130","DistrictId":"20690828"}}},{"Relevance":1.0,"Distance":144.7,"MatchLevel":"houseNumber","MatchQuality":{"Country":1.0,"State":1.0,"County":1.0,"City":1.0,"District":1.0,"Street":[1.0],"HouseNumber":1.0,"PostalCode":1.0},"MatchType":"interpolated","Location":{"LocationId":"NT_WLtg3djLWPwdrg3IcV4djC_3A","LocationType":"point","DisplayPosition":{"Latitude":49.88081,"Longitude":21.41138},"MapView":{"TopLeft":{"Latitude":49.8819342,"Longitude":21.4096355},"BottomRight":{"Latitude":49.8796858,"Longitude":21.4131245}},"Address":{"Label":"ulica Zielona 7, 39-230 Brzostek, Polska","Country":"POL","State":"Woj. Podkarpackie","County":"Powiat Dębicki","City":"Brzostek","District":"Brzostek","Street":"ulica Zielona","HouseNumber":"7","PostalCode":"39-230","AdditionalData":[{"value":"Polska","key":"CountryName"},{"value":"Woj. Podkarpackie","key":"StateName"},{"value":"Powiat Dębicki","key":"CountyName"}]},"MapReference":{"ReferenceId":"759666957","Spot":0.0,"SideOfStreet":"right","CountryId":"20624059","StateId":"20628101","CountyId":"20628129","CityId":"20628130","DistrictId":"20690828","AddressId":"741677131","RoadLinkId":"154255671"}}},{"Relevance":1.0,"Distance":167.5,"MatchLevel":"street","MatchQuality":{"Country":1.0,"State":1.0,"County":1.0,"City":1.0,"District":1.0,"Street":[1.0],"PostalCode":1.0},"Location":{"LocationId":"NT_u18rgHIpn-LqY0WZHeHCQD_l_979153269_L","LocationType":"point","DisplayPosition":{"Latitude":49.88164,"Longitude":21.41544},"MapView":{"TopLeft":{"Latitude":49.88167,"Longitude":21.41544},"BottomRight":{"Latitude":49.88164,"Longitude":21.41577}},"Address":{"Label":"ulica Mariana Nałęcza-Mysłowskiego, 39-230 Brzostek, Polska","Country":"POL","State":"Woj. Podkarpackie","County":"Powiat Dębicki","City":"Brzostek","District":"Brzostek","Street":"ulica Mariana Nałęcza-Mysłowskiego","PostalCode":"39-230","AdditionalData":[{"value":"Polska","key":"CountryName"},{"value":"Woj. Podkarpackie","key":"StateName"},{"value":"Powiat Dębicki","key":"CountyName"}]},"MapReference":{"ReferenceId":"979153269","Spot":0.0,"SideOfStreet":"left","CountryId":"20624059","StateId":"20628101","CountyId":"20628129","CityId":"20628130","DistrictId":"20690828"}}},{"Relevance":1.0,"Distance":168.7,"MatchLevel":"houseNumber","MatchQuality":{"Country":1.0,"State":1.0,"County":1.0,"City":1.0,"District":1.0,"Street":[1.0],"HouseNumber":1.0,"PostalCode":1.0},"MatchType":"interpolated","Location":{"LocationId":"NT_u18rgHIpn-LqY0WZHeHCQD_1A","LocationType":"point","DisplayPosition":{"Latitude":49.88015,"Longitude":21.41257},"MapView":{"TopLeft":{"Latitude":49.8812742,"Longitude":21.4108255},"BottomRight":{"Latitude":49.8790258,"Longitude":21.4143145}},"Address":{"Label":"ulica Mariana Nałęcza-Mysłowskiego 5, 39-230 Brzostek, Polska","Country":"POL","State":"Woj. Podkarpackie","County":"Powiat Dębicki","City":"Brzostek","District":"Brzostek","Street":"ulica Mariana Nałęcza-Mysłowskiego","HouseNumber":"5","PostalCode":"39-230","AdditionalData":[{"value":"Polska","key":"CountryName"},{"value":"Woj. Podkarpackie","key":"StateName"},{"value":"Powiat Dębicki","key":"CountyName"}]},"MapReference":{"ReferenceId":"979146672","Spot":0.59,"SideOfStreet":"left","CountryId":"20624059","StateId":"20628101","CountyId":"20628129","CityId":"20628130","DistrictId":"20690828","AddressId":"222344824","RoadLinkId":"312229516"}}},{"Relevance":1.0,"Distance":175.4,"MatchLevel":"street","MatchQuality":{"Country":1.0,"State":1.0,"County":1.0,"City":1.0,"PostalCode":1.0},"Location":{"LocationId":"NT_WNtTPhTCqAhMtk.lhWUaqD_l_852117412_L","LocationType":"point","DisplayPosition":{"Latitude":49.88006,"Longitude":21.41338},"MapView":{"TopLeft":{"Latitude":49.88006,"Longitude":21.41306},"BottomRight":{"Latitude":49.87937,"Longitude":21.41338}},"Address":{"Label":"39-230, Polska","Country":"POL","State":"Woj. Podkarpackie","County":"Powiat Dębicki","City":"Brzostek","PostalCode":"39-230","AdditionalData":[{"value":"Polska","key":"CountryName"},{"value":"Woj. Podkarpackie","key":"StateName"},{"value":"Powiat Dębicki","key":"CountyName"}]},"MapReference":{"ReferenceId":"852117412","Spot":1.0,"SideOfStreet":"left","CountryId":"20624059","StateId":"20628101","CountyId":"20628129","CityId":"20628130"}}}]}]}}