{"Response":{"MetaInfo":{"Timestamp":"2020-03-28T11:32:06.822+0000","NextPageInformation":"2"},"View":[{"_type":"SearchResultsViewType","ViewId":0,"Result":[{"Relevance":1.0,"Distance":0.0,"Direction":0.0,"MatchLevel":"district","MatchQuality":{"Country":1.0,"State":1.0,"County":1.0,"City":1.0,"District":1.0,"PostalCode":1.0},"Location":{"LocationId":"NT_17PrlcvVp4Ol7CjGDIfMmD","LocationType":"point","DisplayPosition":{"Latitude":49.8160822,"Longitude":19.0502748},"MapView":{"TopLeft":{"Latitude":49.88752,"Longitude":18.94997},"BottomRight":{"Latitude":49.76295,"Longitude":19.13212}},"Address":{"Label":"Bielsko-Biała, Woj. Śląskie, Polska","Country":"POL","State":"Woj. Śląskie","County":"Bielsko-Biała","City":"Bielsko-Biała","District":"Bielsko-Biała","PostalCode":"43-300","AdditionalData":[{"value":"Polska","key":"CountryName"},{"value":"Woj. Śląskie","key":"StateName"},{"value":"Bielsko-Biała","key":"CountyName"}]},"MapReference":{"ReferenceId":"1054020440","SideOfStreet":"neither","CountryId":"20624059","StateId":"20629003","CountyId":"20629004","CityId":"20629005","DistrictId":"20646631"}}},{"Relevance":1.0,"Distance":16.3,"MatchLevel":"houseNumber","MatchQuality":{"Country":1.0,"State":1.0,"County":1.0,"City":1.0,"District":1.0,"Street":[1.0],"HouseNumber":1.0,"PostalCode":1.0},"MatchType":"interpolated","Location":{"LocationId":"NT_oZ9q5SB79D-r5OYJSjyKrD_yAD","LocationType":"point","DisplayPosition":{"Latitude":49.81619,"Longitude":19.05012},"MapView":{"TopLeft":{"Latitude":49.8173142,"Longitude":19.0483778},"BottomRight":{"Latitude":49.8150658,"Longitude":19.0518622}},"Address":{"Label":"ulica Zielona 20, 43-300 Bielsko-Biała, Polska","Country":"POL","State":"Woj. Śląskie","County":"Bielsko-Biała","City":"Bielsko-Biała","District":"Bielsko-Biała","Street":"ulica Zielona","HouseNumber":"20","PostalCode":"43-300","AdditionalData":[{"value":"Polska","key":"CountryName"},{"value":"Woj. Śląskie","key":"StateName"},{"value":"Bielsko-Biała","key":"CountyName"}]},"MapReference":{"ReferenceId":"594416780","Spot":0.72,"SideOfStreet":"left","CountryId":"20624059","StateId":"20629003","CountyId":"20629004","CityId":"20629005","DistrictId":"20646631","AddressId":"732012962","RoadLinkId":"96275870"}}},{"Relevance":1.0,"Distance":18.7,"MatchLevel":"landmark","MatchQuality":{"Country":1.0,"State":1.0,"County":1.0,"City":1.0,"District":1.0,"Street":[1.0],"PostalCode":1.0,"Name":1.0},"Location":{"LocationId":"NT_Z97cTT4d7pS8QUo5c74z0A_p_dgIspE7dp6aHg7PxOnmuZB","LocationType":"park","Name":"Zielona","DisplayPosition":{"Latitude":49.81674,"Longitude":19.05036},"MapView":{"TopLeft":{"Latitude":49.81789,"Longitude":19.05029},"BottomRight":{"Latitude":49.81625,"Longitude":19.05159}},"Address":{"Label":"ulica Zielona, 43-300 Bielsko-Biała, Polska","Country":"POL","State":"Woj. Śląskie","County":"Bielsko-Biała","City":"Bielsko-Biała","District":"Bielsko-Biała","Street":"ulica Zielona","PostalCode":"43-300","AdditionalData":[{"value":"Polska","key":"CountryName"},{"value":"Woj. Śląskie","key":"StateName"},{"value":"Bielsko-Biała","key":"CountyName"}]},"MapReference":{"CountryId":"20624059","StateId":"20629003","CountyId":"20629004","CityId":"20629005","DistrictId":"20646631","PlaceId":"844641894"}}},{"Relevance":1.0,"Distance":18.7,"MatchLevel":"street","MatchQuality":{"Country":1.0,"State":1.0,"County":1.0,"City":1.0,"District":1.0,"Street":[1.0],"PostalCode":1.0},"Location":{"LocationId":"NT_fr9V8.jEbwdHd4aFu25zpC_l_594416757_R","LocationType":"point","DisplayPosition":{"Latitude":49.81625,"Longitude":19.05029},"MapView":{"TopLeft":{"Latitude":49.81634,"Longitude":19.05029},"BottomRight":{"Latitude":49.81625,"Longitude":19.05091}},"Address":{"Label":"skwer Czumy Sienickiej, 43-300 Bielsko-Biała, Polska","Country":"POL","State":"Woj. Śląskie","County":"Bielsko-Biała","City":"Bielsko-Biała","District":"Bielsko-Biała","Street":"skwer Czumy Sienickiej","PostalCode":"43-300","AdditionalData":[{"value":"Polska","key":"CountryName"},{"value":"Woj. Śląskie","key":"StateName"},{"value":"Bielsko-Biała","key":"CountyName"}]},"MapReference":{"ReferenceId":"594416757","Spot":0.0,"SideOfStreet":"right","CountryId":"20624059","StateId":"20629003","CountyId":"20629004","CityId":"20629005","DistrictId":"20646631"}}},{"Relevance":1.0,"Distance":27.6,"MatchLevel":"houseNumber","MatchQuality":{"Country":1.0,"State":1.0,"County":1.0,"City":1.0,"District":1.0,"Street":[1.0],"HouseNumber":1.0,"PostalCode":1.0},"MatchType":"interpolated","Location":{"LocationId":"NT_tZDJFJxv4Nb2ma7EWsRz4D_0gD","LocationType":"point","DisplayPosition":{"Latitude":49.81598,"Longitude":19.051},"MapView":{"TopLeft":{"Latitude":49.8171042,"Longitude":19.0492578},"BottomRight":{"Latitude":49.8148558,"Longitude":19.0527422}},"Address":{"Label":"ulica Władysława Broniewskiego 48, 43-300 Bielsko-Biała, Polska","Country":"POL","State":"Woj. Śląskie","County":"Bielsko-Biała","City":"Bielsko-Biała","District":"Bielsko-Biała","Street":"ulica Władysława Broniewskiego","HouseNumber":"48","PostalCode":"43-300","AdditionalData":[{"value":"Polska","key":"CountryName"},{"value":"Woj. Śląskie","key":"StateName"},{"value":"Bielsko-Biała","key":"CountyName"}]},"MapReference":{"ReferenceId":"594416827","Spot":0.16,"SideOfStreet":"left","CountryId":"20624059","StateId":"20629003","CountyId":"20629004","CityId":"20629005","DistrictId":"20646631","AddressId":"582352928","RoadLinkId":"96342138"}}},{"Relevance":1.0,"Distance":36.5,"MatchLevel":"houseNumber","MatchQuality":{"Country":1.0,"State":1.0,"County":1.0,"City":1.0,"District":1.0,"Street":[1.0],"HouseNumber":1.0,"PostalCode":1.0},"MatchType":"interpolated","Location":{"LocationId":"NT_oZ9q5SB79D-r5OYJSjyKrD_xgD","LocationType":"point","DisplayPosition":{"Latitude":49.81641,"Longitude":19.05031},"MapView":{"TopLeft":{"Latitude":49.8175342,"Longitude":19.0485678},"BottomRight":{"Latitude":49.8152858,"Longitude":19.0520522}},"Address":{"Label":"ulica Zielona 18, 43-300 Bielsko-Biała, Polska","Country":"POL","State":"Woj. Śląskie","County":"Bielsko-Biała","City":"Bielsko-Biała","District":"Bielsko-Biała","Street":"ulica Zielona","HouseNumber":"18","PostalCode":"43-300","AdditionalData":[{"value":"Polska","key":"CountryName"},{"value":"Woj. Śląskie","key":"StateName"},{"value":"Bielsko-Biała","key":"CountyName"}]},"MapReference":{"ReferenceId":"594416758","Spot":0.1,"SideOfStreet":"left","CountryId":"20624059","StateId":"20629003","CountyId":"20629004","CityId":"20629005","DistrictId":"20646631","AddressId":"210291222","RoadLinkId":"96148098"}}},{"Relevance":1.0,"Distance":42.8,"MatchLevel":"street","MatchQuality":{"Country":1.0,"State":1.0,"County":1.0,"City":1.0,"District":1.0,"Street":[1.0],"PostalCode":1.0},"Location":{"LocationId":"NT_ufomrWAcAcSpwwkyPHreuD_l_1053885294_L","LocationType":"point","DisplayPosition":{"Latitude":49.8156991,"Longitude":19.050327},"MapView":{"TopLeft":{"Latitude":49.81572,"Longitude":19.04942},"BottomRight":{"Latitude":49.81559,"Longitude":19.05048}},"Address":{"Label":"ulica PCK, 43-300 Bielsko-Biała, Polska","Country":"POL","State":"Woj. Śląskie","County":"Bielsko-Biała","City":"Bielsko-Biała","District":"Bielsko-Biała","Street":"ulica PCK","PostalCode":"43-300","AdditionalData":[{"value":"Polska","key":"CountryName"},{"value":"Woj. Śląskie","key":"StateName"},{"value":"Bielsko-Biała","key":"CountyName"}]},"MapReference":{"ReferenceId":"1053885294","Spot":0.86,"SideOfStreet":"left","CountryId":"20624059","StateId":"20629003","CountyId":"20629004","CityId":"20629005","DistrictId":"20646631"}}},{"Relevance":1.0,"Distance":42.9,"MatchLevel":"street","MatchQuality":{"Country":1.0,"State":1.0,"County":1.0,"City":1.0,"District":1.0,"Street":[1.0],"PostalCode":1.0},"Location":{"LocationId":"NT_ufomrWAcAcSpwwkyPHreuD_l_1053885295_L","LocationType":"point","DisplayPosition":{"Latitude":49.81572,"Longitude":19.05048},"MapView":{"TopLeft":{"Latitude":49.81578,"Longitude":19.05048},"BottomRight":{"Latitude":49.81572,"Longitude":19.05084}},"Address":{"Label":"ulica PCK, 43-300 Bielsko-Biała, Polska","Country":"POL","State":"Woj. Śląskie","County":"Bielsko-Biała","City":"Bielsko-Biała","District":"Bielsko-Biała","Street":"ulica PCK","PostalCode":"43-300","AdditionalData":[{"value":"Polska","key":"CountryName"},{"value":"Woj. Śląskie","key":"StateName"},{"value":"Bielsko-Biała","key":"CountyName"}]},"MapReference":{"ReferenceId":"1053885295","Spot":0.0,"SideOfStreet":"left","CountryId":"20624059","StateId":"20629003","CountyId":"20629004","CityId":"20629005","DistrictId":"20646631"}}},{"Relevance":1.0,"Distance":50.6,"MatchLevel":"street","MatchQuality":{"Country":1.0,"State":1.0,"County":1.0,"City":1.0,"District":1.0,"PostalCode":1.0},"Location":{"LocationId":"NT_WNx8HmQjV8uQ0IvUfkLJ9B_l_1002139333_L","LocationType":"point","DisplayPosition":{"Latitude":49.81581,"Longitude":19.05084},"MapView":{"TopLeft":{"Latitude":49.81591,"Longitude":19.05084},"BottomRight":{"Latitude":49.81578,"Longitude":19.05102}},"Address":{"Label":"43-300 Bielsko-Biała, Polska","Country":"POL","State":"Woj. Śląskie","County":"Bielsko-Biała","City":"Bielsko-Biała","District":"Bielsko-Biała","PostalCode":"43-300","AdditionalData":[{"value":"Polska","key":"CountryName"},{"value":"Woj. Śląskie","key":"StateName"},{"value":"Bielsko-Biała","key":"CountyName"}]},"MapReference":{"ReferenceId":"1002139333","Spot":0.12,"SideOfStreet":"left","CountryId":"20624059","StateId":"20629003","CountyId":"20629004","CityId":"20629005","DistrictId":"20646631"}}},{"Relevance":1.0,"Distance":51.4,"MatchLevel":"street","MatchQuality":{"Country":1.0,"State":1.0,"County":1.0,"City":1.0,"District":1.0,"Street":[1.0],"PostalCode":1.0},"Location":{"LocationId":"NT_ufomrWAcAcSpwwkyPHreuD_l_1053885293_L","LocationType":"point","DisplayPosition":{"Latitude":49.81565,"Longitude":19.05053},"MapView":{"TopLeft":{"Latitude":49.81571,"Longitude":19.05053},"BottomRight":{"Latitude":49.81565,"Longitude":19.05086}},"Address":{"Label":"ulica PCK, 43-300 Bielsko-Biała, Polska","Country":"POL","State":"Woj. Śląskie","County":"Bielsko-Biała","City":"Bielsko-Biała","District":"Bielsko-Biała","Street":"ulica PCK","PostalCode":"43-300","AdditionalData":[{"value":"Polska","key":"CountryName"},{"value":"Woj. Śląskie","key":"StateName"},{"value":"Bielsko-Biała","key":"CountyName"}]},"MapReference":{"ReferenceId":"1053885293","Spot":0.0,"SideOfStreet":"left","CountryId":"20624059","StateId":"20629003","CountyId":"20629004","CityId":"20629005","DistrictId":"20646631"}}}]}]}}