{"Response":{"MetaInfo":{"Timestamp":"2020-03-28T11:41:11.851+0000","NextPageInformation":"2"},"View":[{"_type":"SearchResultsViewType","ViewId":0,"Result":[{"Relevance":1.0,"Distance":0.0,"Direction":0.0,"MatchLevel":"district","MatchQuality":{"Country":1.0,"State":1.0,"County":1.0,"City":1.0,"District":1.0,"PostalCode":1.0},"Location":{"LocationId":"NT_xEyV6UoN26QG3CAWWedAPC","LocationType":"point","DisplayPosition":{"Latitude":49.9687884,"Longitude":7.9025249},"MapView":{"TopLeft":{"Latitude":49.97124,"Longitude":7.88957},"BottomRight":{"Latitude":49.95984,"Longitude":7.92004}},"Address":{"Label":"Bingen am Rhein, Rheinland-Pfalz, Deutschland","Country":"DEU","State":"Rheinland-Pfalz","County":"Mainz-Bingen","City":"Bingen am Rhein","District":"Bingen am Rhein","PostalCode":"55411","AdditionalData":[{"value":"Deutschland","key":"CountryName"},{"value":"Rheinland-Pfalz","key":"StateName"},{"value":"Mainz-Bingen","key":"CountyName"}]},"MapReference":{"ReferenceId":"833435014","SideOfStreet":"neither","CountryId":"20147700","StateId":"20164001","CountyId":"20171006","CityId":"20171020","DistrictId":"20171027"}}},{"Relevance":1.0,"Distance":6.8,"MatchLevel":"houseNumber","MatchQuality":{"Country":1.0,"State":1.0,"County":1.0,"City":1.0,"District":1.0,"Street":[1.0],"HouseNumber":1.0,"PostalCode":1.0},"MatchType":"interpolated","Location":{"LocationId":"NT_RKGxm9HV2gT-w8WRgNlrBC_zkD","LocationType":"point","DisplayPosition":{"Latitude":49.96873,"Longitude":7.90244},"MapView":{"TopLeft":{"Latitude":49.9698542,"Longitude":7.9006923},"BottomRight":{"Latitude":49.9676058,"Longitude":7.9041877}},"Address":{"Label":"Mainzer Straße 39, 55411 Bingen am Rhein, Deutschland","Country":"DEU","State":"Rheinland-Pfalz","County":"Mainz-Bingen","City":"Bingen am Rhein","District":"Bingen am Rhein","Street":"Mainzer Straße","HouseNumber":"39","PostalCode":"55411","AdditionalData":[{"value":"Deutschland","key":"CountryName"},{"value":"Rheinland-Pfalz","key":"StateName"},{"value":"Mainz-Bingen","key":"CountyName"}]},"MapReference":{"ReferenceId":"550056610","Spot":0.53,"SideOfStreet":"left","CountryId":"20147700","StateId":"20164001","CountyId":"20171006","CityId":"20171020","DistrictId":"20171027","AddressId":"188863767","RoadLinkId":"34228284"}}},{"Relevance":1.0,"Distance":43.4,"MatchLevel":"houseNumber","MatchQuality":{"Country":1.0,"State":1.0,"County":1.0,"City":1.0,"District":1.0,"Street":[1.0],"HouseNumber":1.0,"PostalCode":1.0},"MatchType":"interpolated","Location":{"LocationId":"NT_sTkjucsnV-KVN7r4Pa.0UA_2A","LocationType":"point","DisplayPosition":{"Latitude":49.96911,"Longitude":7.90296},"MapView":{"TopLeft":{"Latitude":49.9702342,"Longitude":7.9012123},"BottomRight":{"Latitude":49.9679858,"Longitude":7.9047077}},"Address":{"Label":"Bahnhofstraße 6, 55411 Bingen am Rhein, Deutschland","Country":"DEU","State":"Rheinland-Pfalz","County":"Mainz-Bingen","City":"Bingen am Rhein","District":"Bingen am Rhein","Street":"Bahnhofstraße","HouseNumber":"6","PostalCode":"55411","AdditionalData":[{"value":"Deutschland","key":"CountryName"},{"value":"Rheinland-Pfalz","key":"StateName"},{"value":"Mainz-Bingen","key":"CountyName"}]},"MapReference":{"ReferenceId":"548205739","Spot":0.47,"SideOfStreet":"left","CountryId":"20147700","StateId":"20164001","CountyId":"20171006","CityId":"20171020","DistrictId":"20171027","AddressId":"188160259","RoadLinkId":"34604935"}}},{"Relevance":1.0,"Distance":47.5,"MatchLevel":"houseNumber","MatchQuality":{"Country":1.0,"State":1.0,"County":1.0,"City":1.0,"District":1.0,"Street":[1.0],"HouseNumber":1.0,"PostalCode":1.0},"MatchType":"interpolated","Location":{"LocationId":"NT_seK-doSRX53xW89KnN98aB_xEE","LocationType":"point","DisplayPosition":{"Latitude":49.96839,"Longitude":7.90187},"MapView":{"TopLeft":{"Latitude":49.9695142,"Longitude":7.9001223},"BottomRight":{"Latitude":49.9672658,"Longitude":7.9036177}},"Address":{"Label":"Zeppelinstraße 1A, 55411 Bingen am Rhein, Deutschland","Country":"DEU","State":"Rheinland-Pfalz","County":"Mainz-Bingen","City":"Bingen am Rhein","District":"Bingen am Rhein","Street":"Zeppelinstraße","HouseNumber":"1A","PostalCode":"55411","AdditionalData":[{"value":"Deutschland","key":"CountryName"},{"value":"Rheinland-Pfalz","key":"StateName"},{"value":"Mainz-Bingen","key":"CountyName"}]},"MapReference":{"ReferenceId":"550055258","Spot":0.19,"SideOfStreet":"right","CountryId":"20147700","StateId":"20164001","CountyId":"20171006","CityId":"20171020","DistrictId":"20171027","AddressId":"188199376","RoadLinkId":"33944881"}}},{"Relevance":1.0,"Distance":52.1,"MatchLevel":"houseNumber","MatchQuality":{"Country":1.0,"State":1.0,"County":1.0,"City":1.0,"District":1.0,"Street":[1.0],"HouseNumber":1.0,"PostalCode":1.0},"MatchType":"interpolated","Location":{"LocationId":"NT_jpPvg.xiTc3Et2TnzVtntA_4QD","LocationType":"point","DisplayPosition":{"Latitude":49.9695,"Longitude":7.90235},"MapView":{"TopLeft":{"Latitude":49.9706242,"Longitude":7.9006022},"BottomRight":{"Latitude":49.9683758,"Longitude":7.9040978}},"Address":{"Label":"Vorstadt 84, 55411 Bingen am Rhein, Deutschland","Country":"DEU","State":"Rheinland-Pfalz","County":"Mainz-Bingen","City":"Bingen am Rhein","District":"Bingen am Rhein","Street":"Vorstadt","HouseNumber":"84","PostalCode":"55411","AdditionalData":[{"value":"Deutschland","key":"CountryName"},{"value":"Rheinland-Pfalz","key":"StateName"},{"value":"Mainz-Bingen","key":"CountyName"}]},"MapReference":{"ReferenceId":"833429417","Spot":0.41,"SideOfStreet":"left","CountryId":"20147700","StateId":"20164001","CountyId":"20171006","CityId":"20171020","DistrictId":"20171027","AddressId":"188862183","RoadLinkId":"216739431"}}},{"Relevance":1.0,"Distance":61.6,"MatchLevel":"houseNumber","MatchQuality":{"Country":1.0,"State":1.0,"County":1.0,"City":1.0,"District":1.0,"Street":[1.0],"HouseNumber":1.0,"PostalCode":1.0},"MatchType":"interpolated","Location":{"LocationId":"NT_seK-doSRX53xW89KnN98aB_xIE","LocationType":"point","DisplayPosition":{"Latitude":49.96825,"Longitude":7.9019},"MapView":{"TopLeft":{"Latitude":49.9693742,"Longitude":7.9001523},"BottomRight":{"Latitude":49.9671258,"Longitude":7.9036477}},"Address":{"Label":"Zeppelinstraße 1B, 55411 Bingen am Rhein, Deutschland","Country":"DEU","State":"Rheinland-Pfalz","County":"Mainz-Bingen","City":"Bingen am Rhein","District":"Bingen am Rhein","Street":"Zeppelinstraße","HouseNumber":"1B","PostalCode":"55411","AdditionalData":[{"value":"Deutschland","key":"CountryName"},{"value":"Rheinland-Pfalz","key":"StateName"},{"value":"Mainz-Bingen","key":"CountyName"}]},"MapReference":{"ReferenceId":"550055260","Spot":0.61,"SideOfStreet":"right","CountryId":"20147700","StateId":"20164001","CountyId":"20171006","CityId":"20171020","DistrictId":"20171027","AddressId":"188207155","RoadLinkId":"34088409"}}},{"Relevance":1.0,"Distance":62.7,"MatchLevel":"houseNumber","MatchQuality":{"Country":1.0,"State":1.0,"County":1.0,"City":1.0,"District":1.0,"Street":[1.0],"HouseNumber":1.0,"PostalCode":1.0},"MatchType":"interpolated","Location":{"LocationId":"NT_RKGxm9HV2gT-w8WRgNlrBC_0MD","LocationType":"point","DisplayPosition":{"Latitude":49.9688,"Longitude":7.9034},"MapView":{"TopLeft":{"Latitude":49.9699242,"Longitude":7.9016523},"BottomRight":{"Latitude":49.9676758,"Longitude":7.9051477}},"Address":{"Label":"Mainzer Straße 43, 55411 Bingen am Rhein, Deutschland","Country":"DEU","State":"Rheinland-Pfalz","County":"Mainz-Bingen","City":"Bingen am Rhein","District":"Bingen am Rhein","Street":"Mainzer Straße","HouseNumber":"43","PostalCode":"55411","AdditionalData":[{"value":"Deutschland","key":"CountryName"},{"value":"Rheinland-Pfalz","key":"StateName"},{"value":"Mainz-Bingen","key":"CountyName"}]},"MapReference":{"ReferenceId":"548205738","Spot":0.17,"SideOfStreet":"left","CountryId":"20147700","StateId":"20164001","CountyId":"20171006","CityId":"20171020","DistrictId":"20171027","AddressId":"187764768","RoadLinkId":"34541937"}}},{"Relevance":1.0,"Distance":78.0,"MatchLevel":"houseNumber","MatchQuality":{"Country":1.0,"State":1.0,"County":1.0,"City":1.0,"District":1.0,"Street":[1.0],"HouseNumber":1.0,"PostalCode":1.0},"MatchType":"interpolated","Location":{"LocationId":"NT_jpPvg.xiTc3Et2TnzVtntA_4ID","LocationType":"point","DisplayPosition":{"Latitude":49.9695,"Longitude":7.90201},"MapView":{"TopLeft":{"Latitude":49.9706242,"Longitude":7.9002622},"BottomRight":{"Latitude":49.9683758,"Longitude":7.9037578}},"Address":{"Label":"Vorstadt 82, 55411 Bingen am Rhein, Deutschland","Country":"DEU","State":"Rheinland-Pfalz","County":"Mainz-Bingen","City":"Bingen am Rhein","District":"Bingen am Rhein","Street":"Vorstadt","HouseNumber":"82","PostalCode":"55411","AdditionalData":[{"value":"Deutschland","key":"CountryName"},{"value":"Rheinland-Pfalz","key":"StateName"},{"value":"Mainz-Bingen","key":"CountyName"}]},"MapReference":{"ReferenceId":"590230734","Spot":0.63,"SideOfStreet":"right","CountryId":"20147700","StateId":"20164001","CountyId":"20171006","CityId":"20171020","DistrictId":"20171027","AddressId":"187933015","RoadLinkId":"34165470"}}},{"Relevance":1.0,"Distance":78.9,"MatchLevel":"street","MatchQuality":{"Country":1.0,"State":1.0,"County":1.0,"City":1.0,"District":1.0,"Street":[1.0],"PostalCode":1.0},"Location":{"LocationId":"NT_jpPvg.xiTc3Et2TnzVtntA_l_833429416_L","LocationType":"point","DisplayPosition":{"Latitude":49.9694981,"Longitude":7.9025414},"MapView":{"TopLeft":{"Latitude":49.9695,"Longitude":7.90246},"BottomRight":{"Latitude":49.96949,"Longitude":7.90289}},"Address":{"Label":"Vorstadt, 55411 Bingen am Rhein, Deutschland","Country":"DEU","State":"Rheinland-Pfalz","County":"Mainz-Bingen","City":"Bingen am Rhein","District":"Bingen am Rhein","Street":"Vorstadt","PostalCode":"55411","AdditionalData":[{"value":"Deutschland","key":"CountryName"},{"value":"Rheinland-Pfalz","key":"StateName"},{"value":"Mainz-Bingen","key":"CountyName"}]},"MapReference":{"ReferenceId":"833429416","Spot":0.81,"SideOfStreet":"left","CountryId":"20147700","StateId":"20164001","CountyId":"20171006","CityId":"20171020","DistrictId":"20171027"}}},{"Relevance":1.0,"Distance":83.7,"MatchLevel":"street","MatchQuality":{"Country":1.0,"State":1.0,"County":1.0,"City":1.0,"District":1.0,"Street":[1.0],"PostalCode":1.0},"Location":{"LocationId":"NT_jpPvg.xiTc3Et2TnzVtntA_l_590230740_L","LocationType":"point","DisplayPosition":{"Latitude":49.96951,"Longitude":7.90219},"MapView":{"TopLeft":{"Latitude":49.96958,"Longitude":7.90169},"BottomRight":{"Latitude":49.96951,"Longitude":7.90219}},"Address":{"Label":"Vorstadt, 55411 Bingen am Rhein, Deutschland","Country":"DEU","State":"Rheinland-Pfalz","County":"Mainz-Bingen","City":"Bingen am Rhein","District":"Bingen am Rhein","Street":"Vorstadt","PostalCode":"55411","AdditionalData":[{"value":"Deutschland","key":"CountryName"},{"value":"Rheinland-Pfalz","key":"StateName"},{"value":"Mainz-Bingen","key":"CountyName"}]},"MapReference":{"ReferenceId":"590230740","Spot":0.0,"SideOfStreet":"left","CountryId":"20147700","StateId":"20164001","CountyId":"20171006","CityId":"20171020","DistrictId":"20171027"}}}]}]}}