{"Response":{"MetaInfo":{"Timestamp":"2020-03-28T10:59:19.448+0000","NextPageInformation":"2"},"View":[{"_type":"SearchResultsViewType","ViewId":0,"Result":[{"Relevance":1.0,"Distance":0.0,"Direction":0.0,"MatchLevel":"district","MatchQuality":{"Country":1.0,"State":1.0,"County":1.0,"City":1.0,"District":1.0,"PostalCode":1.0},"Location":{"LocationId":"NT_Il9FV2qPpHlGL3Gj-gctQA","LocationType":"point","DisplayPosition":{"Latitude":49.9010523,"Longitude":10.3548757},"MapView":{"TopLeft":{"Latitude":49.9103,"Longitude":10.33444},"BottomRight":{"Latitude":49.88921,"Longitude":10.36091}},"Address":{"Label":"Gerolzhofen, Bayern, Deutschland","Country":"DEU","State":"Bayern","County":"Schweinfurt (Landkreis)","City":"Gerolzhofen","District":"Gerolzhofen","PostalCode":"97447","AdditionalData":[{"value":"Deutschland","key":"CountryName"},{"value":"Bayern","key":"StateName"},{"value":"Schweinfurt (Landkreis)","key":"CountyName"}]},"MapReference":{"ReferenceId":"841781142","SideOfStreet":"neither","CountryId":"20147700","StateId":"20177250","CountyId":"20184943","CityId":"20184973","DistrictId":"20184975"}}},{"Relevance":1.0,"Distance":20.7,"MatchLevel":"houseNumber","MatchQuality":{"Country":1.0,"State":1.0,"County":1.0,"City":1.0,"District":1.0,"Street":[1.0],"HouseNumber":1.0,"PostalCode":1.0},"MatchType":"interpolated","Location":{"LocationId":"NT_dM6h-VIgciJQZiGKnxCkKD_xID","LocationType":"point","DisplayPosition":{"Latitude":49.90136,"Longitude":10.35462},"MapView":{"TopLeft":{"Latitude":49.9024842,"Longitude":10.3528747},"BottomRight":{"Latitude":49.9002358,"Longitude":10.3563653}},"Address":{"Label":"Jahnstraße 12, 97447 Gerolzhofen, Deutschland","Country":"DEU","State":"Bayern","County":"Schweinfurt (Landkreis)","City":"Gerolzhofen","District":"Gerolzhofen","Street":"Jahnstraße","HouseNumber":"12","PostalCode":"97447","AdditionalData":[{"value":"Deutschland","key":"CountryName"},{"value":"Bayern","key":"StateName"},{"value":"Schweinfurt (Landkreis)","key":"CountyName"}]},"MapReference":{"ReferenceId":"547351281","Spot":0.67,"SideOfStreet":"right","CountryId":"20147700","StateId":"20177250","CountyId":"20184943","CityId":"20184973","DistrictId":"20184975","AddressId":"183670999","RoadLinkId":"32764307"}}},{"Relevance":1.0,"Distance":45.2,"MatchLevel":"houseNumber","MatchQuality":{"Country":1.0,"State":1.0,"County":1.0,"City":1.0,"District":1.0,"Street":[1.0],"HouseNumber":1.0,"PostalCode":1.0},"MatchType":"interpolated","Location":{"LocationId":"NT_53PehA77Pm5VYoR3bJinlD_xUD","LocationType":"point","DisplayPosition":{"Latitude":49.90062,"Longitude":10.35384},"MapView":{"TopLeft":{"Latitude":49.9017442,"Longitude":10.3520947},"BottomRight":{"Latitude":49.8994958,"Longitude":10.3555853}},"Address":{"Label":"Östliche Allee 15, 97447 Gerolzhofen, Deutschland","Country":"DEU","State":"Bayern","County":"Schweinfurt (Landkreis)","City":"Gerolzhofen","District":"Gerolzhofen","Street":"Östliche Allee","HouseNumber":"15","PostalCode":"97447","AdditionalData":[{"value":"Deutschland","key":"CountryName"},{"value":"Bayern","key":"StateName"},{"value":"Schweinfurt (Landkreis)","key":"CountyName"}]},"MapReference":{"ReferenceId":"541730458","Spot":0.65,"SideOfStreet":"right","CountryId":"20147700","StateId":"20177250","CountyId":"20184943","CityId":"20184973","DistrictId":"20184975","AddressId":"184636852","RoadLinkId":"32718154"}}},{"Relevance":1.0,"Distance":49.6,"MatchLevel":"street","MatchQuality":{"Country":1.0,"State":1.0,"County":1.0,"City":1.0,"District":1.0,"Street":[1.0],"PostalCode":1.0},"Location":{"LocationId":"NT_dM6h-VIgciJQZiGKnxCkKD_l_541730181_R","LocationType":"point","DisplayPosition":{"Latitude":49.90145,"Longitude":10.35519},"MapView":{"TopLeft":{"Latitude":49.90161,"Longitude":10.35519},"BottomRight":{"Latitude":49.90145,"Longitude":10.35618}},"Address":{"Label":"Jahnstraße, 97447 Gerolzhofen, Deutschland","Country":"DEU","State":"Bayern","County":"Schweinfurt (Landkreis)","City":"Gerolzhofen","District":"Gerolzhofen","Street":"Jahnstraße","PostalCode":"97447","AdditionalData":[{"value":"Deutschland","key":"CountryName"},{"value":"Bayern","key":"StateName"},{"value":"Schweinfurt (Landkreis)","key":"CountyName"}]},"MapReference":{"ReferenceId":"541730181","Spot":0.0,"SideOfStreet":"right","CountryId":"20147700","StateId":"20177250","CountyId":"20184943","CityId":"20184973","DistrictId":"20184975"}}},{"Relevance":1.0,"Distance":57.1,"MatchLevel":"street","MatchQuality":{"Country":1.0,"State":1.0,"County":1.0,"City":1.0,"District":1.0,"PostalCode":1.0},"Location":{"LocationId":"NT_LVYjMDpSir9e6y.czS8V7B_l_1183123392_L","LocationType":"point","DisplayPosition":{"Latitude":49.90071,"Longitude":10.35547},"MapView":{"TopLeft":{"Latitude":49.90108,"Longitude":10.35534},"BottomRight":{"Latitude":49.89967,"Longitude":10.35575}},"Address":{"Label":"97447 Gerolzhofen, Deutschland","Country":"DEU","State":"Bayern","County":"Schweinfurt (Landkreis)","City":"Gerolzhofen","District":"Gerolzhofen","PostalCode":"97447","AdditionalData":[{"value":"Deutschland","key":"CountryName"},{"value":"Bayern","key":"StateName"},{"value":"Schweinfurt (Landkreis)","key":"CountyName"}]},"MapReference":{"ReferenceId":"1183123392","Spot":0.72,"SideOfStreet":"left","CountryId":"20147700","StateId":"20177250","CountyId":"20184943","CityId":"20184973","DistrictId":"20184975"}}},{"Relevance":1.0,"Distance":61.7,"MatchLevel":"houseNumber","MatchQuality":{"Country":1.0,"State":1.0,"County":1.0,"City":1.0,"District":1.0,"Street":[1.0],"HouseNumber":1.0,"PostalCode":1.0},"MatchType":"interpolated","Location":{"LocationId":"NT_WlXSjYXJLFvs9e3nQwDMYA_yA","LocationType":"point","DisplayPosition":{"Latitude":49.90158,"Longitude":10.35514},"MapView":{"TopLeft":{"Latitude":49.9027042,"Longitude":10.3533947},"BottomRight":{"Latitude":49.9004558,"Longitude":10.3568853}},"Address":{"Label":"Lindenallee 2, 97447 Gerolzhofen, Deutschland","Country":"DEU","State":"Bayern","County":"Schweinfurt (Landkreis)","City":"Gerolzhofen","District":"Gerolzhofen","Street":"Lindenallee","HouseNumber":"2","PostalCode":"97447","AdditionalData":[{"value":"Deutschland","key":"CountryName"},{"value":"Bayern","key":"StateName"},{"value":"Schweinfurt (Landkreis)","key":"CountyName"}]},"MapReference":{"ReferenceId":"541730177","Spot":0.24,"SideOfStreet":"right","CountryId":"20147700","StateId":"20177250","CountyId":"20184943","CityId":"20184973","DistrictId":"20184975","AddressId":"182172963","RoadLinkId":"33807941"}}},{"Relevance":1.0,"Distance":62.7,"MatchLevel":"street","MatchQuality":{"Country":1.0,"State":1.0,"County":1.0,"City":1.0,"District":1.0,"PostalCode":1.0},"Location":{"LocationId":"NT_LVYjMDpSir9e6y.czS8V7B_l_1183120147_R","LocationType":"point","DisplayPosition":{"Latitude":49.90108,"Longitude":10.35575},"MapView":{"TopLeft":{"Latitude":49.90109,"Longitude":10.35575},"BottomRight":{"Latitude":49.90105,"Longitude":10.35609}},"Address":{"Label":"97447 Gerolzhofen, Deutschland","Country":"DEU","State":"Bayern","County":"Schweinfurt (Landkreis)","City":"Gerolzhofen","District":"Gerolzhofen","PostalCode":"97447","AdditionalData":[{"value":"Deutschland","key":"CountryName"},{"value":"Bayern","key":"StateName"},{"value":"Schweinfurt (Landkreis)","key":"CountyName"}]},"MapReference":{"ReferenceId":"1183120147","Spot":0.0,"SideOfStreet":"right","CountryId":"20147700","StateId":"20177250","CountyId":"20184943","CityId":"20184973","DistrictId":"20184975"}}},{"Relevance":1.0,"Distance":62.7,"MatchLevel":"street","MatchQuality":{"Country":1.0,"State":1.0,"County":1.0,"City":1.0,"District":1.0,"PostalCode":1.0},"Location":{"LocationId":"NT_LVYjMDpSir9e6y.czS8V7B_l_1183119208_L","LocationType":"point","DisplayPosition":{"Latitude":49.90108,"Longitude":10.35575},"MapView":{"TopLeft":{"Latitude":49.90134,"Longitude":10.35575},"BottomRight":{"Latitude":49.90108,"Longitude":10.35579}},"Address":{"Label":"97447 Gerolzhofen, Deutschland","Country":"DEU","State":"Bayern","County":"Schweinfurt (Landkreis)","City":"Gerolzhofen","District":"Gerolzhofen","PostalCode":"97447","AdditionalData":[{"value":"Deutschland","key":"CountryName"},{"value":"Bayern","key":"StateName"},{"value":"Schweinfurt (Landkreis)","key":"CountyName"}]},"MapReference":{"ReferenceId":"1183119208","Spot":0.0,"SideOfStreet":"left","CountryId":"20147700","StateId":"20177250","CountyId":"20184943","CityId":"20184973","DistrictId":"20184975"}}},{"Relevance":1.0,"Distance":86.6,"MatchLevel":"houseNumber","MatchQuality":{"Country":1.0,"State":1.0,"County":1.0,"City":1.0,"District":1.0,"Street":[1.0],"HouseNumber":1.0,"PostalCode":1.0},"MatchType":"interpolated","Location":{"LocationId":"NT_632hSKr1dkVSNH7nN2r5RB_xA","LocationType":"point","DisplayPosition":{"Latitude":49.90196,"Longitude":10.35475},"MapView":{"TopLeft":{"Latitude":49.9030842,"Longitude":10.3530047},"BottomRight":{"Latitude":49.9008358,"Longitude":10.3564953}},"Address":{"Label":"Scherenbergstraße 1, 97447 Gerolzhofen, Deutschland","Country":"DEU","State":"Bayern","County":"Schweinfurt (Landkreis)","City":"Gerolzhofen","District":"Gerolzhofen","Street":"Scherenbergstraße","HouseNumber":"1","PostalCode":"97447","AdditionalData":[{"value":"Deutschland","key":"CountryName"},{"value":"Bayern","key":"StateName"},{"value":"Schweinfurt (Landkreis)","key":"CountyName"}]},"MapReference":{"ReferenceId":"541730172","Spot":0.69,"SideOfStreet":"right","CountryId":"20147700","StateId":"20177250","CountyId":"20184943","CityId":"20184973","DistrictId":"20184975","AddressId":"185996838","RoadLinkId":"33052536"}}},{"Relevance":1.0,"Distance":98.5,"MatchLevel":"houseNumber","MatchQuality":{"Country":1.0,"State":1.0,"County":1.0,"City":1.0,"District":1.0,"Street":[1.0],"HouseNumber":1.0,"PostalCode":1.0},"MatchType":"interpolated","Location":{"LocationId":"NT_632hSKr1dkVSNH7nN2r5RB_3A","LocationType":"point","DisplayPosition":{"Latitude":49.90188,"Longitude":10.35422},"MapView":{"TopLeft":{"Latitude":49.9030042,"Longitude":10.3524747},"BottomRight":{"Latitude":49.9007558,"Longitude":10.3559653}},"Address":{"Label":"Scherenbergstraße 7, 97447 Gerolzhofen, Deutschland","Country":"DEU","State":"Bayern","County":"Schweinfurt (Landkreis)","City":"Gerolzhofen","District":"Gerolzhofen","Street":"Scherenbergstraße","HouseNumber":"7","PostalCode":"97447","AdditionalData":[{"value":"Deutschland","key":"CountryName"},{"value":"Bayern","key":"StateName"},{"value":"Schweinfurt (Landkreis)","key":"CountyName"}]},"MapReference":{"ReferenceId":"541779430","Spot":0.0,"SideOfStreet":"left","CountryId":"20147700","StateId":"20177250","CountyId":"20184943","CityId":"20184973","DistrictId":"20184975","AddressId":"621715947","RoadLinkId":"33770721"}}}]}]}}