{"Response":{"MetaInfo":{"Timestamp":"2020-03-28T10:23:48.803+0000","NextPageInformation":"2"},"View":[{"_type":"SearchResultsViewType","ViewId":0,"Result":[{"Relevance":1.0,"Distance":0.0,"Direction":0.0,"MatchLevel":"district","MatchQuality":{"Country":1.0,"State":1.0,"County":1.0,"City":1.0,"District":1.0,"PostalCode":1.0},"Location":{"LocationId":"NT_DmAR9E9SHjbrN6pkv2ljPA","LocationType":"point","DisplayPosition":{"Latitude":49.9822614,"Longitude":7.5223656},"MapView":{"TopLeft":{"Latitude":49.99428,"Longitude":7.51035},"BottomRight":{"Latitude":49.96698,"Longitude":7.56621}},"Address":{"Label":"Simmern/Hunsrück, Rheinland-Pfalz, Deutschland","Country":"DEU","State":"Rheinland-Pfalz","County":"Rhein-Hunsrück-Kreis","City":"Simmern/Hunsrück","District":"Simmern/Hunsrück","PostalCode":"55469","AdditionalData":[{"value":"Deutschland","key":"CountryName"},{"value":"Rheinland-Pfalz","key":"StateName"},{"value":"Rhein-Hunsrück-Kreis","key":"CountyName"}]},"MapReference":{"ReferenceId":"548432660","SideOfStreet":"neither","CountryId":"20147700","StateId":"20164001","CountyId":"20166120","CityId":"20166459","DistrictId":"20166461"}}},{"Relevance":1.0,"Distance":5.7,"MatchLevel":"houseNumber","MatchQuality":{"Country":1.0,"State":1.0,"County":1.0,"City":1.0,"District":1.0,"Street":[1.0],"HouseNumber":1.0,"PostalCode":1.0},"MatchType":"interpolated","Location":{"LocationId":"NT_lRnu8sCfDkJ6LFSpwvV-oA_0A","LocationType":"point","DisplayPosition":{"Latitude":49.98231,"Longitude":7.52252},"MapView":{"TopLeft":{"Latitude":49.9834342,"Longitude":7.5207718},"BottomRight":{"Latitude":49.9811858,"Longitude":7.5242682}},"Address":{"Label":"Schulstraße 4, 55469 Simmern/Hunsrück, Deutschland","Country":"DEU","State":"Rheinland-Pfalz","County":"Rhein-Hunsrück-Kreis","City":"Simmern/Hunsrück","District":"Simmern/Hunsrück","Street":"Schulstraße","HouseNumber":"4","PostalCode":"55469","AdditionalData":[{"value":"Deutschland","key":"CountryName"},{"value":"Rheinland-Pfalz","key":"StateName"},{"value":"Rhein-Hunsrück-Kreis","key":"CountyName"}]},"MapReference":{"ReferenceId":"548448265","Spot":0.92,"SideOfStreet":"left","CountryId":"20147700","StateId":"20164001","CountyId":"20166120","CityId":"20166459","DistrictId":"20166461","AddressId":"188316679","RoadLinkId":"34791079"}}},{"Relevance":1.0,"Distance":14.0,"MatchLevel":"houseNumber","MatchQuality":{"Country":1.0,"State":1.0,"County":1.0,"City":1.0,"District":1.0,"Street":[1.0],"HouseNumber":1.0,"PostalCode":1.0},"MatchType":"interpolated","Location":{"LocationId":"NT_lRnu8sCfDkJ6LFSpwvV-oA_2A","LocationType":"point","DisplayPosition":{"Latitude":49.98212,"Longitude":7.52265},"MapView":{"TopLeft":{"Latitude":49.9832442,"Longitude":7.5209018},"BottomRight":{"Latitude":49.9809958,"Longitude":7.5243982}},"Address":{"Label":"Schulstraße 6, 55469 Simmern/Hunsrück, Deutschland","Country":"DEU","State":"Rheinland-Pfalz","County":"Rhein-Hunsrück-Kreis","City":"Simmern/Hunsrück","District":"Simmern/Hunsrück","Street":"Schulstraße","HouseNumber":"6","PostalCode":"55469","AdditionalData":[{"value":"Deutschland","key":"CountryName"},{"value":"Rheinland-Pfalz","key":"StateName"},{"value":"Rhein-Hunsrück-Kreis","key":"CountyName"}]},"MapReference":{"ReferenceId":"548432369","Spot":0.94,"SideOfStreet":"left","CountryId":"20147700","StateId":"20164001","CountyId":"20166120","CityId":"20166459","DistrictId":"20166461","AddressId":"187889874","RoadLinkId":"34555203"}}},{"Relevance":1.0,"Distance":16.3,"MatchLevel":"houseNumber","MatchQuality":{"Country":1.0,"State":1.0,"County":1.0,"City":1.0,"District":1.0,"Street":[1.0],"HouseNumber":1.0,"PostalCode":1.0},"MatchType":"interpolated","Location":{"LocationId":"NT_lRnu8sCfDkJ6LFSpwvV-oA_1A","LocationType":"point","DisplayPosition":{"Latitude":49.9824,"Longitude":7.52244},"MapView":{"TopLeft":{"Latitude":49.9835242,"Longitude":7.5206918},"BottomRight":{"Latitude":49.9812758,"Longitude":7.5241882}},"Address":{"Label":"Schulstraße 5, 55469 Simmern/Hunsrück, Deutschland","Country":"DEU","State":"Rheinland-Pfalz","County":"Rhein-Hunsrück-Kreis","City":"Simmern/Hunsrück","District":"Simmern/Hunsrück","Street":"Schulstraße","HouseNumber":"5","PostalCode":"55469","AdditionalData":[{"value":"Deutschland","key":"CountryName"},{"value":"Rheinland-Pfalz","key":"StateName"},{"value":"Rhein-Hunsrück-Kreis","key":"CountyName"}]},"MapReference":{"ReferenceId":"548448266","Spot":0.12,"SideOfStreet":"right","CountryId":"20147700","StateId":"20164001","CountyId":"20166120","CityId":"20166459","DistrictId":"20166461","AddressId":"188866220","RoadLinkId":"34404607"}}},{"Relevance":1.0,"Distance":32.0,"MatchLevel":"houseNumber","MatchQuality":{"Country":1.0,"State":1.0,"County":1.0,"City":1.0,"District":1.0,"Street":[1.0],"HouseNumber":1.0,"PostalCode":1.0},"MatchType":"interpolated","Location":{"LocationId":"NT_yDFH7U8ehta3vgmKth.IED_xA","LocationType":"point","DisplayPosition":{"Latitude":49.98225,"Longitude":7.52191},"MapView":{"TopLeft":{"Latitude":49.9833742,"Longitude":7.5201618},"BottomRight":{"Latitude":49.9811258,"Longitude":7.5236582}},"Address":{"Label":"Poststraße 1, 55469 Simmern/Hunsrück, Deutschland","Country":"DEU","State":"Rheinland-Pfalz","County":"Rhein-Hunsrück-Kreis","City":"Simmern/Hunsrück","District":"Simmern/Hunsrück","Street":"Poststraße","HouseNumber":"1","PostalCode":"55469","AdditionalData":[{"value":"Deutschland","key":"CountryName"},{"value":"Rheinland-Pfalz","key":"StateName"},{"value":"Rhein-Hunsrück-Kreis","key":"CountyName"}]},"MapReference":{"ReferenceId":"548432371","Spot":0.77,"SideOfStreet":"right","CountryId":"20147700","StateId":"20164001","CountyId":"20166120","CityId":"20166459","DistrictId":"20166461","AddressId":"188327391","RoadLinkId":"34200817"}}},{"Relevance":1.0,"Distance":74.2,"MatchLevel":"houseNumber","MatchQuality":{"Country":1.0,"State":1.0,"County":1.0,"City":1.0,"District":1.0,"Street":[1.0],"HouseNumber":1.0,"PostalCode":1.0},"MatchType":"interpolated","Location":{"LocationId":"NT_iFT7odGuumiPmRKFu9shsC_3A","LocationType":"point","DisplayPosition":{"Latitude":49.98317,"Longitude":7.52232},"MapView":{"TopLeft":{"Latitude":49.9842942,"Longitude":7.5205717},"BottomRight":{"Latitude":49.9820458,"Longitude":7.5240683}},"Address":{"Label":"Zeughausstraße 7, 55469 Simmern/Hunsrück, Deutschland","Country":"DEU","State":"Rheinland-Pfalz","County":"Rhein-Hunsrück-Kreis","City":"Simmern/Hunsrück","District":"Simmern/Hunsrück","Street":"Zeughausstraße","HouseNumber":"7","PostalCode":"55469","AdditionalData":[{"value":"Deutschland","key":"CountryName"},{"value":"Rheinland-Pfalz","key":"StateName"},{"value":"Rhein-Hunsrück-Kreis","key":"CountyName"}]},"MapReference":{"ReferenceId":"548432361","Spot":0.57,"SideOfStreet":"right","CountryId":"20147700","StateId":"20164001","CountyId":"20166120","CityId":"20166459","DistrictId":"20166461","AddressId":"188616928","RoadLinkId":"34107952"}}},{"Relevance":1.0,"Distance":77.0,"MatchLevel":"houseNumber","MatchQuality":{"Country":1.0,"State":1.0,"County":1.0,"City":1.0,"District":1.0,"Street":[1.0],"HouseNumber":1.0,"PostalCode":1.0},"MatchType":"interpolated","Location":{"LocationId":"NT_xW8K6PbK5LCezZF1JrT3bC_zA","LocationType":"point","DisplayPosition":{"Latitude":49.98235,"Longitude":7.52345},"MapView":{"TopLeft":{"Latitude":49.9834742,"Longitude":7.5217018},"BottomRight":{"Latitude":49.9812258,"Longitude":7.5251982}},"Address":{"Label":"Brühlstraße 3, 55469 Simmern/Hunsrück, Deutschland","Country":"DEU","State":"Rheinland-Pfalz","County":"Rhein-Hunsrück-Kreis","City":"Simmern/Hunsrück","District":"Simmern/Hunsrück","Street":"Brühlstraße","HouseNumber":"3","PostalCode":"55469","AdditionalData":[{"value":"Deutschland","key":"CountryName"},{"value":"Rheinland-Pfalz","key":"StateName"},{"value":"Rhein-Hunsrück-Kreis","key":"CountyName"}]},"MapReference":{"ReferenceId":"550055623","Spot":0.38,"SideOfStreet":"left","CountryId":"20147700","StateId":"20164001","CountyId":"20166120","CityId":"20166459","DistrictId":"20166461","AddressId":"187933313","RoadLinkId":"34425910"}}},{"Relevance":1.0,"Distance":83.8,"MatchLevel":"houseNumber","MatchQuality":{"Country":1.0,"State":1.0,"County":1.0,"City":1.0,"District":1.0,"Street":[1.0],"HouseNumber":1.0,"PostalCode":1.0},"MatchType":"interpolated","Location":{"LocationId":"NT_iFT7odGuumiPmRKFu9shsC_xED","LocationType":"point","DisplayPosition":{"Latitude":49.98298,"Longitude":7.5217},"MapView":{"TopLeft":{"Latitude":49.9841042,"Longitude":7.5199517},"BottomRight":{"Latitude":49.9818558,"Longitude":7.5234483}},"Address":{"Label":"Zeughausstraße 11, 55469 Simmern/Hunsrück, Deutschland","Country":"DEU","State":"Rheinland-Pfalz","County":"Rhein-Hunsrück-Kreis","City":"Simmern/Hunsrück","District":"Simmern/Hunsrück","Street":"Zeughausstraße","HouseNumber":"11","PostalCode":"55469","AdditionalData":[{"value":"Deutschland","key":"CountryName"},{"value":"Rheinland-Pfalz","key":"StateName"},{"value":"Rhein-Hunsrück-Kreis","key":"CountyName"}]},"MapReference":{"ReferenceId":"1172508578","Spot":0.83,"SideOfStreet":"right","CountryId":"20147700","StateId":"20164001","CountyId":"20166120","CityId":"20166459","DistrictId":"20166461","AddressId":"188121326","RoadLinkId":"479698621"}}},{"Relevance":1.0,"Distance":93.5,"MatchLevel":"houseNumber","MatchQuality":{"Country":1.0,"State":1.0,"County":1.0,"City":1.0,"District":1.0,"Street":[1.0],"HouseNumber":1.0,"PostalCode":1.0},"MatchType":"interpolated","Location":{"LocationId":"NT_LHEPZDiK5Um-seggY6lIUA_0A","LocationType":"point","DisplayPosition":{"Latitude":49.98304,"Longitude":7.52302},"MapView":{"TopLeft":{"Latitude":49.9841642,"Longitude":7.5212717},"BottomRight":{"Latitude":49.9819158,"Longitude":7.5247683}},"Address":{"Label":"Hintere Aulergasse 4, 55469 Simmern/Hunsrück, Deutschland","Country":"DEU","State":"Rheinland-Pfalz","County":"Rhein-Hunsrück-Kreis","City":"Simmern/Hunsrück","District":"Simmern/Hunsrück","Street":"Hintere Aulergasse","HouseNumber":"4","PostalCode":"55469","AdditionalData":[{"value":"Deutschland","key":"CountryName"},{"value":"Rheinland-Pfalz","key":"StateName"},{"value":"Rhein-Hunsrück-Kreis","key":"CountyName"}]},"MapReference":{"ReferenceId":"548437237","Spot":0.32,"SideOfStreet":"left","CountryId":"20147700","StateId":"20164001","CountyId":"20166120","CityId":"20166459","DistrictId":"20166461","AddressId":"187943692","RoadLinkId":"34431750"}}},{"Relevance":1.0,"Distance":113.3,"MatchLevel":"street","MatchQuality":{"Country":1.0,"State":1.0,"County":1.0,"City":1.0,"District":1.0,"Street":[1.0],"PostalCode":1.0},"Location":{"LocationId":"NT_LHEPZDiK5Um-seggY6lIUA_l_548437238_L","LocationType":"point","DisplayPosition":{"Latitude":49.98325,"Longitude":7.52275},"MapView":{"TopLeft":{"Latitude":49.98332,"Longitude":7.52265},"BottomRight":{"Latitude":49.98325,"Longitude":7.52275}},"Address":{"Label":"Hintere Aulergasse, 55469 Simmern/Hunsrück, Deutschland","Country":"DEU","State":"Rheinland-Pfalz","County":"Rhein-Hunsrück-Kreis","City":"Simmern/Hunsrück","District":"Simmern/Hunsrück","Street":"Hintere Aulergasse","PostalCode":"55469","AdditionalData":[{"value":"Deutschland","key":"CountryName"},{"value":"Rheinland-Pfalz","key":"StateName"},{"value":"Rhein-Hunsrück-Kreis","key":"CountyName"}]},"MapReference":{"ReferenceId":"548437238","Spot":0.0,"SideOfStreet":"left","CountryId":"20147700","StateId":"20164001","CountyId":"20166120","CityId":"20166459","DistrictId":"20166461"}}}]}]}}