{"Response":{"MetaInfo":{"Timestamp":"2020-03-28T10:21:48.719+0000","NextPageInformation":"2"},"View":[{"_type":"SearchResultsViewType","ViewId":0,"Result":[{"Relevance":1.0,"Distance":0.0,"Direction":0.0,"MatchLevel":"district","MatchQuality":{"Country":1.0,"State":1.0,"County":1.0,"City":1.0,"District":1.0,"PostalCode":1.0},"Location":{"LocationId":"NT_m.Lm8Sn8NSNfEJUKQTJzYC","LocationType":"point","DisplayPosition":{"Latitude":49.9757556,"Longitude":8.2782429},"MapView":{"TopLeft":{"Latitude":50.03093,"Longitude":8.18369},"BottomRight":{"Latitude":49.96474,"Longitude":8.31938}},"Address":{"Label":"Mainz, Rheinland-Pfalz, Deutschland","Country":"DEU","State":"Rheinland-Pfalz","County":"Mainz","City":"Mainz","District":"Mainz","PostalCode":"55116","AdditionalData":[{"value":"Deutschland","key":"CountryName"},{"value":"Rheinland-Pfalz","key":"StateName"},{"value":"Mainz","key":"CountyName"}]},"MapReference":{"ReferenceId":"1207820032","SideOfStreet":"neither","CountryId":"20147700","StateId":"20164001","CountyId":"20169394","CityId":"20169395","DistrictId":"20169401"}}},{"Relevance":1.0,"Distance":18.7,"MatchLevel":"houseNumber","MatchQuality":{"Country":1.0,"State":1.0,"County":1.0,"City":1.0,"District":1.0,"Street":[1.0],"HouseNumber":1.0,"PostalCode":1.0},"MatchType":"interpolated","Location":{"LocationId":"NT_Yp-jh.mQeMkzKvHKCgC8QD_yA","LocationType":"point","DisplayPosition":{"Latitude":49.97574,"Longitude":8.27911},"MapView":{"TopLeft":{"Latitude":49.9768642,"Longitude":8.277362},"BottomRight":{"Latitude":49.9746158,"Longitude":8.280858}},"Address":{"Label":"Elly-Beinhorn-Straße 2, 55129 Mainz, Deutschland","Country":"DEU","State":"Rheinland-Pfalz","County":"Mainz","City":"Mainz","District":"Mainz","Street":"Elly-Beinhorn-Straße","HouseNumber":"2","PostalCode":"55129","AdditionalData":[{"value":"Deutschland","key":"CountryName"},{"value":"Rheinland-Pfalz","key":"StateName"},{"value":"Mainz","key":"CountyName"}]},"MapReference":{"ReferenceId":"1241785953","Spot":0.1,"SideOfStreet":"left","CountryId":"20147700","StateId":"20164001","CountyId":"20169394","CityId":"20169395","DistrictId":"20169401","AddressId":"732644958","RoadLinkId":"562822192"}}},{"Relevance":1.0,"Distance":38.4,"MatchLevel":"houseNumber","MatchQuality":{"Country":1.0,"State":1.0,"County":1.0,"City":1.0,"District":1.0,"Street":[1.0],"HouseNumber":1.0,"PostalCode":1.0},"MatchType":"interpolated","Location":{"LocationId":"NT_kWf6giwkjdcEUm2t6RNlBC_xMD","LocationType":"point","DisplayPosition":{"Latitude":49.97544,"Longitude":8.27846},"MapView":{"TopLeft":{"Latitude":49.9765642,"Longitude":8.276712},"BottomRight":{"Latitude":49.9743158,"Longitude":8.280208}},"Address":{"Label":"Emy-Roeder-Straße 13, 55129 Mainz, Deutschland","Country":"DEU","State":"Rheinland-Pfalz","County":"Mainz","City":"Mainz","District":"Mainz","Street":"Emy-Roeder-Straße","HouseNumber":"13","PostalCode":"55129","AdditionalData":[{"value":"Deutschland","key":"CountryName"},{"value":"Rheinland-Pfalz","key":"StateName"},{"value":"Mainz","key":"CountyName"}]},"MapReference":{"ReferenceId":"1205581650","Spot":0.73,"SideOfStreet":"right","CountryId":"20147700","StateId":"20164001","CountyId":"20169394","CityId":"20169395","DistrictId":"20169401","AddressId":"169691045","RoadLinkId":"519272708"}}},{"Relevance":1.0,"Distance":39.3,"MatchLevel":"houseNumber","MatchQuality":{"Country":1.0,"State":1.0,"County":1.0,"City":1.0,"District":1.0,"Street":[1.0],"HouseNumber":1.0,"PostalCode":1.0},"MatchType":"interpolated","Location":{"LocationId":"NT_kWf6giwkjdcEUm2t6RNlBC_0EE","LocationType":"point","DisplayPosition":{"Latitude":49.97538,"Longitude":8.27795},"MapView":{"TopLeft":{"Latitude":49.9765042,"Longitude":8.276202},"BottomRight":{"Latitude":49.9742558,"Longitude":8.279698}},"Address":{"Label":"Emy-Roeder-Straße 4A, 55129 Mainz, Deutschland","Country":"DEU","State":"Rheinland-Pfalz","County":"Mainz","City":"Mainz","District":"Mainz","Street":"Emy-Roeder-Straße","HouseNumber":"4A","PostalCode":"55129","AdditionalData":[{"value":"Deutschland","key":"CountryName"},{"value":"Rheinland-Pfalz","key":"StateName"},{"value":"Mainz","key":"CountyName"}]},"MapReference":{"ReferenceId":"1205581677","Spot":0.82,"SideOfStreet":"left","CountryId":"20147700","StateId":"20164001","CountyId":"20169394","CityId":"20169395","DistrictId":"20169401","AddressId":"832858782","RoadLinkId":"519272749"}}},{"Relevance":1.0,"Distance":40.3,"MatchLevel":"street","MatchQuality":{"Country":1.0,"State":1.0,"County":1.0,"City":1.0,"District":1.0,"Street":[1.0],"PostalCode":1.0},"Location":{"LocationId":"NT_kWf6giwkjdcEUm2t6RNlBC_l_1205581615_L","LocationType":"point","DisplayPosition":{"Latitude":49.97546,"Longitude":8.27857},"MapView":{"TopLeft":{"Latitude":49.97553,"Longitude":8.27857},"BottomRight":{"Latitude":49.97546,"Longitude":8.27914}},"Address":{"Label":"Emy-Roeder-Straße, 55129 Mainz, Deutschland","Country":"DEU","State":"Rheinland-Pfalz","County":"Mainz","City":"Mainz","District":"Mainz","Street":"Emy-Roeder-Straße","PostalCode":"55129","AdditionalData":[{"value":"Deutschland","key":"CountryName"},{"value":"Rheinland-Pfalz","key":"StateName"},{"value":"Mainz","key":"CountyName"}]},"MapReference":{"ReferenceId":"1205581615","Spot":0.0,"SideOfStreet":"left","CountryId":"20147700","StateId":"20164001","CountyId":"20169394","CityId":"20169395","DistrictId":"20169401"}}},{"Relevance":1.0,"Distance":92.0,"MatchLevel":"houseNumber","MatchQuality":{"Country":1.0,"State":1.0,"County":1.0,"City":1.0,"District":1.0,"Street":[1.0],"HouseNumber":1.0,"PostalCode":1.0},"MatchType":"interpolated","Location":{"LocationId":"NT_kWf6giwkjdcEUm2t6RNlBC_xUD","LocationType":"point","DisplayPosition":{"Latitude":49.97558,"Longitude":8.2795},"MapView":{"TopLeft":{"Latitude":49.9767042,"Longitude":8.277752},"BottomRight":{"Latitude":49.9744558,"Longitude":8.281248}},"Address":{"Label":"Emy-Roeder-Straße 15, 55129 Mainz, Deutschland","Country":"DEU","State":"Rheinland-Pfalz","County":"Mainz","City":"Mainz","District":"Mainz","Street":"Emy-Roeder-Straße","HouseNumber":"15","PostalCode":"55129","AdditionalData":[{"value":"Deutschland","key":"CountryName"},{"value":"Rheinland-Pfalz","key":"StateName"},{"value":"Mainz","key":"CountyName"}]},"MapReference":{"ReferenceId":"1205581437","Spot":0.43,"SideOfStreet":"right","CountryId":"20147700","StateId":"20164001","CountyId":"20169394","CityId":"20169395","DistrictId":"20169401","AddressId":"169691046","RoadLinkId":"519272407"}}},{"Relevance":1.0,"Distance":141.2,"MatchLevel":"street","MatchQuality":{"Country":1.0,"State":1.0,"County":1.0,"City":1.0,"District":1.0,"PostalCode":1.0},"Location":{"LocationId":"NT_mMRNWMVWHg2nQKiw70lS2A_l_1242098424_R","LocationType":"point","DisplayPosition":{"Latitude":49.9770252,"Longitude":8.278181},"MapView":{"TopLeft":{"Latitude":49.97703,"Longitude":8.27787},"BottomRight":{"Latitude":49.97701,"Longitude":8.27828}},"Address":{"Label":"55131 Mainz, Deutschland","Country":"DEU","State":"Rheinland-Pfalz","County":"Mainz","City":"Mainz","District":"Mainz","PostalCode":"55131","AdditionalData":[{"value":"Deutschland","key":"CountryName"},{"value":"Rheinland-Pfalz","key":"StateName"},{"value":"Mainz","key":"CountyName"}]},"MapReference":{"ReferenceId":"1242098424","Spot":0.76,"SideOfStreet":"right","CountryId":"20147700","StateId":"20164001","CountyId":"20169394","CityId":"20169395","DistrictId":"20169401"}}},{"Relevance":1.0,"Distance":141.7,"MatchLevel":"street","MatchQuality":{"Country":1.0,"State":1.0,"County":1.0,"City":1.0,"District":1.0,"PostalCode":1.0},"Location":{"LocationId":"NT_7MBpATd6hrqCIjTmuCnGlB_l_1242098423_L","LocationType":"point","DisplayPosition":{"Latitude":49.97703,"Longitude":8.27828},"MapView":{"TopLeft":{"Latitude":49.97751,"Longitude":8.27821},"BottomRight":{"Latitude":49.97703,"Longitude":8.27828}},"Address":{"Label":"55129 Mainz, Deutschland","Country":"DEU","State":"Rheinland-Pfalz","County":"Mainz","City":"Mainz","District":"Mainz","PostalCode":"55129","AdditionalData":[{"value":"Deutschland","key":"CountryName"},{"value":"Rheinland-Pfalz","key":"StateName"},{"value":"Mainz","key":"CountyName"}]},"MapReference":{"ReferenceId":"1242098423","Spot":0.0,"SideOfStreet":"left","CountryId":"20147700","StateId":"20164001","CountyId":"20169394","CityId":"20169395","DistrictId":"20169401"}}},{"Relevance":1.0,"Distance":141.7,"MatchLevel":"street","MatchQuality":{"Country":1.0,"State":1.0,"County":1.0,"City":1.0,"District":1.0,"PostalCode":1.0},"Location":{"LocationId":"NT_7MBpATd6hrqCIjTmuCnGlB_l_1242098422_R","LocationType":"point","DisplayPosition":{"Latitude":49.97703,"Longitude":8.27828},"MapView":{"TopLeft":{"Latitude":49.97735,"Longitude":8.27828},"BottomRight":{"Latitude":49.97703,"Longitude":8.27848}},"Address":{"Label":"55129 Mainz, Deutschland","Country":"DEU","State":"Rheinland-Pfalz","County":"Mainz","City":"Mainz","District":"Mainz","PostalCode":"55129","AdditionalData":[{"value":"Deutschland","key":"CountryName"},{"value":"Rheinland-Pfalz","key":"StateName"},{"value":"Mainz","key":"CountyName"}]},"MapReference":{"ReferenceId":"1242098422","Spot":0.0,"SideOfStreet":"right","CountryId":"20147700","StateId":"20164001","CountyId":"20169394","CityId":"20169395","DistrictId":"20169401"}}},{"Relevance":1.0,"Distance":142.0,"MatchLevel":"street","MatchQuality":{"Country":1.0,"State":1.0,"County":1.0,"City":1.0,"District":1.0,"PostalCode":1.0},"Location":{"LocationId":"NT_mMRNWMVWHg2nQKiw70lS2A_l_1242098425_L","LocationType":"point","DisplayPosition":{"Latitude":49.97701,"Longitude":8.27787},"MapView":{"TopLeft":{"Latitude":49.97746,"Longitude":8.27746},"BottomRight":{"Latitude":49.97699,"Longitude":8.27787}},"Address":{"Label":"55131 Mainz, Deutschland","Country":"DEU","State":"Rheinland-Pfalz","County":"Mainz","City":"Mainz","District":"Mainz","PostalCode":"55131","AdditionalData":[{"value":"Deutschland","key":"CountryName"},{"value":"Rheinland-Pfalz","key":"StateName"},{"value":"Mainz","key":"CountyName"}]},"MapReference":{"ReferenceId":"1242098425","Spot":0.0,"SideOfStreet":"left","CountryId":"20147700","StateId":"20164001","CountyId":"20169394","CityId":"20169395","DistrictId":"20169401"}}}]}]}}