{"Response":{"MetaInfo":{"Timestamp":"2020-03-28T10:25:40.645+0000","NextPageInformation":"2"},"View":[{"_type":"SearchResultsViewType","ViewId":0,"Result":[{"Relevance":1.0,"Distance":0.0,"Direction":0.0,"MatchLevel":"district","MatchQuality":{"Country":1.0,"State":1.0,"County":1.0,"City":1.0,"District":1.0,"PostalCode":1.0},"Location":{"LocationId":"NT_1PoO0d79OH3CR48XsyLKJD","LocationType":"point","DisplayPosition":{"Latitude":49.910328,"Longitude":9.1384793},"MapView":{"TopLeft":{"Latitude":49.92219,"Longitude":9.11754},"BottomRight":{"Latitude":49.90652,"Longitude":9.14367}},"Address":{"Label":"Niedernberg, Bayern, Deutschland","Country":"DEU","State":"Bayern","County":"Miltenberg","City":"Niedernberg","District":"Niedernberg","PostalCode":"63843","AdditionalData":[{"value":"Deutschland","key":"CountryName"},{"value":"Bayern","key":"StateName"},{"value":"Miltenberg","key":"CountyName"}]},"MapReference":{"ReferenceId":"541987686","SideOfStreet":"neither","CountryId":"20147700","StateId":"20177250","CountyId":"20184645","CityId":"20184736","DistrictId":"20184738"}}},{"Relevance":1.0,"Distance":10.4,"MatchLevel":"houseNumber","MatchQuality":{"Country":1.0,"State":1.0,"County":1.0,"City":1.0,"District":1.0,"Street":[1.0],"HouseNumber":1.0,"PostalCode":1.0},"MatchType":"interpolated","Location":{"LocationId":"NT_M2H5ZPKgLknruNkWcYIqjB_xMD","LocationType":"point","DisplayPosition":{"Latitude":49.91039,"Longitude":9.13837},"MapView":{"TopLeft":{"Latitude":49.9115142,"Longitude":9.1366244},"BottomRight":{"Latitude":49.9092658,"Longitude":9.1401156}},"Address":{"Label":"Grimmstraße 13, 63843 Niedernberg, Deutschland","Country":"DEU","State":"Bayern","County":"Miltenberg","City":"Niedernberg","District":"Niedernberg","Street":"Grimmstraße","HouseNumber":"13","PostalCode":"63843","AdditionalData":[{"value":"Deutschland","key":"CountryName"},{"value":"Bayern","key":"StateName"},{"value":"Miltenberg","key":"CountyName"}]},"MapReference":{"ReferenceId":"541987852","Spot":0.33,"SideOfStreet":"right","CountryId":"20147700","StateId":"20177250","CountyId":"20184645","CityId":"20184736","DistrictId":"20184738","AddressId":"185766434","RoadLinkId":"33050045"}}},{"Relevance":1.0,"Distance":43.5,"MatchLevel":"houseNumber","MatchQuality":{"Country":1.0,"State":1.0,"County":1.0,"City":1.0,"District":1.0,"Street":[1.0],"HouseNumber":1.0,"PostalCode":1.0},"MatchType":"interpolated","Location":{"LocationId":"NT_OrZQJnc3NOvMlEYO15zNUA_xUD","LocationType":"point","DisplayPosition":{"Latitude":49.90988,"Longitude":9.13823},"MapView":{"TopLeft":{"Latitude":49.9110042,"Longitude":9.1364844},"BottomRight":{"Latitude":49.9087558,"Longitude":9.1399756}},"Address":{"Label":"Großwallstädter Straße 15, 63843 Niedernberg, Deutschland","Country":"DEU","State":"Bayern","County":"Miltenberg","City":"Niedernberg","District":"Niedernberg","Street":"Großwallstädter Straße","HouseNumber":"15","PostalCode":"63843","AdditionalData":[{"value":"Deutschland","key":"CountryName"},{"value":"Bayern","key":"StateName"},{"value":"Miltenberg","key":"CountyName"}]},"MapReference":{"ReferenceId":"541987874","Spot":0.25,"SideOfStreet":"right","CountryId":"20147700","StateId":"20177250","CountyId":"20184645","CityId":"20184736","DistrictId":"20184738","AddressId":"182754849","RoadLinkId":"32720662"}}},{"Relevance":1.0,"Distance":64.3,"MatchLevel":"houseNumber","MatchQuality":{"Country":1.0,"State":1.0,"County":1.0,"City":1.0,"District":1.0,"Street":[1.0],"HouseNumber":1.0,"PostalCode":1.0},"MatchType":"interpolated","Location":{"LocationId":"NT_OrZQJnc3NOvMlEYO15zNUA_3EE","LocationType":"point","DisplayPosition":{"Latitude":49.91071,"Longitude":9.13763},"MapView":{"TopLeft":{"Latitude":49.9118342,"Longitude":9.1358844},"BottomRight":{"Latitude":49.9095858,"Longitude":9.1393756}},"Address":{"Label":"Großwallstädter Straße 7A, 63843 Niedernberg, Deutschland","Country":"DEU","State":"Bayern","County":"Miltenberg","City":"Niedernberg","District":"Niedernberg","Street":"Großwallstädter Straße","HouseNumber":"7A","PostalCode":"63843","AdditionalData":[{"value":"Deutschland","key":"CountryName"},{"value":"Bayern","key":"StateName"},{"value":"Miltenberg","key":"CountyName"}]},"MapReference":{"ReferenceId":"541987880","Spot":0.32,"SideOfStreet":"right","CountryId":"20147700","StateId":"20177250","CountyId":"20184645","CityId":"20184736","DistrictId":"20184738","AddressId":"185394992","RoadLinkId":"32852477"}}},{"Relevance":1.0,"Distance":75.9,"MatchLevel":"houseNumber","MatchQuality":{"Country":1.0,"State":1.0,"County":1.0,"City":1.0,"District":1.0,"Street":[1.0],"HouseNumber":1.0,"PostalCode":1.0},"MatchType":"interpolated","Location":{"LocationId":"NT_rEyjMGZLB0o5NlMVetetVD_xA","LocationType":"point","DisplayPosition":{"Latitude":49.91087,"Longitude":9.13934},"MapView":{"TopLeft":{"Latitude":49.9119942,"Longitude":9.1375944},"BottomRight":{"Latitude":49.9097458,"Longitude":9.1410856}},"Address":{"Label":"Friedenstraße 1, 63843 Niedernberg, Deutschland","Country":"DEU","State":"Bayern","County":"Miltenberg","City":"Niedernberg","District":"Niedernberg","Street":"Friedenstraße","HouseNumber":"1","PostalCode":"63843","AdditionalData":[{"value":"Deutschland","key":"CountryName"},{"value":"Bayern","key":"StateName"},{"value":"Miltenberg","key":"CountyName"}]},"MapReference":{"ReferenceId":"541987958","Spot":0.2,"SideOfStreet":"left","CountryId":"20147700","StateId":"20177250","CountyId":"20184645","CityId":"20184736","DistrictId":"20184738","AddressId":"184607035","RoadLinkId":"32674788"}}},{"Relevance":1.0,"Distance":76.9,"MatchLevel":"houseNumber","MatchQuality":{"Country":1.0,"State":1.0,"County":1.0,"City":1.0,"District":1.0,"Street":[1.0],"HouseNumber":1.0,"PostalCode":1.0},"MatchType":"interpolated","Location":{"LocationId":"NT_OrZQJnc3NOvMlEYO15zNUA_xkD","LocationType":"point","DisplayPosition":{"Latitude":49.90957,"Longitude":9.1385},"MapView":{"TopLeft":{"Latitude":49.9106942,"Longitude":9.1367544},"BottomRight":{"Latitude":49.9084458,"Longitude":9.1402456}},"Address":{"Label":"Großwallstädter Straße 19, 63843 Niedernberg, Deutschland","Country":"DEU","State":"Bayern","County":"Miltenberg","City":"Niedernberg","District":"Niedernberg","Street":"Großwallstädter Straße","HouseNumber":"19","PostalCode":"63843","AdditionalData":[{"value":"Deutschland","key":"CountryName"},{"value":"Bayern","key":"StateName"},{"value":"Miltenberg","key":"CountyName"}]},"MapReference":{"ReferenceId":"541987870","Spot":0.53,"SideOfStreet":"right","CountryId":"20147700","StateId":"20177250","CountyId":"20184645","CityId":"20184736","DistrictId":"20184738","AddressId":"185767504","RoadLinkId":"33840822"}}},{"Relevance":1.0,"Distance":78.8,"MatchLevel":"houseNumber","MatchQuality":{"Country":1.0,"State":1.0,"County":1.0,"City":1.0,"District":1.0,"Street":[1.0],"HouseNumber":1.0,"PostalCode":1.0},"MatchType":"interpolated","Location":{"LocationId":"NT_M2H5ZPKgLknruNkWcYIqjB_1A","LocationType":"point","DisplayPosition":{"Latitude":49.91044,"Longitude":9.13958},"MapView":{"TopLeft":{"Latitude":49.9115642,"Longitude":9.1378344},"BottomRight":{"Latitude":49.9093158,"Longitude":9.1413256}},"Address":{"Label":"Grimmstraße 5, 63843 Niedernberg, Deutschland","Country":"DEU","State":"Bayern","County":"Miltenberg","City":"Niedernberg","District":"Niedernberg","Street":"Grimmstraße","HouseNumber":"5","PostalCode":"63843","AdditionalData":[{"value":"Deutschland","key":"CountryName"},{"value":"Bayern","key":"StateName"},{"value":"Miltenberg","key":"CountyName"}]},"MapReference":{"ReferenceId":"541987854","Spot":0.13,"SideOfStreet":"right","CountryId":"20147700","StateId":"20177250","CountyId":"20184645","CityId":"20184736","DistrictId":"20184738","AddressId":"183666214","RoadLinkId":"33713858"}}},{"Relevance":1.0,"Distance":86.9,"MatchLevel":"houseNumber","MatchQuality":{"Country":1.0,"State":1.0,"County":1.0,"City":1.0,"District":1.0,"Street":[1.0],"HouseNumber":1.0,"PostalCode":1.0},"MatchType":"interpolated","Location":{"LocationId":"NT_9PQsP8W1T-kyzGJZOoKNZD_0A","LocationType":"point","DisplayPosition":{"Latitude":49.90961,"Longitude":9.1375},"MapView":{"TopLeft":{"Latitude":49.9107342,"Longitude":9.1357544},"BottomRight":{"Latitude":49.9084858,"Longitude":9.1392456}},"Address":{"Label":"Am Wingert 4, 63843 Niedernberg, Deutschland","Country":"DEU","State":"Bayern","County":"Miltenberg","City":"Niedernberg","District":"Niedernberg","Street":"Am Wingert","HouseNumber":"4","PostalCode":"63843","AdditionalData":[{"value":"Deutschland","key":"CountryName"},{"value":"Bayern","key":"StateName"},{"value":"Miltenberg","key":"CountyName"}]},"MapReference":{"ReferenceId":"541987884","Spot":0.7,"SideOfStreet":"left","CountryId":"20147700","StateId":"20177250","CountyId":"20184645","CityId":"20184736","DistrictId":"20184738","AddressId":"182452199","RoadLinkId":"32616833"}}},{"Relevance":1.0,"Distance":100.4,"MatchLevel":"houseNumber","MatchQuality":{"Country":1.0,"State":1.0,"County":1.0,"City":1.0,"District":1.0,"Street":[1.0],"HouseNumber":1.0,"PostalCode":1.0},"MatchType":"interpolated","Location":{"LocationId":"NT_6uNCNqsaeo2HFQgv9KCXiC_4A","LocationType":"point","DisplayPosition":{"Latitude":49.90942,"Longitude":9.13924},"MapView":{"TopLeft":{"Latitude":49.9105442,"Longitude":9.1374944},"BottomRight":{"Latitude":49.9082958,"Longitude":9.1409856}},"Address":{"Label":"Südring 8, 63843 Niedernberg, Deutschland","Country":"DEU","State":"Bayern","County":"Miltenberg","City":"Niedernberg","District":"Niedernberg","Street":"Südring","HouseNumber":"8","PostalCode":"63843","AdditionalData":[{"value":"Deutschland","key":"CountryName"},{"value":"Bayern","key":"StateName"},{"value":"Miltenberg","key":"CountyName"}]},"MapReference":{"ReferenceId":"541987849","Spot":0.26,"SideOfStreet":"left","CountryId":"20147700","StateId":"20177250","CountyId":"20184645","CityId":"20184736","DistrictId":"20184738","AddressId":"185443554","RoadLinkId":"33068768"}}},{"Relevance":1.0,"Distance":128.6,"MatchLevel":"houseNumber","MatchQuality":{"Country":1.0,"State":1.0,"County":1.0,"City":1.0,"District":1.0,"Street":[1.0],"HouseNumber":1.0,"PostalCode":1.0},"MatchType":"interpolated","Location":{"LocationId":"NT_OrZQJnc3NOvMlEYO15zNUA_yMD","LocationType":"point","DisplayPosition":{"Latitude":49.90919,"Longitude":9.1388},"MapView":{"TopLeft":{"Latitude":49.9103142,"Longitude":9.1370544},"BottomRight":{"Latitude":49.9080658,"Longitude":9.1405456}},"Address":{"Label":"Großwallstädter Straße 23, 63843 Niedernberg, Deutschland","Country":"DEU","State":"Bayern","County":"Miltenberg","City":"Niedernberg","District":"Niedernberg","Street":"Großwallstädter Straße","HouseNumber":"23","PostalCode":"63843","AdditionalData":[{"value":"Deutschland","key":"CountryName"},{"value":"Bayern","key":"StateName"},{"value":"Miltenberg","key":"CountyName"}]},"MapReference":{"ReferenceId":"541987866","Spot":0.34,"SideOfStreet":"right","CountryId":"20147700","StateId":"20177250","CountyId":"20184645","CityId":"20184736","DistrictId":"20184738","AddressId":"184811587","RoadLinkId":"32893874"}}}]}]}}