{"Response":{"MetaInfo":{"Timestamp":"2020-03-28T10:05:59.985+0000","NextPageInformation":"2"},"View":[{"_type":"SearchResultsViewType","ViewId":0,"Result":[{"Relevance":1.0,"Distance":0.0,"Direction":0.0,"MatchLevel":"district","MatchQuality":{"Country":1.0,"State":1.0,"County":1.0,"City":1.0,"District":1.0,"PostalCode":1.0},"Location":{"LocationId":"NT_1Tg0HD-JwfXuKv8PIjwkFA","LocationType":"point","DisplayPosition":{"Latitude":49.9038058,"Longitude":7.8170514},"MapView":{"TopLeft":{"Latitude":49.91144,"Longitude":7.80323},"BottomRight":{"Latitude":49.90146,"Longitude":7.82338}},"Address":{"Label":"Windesheim, Rheinland-Pfalz, Deutschland","Country":"DEU","State":"Rheinland-Pfalz","County":"Bad Kreuznach","City":"Windesheim","District":"Windesheim","PostalCode":"55452","AdditionalData":[{"value":"Deutschland","key":"CountryName"},{"value":"Rheinland-Pfalz","key":"StateName"},{"value":"Bad Kreuznach","key":"CountyName"}]},"MapReference":{"ReferenceId":"576414532","SideOfStreet":"neither","CountryId":"20147700","StateId":"20164001","CountyId":"20164643","CityId":"20164978","DistrictId":"20164980"}}},{"Relevance":1.0,"Distance":10.9,"MatchLevel":"houseNumber","MatchQuality":{"Country":1.0,"State":1.0,"County":1.0,"City":1.0,"District":1.0,"Street":[1.0],"HouseNumber":1.0,"PostalCode":1.0},"MatchType":"interpolated","Location":{"LocationId":"NT_Qm8IAgmL4PwiXgSAtCKiIA_yED","LocationType":"point","DisplayPosition":{"Latitude":49.90379,"Longitude":7.81676},"MapView":{"TopLeft":{"Latitude":49.9049142,"Longitude":7.8150146},"BottomRight":{"Latitude":49.9026658,"Longitude":7.8185054}},"Address":{"Label":"Kreuznacher Straße 21, 55452 Windesheim, Deutschland","Country":"DEU","State":"Rheinland-Pfalz","County":"Bad Kreuznach","City":"Windesheim","District":"Windesheim","Street":"Kreuznacher Straße","HouseNumber":"21","PostalCode":"55452","AdditionalData":[{"value":"Deutschland","key":"CountryName"},{"value":"Rheinland-Pfalz","key":"StateName"},{"value":"Bad Kreuznach","key":"CountyName"}]},"MapReference":{"ReferenceId":"759186109","Spot":0.43,"SideOfStreet":"right","CountryId":"20147700","StateId":"20164001","CountyId":"20164643","CityId":"20164978","DistrictId":"20164980","AddressId":"188478783","RoadLinkId":"153753434"}}},{"Relevance":1.0,"Distance":33.2,"MatchLevel":"houseNumber","MatchQuality":{"Country":1.0,"State":1.0,"County":1.0,"City":1.0,"District":1.0,"Street":[1.0],"HouseNumber":1.0,"PostalCode":1.0},"MatchType":"interpolated","Location":{"LocationId":"NT_Qm8IAgmL4PwiXgSAtCKiIA_yUD","LocationType":"point","DisplayPosition":{"Latitude":49.90349,"Longitude":7.81661},"MapView":{"TopLeft":{"Latitude":49.9046142,"Longitude":7.8148646},"BottomRight":{"Latitude":49.9023658,"Longitude":7.8183554}},"Address":{"Label":"Kreuznacher Straße 25, 55452 Windesheim, Deutschland","Country":"DEU","State":"Rheinland-Pfalz","County":"Bad Kreuznach","City":"Windesheim","District":"Windesheim","Street":"Kreuznacher Straße","HouseNumber":"25","PostalCode":"55452","AdditionalData":[{"value":"Deutschland","key":"CountryName"},{"value":"Rheinland-Pfalz","key":"StateName"},{"value":"Bad Kreuznach","key":"CountyName"}]},"MapReference":{"ReferenceId":"759186108","Spot":1.0,"SideOfStreet":"right","CountryId":"20147700","StateId":"20164001","CountyId":"20164643","CityId":"20164978","DistrictId":"20164980","AddressId":"188492600","RoadLinkId":"153753433"}}},{"Relevance":1.0,"Distance":44.8,"MatchLevel":"street","MatchQuality":{"Country":1.0,"State":1.0,"County":1.0,"City":1.0,"District":1.0,"Street":[1.0],"PostalCode":1.0},"Location":{"LocationId":"NT_Qm8IAgmL4PwiXgSAtCKiIA_l_548504731_R","LocationType":"point","DisplayPosition":{"Latitude":49.9042,"Longitude":7.81692},"MapView":{"TopLeft":{"Latitude":49.90446,"Longitude":7.81677},"BottomRight":{"Latitude":49.9042,"Longitude":7.81692}},"Address":{"Label":"Kreuznacher Straße, 55452 Windesheim, Deutschland","Country":"DEU","State":"Rheinland-Pfalz","County":"Bad Kreuznach","City":"Windesheim","District":"Windesheim","Street":"Kreuznacher Straße","PostalCode":"55452","AdditionalData":[{"value":"Deutschland","key":"CountryName"},{"value":"Rheinland-Pfalz","key":"StateName"},{"value":"Bad Kreuznach","key":"CountyName"}]},"MapReference":{"ReferenceId":"548504731","Spot":0.0,"SideOfStreet":"right","CountryId":"20147700","StateId":"20164001","CountyId":"20164643","CityId":"20164978","DistrictId":"20164980"}}},{"Relevance":1.0,"Distance":57.8,"MatchLevel":"houseNumber","MatchQuality":{"Country":1.0,"State":1.0,"County":1.0,"City":1.0,"District":1.0,"Street":[1.0],"HouseNumber":1.0,"PostalCode":1.0},"MatchType":"interpolated","Location":{"LocationId":"NT_Qi-l1aA0F9ZDaM4B9CQqKA_yA","LocationType":"point","DisplayPosition":{"Latitude":49.90408,"Longitude":7.81781},"MapView":{"TopLeft":{"Latitude":49.9052042,"Longitude":7.8160646},"BottomRight":{"Latitude":49.9029558,"Longitude":7.8195554}},"Address":{"Label":"Waldhilbersheimer Straße 2, 55452 Windesheim, Deutschland","Country":"DEU","State":"Rheinland-Pfalz","County":"Bad Kreuznach","City":"Windesheim","District":"Windesheim","Street":"Waldhilbersheimer Straße","HouseNumber":"2","PostalCode":"55452","AdditionalData":[{"value":"Deutschland","key":"CountryName"},{"value":"Rheinland-Pfalz","key":"StateName"},{"value":"Bad Kreuznach","key":"CountyName"}]},"MapReference":{"ReferenceId":"548463912","Spot":0.71,"SideOfStreet":"left","CountryId":"20147700","StateId":"20164001","CountyId":"20164643","CityId":"20164978","DistrictId":"20164980","AddressId":"188832205","RoadLinkId":"34609682"}}},{"Relevance":1.0,"Distance":60.8,"MatchLevel":"houseNumber","MatchQuality":{"Country":1.0,"State":1.0,"County":1.0,"City":1.0,"District":1.0,"Street":[1.0],"HouseNumber":1.0,"PostalCode":1.0},"MatchType":"interpolated","Location":{"LocationId":"NT_QYa2kFQHOTNTJjTbSEk2ND_yUD","LocationType":"point","DisplayPosition":{"Latitude":49.90418,"Longitude":7.81626},"MapView":{"TopLeft":{"Latitude":49.9053042,"Longitude":7.8145146},"BottomRight":{"Latitude":49.9030558,"Longitude":7.8180054}},"Address":{"Label":"Bergstraße 25, 55452 Windesheim, Deutschland","Country":"DEU","State":"Rheinland-Pfalz","County":"Bad Kreuznach","City":"Windesheim","District":"Windesheim","Street":"Bergstraße","HouseNumber":"25","PostalCode":"55452","AdditionalData":[{"value":"Deutschland","key":"CountryName"},{"value":"Rheinland-Pfalz","key":"StateName"},{"value":"Bad Kreuznach","key":"CountyName"}]},"MapReference":{"ReferenceId":"548504730","Spot":0.24,"SideOfStreet":"right","CountryId":"20147700","StateId":"20164001","CountyId":"20164643","CityId":"20164978","DistrictId":"20164980","AddressId":"622230894","RoadLinkId":"34520160"}}},{"Relevance":1.0,"Distance":78.3,"MatchLevel":"houseNumber","MatchQuality":{"Country":1.0,"State":1.0,"County":1.0,"City":1.0,"District":1.0,"Street":[1.0],"HouseNumber":1.0,"PostalCode":1.0},"MatchType":"interpolated","Location":{"LocationId":"NT_zYsHJfn2.4zoU1tD.6pjNA_yEE","LocationType":"point","DisplayPosition":{"Latitude":49.90458,"Longitude":7.81692},"MapView":{"TopLeft":{"Latitude":49.9057042,"Longitude":7.8151746},"BottomRight":{"Latitude":49.9034558,"Longitude":7.8186654}},"Address":{"Label":"Bürgermeister-Dielhenn-Straße 2A, 55452 Windesheim, Deutschland","Country":"DEU","State":"Rheinland-Pfalz","County":"Bad Kreuznach","City":"Windesheim","District":"Windesheim","Street":"Bürgermeister-Dielhenn-Straße","HouseNumber":"2A","PostalCode":"55452","AdditionalData":[{"value":"Deutschland","key":"CountryName"},{"value":"Rheinland-Pfalz","key":"StateName"},{"value":"Bad Kreuznach","key":"CountyName"}]},"MapReference":{"ReferenceId":"548463982","Spot":0.31,"SideOfStreet":"right","CountryId":"20147700","StateId":"20164001","CountyId":"20164643","CityId":"20164978","DistrictId":"20164980","AddressId":"188181306","RoadLinkId":"34398970"}}},{"Relevance":1.0,"Distance":95.4,"MatchLevel":"houseNumber","MatchQuality":{"Country":1.0,"State":1.0,"County":1.0,"City":1.0,"District":1.0,"Street":[1.0],"HouseNumber":1.0,"PostalCode":1.0},"MatchType":"interpolated","Location":{"LocationId":"NT_QYa2kFQHOTNTJjTbSEk2ND_ycD","LocationType":"point","DisplayPosition":{"Latitude":49.90387,"Longitude":7.81563},"MapView":{"TopLeft":{"Latitude":49.9049942,"Longitude":7.8138846},"BottomRight":{"Latitude":49.9027458,"Longitude":7.8173754}},"Address":{"Label":"Bergstraße 27, 55452 Windesheim, Deutschland","Country":"DEU","State":"Rheinland-Pfalz","County":"Bad Kreuznach","City":"Windesheim","District":"Windesheim","Street":"Bergstraße","HouseNumber":"27","PostalCode":"55452","AdditionalData":[{"value":"Deutschland","key":"CountryName"},{"value":"Rheinland-Pfalz","key":"StateName"},{"value":"Bad Kreuznach","key":"CountyName"}]},"MapReference":{"ReferenceId":"548504729","Spot":0.68,"SideOfStreet":"right","CountryId":"20147700","StateId":"20164001","CountyId":"20164643","CityId":"20164978","DistrictId":"20164980","AddressId":"188707657","RoadLinkId":"34531623"}}},{"Relevance":1.0,"Distance":98.5,"MatchLevel":"houseNumber","MatchQuality":{"Country":1.0,"State":1.0,"County":1.0,"City":1.0,"District":1.0,"Street":[1.0],"HouseNumber":1.0,"PostalCode":1.0},"MatchType":"interpolated","Location":{"LocationId":"NT_QYa2kFQHOTNTJjTbSEk2ND_xkTQ","LocationType":"point","DisplayPosition":{"Latitude":49.90422,"Longitude":7.81586},"MapView":{"TopLeft":{"Latitude":49.9053442,"Longitude":7.8141146},"BottomRight":{"Latitude":49.9030958,"Longitude":7.8176054}},"Address":{"Label":"Bergstraße 19A, 55452 Windesheim, Deutschland","Country":"DEU","State":"Rheinland-Pfalz","County":"Bad Kreuznach","City":"Windesheim","District":"Windesheim","Street":"Bergstraße","HouseNumber":"19A","PostalCode":"55452","AdditionalData":[{"value":"Deutschland","key":"CountryName"},{"value":"Rheinland-Pfalz","key":"StateName"},{"value":"Bad Kreuznach","key":"CountyName"}]},"MapReference":{"ReferenceId":"548463964","Spot":0.25,"SideOfStreet":"right","CountryId":"20147700","StateId":"20164001","CountyId":"20164643","CityId":"20164978","DistrictId":"20164980","AddressId":"188252276","RoadLinkId":"34467368"}}},{"Relevance":1.0,"Distance":102.6,"MatchLevel":"houseNumber","MatchQuality":{"Country":1.0,"State":1.0,"County":1.0,"City":1.0,"District":1.0,"Street":[1.0],"HouseNumber":1.0,"PostalCode":1.0},"MatchType":"interpolated","Location":{"LocationId":"NT_uEFIMBckkjhaWsZEk0HA8C_zA","LocationType":"point","DisplayPosition":{"Latitude":49.90285,"Longitude":7.81686},"MapView":{"TopLeft":{"Latitude":49.9039742,"Longitude":7.8151147},"BottomRight":{"Latitude":49.9017258,"Longitude":7.8186053}},"Address":{"Label":"Burgunderweg 3, 55452 Windesheim, Deutschland","Country":"DEU","State":"Rheinland-Pfalz","County":"Bad Kreuznach","City":"Windesheim","District":"Windesheim","Street":"Burgunderweg","HouseNumber":"3","PostalCode":"55452","AdditionalData":[{"value":"Deutschland","key":"CountryName"},{"value":"Rheinland-Pfalz","key":"StateName"},{"value":"Bad Kreuznach","key":"CountyName"}]},"MapReference":{"ReferenceId":"550052197","Spot":0.97,"SideOfStreet":"right","CountryId":"20147700","StateId":"20164001","CountyId":"20164643","CityId":"20164978","DistrictId":"20164980","AddressId":"187807311","RoadLinkId":"34148604"}}}]}]}}