{"Response":{"MetaInfo":{"Timestamp":"2020-03-28T10:55:28.695+0000","NextPageInformation":"2"},"View":[{"_type":"SearchResultsViewType","ViewId":0,"Result":[{"Relevance":1.0,"Distance":0.0,"Direction":0.0,"MatchLevel":"district","MatchQuality":{"Country":1.0,"State":1.0,"County":1.0,"City":1.0,"District":1.0,"PostalCode":1.0},"Location":{"LocationId":"NT_KyEeBa7EF2P8gxZ-s.BUiD","LocationType":"point","DisplayPosition":{"Latitude":49.9158042,"Longitude":7.0627634},"MapView":{"TopLeft":{"Latitude":49.9315,"Longitude":7.04357},"BottomRight":{"Latitude":49.90895,"Longitude":7.07213}},"Address":{"Label":"Kues, Bernkastel-Kues, Rheinland-Pfalz, Deutschland","Country":"DEU","State":"Rheinland-Pfalz","County":"Bernkastel-Wittlich","City":"Bernkastel-Kues","District":"Kues","PostalCode":"54470","AdditionalData":[{"value":"Deutschland","key":"CountryName"},{"value":"Rheinland-Pfalz","key":"StateName"},{"value":"Bernkastel-Wittlich","key":"CountyName"}]},"MapReference":{"ReferenceId":"548432188","SideOfStreet":"neither","CountryId":"20147700","StateId":"20164001","CountyId":"20167570","CityId":"20167589","DistrictId":"20167594"}}},{"Relevance":1.0,"Distance":16.2,"MatchLevel":"houseNumber","MatchQuality":{"Country":1.0,"State":1.0,"County":1.0,"City":1.0,"District":1.0,"Street":[1.0],"HouseNumber":1.0,"PostalCode":1.0},"MatchType":"interpolated","Location":{"LocationId":"NT_LpXSaMiOayrAhKutVHJCiD_xID","LocationType":"point","DisplayPosition":{"Latitude":49.91595,"Longitude":7.06276},"MapView":{"TopLeft":{"Latitude":49.9170742,"Longitude":7.0610142},"BottomRight":{"Latitude":49.9148258,"Longitude":7.0645058}},"Address":{"Label":"Karl-Binz-Weg 12, 54470 Bernkastel-Kues, Deutschland","Country":"DEU","State":"Rheinland-Pfalz","County":"Bernkastel-Wittlich","City":"Bernkastel-Kues","District":"Kues","Street":"Karl-Binz-Weg","HouseNumber":"12","PostalCode":"54470","AdditionalData":[{"value":"Deutschland","key":"CountryName"},{"value":"Rheinland-Pfalz","key":"StateName"},{"value":"Bernkastel-Wittlich","key":"CountyName"}]},"MapReference":{"ReferenceId":"567321303","Spot":0.3,"SideOfStreet":"right","CountryId":"20147700","StateId":"20164001","CountyId":"20167570","CityId":"20167589","DistrictId":"20167594","AddressId":"187879382","RoadLinkId":"34755647"}}},{"Relevance":1.0,"Distance":53.0,"MatchLevel":"houseNumber","MatchQuality":{"Country":1.0,"State":1.0,"County":1.0,"City":1.0,"District":1.0,"Street":[1.0],"HouseNumber":1.0,"PostalCode":1.0},"MatchType":"interpolated","Location":{"LocationId":"NT_kZJijEgrbAWHQXPADLxdCC_xEE","LocationType":"point","DisplayPosition":{"Latitude":49.91626,"Longitude":7.06298},"MapView":{"TopLeft":{"Latitude":49.9173842,"Longitude":7.0612342},"BottomRight":{"Latitude":49.9151358,"Longitude":7.0647258}},"Address":{"Label":"Auf der Trift 1A, 54470 Bernkastel-Kues, Deutschland","Country":"DEU","State":"Rheinland-Pfalz","County":"Bernkastel-Wittlich","City":"Bernkastel-Kues","District":"Kues","Street":"Auf der Trift","HouseNumber":"1A","PostalCode":"54470","AdditionalData":[{"value":"Deutschland","key":"CountryName"},{"value":"Rheinland-Pfalz","key":"StateName"},{"value":"Bernkastel-Wittlich","key":"CountyName"}]},"MapReference":{"ReferenceId":"548432147","Spot":0.44,"SideOfStreet":"left","CountryId":"20147700","StateId":"20164001","CountyId":"20167570","CityId":"20167589","DistrictId":"20167594","AddressId":"187989046","RoadLinkId":"34737902"}}},{"Relevance":1.0,"Distance":68.3,"MatchLevel":"street","MatchQuality":{"Country":1.0,"State":1.0,"County":1.0,"City":1.0,"District":1.0,"PostalCode":1.0},"Location":{"LocationId":"NT_ffkhaYnC-SyRIrzLrVQKkA_l_548432101_R","LocationType":"point","DisplayPosition":{"Latitude":49.9163436,"Longitude":7.062307},"MapView":{"TopLeft":{"Latitude":49.91638,"Longitude":7.05965},"BottomRight":{"Latitude":49.91366,"Longitude":7.06235}},"Address":{"Label":"54470 Bernkastel-Kues, Deutschland","Country":"DEU","State":"Rheinland-Pfalz","County":"Bernkastel-Wittlich","City":"Bernkastel-Kues","District":"Kues","PostalCode":"54470","AdditionalData":[{"value":"Deutschland","key":"CountryName"},{"value":"Rheinland-Pfalz","key":"StateName"},{"value":"Bernkastel-Wittlich","key":"CountyName"}]},"MapReference":{"ReferenceId":"548432101","Spot":0.99,"SideOfStreet":"right","CountryId":"20147700","StateId":"20164001","CountyId":"20167570","CityId":"20167589","DistrictId":"20167594"}}},{"Relevance":1.0,"Distance":91.3,"MatchLevel":"street","MatchQuality":{"Country":1.0,"State":1.0,"County":1.0,"City":1.0,"District":1.0,"Street":[1.0],"PostalCode":1.0},"Location":{"LocationId":"NT_kZJijEgrbAWHQXPADLxdCC_l_567321302_L","LocationType":"point","DisplayPosition":{"Latitude":49.9165,"Longitude":7.06344},"MapView":{"TopLeft":{"Latitude":49.9165,"Longitude":7.06344},"BottomRight":{"Latitude":49.91644,"Longitude":7.06353}},"Address":{"Label":"Auf der Trift, 54470 Bernkastel-Kues, Deutschland","Country":"DEU","State":"Rheinland-Pfalz","County":"Bernkastel-Wittlich","City":"Bernkastel-Kues","District":"Kues","Street":"Auf der Trift","PostalCode":"54470","AdditionalData":[{"value":"Deutschland","key":"CountryName"},{"value":"Rheinland-Pfalz","key":"StateName"},{"value":"Bernkastel-Wittlich","key":"CountyName"}]},"MapReference":{"ReferenceId":"567321302","Spot":1.0,"SideOfStreet":"left","CountryId":"20147700","StateId":"20164001","CountyId":"20167570","CityId":"20167589","DistrictId":"20167594"}}},{"Relevance":1.0,"Distance":98.8,"MatchLevel":"houseNumber","MatchQuality":{"Country":1.0,"State":1.0,"County":1.0,"City":1.0,"District":1.0,"Street":[1.0],"HouseNumber":1.0,"PostalCode":1.0},"MatchType":"interpolated","Location":{"LocationId":"NT_kZJijEgrbAWHQXPADLxdCC_xA","LocationType":"point","DisplayPosition":{"Latitude":49.91664,"Longitude":7.06337},"MapView":{"TopLeft":{"Latitude":49.9177642,"Longitude":7.0616242},"BottomRight":{"Latitude":49.9155158,"Longitude":7.0651158}},"Address":{"Label":"Auf der Trift 1, 54470 Bernkastel-Kues, Deutschland","Country":"DEU","State":"Rheinland-Pfalz","County":"Bernkastel-Wittlich","City":"Bernkastel-Kues","District":"Kues","Street":"Auf der Trift","HouseNumber":"1","PostalCode":"54470","AdditionalData":[{"value":"Deutschland","key":"CountryName"},{"value":"Rheinland-Pfalz","key":"StateName"},{"value":"Bernkastel-Wittlich","key":"CountyName"}]},"MapReference":{"ReferenceId":"550073614","Spot":0.05,"SideOfStreet":"left","CountryId":"20147700","StateId":"20164001","CountyId":"20167570","CityId":"20167589","DistrictId":"20167594","AddressId":"188319939","RoadLinkId":"34534009"}}},{"Relevance":1.0,"Distance":101.6,"MatchLevel":"houseNumber","MatchQuality":{"Country":1.0,"State":1.0,"County":1.0,"City":1.0,"District":1.0,"Street":[1.0],"HouseNumber":1.0,"PostalCode":1.0},"MatchType":"interpolated","Location":{"LocationId":"NT_zz2MEW4MjjUj-DKod4e4oD_yYD","LocationType":"point","DisplayPosition":{"Latitude":49.91513,"Longitude":7.06395},"MapView":{"TopLeft":{"Latitude":49.9162542,"Longitude":7.0622042},"BottomRight":{"Latitude":49.9140058,"Longitude":7.0656958}},"Address":{"Label":"Auf der Schifferei 26, 54470 Bernkastel-Kues, Deutschland","Country":"DEU","State":"Rheinland-Pfalz","County":"Bernkastel-Wittlich","City":"Bernkastel-Kues","District":"Kues","Street":"Auf der Schifferei","HouseNumber":"26","PostalCode":"54470","AdditionalData":[{"value":"Deutschland","key":"CountryName"},{"value":"Rheinland-Pfalz","key":"StateName"},{"value":"Bernkastel-Wittlich","key":"CountyName"}]},"MapReference":{"ReferenceId":"548509845","Spot":0.92,"SideOfStreet":"left","CountryId":"20147700","StateId":"20164001","CountyId":"20167570","CityId":"20167589","DistrictId":"20167594","AddressId":"188721470","RoadLinkId":"34354983"}}},{"Relevance":1.0,"Distance":103.3,"MatchLevel":"houseNumber","MatchQuality":{"Country":1.0,"State":1.0,"County":1.0,"City":1.0,"District":1.0,"Street":[1.0],"HouseNumber":1.0,"PostalCode":1.0},"MatchType":"interpolated","Location":{"LocationId":"NT_zz2MEW4MjjUj-DKod4e4oD_zAD","LocationType":"point","DisplayPosition":{"Latitude":49.91569,"Longitude":7.06431},"MapView":{"TopLeft":{"Latitude":49.9168142,"Longitude":7.0625642},"BottomRight":{"Latitude":49.9145658,"Longitude":7.0660558}},"Address":{"Label":"Auf der Schifferei 30, 54470 Bernkastel-Kues, Deutschland","Country":"DEU","State":"Rheinland-Pfalz","County":"Bernkastel-Wittlich","City":"Bernkastel-Kues","District":"Kues","Street":"Auf der Schifferei","HouseNumber":"30","PostalCode":"54470","AdditionalData":[{"value":"Deutschland","key":"CountryName"},{"value":"Rheinland-Pfalz","key":"StateName"},{"value":"Bernkastel-Wittlich","key":"CountyName"}]},"MapReference":{"ReferenceId":"550073646","Spot":0.2,"SideOfStreet":"left","CountryId":"20147700","StateId":"20164001","CountyId":"20167570","CityId":"20167589","DistrictId":"20167594","AddressId":"188036923","RoadLinkId":"34543662"}}},{"Relevance":1.0,"Distance":137.7,"MatchLevel":"houseNumber","MatchQuality":{"Country":1.0,"State":1.0,"County":1.0,"City":1.0,"District":1.0,"Street":[1.0],"HouseNumber":1.0,"PostalCode":1.0},"MatchType":"interpolated","Location":{"LocationId":"NT_LpXSaMiOayrAhKutVHJCiD_5A","LocationType":"point","DisplayPosition":{"Latitude":49.91683,"Longitude":7.06384},"MapView":{"TopLeft":{"Latitude":49.9179542,"Longitude":7.0620941},"BottomRight":{"Latitude":49.9157058,"Longitude":7.0655859}},"Address":{"Label":"Karl-Binz-Weg 9, 54470 Bernkastel-Kues, Deutschland","Country":"DEU","State":"Rheinland-Pfalz","County":"Bernkastel-Wittlich","City":"Bernkastel-Kues","District":"Kues","Street":"Karl-Binz-Weg","HouseNumber":"9","PostalCode":"54470","AdditionalData":[{"value":"Deutschland","key":"CountryName"},{"value":"Rheinland-Pfalz","key":"StateName"},{"value":"Bernkastel-Wittlich","key":"CountyName"}]},"MapReference":{"ReferenceId":"567321301","Spot":0.2,"SideOfStreet":"right","CountryId":"20147700","StateId":"20164001","CountyId":"20167570","CityId":"20167589","DistrictId":"20167594","AddressId":"188249381","RoadLinkId":"34676789"}}},{"Relevance":1.0,"Distance":137.9,"MatchLevel":"houseNumber","MatchQuality":{"Country":1.0,"State":1.0,"County":1.0,"City":1.0,"District":1.0,"Street":[1.0],"HouseNumber":1.0,"PostalCode":1.0},"MatchType":"interpolated","Location":{"LocationId":"NT_qpopcBoMXEzYLg1HZtWsXB_xkD","LocationType":"point","DisplayPosition":{"Latitude":49.91457,"Longitude":7.06239},"MapView":{"TopLeft":{"Latitude":49.9156942,"Longitude":7.0606442},"BottomRight":{"Latitude":49.9134458,"Longitude":7.0641358}},"Address":{"Label":"Sankt Briktius-Weg 19, 54470 Bernkastel-Kues, Deutschland","Country":"DEU","State":"Rheinland-Pfalz","County":"Bernkastel-Wittlich","City":"Bernkastel-Kues","District":"Kues","Street":"Sankt Briktius-Weg","HouseNumber":"19","PostalCode":"54470","AdditionalData":[{"value":"Deutschland","key":"CountryName"},{"value":"Rheinland-Pfalz","key":"StateName"},{"value":"Bernkastel-Wittlich","key":"CountyName"}]},"MapReference":{"ReferenceId":"548432176","Spot":0.87,"SideOfStreet":"right","CountryId":"20147700","StateId":"20164001","CountyId":"20167570","CityId":"20167589","DistrictId":"20167594","AddressId":"256069956","RoadLinkId":"34496447"}}}]}]}}