{"Response":{"MetaInfo":{"Timestamp":"2020-03-28T11:30:12.713+0000","NextPageInformation":"2"},"View":[{"_type":"SearchResultsViewType","ViewId":0,"Result":[{"Relevance":1.0,"Distance":0.0,"Direction":0.0,"MatchLevel":"district","MatchQuality":{"Country":1.0,"State":1.0,"County":1.0,"City":1.0,"District":1.0,"PostalCode":1.0},"Location":{"LocationId":"NT_dbhLePmWz0ktWLd1agzMrA","LocationType":"point","DisplayPosition":{"Latitude":49.9963735,"Longitude":21.8741571},"MapView":{"TopLeft":{"Latitude":50.01245,"Longitude":21.82447},"BottomRight":{"Latitude":49.96951,"Longitude":21.91747}},"Address":{"Label":"Niechobrz, Boguchwała, Woj. Podkarpackie, Polska","Country":"POL","State":"Woj. Podkarpackie","County":"Powiat Rzeszowski","City":"Boguchwała","District":"Niechobrz","PostalCode":"36-047","AdditionalData":[{"value":"Polska","key":"CountryName"},{"value":"Woj. Podkarpackie","key":"StateName"},{"value":"Powiat Rzeszowski","key":"CountyName"}]},"MapReference":{"ReferenceId":"594510912","SideOfStreet":"neither","CountryId":"20624059","StateId":"20628101","CountyId":"20628372","CityId":"20628375","DistrictId":"20691682"}}},{"Relevance":1.0,"Distance":7.1,"MatchLevel":"houseNumber","MatchQuality":{"Country":1.0,"State":1.0,"County":1.0,"City":1.0,"District":1.0,"Street":[1.0],"HouseNumber":1.0,"PostalCode":1.0},"MatchType":"interpolated","Location":{"LocationId":"NT_IdcQ7NuwXjjAn65ddEgBCC_3kTN","LocationType":"point","DisplayPosition":{"Latitude":49.99631,"Longitude":21.87415},"MapView":{"TopLeft":{"Latitude":49.9974342,"Longitude":21.8724013},"BottomRight":{"Latitude":49.9951858,"Longitude":21.8758987}},"Address":{"Label":"Niechobrz 795, 36-047 Niechobrz, Polska","Country":"POL","State":"Woj. Podkarpackie","County":"Powiat Rzeszowski","City":"Boguchwała","District":"Niechobrz","Street":"Niechobrz","HouseNumber":"795","PostalCode":"36-047","AdditionalData":[{"value":"Polska","key":"CountryName"},{"value":"Woj. Podkarpackie","key":"StateName"},{"value":"Powiat Rzeszowski","key":"CountyName"}]},"MapReference":{"ReferenceId":"1230948281","Spot":0.82,"SideOfStreet":"right","CountryId":"20624059","StateId":"20628101","CountyId":"20628372","CityId":"20628375","DistrictId":"20691682","AddressId":"731917561","RoadLinkId":"550402066"}}},{"Relevance":1.0,"Distance":25.9,"MatchLevel":"street","MatchQuality":{"Country":1.0,"State":1.0,"County":1.0,"City":1.0,"District":1.0,"Street":[1.0],"PostalCode":1.0},"Location":{"LocationId":"NT_IdcQ7NuwXjjAn65ddEgBCC_l_1230950178_R","LocationType":"point","DisplayPosition":{"Latitude":49.99656,"Longitude":21.87394},"MapView":{"TopLeft":{"Latitude":49.99675,"Longitude":21.8738},"BottomRight":{"Latitude":49.99656,"Longitude":21.87394}},"Address":{"Label":"Niechobrz, 36-047 Niechobrz, Polska","Country":"POL","State":"Woj. Podkarpackie","County":"Powiat Rzeszowski","City":"Boguchwała","District":"Niechobrz","Street":"Niechobrz","PostalCode":"36-047","AdditionalData":[{"value":"Polska","key":"CountryName"},{"value":"Woj. Podkarpackie","key":"StateName"},{"value":"Powiat Rzeszowski","key":"CountyName"}]},"MapReference":{"ReferenceId":"1230950178","Spot":0.0,"SideOfStreet":"right","CountryId":"20624059","StateId":"20628101","CountyId":"20628372","CityId":"20628375","DistrictId":"20691682"}}},{"Relevance":1.0,"Distance":34.7,"MatchLevel":"street","MatchQuality":{"Country":1.0,"State":1.0,"County":1.0,"City":1.0,"District":1.0,"PostalCode":1.0},"Location":{"LocationId":"NT_hKC1PIikrKZqy4-ZBR4NDB_l_1231029559_L","LocationType":"point","DisplayPosition":{"Latitude":49.9966114,"Longitude":21.8744707},"MapView":{"TopLeft":{"Latitude":49.99681,"Longitude":21.87432},"BottomRight":{"Latitude":49.99538,"Longitude":21.87556}},"Address":{"Label":"36-047 Niechobrz, Polska","Country":"POL","State":"Woj. Podkarpackie","County":"Powiat Rzeszowski","City":"Boguchwała","District":"Niechobrz","PostalCode":"36-047","AdditionalData":[{"value":"Polska","key":"CountryName"},{"value":"Woj. Podkarpackie","key":"StateName"},{"value":"Powiat Rzeszowski","key":"CountyName"}]},"MapReference":{"ReferenceId":"1231029559","Spot":0.87,"SideOfStreet":"left","CountryId":"20624059","StateId":"20628101","CountyId":"20628372","CityId":"20628375","DistrictId":"20691682"}}},{"Relevance":1.0,"Distance":49.0,"MatchLevel":"street","MatchQuality":{"Country":1.0,"State":1.0,"County":1.0,"City":1.0,"District":1.0,"Street":[1.0],"PostalCode":1.0},"Location":{"LocationId":"NT_IdcQ7NuwXjjAn65ddEgBCC_l_1231029316_R","LocationType":"point","DisplayPosition":{"Latitude":49.99675,"Longitude":21.8738},"MapView":{"TopLeft":{"Latitude":49.99717,"Longitude":21.87348},"BottomRight":{"Latitude":49.99675,"Longitude":21.8738}},"Address":{"Label":"Niechobrz, 36-047 Niechobrz, Polska","Country":"POL","State":"Woj. Podkarpackie","County":"Powiat Rzeszowski","City":"Boguchwała","District":"Niechobrz","Street":"Niechobrz","PostalCode":"36-047","AdditionalData":[{"value":"Polska","key":"CountryName"},{"value":"Woj. Podkarpackie","key":"StateName"},{"value":"Powiat Rzeszowski","key":"CountyName"}]},"MapReference":{"ReferenceId":"1231029316","Spot":0.0,"SideOfStreet":"right","CountryId":"20624059","StateId":"20628101","CountyId":"20628372","CityId":"20628375","DistrictId":"20691682"}}},{"Relevance":1.0,"Distance":50.6,"MatchLevel":"street","MatchQuality":{"Country":1.0,"State":1.0,"County":1.0,"City":1.0,"District":1.0,"PostalCode":1.0},"Location":{"LocationId":"NT_hKC1PIikrKZqy4-ZBR4NDB_l_1231029569_R","LocationType":"point","DisplayPosition":{"Latitude":49.9968191,"Longitude":21.8740113},"MapView":{"TopLeft":{"Latitude":49.99729,"Longitude":21.8738},"BottomRight":{"Latitude":49.99675,"Longitude":21.87545}},"Address":{"Label":"36-047 Niechobrz, Polska","Country":"POL","State":"Woj. Podkarpackie","County":"Powiat Rzeszowski","City":"Boguchwała","District":"Niechobrz","PostalCode":"36-047","AdditionalData":[{"value":"Polska","key":"CountryName"},{"value":"Woj. Podkarpackie","key":"StateName"},{"value":"Powiat Rzeszowski","key":"CountyName"}]},"MapReference":{"ReferenceId":"1231029569","Spot":0.13,"SideOfStreet":"right","CountryId":"20624059","StateId":"20628101","CountyId":"20628372","CityId":"20628375","DistrictId":"20691682"}}},{"Relevance":1.0,"Distance":89.1,"MatchLevel":"street","MatchQuality":{"Country":1.0,"State":1.0,"County":1.0,"City":1.0,"District":1.0,"PostalCode":1.0},"Location":{"LocationId":"NT_hKC1PIikrKZqy4-ZBR4NDB_l_1231029561_L","LocationType":"point","DisplayPosition":{"Latitude":49.99649,"Longitude":21.87539},"MapView":{"TopLeft":{"Latitude":49.99649,"Longitude":21.87539},"BottomRight":{"Latitude":49.99563,"Longitude":21.87622}},"Address":{"Label":"36-047 Niechobrz, Polska","Country":"POL","State":"Woj. Podkarpackie","County":"Powiat Rzeszowski","City":"Boguchwała","District":"Niechobrz","PostalCode":"36-047","AdditionalData":[{"value":"Polska","key":"CountryName"},{"value":"Woj. Podkarpackie","key":"StateName"},{"value":"Powiat Rzeszowski","key":"CountyName"}]},"MapReference":{"ReferenceId":"1231029561","Spot":1.0,"SideOfStreet":"left","CountryId":"20624059","StateId":"20628101","CountyId":"20628372","CityId":"20628375","DistrictId":"20691682"}}},{"Relevance":1.0,"Distance":100.9,"MatchLevel":"street","MatchQuality":{"Country":1.0,"State":1.0,"County":1.0,"City":1.0,"District":1.0,"Street":[1.0],"PostalCode":1.0},"Location":{"LocationId":"NT_YeG9grc7uTn0WafeTgJz0B_l_1231029317_R","LocationType":"point","DisplayPosition":{"Latitude":49.99717,"Longitude":21.87348},"MapView":{"TopLeft":{"Latitude":50.00559,"Longitude":21.86456},"BottomRight":{"Latitude":49.99717,"Longitude":21.87348}},"Address":{"Label":"Niechobrz, 36-046 Niechobrz, Polska","Country":"POL","State":"Woj. Podkarpackie","County":"Powiat Rzeszowski","City":"Boguchwała","District":"Niechobrz","Street":"Niechobrz","PostalCode":"36-046","AdditionalData":[{"value":"Polska","key":"CountryName"},{"value":"Woj. Podkarpackie","key":"StateName"},{"value":"Powiat Rzeszowski","key":"CountyName"}]},"MapReference":{"ReferenceId":"1231029317","Spot":0.0,"SideOfStreet":"right","CountryId":"20624059","StateId":"20628101","CountyId":"20628372","CityId":"20628375"}}},{"Relevance":1.0,"Distance":100.9,"MatchLevel":"street","MatchQuality":{"Country":1.0,"State":1.0,"County":1.0,"City":1.0,"District":1.0,"PostalCode":1.0},"Location":{"LocationId":"NT_hKC1PIikrKZqy4-ZBR4NDB_l_1231029325_L","LocationType":"point","DisplayPosition":{"Latitude":49.99717,"Longitude":21.87348},"MapView":{"TopLeft":{"Latitude":49.99727,"Longitude":21.87218},"BottomRight":{"Latitude":49.99715,"Longitude":21.87348}},"Address":{"Label":"36-047 Niechobrz, Polska","Country":"POL","State":"Woj. Podkarpackie","County":"Powiat Rzeszowski","City":"Boguchwała","District":"Niechobrz","PostalCode":"36-047","AdditionalData":[{"value":"Polska","key":"CountryName"},{"value":"Woj. Podkarpackie","key":"StateName"},{"value":"Powiat Rzeszowski","key":"CountyName"}]},"MapReference":{"ReferenceId":"1231029325","Spot":0.0,"SideOfStreet":"left","CountryId":"20624059","StateId":"20628101","CountyId":"20628372","CityId":"20628375","DistrictId":"20691682"}}},{"Relevance":1.0,"Distance":113.1,"MatchLevel":"houseNumber","MatchQuality":{"Country":1.0,"State":1.0,"County":1.0,"City":1.0,"District":1.0,"Street":[1.0],"HouseNumber":1.0,"PostalCode":1.0},"MatchType":"interpolated","Location":{"LocationId":"NT_IdcQ7NuwXjjAn65ddEgBCC_2gDM","LocationType":"point","DisplayPosition":{"Latitude":49.99515,"Longitude":21.87402},"MapView":{"TopLeft":{"Latitude":49.9962742,"Longitude":21.8722713},"BottomRight":{"Latitude":49.9940258,"Longitude":21.8757687}},"Address":{"Label":"Niechobrz 680, 36-047 Niechobrz, Polska","Country":"POL","State":"Woj. Podkarpackie","County":"Powiat Rzeszowski","City":"Boguchwała","District":"Niechobrz","Street":"Niechobrz","HouseNumber":"680","PostalCode":"36-047","AdditionalData":[{"value":"Polska","key":"CountryName"},{"value":"Woj. Podkarpackie","key":"StateName"},{"value":"Powiat Rzeszowski","key":"CountyName"}]},"MapReference":{"ReferenceId":"1231562969","Spot":0.26,"SideOfStreet":"left","CountryId":"20624059","StateId":"20628101","CountyId":"20628372","CityId":"20628375","DistrictId":"20691682","AddressId":"366905949","RoadLinkId":"551164947"}}}]}]}}