{"Response":{"MetaInfo":{"Timestamp":"2020-03-28T11:09:39.780+0000","NextPageInformation":"2"},"View":[{"_type":"SearchResultsViewType","ViewId":0,"Result":[{"Relevance":1.0,"Distance":0.0,"Direction":0.0,"MatchLevel":"city","MatchQuality":{"Country":1.0,"State":1.0,"County":1.0,"City":1.0,"PostalCode":1.0},"Location":{"LocationId":"NT_lQjzTTe.COQitTeZvOCAPC","LocationType":"point","DisplayPosition":{"Latitude":49.9078416,"Longitude":1.0728942},"MapView":{"TopLeft":{"Latitude":49.90876,"Longitude":1.05925},"BottomRight":{"Latitude":49.86244,"Longitude":1.10079}},"Address":{"Label":"Saint-Aubin-sur-Scie, Normandie, France","Country":"FRA","State":"Normandie","County":"Seine-Maritime","City":"Saint-Aubin-sur-Scie","PostalCode":"76550","AdditionalData":[{"value":"France","key":"CountryName"},{"value":"Normandie","key":"StateName"},{"value":"Seine-Maritime","key":"CountyName"}]},"MapReference":{"ReferenceId":"844877715","SideOfStreet":"neither","CountryId":"20000001","StateId":"20057204","CountyId":"20038936","CityId":"20079474"}}},{"Relevance":1.0,"Distance":6.6,"MatchLevel":"houseNumber","MatchQuality":{"Country":1.0,"State":1.0,"County":1.0,"City":1.0,"Street":[1.0],"HouseNumber":1.0,"PostalCode":1.0},"MatchType":"interpolated","Location":{"LocationId":"NT_KjfExHEv54gwbcWJyxAejD_zkDR","LocationType":"point","DisplayPosition":{"Latitude":49.90787,"Longitude":1.07281},"MapView":{"TopLeft":{"Latitude":49.9089942,"Longitude":1.0710645},"BottomRight":{"Latitude":49.9067458,"Longitude":1.0745555}},"Address":{"Label":"39D Chemin des Vertus, 76200 Dieppe, France","Country":"FRA","State":"Normandie","County":"Seine-Maritime","City":"Dieppe","Street":"Chemin des Vertus","HouseNumber":"39D","PostalCode":"76200","AdditionalData":[{"value":"France","key":"CountryName"},{"value":"Normandie","key":"StateName"},{"value":"Seine-Maritime","key":"CountyName"}]},"MapReference":{"ReferenceId":"552732093","Spot":0.95,"SideOfStreet":"right","CountryId":"20000001","StateId":"20057204","CountyId":"20038936","CityId":"20078437","AddressId":"316680520","RoadLinkId":"47262002"}}},{"Relevance":1.0,"Distance":40.2,"MatchLevel":"houseNumber","MatchQuality":{"Country":1.0,"State":1.0,"County":1.0,"City":1.0,"Street":[1.0],"HouseNumber":1.0,"PostalCode":1.0},"MatchType":"interpolated","Location":{"LocationId":"NT_KjfExHEv54gwbcWJyxAejD_zcD","LocationType":"point","DisplayPosition":{"Latitude":49.90817,"Longitude":1.07266},"MapView":{"TopLeft":{"Latitude":49.9092942,"Longitude":1.0709145},"BottomRight":{"Latitude":49.9070458,"Longitude":1.0744055}},"Address":{"Label":"37 Chemin des Vertus, 76200 Dieppe, France","Country":"FRA","State":"Normandie","County":"Seine-Maritime","City":"Dieppe","Street":"Chemin des Vertus","HouseNumber":"37","PostalCode":"76200","AdditionalData":[{"value":"France","key":"CountryName"},{"value":"Normandie","key":"StateName"},{"value":"Seine-Maritime","key":"CountyName"}]},"MapReference":{"ReferenceId":"851622829","Spot":0.19,"SideOfStreet":"right","CountryId":"20000001","StateId":"20057204","CountyId":"20038936","CityId":"20078437","AddressId":"417315410","RoadLinkId":"230969811"}}},{"Relevance":1.0,"Distance":45.9,"MatchLevel":"houseNumber","MatchQuality":{"Country":1.0,"State":1.0,"County":1.0,"City":1.0,"Street":[1.0],"HouseNumber":1.0,"PostalCode":1.0},"MatchType":"interpolated","Location":{"LocationId":"NT_u3OWIQZ3lAhrJd88NH3WCA_xA","LocationType":"point","DisplayPosition":{"Latitude":49.90825,"Longitude":1.07327},"MapView":{"TopLeft":{"Latitude":49.9093742,"Longitude":1.0715245},"BottomRight":{"Latitude":49.9071258,"Longitude":1.0750155}},"Address":{"Label":"1 Rue Jean Dablon, 76200 Dieppe, France","Country":"FRA","State":"Normandie","County":"Seine-Maritime","City":"Dieppe","Street":"Rue Jean Dablon","HouseNumber":"1","PostalCode":"76200","AdditionalData":[{"value":"France","key":"CountryName"},{"value":"Normandie","key":"StateName"},{"value":"Seine-Maritime","key":"CountyName"}]},"MapReference":{"ReferenceId":"552732030","Spot":0.21,"SideOfStreet":"right","CountryId":"20000001","StateId":"20057204","CountyId":"20038936","CityId":"20078437","AddressId":"316662959","RoadLinkId":"47374910"}}},{"Relevance":1.0,"Distance":80.4,"MatchLevel":"houseNumber","MatchQuality":{"Country":1.0,"State":1.0,"County":1.0,"City":1.0,"Street":[1.0],"HouseNumber":1.0,"PostalCode":1.0},"MatchType":"interpolated","Location":{"LocationId":"NT_sZYSv.Ia7TfRGo.TVNi5kA_xgDMwA","LocationType":"point","DisplayPosition":{"Latitude":49.90855,"Longitude":1.07238},"MapView":{"TopLeft":{"Latitude":49.9096742,"Longitude":1.0706344},"BottomRight":{"Latitude":49.9074258,"Longitude":1.0741256}},"Address":{"Label":"1800 Impasse Robert Desmarets, 76550 Saint-Aubin-sur-Scie, France","Country":"FRA","State":"Normandie","County":"Seine-Maritime","City":"Saint-Aubin-sur-Scie","Street":"Impasse Robert Desmarets","HouseNumber":"1800","PostalCode":"76550","AdditionalData":[{"value":"France","key":"CountryName"},{"value":"Normandie","key":"StateName"},{"value":"Seine-Maritime","key":"CountyName"}]},"MapReference":{"ReferenceId":"867414150","Spot":0.96,"SideOfStreet":"right","CountryId":"20000001","StateId":"20057204","CountyId":"20038936","CityId":"20079474","AddressId":"316650779","RoadLinkId":"240071411"}}},{"Relevance":1.0,"Distance":87.6,"MatchLevel":"street","MatchQuality":{"Country":1.0,"State":1.0,"County":1.0,"City":1.0,"Street":[1.0],"PostalCode":1.0},"Location":{"LocationId":"NT_6JyIF9o2fuDAVyYlgdBmmC_l_851622830_R","LocationType":"point","DisplayPosition":{"Latitude":49.90857,"Longitude":1.07243},"MapView":{"TopLeft":{"Latitude":49.90876,"Longitude":1.07238},"BottomRight":{"Latitude":49.90857,"Longitude":1.07243}},"Address":{"Label":"Chemin des Vertus, 76200 Dieppe, France","Country":"FRA","State":"Normandie","County":"Seine-Maritime","City":"Dieppe","Street":"Chemin des Vertus","PostalCode":"76200","AdditionalData":[{"value":"France","key":"CountryName"},{"value":"Normandie","key":"StateName"},{"value":"Seine-Maritime","key":"CountyName"}]},"MapReference":{"ReferenceId":"851622830","Spot":0.0,"SideOfStreet":"right","CountryId":"20000001","StateId":"20057204","CountyId":"20038936","CityId":"20078437"}}},{"Relevance":1.0,"Distance":89.2,"MatchLevel":"street","MatchQuality":{"Country":1.0,"State":1.0,"County":1.0,"City":1.0,"PostalCode":1.0},"Location":{"LocationId":"NT_TQ9mQinXHj4BLrSHJh-tPA_l_863486745_L","LocationType":"point","DisplayPosition":{"Latitude":49.9080154,"Longitude":1.0741107},"MapView":{"TopLeft":{"Latitude":49.90869,"Longitude":1.07411},"BottomRight":{"Latitude":49.90736,"Longitude":1.07504}},"Address":{"Label":"76200 Dieppe, France","Country":"FRA","State":"Normandie","County":"Seine-Maritime","City":"Dieppe","PostalCode":"76200","AdditionalData":[{"value":"France","key":"CountryName"},{"value":"Normandie","key":"StateName"},{"value":"Seine-Maritime","key":"CountyName"}]},"MapReference":{"ReferenceId":"863486745","Spot":0.34,"SideOfStreet":"left","CountryId":"20000001","StateId":"20057204","CountyId":"20038936","CityId":"20078437"}}},{"Relevance":1.0,"Distance":94.9,"MatchLevel":"street","MatchQuality":{"Country":1.0,"State":1.0,"County":1.0,"City":1.0,"Street":[1.0],"PostalCode":1.0},"Location":{"LocationId":"NT_FxGyH9SChS6pVz0w9ZCoXA_l_1122879043_R","LocationType":"point","DisplayPosition":{"Latitude":49.90844,"Longitude":1.07195},"MapView":{"TopLeft":{"Latitude":49.90844,"Longitude":1.07161},"BottomRight":{"Latitude":49.90825,"Longitude":1.07195}},"Address":{"Label":"Rocade de Janval, 76550 Saint-Aubin-sur-Scie, France","Country":"FRA","State":"Normandie","County":"Seine-Maritime","City":"Saint-Aubin-sur-Scie","Street":"Rocade de Janval","PostalCode":"76550","AdditionalData":[{"value":"France","key":"CountryName"},{"value":"Normandie","key":"StateName"},{"value":"Seine-Maritime","key":"CountyName"}]},"MapReference":{"ReferenceId":"1122879043","Spot":1.0,"SideOfStreet":"right","CountryId":"20000001","StateId":"20057204","CountyId":"20038936","CityId":"20079474"}}},{"Relevance":1.0,"Distance":99.8,"MatchLevel":"street","MatchQuality":{"Country":1.0,"State":1.0,"County":1.0,"City":1.0,"Street":[1.0],"PostalCode":1.0},"Location":{"LocationId":"NT_PVJ5SLgZf67ebbHFapzSUD_l_1125430606_R","LocationType":"point","DisplayPosition":{"Latitude":49.90862,"Longitude":1.0722},"MapView":{"TopLeft":{"Latitude":49.90862,"Longitude":1.07195},"BottomRight":{"Latitude":49.90844,"Longitude":1.0722}},"Address":{"Label":"Rocade de Janval, 76550 Saint-Aubin-sur-Scie, France","Country":"FRA","State":"Normandie","County":"Seine-Maritime","City":"Saint-Aubin-sur-Scie","Street":"Rocade de Janval","PostalCode":"76550","AdditionalData":[{"value":"France","key":"CountryName"},{"value":"Normandie","key":"StateName"},{"value":"Seine-Maritime","key":"CountyName"}]},"MapReference":{"ReferenceId":"1125430606","Spot":1.0,"SideOfStreet":"right","CountryId":"20000001","StateId":"20057204","CountyId":"20038936","CityId":"20079474"}}},{"Relevance":1.0,"Distance":100.3,"MatchLevel":"houseNumber","MatchQuality":{"Country":1.0,"State":1.0,"County":1.0,"City":1.0,"Street":[1.0],"HouseNumber":1.0,"PostalCode":1.0},"MatchType":"interpolated","Location":{"LocationId":"NT_tN8JnHLA5XWfLBIu9XQeNC_zMD","LocationType":"point","DisplayPosition":{"Latitude":49.90874,"Longitude":1.07276},"MapView":{"TopLeft":{"Latitude":49.9098642,"Longitude":1.0710144},"BottomRight":{"Latitude":49.9076158,"Longitude":1.0745056}},"Address":{"Label":"33 Chemin du Chant des Oiseaux, 76200 Dieppe, France","Country":"FRA","State":"Normandie","County":"Seine-Maritime","City":"Dieppe","Street":"Chemin du Chant des Oiseaux","HouseNumber":"33","PostalCode":"76200","AdditionalData":[{"value":"France","key":"CountryName"},{"value":"Normandie","key":"StateName"},{"value":"Seine-Maritime","key":"CountyName"}]},"MapReference":{"ReferenceId":"851622839","Spot":0.22,"SideOfStreet":"right","CountryId":"20000001","StateId":"20057204","CountyId":"20038936","CityId":"20078437","AddressId":"316650277","RoadLinkId":"230969821"}}}]}]}}