{"Response":{"MetaInfo":{"Timestamp":"2020-03-28T10:04:19.711+0000","NextPageInformation":"2"},"View":[{"_type":"SearchResultsViewType","ViewId":0,"Result":[{"Relevance":1.0,"Distance":0.0,"Direction":0.0,"MatchLevel":"district","MatchQuality":{"Country":1.0,"State":1.0,"County":1.0,"City":1.0,"District":1.0,"PostalCode":1.0},"Location":{"LocationId":"NT_uf2xgGPupYUACV72KB0UlB","LocationType":"point","DisplayPosition":{"Latitude":49.9205648,"Longitude":6.9528879},"MapView":{"TopLeft":{"Latitude":49.92722,"Longitude":6.94579},"BottomRight":{"Latitude":49.91774,"Longitude":6.95913}},"Address":{"Label":"Osann, Osann-Monzel, Rheinland-Pfalz, Deutschland","Country":"DEU","State":"Rheinland-Pfalz","County":"Bernkastel-Wittlich","City":"Osann-Monzel","District":"Osann","PostalCode":"54518","AdditionalData":[{"value":"Deutschland","key":"CountryName"},{"value":"Rheinland-Pfalz","key":"StateName"},{"value":"Bernkastel-Wittlich","key":"CountyName"}]},"MapReference":{"ReferenceId":"548428843","SideOfStreet":"neither","CountryId":"20147700","StateId":"20164001","CountyId":"20167570","CityId":"20167805","DistrictId":"20167807"}}},{"Relevance":1.0,"Distance":6.5,"MatchLevel":"houseNumber","MatchQuality":{"Country":1.0,"State":1.0,"County":1.0,"City":1.0,"District":1.0,"Street":[1.0],"HouseNumber":1.0,"PostalCode":1.0},"MatchType":"interpolated","Location":{"LocationId":"NT_hy7QES5vWO77ZFqI3H6VRC_xA","LocationType":"point","DisplayPosition":{"Latitude":49.92047,"Longitude":6.95286},"MapView":{"TopLeft":{"Latitude":49.9215942,"Longitude":6.951114},"BottomRight":{"Latitude":49.9193458,"Longitude":6.954606}},"Address":{"Label":"Nikolausstraße 1, 54518 Osann-Monzel, Deutschland","Country":"DEU","State":"Rheinland-Pfalz","County":"Bernkastel-Wittlich","City":"Osann-Monzel","District":"Osann","Street":"Nikolausstraße","HouseNumber":"1","PostalCode":"54518","AdditionalData":[{"value":"Deutschland","key":"CountryName"},{"value":"Rheinland-Pfalz","key":"StateName"},{"value":"Bernkastel-Wittlich","key":"CountyName"}]},"MapReference":{"ReferenceId":"548428853","Spot":0.87,"SideOfStreet":"right","CountryId":"20147700","StateId":"20164001","CountyId":"20167570","CityId":"20167805","DistrictId":"20167807","AddressId":"187884934","RoadLinkId":"34434292"}}},{"Relevance":1.0,"Distance":13.6,"MatchLevel":"houseNumber","MatchQuality":{"Country":1.0,"State":1.0,"County":1.0,"City":1.0,"District":1.0,"Street":[1.0],"HouseNumber":1.0,"PostalCode":1.0},"MatchType":"interpolated","Location":{"LocationId":"NT_LrQFtAfleXTEGOBGT5CVtA_yED","LocationType":"point","DisplayPosition":{"Latitude":49.9205,"Longitude":6.95266},"MapView":{"TopLeft":{"Latitude":49.9216242,"Longitude":6.950914},"BottomRight":{"Latitude":49.9193758,"Longitude":6.954406}},"Address":{"Label":"Moseltalstraße 21, 54518 Osann-Monzel, Deutschland","Country":"DEU","State":"Rheinland-Pfalz","County":"Bernkastel-Wittlich","City":"Osann-Monzel","District":"Osann","Street":"Moseltalstraße","HouseNumber":"21","PostalCode":"54518","AdditionalData":[{"value":"Deutschland","key":"CountryName"},{"value":"Rheinland-Pfalz","key":"StateName"},{"value":"Bernkastel-Wittlich","key":"CountyName"}]},"MapReference":{"ReferenceId":"548515562","Spot":0.38,"SideOfStreet":"right","CountryId":"20147700","StateId":"20164001","CountyId":"20167570","CityId":"20167805","DistrictId":"20167807","AddressId":"188673008","RoadLinkId":"34073890"}}},{"Relevance":1.0,"Distance":15.3,"MatchLevel":"houseNumber","MatchQuality":{"Country":1.0,"State":1.0,"County":1.0,"City":1.0,"District":1.0,"Street":[1.0],"HouseNumber":1.0,"PostalCode":1.0},"MatchType":"interpolated","Location":{"LocationId":"NT_LrQFtAfleXTEGOBGT5CVtA_xITQ","LocationType":"point","DisplayPosition":{"Latitude":49.92068,"Longitude":6.95277},"MapView":{"TopLeft":{"Latitude":49.9218042,"Longitude":6.951024},"BottomRight":{"Latitude":49.9195558,"Longitude":6.954516}},"Address":{"Label":"Moseltalstraße 12A, 54518 Osann-Monzel, Deutschland","Country":"DEU","State":"Rheinland-Pfalz","County":"Bernkastel-Wittlich","City":"Osann-Monzel","District":"Osann","Street":"Moseltalstraße","HouseNumber":"12A","PostalCode":"54518","AdditionalData":[{"value":"Deutschland","key":"CountryName"},{"value":"Rheinland-Pfalz","key":"StateName"},{"value":"Bernkastel-Wittlich","key":"CountyName"}]},"MapReference":{"ReferenceId":"548428881","Spot":0.31,"SideOfStreet":"left","CountryId":"20147700","StateId":"20164001","CountyId":"20167570","CityId":"20167805","DistrictId":"20167807","AddressId":"188195067","RoadLinkId":"34702242"}}},{"Relevance":1.0,"Distance":24.3,"MatchLevel":"houseNumber","MatchQuality":{"Country":1.0,"State":1.0,"County":1.0,"City":1.0,"District":1.0,"Street":[1.0],"HouseNumber":1.0,"PostalCode":1.0},"MatchType":"interpolated","Location":{"LocationId":"NT_LrQFtAfleXTEGOBGT5CVtA_yMD","LocationType":"point","DisplayPosition":{"Latitude":49.92042,"Longitude":6.95261},"MapView":{"TopLeft":{"Latitude":49.9215442,"Longitude":6.950864},"BottomRight":{"Latitude":49.9192958,"Longitude":6.954356}},"Address":{"Label":"Moseltalstraße 23, 54518 Osann-Monzel, Deutschland","Country":"DEU","State":"Rheinland-Pfalz","County":"Bernkastel-Wittlich","City":"Osann-Monzel","District":"Osann","Street":"Moseltalstraße","HouseNumber":"23","PostalCode":"54518","AdditionalData":[{"value":"Deutschland","key":"CountryName"},{"value":"Rheinland-Pfalz","key":"StateName"},{"value":"Bernkastel-Wittlich","key":"CountyName"}]},"MapReference":{"ReferenceId":"548515561","Spot":0.97,"SideOfStreet":"right","CountryId":"20147700","StateId":"20164001","CountyId":"20167570","CityId":"20167805","DistrictId":"20167807","AddressId":"188514735","RoadLinkId":"34868839"}}},{"Relevance":1.0,"Distance":25.0,"MatchLevel":"houseNumber","MatchQuality":{"Country":1.0,"State":1.0,"County":1.0,"City":1.0,"District":1.0,"Street":[1.0],"HouseNumber":1.0,"PostalCode":1.0},"MatchType":"interpolated","Location":{"LocationId":"NT_D8JmX4phV5OvFjYkC9Sl3A_yA","LocationType":"point","DisplayPosition":{"Latitude":49.92064,"Longitude":6.95328},"MapView":{"TopLeft":{"Latitude":49.9217642,"Longitude":6.951534},"BottomRight":{"Latitude":49.9195158,"Longitude":6.955026}},"Address":{"Label":"Steinrausch 2, 54518 Osann-Monzel, Deutschland","Country":"DEU","State":"Rheinland-Pfalz","County":"Bernkastel-Wittlich","City":"Osann-Monzel","District":"Osann","Street":"Steinrausch","HouseNumber":"2","PostalCode":"54518","AdditionalData":[{"value":"Deutschland","key":"CountryName"},{"value":"Rheinland-Pfalz","key":"StateName"},{"value":"Bernkastel-Wittlich","key":"CountyName"}]},"MapReference":{"ReferenceId":"548428871","Spot":0.69,"SideOfStreet":"left","CountryId":"20147700","StateId":"20164001","CountyId":"20167570","CityId":"20167805","DistrictId":"20167807","AddressId":"188255883","RoadLinkId":"34790019"}}},{"Relevance":1.0,"Distance":48.4,"MatchLevel":"houseNumber","MatchQuality":{"Country":1.0,"State":1.0,"County":1.0,"City":1.0,"District":1.0,"Street":[1.0],"HouseNumber":1.0,"PostalCode":1.0},"MatchType":"interpolated","Location":{"LocationId":"NT_LrQFtAfleXTEGOBGT5CVtA_xcD","LocationType":"point","DisplayPosition":{"Latitude":49.92101,"Longitude":6.95284},"MapView":{"TopLeft":{"Latitude":49.9221342,"Longitude":6.951094},"BottomRight":{"Latitude":49.9198858,"Longitude":6.954586}},"Address":{"Label":"Moseltalstraße 17, 54518 Osann-Monzel, Deutschland","Country":"DEU","State":"Rheinland-Pfalz","County":"Bernkastel-Wittlich","City":"Osann-Monzel","District":"Osann","Street":"Moseltalstraße","HouseNumber":"17","PostalCode":"54518","AdditionalData":[{"value":"Deutschland","key":"CountryName"},{"value":"Rheinland-Pfalz","key":"StateName"},{"value":"Bernkastel-Wittlich","key":"CountyName"}]},"MapReference":{"ReferenceId":"548428882","Spot":0.12,"SideOfStreet":"right","CountryId":"20147700","StateId":"20164001","CountyId":"20167570","CityId":"20167805","DistrictId":"20167807","AddressId":"187893431","RoadLinkId":"34191404"}}},{"Relevance":1.0,"Distance":79.5,"MatchLevel":"houseNumber","MatchQuality":{"Country":1.0,"State":1.0,"County":1.0,"City":1.0,"District":1.0,"Street":[1.0],"HouseNumber":1.0,"PostalCode":1.0},"MatchType":"interpolated","Location":{"LocationId":"NT_TWTuEvjcfPgENdCf2imgJC_0A","LocationType":"point","DisplayPosition":{"Latitude":49.92078,"Longitude":6.95176},"MapView":{"TopLeft":{"Latitude":49.9219042,"Longitude":6.950014},"BottomRight":{"Latitude":49.9196558,"Longitude":6.953506}},"Address":{"Label":"Kirchgasse 4, 54518 Osann-Monzel, Deutschland","Country":"DEU","State":"Rheinland-Pfalz","County":"Bernkastel-Wittlich","City":"Osann-Monzel","District":"Osann","Street":"Kirchgasse","HouseNumber":"4","PostalCode":"54518","AdditionalData":[{"value":"Deutschland","key":"CountryName"},{"value":"Rheinland-Pfalz","key":"StateName"},{"value":"Bernkastel-Wittlich","key":"CountyName"}]},"MapReference":{"ReferenceId":"548515112","Spot":0.41,"SideOfStreet":"right","CountryId":"20147700","StateId":"20164001","CountyId":"20167570","CityId":"20167805","DistrictId":"20167807","AddressId":"188515443","RoadLinkId":"34917784"}}},{"Relevance":1.0,"Distance":99.8,"MatchLevel":"houseNumber","MatchQuality":{"Country":1.0,"State":1.0,"County":1.0,"City":1.0,"District":1.0,"Street":[1.0],"HouseNumber":1.0,"PostalCode":1.0},"MatchType":"interpolated","Location":{"LocationId":"NT_EFbGcz1Cb3uHz2CCYo9rRB_1QD","LocationType":"point","DisplayPosition":{"Latitude":49.9215,"Longitude":6.95315},"MapView":{"TopLeft":{"Latitude":49.9226242,"Longitude":6.951404},"BottomRight":{"Latitude":49.9203758,"Longitude":6.954896}},"Address":{"Label":"Bernkasteler Straße 54, 54518 Osann-Monzel, Deutschland","Country":"DEU","State":"Rheinland-Pfalz","County":"Bernkastel-Wittlich","City":"Osann-Monzel","District":"Osann","Street":"Bernkasteler Straße","HouseNumber":"54","PostalCode":"54518","AdditionalData":[{"value":"Deutschland","key":"CountryName"},{"value":"Rheinland-Pfalz","key":"StateName"},{"value":"Bernkastel-Wittlich","key":"CountyName"}]},"MapReference":{"ReferenceId":"548428878","Spot":0.96,"SideOfStreet":"left","CountryId":"20147700","StateId":"20164001","CountyId":"20167570","CityId":"20167805","DistrictId":"20167807","AddressId":"188305118","RoadLinkId":"34279662"}}},{"Relevance":1.0,"Distance":102.0,"MatchLevel":"houseNumber","MatchQuality":{"Country":1.0,"State":1.0,"County":1.0,"City":1.0,"District":1.0,"Street":[1.0],"HouseNumber":1.0,"PostalCode":1.0},"MatchType":"interpolated","Location":{"LocationId":"NT_EFbGcz1Cb3uHz2CCYo9rRB_1AD","LocationType":"point","DisplayPosition":{"Latitude":49.92162,"Longitude":6.95265},"MapView":{"TopLeft":{"Latitude":49.9227442,"Longitude":6.950904},"BottomRight":{"Latitude":49.9204958,"Longitude":6.954396}},"Address":{"Label":"Bernkasteler Straße 50, 54518 Osann-Monzel, Deutschland","Country":"DEU","State":"Rheinland-Pfalz","County":"Bernkastel-Wittlich","City":"Osann-Monzel","District":"Osann","Street":"Bernkasteler Straße","HouseNumber":"50","PostalCode":"54518","AdditionalData":[{"value":"Deutschland","key":"CountryName"},{"value":"Rheinland-Pfalz","key":"StateName"},{"value":"Bernkastel-Wittlich","key":"CountyName"}]},"MapReference":{"ReferenceId":"550081121","Spot":0.07,"SideOfStreet":"left","CountryId":"20147700","StateId":"20164001","CountyId":"20167570","CityId":"20167805","DistrictId":"20167807","AddressId":"188673267","RoadLinkId":"34461398"}}}]}]}}