{"Response":{"MetaInfo":{"Timestamp":"2020-03-28T10:18:36.483+0000","NextPageInformation":"2"},"View":[{"_type":"SearchResultsViewType","ViewId":0,"Result":[{"Relevance":1.0,"Distance":0.0,"Direction":0.0,"MatchLevel":"district","MatchQuality":{"Country":1.0,"State":1.0,"County":1.0,"City":1.0,"District":1.0,"PostalCode":1.0},"Location":{"LocationId":"NT_vE1nKNBNHa3eJ3bYzTlz0C","LocationType":"point","DisplayPosition":{"Latitude":49.9703074,"Longitude":9.0720251},"MapView":{"TopLeft":{"Latitude":49.98319,"Longitude":9.04712},"BottomRight":{"Latitude":49.95859,"Longitude":9.09295}},"Address":{"Label":"Stockstadt am Main, Bayern, Deutschland","Country":"DEU","State":"Bayern","County":"Aschaffenburg (Landkreis)","City":"Stockstadt am Main","District":"Stockstadt am Main","PostalCode":"63811","AdditionalData":[{"value":"Deutschland","key":"CountryName"},{"value":"Bayern","key":"StateName"},{"value":"Aschaffenburg (Landkreis)","key":"CountyName"}]},"MapReference":{"ReferenceId":"53280097","SideOfStreet":"neither","CountryId":"20147700","StateId":"20177250","CountyId":"20183955","CityId":"20184068","DistrictId":"20184070"}}},{"Relevance":1.0,"Distance":13.1,"MatchLevel":"houseNumber","MatchQuality":{"Country":1.0,"State":1.0,"County":1.0,"City":1.0,"District":1.0,"Street":[1.0],"HouseNumber":1.0,"PostalCode":1.0},"MatchType":"interpolated","Location":{"LocationId":"NT_rJfKyimD5.si152oGobwgA_yA","LocationType":"point","DisplayPosition":{"Latitude":49.97019,"Longitude":9.07202},"MapView":{"TopLeft":{"Latitude":49.9713142,"Longitude":9.0702722},"BottomRight":{"Latitude":49.9690658,"Longitude":9.0737678}},"Address":{"Label":"Vogelsbergstraße 2, 63811 Stockstadt am Main, Deutschland","Country":"DEU","State":"Bayern","County":"Aschaffenburg (Landkreis)","City":"Stockstadt am Main","District":"Stockstadt am Main","Street":"Vogelsbergstraße","HouseNumber":"2","PostalCode":"63811","AdditionalData":[{"value":"Deutschland","key":"CountryName"},{"value":"Bayern","key":"StateName"},{"value":"Aschaffenburg (Landkreis)","key":"CountyName"}]},"MapReference":{"ReferenceId":"53278001","Spot":0.67,"SideOfStreet":"right","CountryId":"20147700","StateId":"20177250","CountyId":"20183955","CityId":"20184068","DistrictId":"20184070","AddressId":"184230908","RoadLinkId":"32633029"}}},{"Relevance":1.0,"Distance":14.7,"MatchLevel":"street","MatchQuality":{"Country":1.0,"State":1.0,"County":1.0,"City":1.0,"District":1.0,"Street":[1.0],"PostalCode":1.0},"Location":{"LocationId":"NT_xLdy6hGG7RCJZBAkUkRmrC_l_53278025_L","LocationType":"point","DisplayPosition":{"Latitude":49.97031,"Longitude":9.07223},"MapView":{"TopLeft":{"Latitude":49.97031,"Longitude":9.07223},"BottomRight":{"Latitude":49.96966,"Longitude":9.07328}},"Address":{"Label":"Westerwaldstraße, 63811 Stockstadt am Main, Deutschland","Country":"DEU","State":"Bayern","County":"Aschaffenburg (Landkreis)","City":"Stockstadt am Main","District":"Stockstadt am Main","Street":"Westerwaldstraße","PostalCode":"63811","AdditionalData":[{"value":"Deutschland","key":"CountryName"},{"value":"Bayern","key":"StateName"},{"value":"Aschaffenburg (Landkreis)","key":"CountyName"}]},"MapReference":{"ReferenceId":"53278025","Spot":1.0,"SideOfStreet":"left","CountryId":"20147700","StateId":"20177250","CountyId":"20183955","CityId":"20184068","DistrictId":"20184070"}}},{"Relevance":1.0,"Distance":18.6,"MatchLevel":"houseNumber","MatchQuality":{"Country":1.0,"State":1.0,"County":1.0,"City":1.0,"District":1.0,"Street":[1.0],"HouseNumber":1.0,"PostalCode":1.0},"MatchType":"interpolated","Location":{"LocationId":"NT_rJfKyimD5.si152oGobwgA_xA","LocationType":"point","DisplayPosition":{"Latitude":49.97034,"Longitude":9.07229},"MapView":{"TopLeft":{"Latitude":49.9714642,"Longitude":9.0705422},"BottomRight":{"Latitude":49.9692158,"Longitude":9.0740378}},"Address":{"Label":"Vogelsbergstraße 1, 63811 Stockstadt am Main, Deutschland","Country":"DEU","State":"Bayern","County":"Aschaffenburg (Landkreis)","City":"Stockstadt am Main","District":"Stockstadt am Main","Street":"Vogelsbergstraße","HouseNumber":"1","PostalCode":"63811","AdditionalData":[{"value":"Deutschland","key":"CountryName"},{"value":"Bayern","key":"StateName"},{"value":"Aschaffenburg (Landkreis)","key":"CountyName"}]},"MapReference":{"ReferenceId":"53277963","Spot":0.15,"SideOfStreet":"left","CountryId":"20147700","StateId":"20177250","CountyId":"20183955","CityId":"20184068","DistrictId":"20184070","AddressId":"185981125","RoadLinkId":"33085490"}}},{"Relevance":1.0,"Distance":29.3,"MatchLevel":"houseNumber","MatchQuality":{"Country":1.0,"State":1.0,"County":1.0,"City":1.0,"District":1.0,"Street":[1.0],"HouseNumber":1.0,"PostalCode":1.0},"MatchType":"interpolated","Location":{"LocationId":"NT_Oois3heqtNCKcTIhyE.L.C_3MD","LocationType":"point","DisplayPosition":{"Latitude":49.97033,"Longitude":9.07128},"MapView":{"TopLeft":{"Latitude":49.9714542,"Longitude":9.0695322},"BottomRight":{"Latitude":49.9692058,"Longitude":9.0730278}},"Address":{"Label":"Obernburger Straße 73, 63811 Stockstadt am Main, Deutschland","Country":"DEU","State":"Bayern","County":"Aschaffenburg (Landkreis)","City":"Stockstadt am Main","District":"Stockstadt am Main","Street":"Obernburger Straße","HouseNumber":"73","PostalCode":"63811","AdditionalData":[{"value":"Deutschland","key":"CountryName"},{"value":"Bayern","key":"StateName"},{"value":"Aschaffenburg (Landkreis)","key":"CountyName"}]},"MapReference":{"ReferenceId":"53278002","Spot":0.85,"SideOfStreet":"right","CountryId":"20147700","StateId":"20177250","CountyId":"20183955","CityId":"20184068","DistrictId":"20184070","AddressId":"184813453","RoadLinkId":"32773871"}}},{"Relevance":1.0,"Distance":42.0,"MatchLevel":"houseNumber","MatchQuality":{"Country":1.0,"State":1.0,"County":1.0,"City":1.0,"District":1.0,"Street":[1.0],"HouseNumber":1.0,"PostalCode":1.0},"MatchType":"interpolated","Location":{"LocationId":"NT_naTGAUXNDiHAlJDxWy6EsB_yA","LocationType":"point","DisplayPosition":{"Latitude":49.97034,"Longitude":9.0728},"MapView":{"TopLeft":{"Latitude":49.9714642,"Longitude":9.0710522},"BottomRight":{"Latitude":49.9692158,"Longitude":9.0745478}},"Address":{"Label":"Böhmerwaldstraße 2, 63811 Stockstadt am Main, Deutschland","Country":"DEU","State":"Bayern","County":"Aschaffenburg (Landkreis)","City":"Stockstadt am Main","District":"Stockstadt am Main","Street":"Böhmerwaldstraße","HouseNumber":"2","PostalCode":"63811","AdditionalData":[{"value":"Deutschland","key":"CountryName"},{"value":"Bayern","key":"StateName"},{"value":"Aschaffenburg (Landkreis)","key":"CountyName"}]},"MapReference":{"ReferenceId":"53278015","Spot":0.73,"SideOfStreet":"left","CountryId":"20147700","StateId":"20177250","CountyId":"20183955","CityId":"20184068","DistrictId":"20184070","AddressId":"185366451","RoadLinkId":"32446476"}}},{"Relevance":1.0,"Distance":43.4,"MatchLevel":"houseNumber","MatchQuality":{"Country":1.0,"State":1.0,"County":1.0,"City":1.0,"District":1.0,"Street":[1.0],"HouseNumber":1.0,"PostalCode":1.0},"MatchType":"interpolated","Location":{"LocationId":"NT_Oois3heqtNCKcTIhyE.L.C_3cD","LocationType":"point","DisplayPosition":{"Latitude":49.96983,"Longitude":9.07169},"MapView":{"TopLeft":{"Latitude":49.9709542,"Longitude":9.0699422},"BottomRight":{"Latitude":49.9687058,"Longitude":9.0734378}},"Address":{"Label":"Obernburger Straße 77, 63811 Stockstadt am Main, Deutschland","Country":"DEU","State":"Bayern","County":"Aschaffenburg (Landkreis)","City":"Stockstadt am Main","District":"Stockstadt am Main","Street":"Obernburger Straße","HouseNumber":"77","PostalCode":"63811","AdditionalData":[{"value":"Deutschland","key":"CountryName"},{"value":"Bayern","key":"StateName"},{"value":"Aschaffenburg (Landkreis)","key":"CountyName"}]},"MapReference":{"ReferenceId":"1205632250","Spot":0.67,"SideOfStreet":"right","CountryId":"20147700","StateId":"20177250","CountyId":"20183955","CityId":"20184068","DistrictId":"20184070","AddressId":"183774363","RoadLinkId":"519351585"}}},{"Relevance":1.0,"Distance":58.5,"MatchLevel":"street","MatchQuality":{"Country":1.0,"State":1.0,"County":1.0,"City":1.0,"District":1.0,"Street":[1.0],"PostalCode":1.0},"Location":{"LocationId":"NT_--pgXMugFVaVrfogilEWxB_l_53277970_R","LocationType":"point","DisplayPosition":{"Latitude":49.9704,"Longitude":9.07122},"MapView":{"TopLeft":{"Latitude":49.9704,"Longitude":9.07071},"BottomRight":{"Latitude":49.97022,"Longitude":9.07122}},"Address":{"Label":"Hessenstraße, 63811 Stockstadt am Main, Deutschland","Country":"DEU","State":"Bayern","County":"Aschaffenburg (Landkreis)","City":"Stockstadt am Main","District":"Stockstadt am Main","Street":"Hessenstraße","PostalCode":"63811","AdditionalData":[{"value":"Deutschland","key":"CountryName"},{"value":"Bayern","key":"StateName"},{"value":"Aschaffenburg (Landkreis)","key":"CountyName"}]},"MapReference":{"ReferenceId":"53277970","Spot":1.0,"SideOfStreet":"right","CountryId":"20147700","StateId":"20177250","CountyId":"20183955","CityId":"20184068","DistrictId":"20184070"}}},{"Relevance":1.0,"Distance":62.9,"MatchLevel":"houseNumber","MatchQuality":{"Country":1.0,"State":1.0,"County":1.0,"City":1.0,"District":1.0,"Street":[1.0],"HouseNumber":1.0,"PostalCode":1.0},"MatchType":"interpolated","Location":{"LocationId":"NT_PS7CfMGeK83PfgeKDzaRdD_2kD","LocationType":"point","DisplayPosition":{"Latitude":49.97058,"Longitude":9.07108},"MapView":{"TopLeft":{"Latitude":49.9717042,"Longitude":9.0693322},"BottomRight":{"Latitude":49.9694558,"Longitude":9.0728278}},"Address":{"Label":"Obernburger Straße 69, 63811 Stockstadt am Main, Deutschland","Country":"DEU","State":"Bayern","County":"Aschaffenburg (Landkreis)","City":"Stockstadt am Main","District":"Stockstadt am Main","Street":"Obernburger Straße","HouseNumber":"69","PostalCode":"63811","AdditionalData":[{"value":"Deutschland","key":"CountryName"},{"value":"Bayern","key":"StateName"},{"value":"Aschaffenburg (Landkreis)","key":"CountyName"}]},"MapReference":{"ReferenceId":"53277957","Spot":0.67,"SideOfStreet":"right","CountryId":"20147700","StateId":"20177250","CountyId":"20183955","CityId":"20184068","DistrictId":"20184070","AddressId":"249276137","RoadLinkId":"218850249"}}},{"Relevance":1.0,"Distance":68.2,"MatchLevel":"houseNumber","MatchQuality":{"Country":1.0,"State":1.0,"County":1.0,"City":1.0,"District":1.0,"Street":[1.0],"HouseNumber":1.0,"PostalCode":1.0},"MatchType":"interpolated","Location":{"LocationId":"NT_pEYVpxmalGNEBBiwHZeYZC_xAD","LocationType":"point","DisplayPosition":{"Latitude":49.97115,"Longitude":9.07184},"MapView":{"TopLeft":{"Latitude":49.9722742,"Longitude":9.0700922},"BottomRight":{"Latitude":49.9700258,"Longitude":9.0735878}},"Address":{"Label":"Eifelstraße 10, 63811 Stockstadt am Main, Deutschland","Country":"DEU","State":"Bayern","County":"Aschaffenburg (Landkreis)","City":"Stockstadt am Main","District":"Stockstadt am Main","Street":"Eifelstraße","HouseNumber":"10","PostalCode":"63811","AdditionalData":[{"value":"Deutschland","key":"CountryName"},{"value":"Bayern","key":"StateName"},{"value":"Aschaffenburg (Landkreis)","key":"CountyName"}]},"MapReference":{"ReferenceId":"53277910","Spot":0.93,"SideOfStreet":"right","CountryId":"20147700","StateId":"20177250","CountyId":"20183955","CityId":"20184068","DistrictId":"20184070","AddressId":"183160383","RoadLinkId":"33855808"}}}]}]}}