{"Response":{"MetaInfo":{"Timestamp":"2020-03-28T11:50:59.619+0000","NextPageInformation":"2"},"View":[{"_type":"SearchResultsViewType","ViewId":0,"Result":[{"Relevance":1.0,"Distance":0.0,"Direction":0.0,"MatchLevel":"district","MatchQuality":{"Country":1.0,"State":1.0,"County":1.0,"City":1.0,"District":1.0,"PostalCode":1.0},"Location":{"LocationId":"NT_JTbLCSdA8G-7rePyz9FDzD","LocationType":"point","DisplayPosition":{"Latitude":49.91824,"Longitude":2.292939},"MapView":{"TopLeft":{"Latitude":49.94381,"Longitude":2.28052},"BottomRight":{"Latitude":49.91487,"Longitude":2.30612}},"Address":{"Label":"Saint-Ladre, Amiens, Hauts-de-France, France","Country":"FRA","State":"Hauts-de-France","County":"Somme","City":"Amiens","District":"Saint-Ladre","PostalCode":"80080","AdditionalData":[{"value":"France","key":"CountryName"},{"value":"Hauts-de-France","key":"StateName"},{"value":"Somme","key":"CountyName"}]},"MapReference":{"ReferenceId":"848902587","SideOfStreet":"neither","CountryId":"20000001","StateId":"20000002","CountyId":"20038939","CityId":"20038996"}}},{"Relevance":1.0,"Distance":22.2,"MatchLevel":"street","MatchQuality":{"Country":1.0,"State":1.0,"County":1.0,"City":1.0,"District":1.0,"Street":[1.0],"PostalCode":1.0},"Location":{"LocationId":"NT_hzC3w44kIjf9DGEPyGytnB_l_1224161679_R","LocationType":"point","DisplayPosition":{"Latitude":49.9180912,"Longitude":2.2927317},"MapView":{"TopLeft":{"Latitude":49.9184,"Longitude":2.29251},"BottomRight":{"Latitude":49.91788,"Longitude":2.29288}},"Address":{"Label":"Rue Franklin Roosevelt, 80080 Amiens, France","Country":"FRA","State":"Hauts-de-France","County":"Somme","City":"Amiens","District":"Saint-Ladre","Street":"Rue Franklin Roosevelt","PostalCode":"80080","AdditionalData":[{"value":"France","key":"CountryName"},{"value":"Hauts-de-France","key":"StateName"},{"value":"Somme","key":"CountyName"}]},"MapReference":{"ReferenceId":"1224161679","Spot":0.4,"SideOfStreet":"right","CountryId":"20000001","StateId":"20000002","CountyId":"20038939","CityId":"20038996"}}},{"Relevance":1.0,"Distance":32.5,"MatchLevel":"street","MatchQuality":{"Country":1.0,"State":1.0,"County":1.0,"City":1.0,"District":1.0,"Street":[1.0],"PostalCode":1.0},"Location":{"LocationId":"NT_xrWda.oyNhY64l2wFk.uEB_l_58972271_L","LocationType":"point","DisplayPosition":{"Latitude":49.91844,"Longitude":2.29327},"MapView":{"TopLeft":{"Latitude":49.91874,"Longitude":2.29327},"BottomRight":{"Latitude":49.91836,"Longitude":2.29347}},"Address":{"Label":"Rue Raphaël, 80080 Amiens, France","Country":"FRA","State":"Hauts-de-France","County":"Somme","City":"Amiens","District":"Saint-Ladre","Street":"Rue Raphaël","PostalCode":"80080","AdditionalData":[{"value":"France","key":"CountryName"},{"value":"Hauts-de-France","key":"StateName"},{"value":"Somme","key":"CountyName"}]},"MapReference":{"ReferenceId":"58972271","Spot":0.32,"SideOfStreet":"left","CountryId":"20000001","StateId":"20000002","CountyId":"20038939","CityId":"20038996"}}},{"Relevance":1.0,"Distance":35.5,"MatchLevel":"street","MatchQuality":{"Country":1.0,"State":1.0,"County":1.0,"City":1.0,"District":1.0,"Street":[1.0],"PostalCode":1.0},"Location":{"LocationId":"NT_ANZba0aeJpuoZP0FnNGooD_l_1224161777_R","LocationType":"point","DisplayPosition":{"Latitude":49.9184,"Longitude":2.29251},"MapView":{"TopLeft":{"Latitude":49.91857,"Longitude":2.29239},"BottomRight":{"Latitude":49.9184,"Longitude":2.29251}},"Address":{"Label":"Rue Franklin Roosevelt, 80080 Amiens, France","Country":"FRA","State":"Hauts-de-France","County":"Somme","City":"Amiens","District":"Saint-Ladre","Street":"Rue Franklin Roosevelt","PostalCode":"80080","AdditionalData":[{"value":"France","key":"CountryName"},{"value":"Hauts-de-France","key":"StateName"},{"value":"Somme","key":"CountyName"}]},"MapReference":{"ReferenceId":"1224161777","Spot":0.0,"SideOfStreet":"right","CountryId":"20000001","StateId":"20000002","CountyId":"20038939","CityId":"20038996"}}},{"Relevance":1.0,"Distance":40.3,"MatchLevel":"street","MatchQuality":{"Country":1.0,"State":1.0,"County":1.0,"City":1.0,"District":1.0,"Street":[1.0],"PostalCode":1.0},"Location":{"LocationId":"NT_hzC3w44kIjf9DGEPyGytnB_l_1208399602_R","LocationType":"point","DisplayPosition":{"Latitude":49.91788,"Longitude":2.29288},"MapView":{"TopLeft":{"Latitude":49.91788,"Longitude":2.29288},"BottomRight":{"Latitude":49.9176,"Longitude":2.29308}},"Address":{"Label":"Rue Franklin Roosevelt, 80080 Amiens, France","Country":"FRA","State":"Hauts-de-France","County":"Somme","City":"Amiens","District":"Saint-Ladre","Street":"Rue Franklin Roosevelt","PostalCode":"80080","AdditionalData":[{"value":"France","key":"CountryName"},{"value":"Hauts-de-France","key":"StateName"},{"value":"Somme","key":"CountyName"}]},"MapReference":{"ReferenceId":"1208399602","Spot":1.0,"SideOfStreet":"right","CountryId":"20000001","StateId":"20000002","CountyId":"20038939","CityId":"20038996"}}},{"Relevance":1.0,"Distance":40.7,"MatchLevel":"houseNumber","MatchQuality":{"Country":1.0,"State":1.0,"County":1.0,"City":1.0,"District":1.0,"Street":[1.0],"HouseNumber":1.0,"PostalCode":1.0},"MatchType":"interpolated","Location":{"LocationId":"NT_xrWda.oyNhY64l2wFk.uEB_0A","LocationType":"point","DisplayPosition":{"Latitude":49.91836,"Longitude":2.2935},"MapView":{"TopLeft":{"Latitude":49.9194842,"Longitude":2.2917541},"BottomRight":{"Latitude":49.9172358,"Longitude":2.2952459}},"Address":{"Label":"4 Rue Raphaël, 80080 Amiens, France","Country":"FRA","State":"Hauts-de-France","County":"Somme","City":"Amiens","District":"Saint-Ladre","Street":"Rue Raphaël","HouseNumber":"4","PostalCode":"80080","AdditionalData":[{"value":"France","key":"CountryName"},{"value":"Hauts-de-France","key":"StateName"},{"value":"Somme","key":"CountyName"}]},"MapReference":{"ReferenceId":"58972270","Spot":0.33,"SideOfStreet":"right","CountryId":"20000001","StateId":"20000002","CountyId":"20038939","CityId":"20038996","AddressId":"321215352","RoadLinkId":"44046397"}}},{"Relevance":1.0,"Distance":43.6,"MatchLevel":"houseNumber","MatchQuality":{"Country":1.0,"State":1.0,"County":1.0,"City":1.0,"District":1.0,"Street":[1.0],"HouseNumber":1.0,"PostalCode":1.0},"MatchType":"interpolated","Location":{"LocationId":"NT_xrWda.oyNhY64l2wFk.uEB_l_58904812_L_yED","LocationType":"point","DisplayPosition":{"Latitude":49.9183476,"Longitude":2.2936843},"MapView":{"TopLeft":{"Latitude":49.9194718,"Longitude":2.2919384},"BottomRight":{"Latitude":49.9172235,"Longitude":2.2954302}},"Address":{"Label":"21 Rue Raphaël, 80080 Amiens, France","Country":"FRA","State":"Hauts-de-France","County":"Somme","City":"Amiens","District":"Saint-Ladre","Street":"Rue Raphaël","HouseNumber":"21","PostalCode":"80080","AdditionalData":[{"value":"France","key":"CountryName"},{"value":"Hauts-de-France","key":"StateName"},{"value":"Somme","key":"CountyName"}]},"MapReference":{"ReferenceId":"58904812","Spot":0.6,"SideOfStreet":"left","CountryId":"20000001","StateId":"20000002","CountyId":"20038939","CityId":"20038996"}}},{"Relevance":1.0,"Distance":53.8,"MatchLevel":"street","MatchQuality":{"Country":1.0,"State":1.0,"County":1.0,"City":1.0,"District":1.0,"Street":[1.0],"PostalCode":1.0},"Location":{"LocationId":"NT_hzC3w44kIjf9DGEPyGytnB_l_1224161821_R","LocationType":"point","DisplayPosition":{"Latitude":49.91857,"Longitude":2.29239},"MapView":{"TopLeft":{"Latitude":49.91985,"Longitude":2.29141},"BottomRight":{"Latitude":49.91857,"Longitude":2.29239}},"Address":{"Label":"Rue Franklin Roosevelt, 80080 Amiens, France","Country":"FRA","State":"Hauts-de-France","County":"Somme","City":"Amiens","District":"Saint-Ladre","Street":"Rue Franklin Roosevelt","PostalCode":"80080","AdditionalData":[{"value":"France","key":"CountryName"},{"value":"Hauts-de-France","key":"StateName"},{"value":"Somme","key":"CountyName"}]},"MapReference":{"ReferenceId":"1224161821","Spot":0.0,"SideOfStreet":"right","CountryId":"20000001","StateId":"20000002","CountyId":"20038939","CityId":"20038996"}}},{"Relevance":1.0,"Distance":53.9,"MatchLevel":"houseNumber","MatchQuality":{"Country":1.0,"State":1.0,"County":1.0,"City":1.0,"District":1.0,"Street":[1.0],"HouseNumber":1.0,"PostalCode":1.0},"MatchType":"interpolated","Location":{"LocationId":"NT_xrWda.oyNhY64l2wFk.uEB_xkD","LocationType":"point","DisplayPosition":{"Latitude":49.91846,"Longitude":2.29361},"MapView":{"TopLeft":{"Latitude":49.9195842,"Longitude":2.2918641},"BottomRight":{"Latitude":49.9173358,"Longitude":2.2953559}},"Address":{"Label":"19 Rue Raphaël, 80080 Amiens, France","Country":"FRA","State":"Hauts-de-France","County":"Somme","City":"Amiens","District":"Saint-Ladre","Street":"Rue Raphaël","HouseNumber":"19","PostalCode":"80080","AdditionalData":[{"value":"France","key":"CountryName"},{"value":"Hauts-de-France","key":"StateName"},{"value":"Somme","key":"CountyName"}]},"MapReference":{"ReferenceId":"58904808","Spot":0.23,"SideOfStreet":"right","CountryId":"20000001","StateId":"20000002","CountyId":"20038939","CityId":"20038996","AddressId":"573068535","RoadLinkId":"43857814"}}},{"Relevance":1.0,"Distance":55.7,"MatchLevel":"street","MatchQuality":{"Country":1.0,"State":1.0,"County":1.0,"City":1.0,"District":1.0,"Street":[1.0],"PostalCode":1.0},"Location":{"LocationId":"NT_xrWda.oyNhY64l2wFk.uEB_l_58908619_L","LocationType":"point","DisplayPosition":{"Latitude":49.917805,"Longitude":2.2933256},"MapView":{"TopLeft":{"Latitude":49.9183,"Longitude":2.29308},"BottomRight":{"Latitude":49.9176,"Longitude":2.29372}},"Address":{"Label":"Rue Raphaël, 80080 Amiens, France","Country":"FRA","State":"Hauts-de-France","County":"Somme","City":"Amiens","District":"Saint-Ladre","Street":"Rue Raphaël","PostalCode":"80080","AdditionalData":[{"value":"France","key":"CountryName"},{"value":"Hauts-de-France","key":"StateName"},{"value":"Somme","key":"CountyName"}]},"MapReference":{"ReferenceId":"58908619","Spot":0.33,"SideOfStreet":"left","CountryId":"20000001","StateId":"20000002","CountyId":"20038939","CityId":"20038996"}}}]}]}}