{"Response":{"MetaInfo":{"Timestamp":"2020-03-28T11:47:28.401+0000","NextPageInformation":"2"},"View":[{"_type":"SearchResultsViewType","ViewId":0,"Result":[{"Relevance":1.0,"Distance":0.0,"Direction":0.0,"MatchLevel":"city","MatchQuality":{"Country":1.0,"State":1.0,"County":1.0,"City":1.0,"PostalCode":1.0},"Location":{"LocationId":"NT_Us-Wo4dkm0rJRIOmFvDiKC","LocationType":"point","DisplayPosition":{"Latitude":49.929475,"Longitude":2.935609},"MapView":{"TopLeft":{"Latitude":49.95844,"Longitude":2.89443},"BottomRight":{"Latitude":49.89392,"Longitude":2.95759}},"Address":{"Label":"Péronne, Hauts-de-France, France","Country":"FRA","State":"Hauts-de-France","County":"Somme","City":"Péronne","PostalCode":"80200","AdditionalData":[{"value":"France","key":"CountryName"},{"value":"Hauts-de-France","key":"StateName"},{"value":"Somme","key":"CountyName"}]},"MapReference":{"ReferenceId":"70152937","SideOfStreet":"neither","CountryId":"20000001","StateId":"20000002","CountyId":"20038939","CityId":"20040697"}}},{"Relevance":1.0,"Distance":5.1,"MatchLevel":"houseNumber","MatchQuality":{"Country":1.0,"State":1.0,"County":1.0,"City":1.0,"Street":[1.0],"HouseNumber":1.0,"PostalCode":1.0},"MatchType":"interpolated","Location":{"LocationId":"NT_71eYSkWaGcDU5dtMvesVfC_xA","LocationType":"point","DisplayPosition":{"Latitude":49.92948,"Longitude":2.93554},"MapView":{"TopLeft":{"Latitude":49.9306042,"Longitude":2.9337937},"BottomRight":{"Latitude":49.9283558,"Longitude":2.9372863}},"Address":{"Label":"1 Rue des Naviages, 80200 Péronne, France","Country":"FRA","State":"Hauts-de-France","County":"Somme","City":"Péronne","Street":"Rue des Naviages","HouseNumber":"1","PostalCode":"80200","AdditionalData":[{"value":"France","key":"CountryName"},{"value":"Hauts-de-France","key":"StateName"},{"value":"Somme","key":"CountyName"}]},"MapReference":{"ReferenceId":"70154432","Spot":0.88,"SideOfStreet":"right","CountryId":"20000001","StateId":"20000002","CountyId":"20038939","CityId":"20040697","AddressId":"363140273","RoadLinkId":"44390866"}}},{"Relevance":1.0,"Distance":23.5,"MatchLevel":"houseNumber","MatchQuality":{"Country":1.0,"State":1.0,"County":1.0,"City":1.0,"Street":[1.0],"HouseNumber":1.0,"PostalCode":1.0},"MatchType":"interpolated","Location":{"LocationId":"NT_gVblY.VstsmeIhXVm1Q5mD_xED","LocationType":"point","DisplayPosition":{"Latitude":49.92969,"Longitude":2.9354},"MapView":{"TopLeft":{"Latitude":49.9308142,"Longitude":2.9336537},"BottomRight":{"Latitude":49.9285658,"Longitude":2.9371463}},"Address":{"Label":"11 Place du Commandant Louis Daudré, 80200 Péronne, France","Country":"FRA","State":"Hauts-de-France","County":"Somme","City":"Péronne","Street":"Place du Commandant Louis Daudré","HouseNumber":"11","PostalCode":"80200","AdditionalData":[{"value":"France","key":"CountryName"},{"value":"Hauts-de-France","key":"StateName"},{"value":"Somme","key":"CountyName"}]},"MapReference":{"ReferenceId":"70152937","Spot":1.0,"SideOfStreet":"right","CountryId":"20000001","StateId":"20000002","CountyId":"20038939","CityId":"20040697","AddressId":"572996534","RoadLinkId":"44304560"}}},{"Relevance":1.0,"Distance":25.2,"MatchLevel":"houseNumber","MatchQuality":{"Country":1.0,"State":1.0,"County":1.0,"City":1.0,"Street":[1.0],"HouseNumber":1.0,"PostalCode":1.0},"MatchType":"interpolated","Location":{"LocationId":"NT_gVblY.VstsmeIhXVm1Q5mD_xMD","LocationType":"point","DisplayPosition":{"Latitude":49.9296,"Longitude":2.93524},"MapView":{"TopLeft":{"Latitude":49.9307242,"Longitude":2.9334937},"BottomRight":{"Latitude":49.9284758,"Longitude":2.9369863}},"Address":{"Label":"13 Place du Commandant Louis Daudré, 80200 Péronne, France","Country":"FRA","State":"Hauts-de-France","County":"Somme","City":"Péronne","Street":"Place du Commandant Louis Daudré","HouseNumber":"13","PostalCode":"80200","AdditionalData":[{"value":"France","key":"CountryName"},{"value":"Hauts-de-France","key":"StateName"},{"value":"Somme","key":"CountyName"}]},"MapReference":{"ReferenceId":"70152935","Spot":0.91,"SideOfStreet":"right","CountryId":"20000001","StateId":"20000002","CountyId":"20038939","CityId":"20040697","AddressId":"573040071","RoadLinkId":"43892399"}}},{"Relevance":1.0,"Distance":31.5,"MatchLevel":"houseNumber","MatchQuality":{"Country":1.0,"State":1.0,"County":1.0,"City":1.0,"Street":[1.0],"HouseNumber":1.0,"PostalCode":1.0},"MatchType":"interpolated","Location":{"LocationId":"NT_Qys8YZ6Xvg0DmXjLQ9QuZA_l_70152934_R_yA","LocationType":"point","DisplayPosition":{"Latitude":49.9298652,"Longitude":2.9356954},"MapView":{"TopLeft":{"Latitude":49.9309894,"Longitude":2.9339491},"BottomRight":{"Latitude":49.9287411,"Longitude":2.9374417}},"Address":{"Label":"2 Rue Saint-Sauveur, 80200 Péronne, France","Country":"FRA","State":"Hauts-de-France","County":"Somme","City":"Péronne","Street":"Rue Saint-Sauveur","HouseNumber":"2","PostalCode":"80200","AdditionalData":[{"value":"France","key":"CountryName"},{"value":"Hauts-de-France","key":"StateName"},{"value":"Somme","key":"CountyName"}]},"MapReference":{"ReferenceId":"70152934","Spot":0.49,"SideOfStreet":"right","CountryId":"20000001","StateId":"20000002","CountyId":"20038939","CityId":"20040697"}}},{"Relevance":1.0,"Distance":37.3,"MatchLevel":"houseNumber","MatchQuality":{"Country":1.0,"State":1.0,"County":1.0,"City":1.0,"Street":[1.0],"HouseNumber":1.0,"PostalCode":1.0},"MatchType":"interpolated","Location":{"LocationId":"NT_gVblY.VstsmeIhXVm1Q5mD_l_70154389_R_yA","LocationType":"point","DisplayPosition":{"Latitude":49.9297539,"Longitude":2.9353201},"MapView":{"TopLeft":{"Latitude":49.9308781,"Longitude":2.9335737},"BottomRight":{"Latitude":49.9286298,"Longitude":2.9370664}},"Address":{"Label":"2 Place du Commandant Louis Daudré, 80200 Péronne, France","Country":"FRA","State":"Hauts-de-France","County":"Somme","City":"Péronne","Street":"Place du Commandant Louis Daudré","HouseNumber":"2","PostalCode":"80200","AdditionalData":[{"value":"France","key":"CountryName"},{"value":"Hauts-de-France","key":"StateName"},{"value":"Somme","key":"CountyName"}]},"MapReference":{"ReferenceId":"70154389","Spot":0.53,"SideOfStreet":"right","CountryId":"20000001","StateId":"20000002","CountyId":"20038939","CityId":"20040697"}}},{"Relevance":1.0,"Distance":45.3,"MatchLevel":"street","MatchQuality":{"Country":1.0,"State":1.0,"County":1.0,"City":1.0,"Street":[1.0],"PostalCode":1.0},"Location":{"LocationId":"NT_gVblY.VstsmeIhXVm1Q5mD_l_585148946_R","LocationType":"point","DisplayPosition":{"Latitude":49.92981,"Longitude":2.93525},"MapView":{"TopLeft":{"Latitude":49.92981,"Longitude":2.93493},"BottomRight":{"Latitude":49.92961,"Longitude":2.93525}},"Address":{"Label":"Place du Commandant Louis Daudré, 80200 Péronne, France","Country":"FRA","State":"Hauts-de-France","County":"Somme","City":"Péronne","Street":"Place du Commandant Louis Daudré","PostalCode":"80200","AdditionalData":[{"value":"France","key":"CountryName"},{"value":"Hauts-de-France","key":"StateName"},{"value":"Somme","key":"CountyName"}]},"MapReference":{"ReferenceId":"585148946","Spot":1.0,"SideOfStreet":"right","CountryId":"20000001","StateId":"20000002","CountyId":"20038939","CityId":"20040697"}}},{"Relevance":1.0,"Distance":47.5,"MatchLevel":"houseNumber","MatchQuality":{"Country":1.0,"State":1.0,"County":1.0,"City":1.0,"Street":[1.0],"HouseNumber":1.0,"PostalCode":1.0},"MatchType":"interpolated","Location":{"LocationId":"NT_ll.8rHuLGDBzho-XS.eoTD_0A","LocationType":"point","DisplayPosition":{"Latitude":49.93003,"Longitude":2.9353},"MapView":{"TopLeft":{"Latitude":49.9311542,"Longitude":2.9335537},"BottomRight":{"Latitude":49.9289058,"Longitude":2.9370463}},"Address":{"Label":"4 Rue Alfred Rey, 80200 Péronne, France","Country":"FRA","State":"Hauts-de-France","County":"Somme","City":"Péronne","Street":"Rue Alfred Rey","HouseNumber":"4","PostalCode":"80200","AdditionalData":[{"value":"France","key":"CountryName"},{"value":"Hauts-de-France","key":"StateName"},{"value":"Somme","key":"CountyName"}]},"MapReference":{"ReferenceId":"585148895","Spot":0.35,"SideOfStreet":"right","CountryId":"20000001","StateId":"20000002","CountyId":"20038939","CityId":"20040697","AddressId":"321353479","RoadLinkId":"44562911"}}},{"Relevance":1.0,"Distance":50.0,"MatchLevel":"houseNumber","MatchQuality":{"Country":1.0,"State":1.0,"County":1.0,"City":1.0,"Street":[1.0],"HouseNumber":1.0,"PostalCode":1.0},"MatchType":"interpolated","Location":{"LocationId":"NT_BBeyXXenQH9Xy.mOq7NdBB_1A","LocationType":"point","DisplayPosition":{"Latitude":49.92897,"Longitude":2.93537},"MapView":{"TopLeft":{"Latitude":49.9300942,"Longitude":2.9336237},"BottomRight":{"Latitude":49.9278458,"Longitude":2.9371163}},"Address":{"Label":"5 Place Saint-Jean, 80200 Péronne, France","Country":"FRA","State":"Hauts-de-France","County":"Somme","City":"Péronne","Street":"Place Saint-Jean","HouseNumber":"5","PostalCode":"80200","AdditionalData":[{"value":"France","key":"CountryName"},{"value":"Hauts-de-France","key":"StateName"},{"value":"Somme","key":"CountyName"}]},"MapReference":{"ReferenceId":"70154421","Spot":1.0,"SideOfStreet":"right","CountryId":"20000001","StateId":"20000002","CountyId":"20038939","CityId":"20040697","AddressId":"674418072","RoadLinkId":"45104027"}}},{"Relevance":1.0,"Distance":50.9,"MatchLevel":"street","MatchQuality":{"Country":1.0,"State":1.0,"County":1.0,"City":1.0,"Street":[1.0],"PostalCode":1.0},"Location":{"LocationId":"NT_gVblY.VstsmeIhXVm1Q5mD_l_585148947_R","LocationType":"point","DisplayPosition":{"Latitude":49.92961,"Longitude":2.93493},"MapView":{"TopLeft":{"Latitude":49.92968,"Longitude":2.9348},"BottomRight":{"Latitude":49.92961,"Longitude":2.93493}},"Address":{"Label":"Place du Commandant Louis Daudré, 80200 Péronne, France","Country":"FRA","State":"Hauts-de-France","County":"Somme","City":"Péronne","Street":"Place du Commandant Louis Daudré","PostalCode":"80200","AdditionalData":[{"value":"France","key":"CountryName"},{"value":"Hauts-de-France","key":"StateName"},{"value":"Somme","key":"CountyName"}]},"MapReference":{"ReferenceId":"585148947","Spot":0.0,"SideOfStreet":"right","CountryId":"20000001","StateId":"20000002","CountyId":"20038939","CityId":"20040697"}}}]}]}}