{"Response":{"MetaInfo":{"Timestamp":"2020-03-28T09:35:45.587+0000","NextPageInformation":"2"},"View":[{"_type":"SearchResultsViewType","ViewId":0,"Result":[{"Relevance":1.0,"Distance":0.0,"Direction":0.0,"MatchLevel":"district","MatchQuality":{"Country":1.0,"State":1.0,"County":1.0,"City":1.0,"District":1.0,"PostalCode":1.0},"Location":{"LocationId":"NT_ciCDIE19LeNQlW7QGJGeDC","LocationType":"point","DisplayPosition":{"Latitude":49.9785877,"Longitude":9.1329988},"MapView":{"TopLeft":{"Latitude":49.99378,"Longitude":9.08783},"BottomRight":{"Latitude":49.94732,"Longitude":9.18165}},"Address":{"Label":"Aschaffenburg, Bayern, Deutschland","Country":"DEU","State":"Bayern","County":"Aschaffenburg (Stadt)","City":"Aschaffenburg","District":"Aschaffenburg","PostalCode":"63739","AdditionalData":[{"value":"Deutschland","key":"CountryName"},{"value":"Bayern","key":"StateName"},{"value":"Aschaffenburg (Stadt)","key":"CountyName"}]},"MapReference":{"ReferenceId":"53277723","SideOfStreet":"neither","CountryId":"20147700","StateId":"20177250","CountyId":"20183925","CityId":"20183926","DistrictId":"20183928"}}},{"Relevance":1.0,"Distance":9.4,"MatchLevel":"houseNumber","MatchQuality":{"Country":1.0,"State":1.0,"County":1.0,"City":1.0,"District":1.0,"Street":[1.0],"HouseNumber":1.0,"PostalCode":1.0},"MatchType":"interpolated","Location":{"LocationId":"NT_O0QWItxnpHPI-DlS5OCQuB_1A","LocationType":"point","DisplayPosition":{"Latitude":49.97867,"Longitude":9.13303},"MapView":{"TopLeft":{"Latitude":49.9797942,"Longitude":9.1312819},"BottomRight":{"Latitude":49.9775458,"Longitude":9.1347781}},"Address":{"Label":"Ziegelbergstraße 5, 63739 Aschaffenburg, Deutschland","Country":"DEU","State":"Bayern","County":"Aschaffenburg (Stadt)","City":"Aschaffenburg","District":"Aschaffenburg","Street":"Ziegelbergstraße","HouseNumber":"5","PostalCode":"63739","AdditionalData":[{"value":"Deutschland","key":"CountryName"},{"value":"Bayern","key":"StateName"},{"value":"Aschaffenburg (Stadt)","key":"CountyName"}]},"MapReference":{"ReferenceId":"558250598","Spot":0.78,"SideOfStreet":"right","CountryId":"20147700","StateId":"20177250","CountyId":"20183925","CityId":"20183926","DistrictId":"20183928","AddressId":"182083499","RoadLinkId":"33672832"}}},{"Relevance":1.0,"Distance":20.3,"MatchLevel":"houseNumber","MatchQuality":{"Country":1.0,"State":1.0,"County":1.0,"City":1.0,"District":1.0,"Street":[1.0],"HouseNumber":1.0,"PostalCode":1.0},"MatchType":"interpolated","Location":{"LocationId":"NT_O0QWItxnpHPI-DlS5OCQuB_l_53277499_R_xgD","LocationType":"point","DisplayPosition":{"Latitude":49.97877,"Longitude":9.13299},"MapView":{"TopLeft":{"Latitude":49.9798942,"Longitude":9.1312419},"BottomRight":{"Latitude":49.9776459,"Longitude":9.1347381}},"Address":{"Label":"Ziegelbergstraße 18, 63739 Aschaffenburg, Deutschland","Country":"DEU","State":"Bayern","County":"Aschaffenburg (Stadt)","City":"Aschaffenburg","District":"Aschaffenburg","Street":"Ziegelbergstraße","HouseNumber":"18","PostalCode":"63739","AdditionalData":[{"value":"Deutschland","key":"CountryName"},{"value":"Bayern","key":"StateName"},{"value":"Aschaffenburg (Stadt)","key":"CountyName"}]},"MapReference":{"ReferenceId":"53277499","Spot":0.35,"SideOfStreet":"right","CountryId":"20147700","StateId":"20177250","CountyId":"20183925","CityId":"20183926","DistrictId":"20183928"}}},{"Relevance":1.0,"Distance":21.4,"MatchLevel":"houseNumber","MatchQuality":{"Country":1.0,"State":1.0,"County":1.0,"City":1.0,"District":1.0,"Street":[1.0],"HouseNumber":1.0,"PostalCode":1.0},"MatchType":"interpolated","Location":{"LocationId":"NT_O0QWItxnpHPI-DlS5OCQuB_xYD","LocationType":"point","DisplayPosition":{"Latitude":49.97873,"Longitude":9.1332},"MapView":{"TopLeft":{"Latitude":49.9798542,"Longitude":9.1314519},"BottomRight":{"Latitude":49.9776058,"Longitude":9.1349481}},"Address":{"Label":"Ziegelbergstraße 16, 63739 Aschaffenburg, Deutschland","Country":"DEU","State":"Bayern","County":"Aschaffenburg (Stadt)","City":"Aschaffenburg","District":"Aschaffenburg","Street":"Ziegelbergstraße","HouseNumber":"16","PostalCode":"63739","AdditionalData":[{"value":"Deutschland","key":"CountryName"},{"value":"Bayern","key":"StateName"},{"value":"Aschaffenburg (Stadt)","key":"CountyName"}]},"MapReference":{"ReferenceId":"53277510","Spot":0.98,"SideOfStreet":"right","CountryId":"20147700","StateId":"20177250","CountyId":"20183925","CityId":"20183926","DistrictId":"20183928","AddressId":"186127820","RoadLinkId":"32538642"}}},{"Relevance":1.0,"Distance":46.1,"MatchLevel":"houseNumber","MatchQuality":{"Country":1.0,"State":1.0,"County":1.0,"City":1.0,"District":1.0,"Street":[1.0],"HouseNumber":1.0,"PostalCode":1.0},"MatchType":"interpolated","Location":{"LocationId":"NT_55.ggsH9RTrxw-NqohytzC_xED","LocationType":"point","DisplayPosition":{"Latitude":49.97904,"Longitude":9.13269},"MapView":{"TopLeft":{"Latitude":49.9801642,"Longitude":9.1309419},"BottomRight":{"Latitude":49.9779158,"Longitude":9.1344381}},"Address":{"Label":"Cunibertstraße 11, 63739 Aschaffenburg, Deutschland","Country":"DEU","State":"Bayern","County":"Aschaffenburg (Stadt)","City":"Aschaffenburg","District":"Aschaffenburg","Street":"Cunibertstraße","HouseNumber":"11","PostalCode":"63739","AdditionalData":[{"value":"Deutschland","key":"CountryName"},{"value":"Bayern","key":"StateName"},{"value":"Aschaffenburg (Stadt)","key":"CountyName"}]},"MapReference":{"ReferenceId":"53280127","Spot":0.14,"SideOfStreet":"right","CountryId":"20147700","StateId":"20177250","CountyId":"20183925","CityId":"20183926","DistrictId":"20183928","AddressId":"184359700","RoadLinkId":"32712392"}}},{"Relevance":1.0,"Distance":52.8,"MatchLevel":"houseNumber","MatchQuality":{"Country":1.0,"State":1.0,"County":1.0,"City":1.0,"District":1.0,"Street":[1.0],"HouseNumber":1.0,"PostalCode":1.0},"MatchType":"interpolated","Location":{"LocationId":"NT_O0QWItxnpHPI-DlS5OCQuB_zEE","LocationType":"point","DisplayPosition":{"Latitude":49.97857,"Longitude":9.13378},"MapView":{"TopLeft":{"Latitude":49.9796942,"Longitude":9.1320319},"BottomRight":{"Latitude":49.9774458,"Longitude":9.1355281}},"Address":{"Label":"Ziegelbergstraße 3A, 63739 Aschaffenburg, Deutschland","Country":"DEU","State":"Bayern","County":"Aschaffenburg (Stadt)","City":"Aschaffenburg","District":"Aschaffenburg","Street":"Ziegelbergstraße","HouseNumber":"3A","PostalCode":"63739","AdditionalData":[{"value":"Deutschland","key":"CountryName"},{"value":"Bayern","key":"StateName"},{"value":"Aschaffenburg (Stadt)","key":"CountyName"}]},"MapReference":{"ReferenceId":"53280154","Spot":0.86,"SideOfStreet":"left","CountryId":"20147700","StateId":"20177250","CountyId":"20183925","CityId":"20183926","DistrictId":"20183928","AddressId":"185941127","RoadLinkId":"33866693"}}},{"Relevance":1.0,"Distance":57.4,"MatchLevel":"houseNumber","MatchQuality":{"Country":1.0,"State":1.0,"County":1.0,"City":1.0,"District":1.0,"Street":[1.0],"HouseNumber":1.0,"PostalCode":1.0},"MatchType":"interpolated","Location":{"LocationId":"NT_-zcT.rr2S.fWghXS7ijqYB_xID","LocationType":"point","DisplayPosition":{"Latitude":49.9788,"Longitude":9.13387},"MapView":{"TopLeft":{"Latitude":49.9799242,"Longitude":9.1321219},"BottomRight":{"Latitude":49.9776758,"Longitude":9.1356181}},"Address":{"Label":"Münchstraße 12, 63739 Aschaffenburg, Deutschland","Country":"DEU","State":"Bayern","County":"Aschaffenburg (Stadt)","City":"Aschaffenburg","District":"Aschaffenburg","Street":"Münchstraße","HouseNumber":"12","PostalCode":"63739","AdditionalData":[{"value":"Deutschland","key":"CountryName"},{"value":"Bayern","key":"StateName"},{"value":"Aschaffenburg (Stadt)","key":"CountyName"}]},"MapReference":{"ReferenceId":"53280136","Spot":0.18,"SideOfStreet":"left","CountryId":"20147700","StateId":"20177250","CountyId":"20183925","CityId":"20183926","DistrictId":"20183928","AddressId":"183532452","RoadLinkId":"32901231"}}},{"Relevance":1.0,"Distance":85.8,"MatchLevel":"street","MatchQuality":{"Country":1.0,"State":1.0,"County":1.0,"City":1.0,"District":1.0,"PostalCode":1.0},"Location":{"LocationId":"NT_fgsJ48EPRAnuKSl7ShRHfB_l_1200034770_R","LocationType":"point","DisplayPosition":{"Latitude":49.977828,"Longitude":9.1327902},"MapView":{"TopLeft":{"Latitude":49.9781,"Longitude":9.13111},"BottomRight":{"Latitude":49.97762,"Longitude":9.13356}},"Address":{"Label":"63739 Aschaffenburg, Deutschland","Country":"DEU","State":"Bayern","County":"Aschaffenburg (Stadt)","City":"Aschaffenburg","District":"Aschaffenburg","PostalCode":"63739","AdditionalData":[{"value":"Deutschland","key":"CountryName"},{"value":"Bayern","key":"StateName"},{"value":"Aschaffenburg (Stadt)","key":"CountyName"}]},"MapReference":{"ReferenceId":"1200034770","Spot":0.32,"SideOfStreet":"right","CountryId":"20147700","StateId":"20177250","CountyId":"20183925","CityId":"20183926","DistrictId":"20183928"}}},{"Relevance":1.0,"Distance":87.7,"MatchLevel":"houseNumber","MatchQuality":{"Country":1.0,"State":1.0,"County":1.0,"City":1.0,"District":1.0,"Street":[1.0],"HouseNumber":1.0,"PostalCode":1.0},"MatchType":"interpolated","Location":{"LocationId":"NT_O0QWItxnpHPI-DlS5OCQuB_xED","LocationType":"point","DisplayPosition":{"Latitude":49.9785,"Longitude":9.13178},"MapView":{"TopLeft":{"Latitude":49.9796242,"Longitude":9.1300319},"BottomRight":{"Latitude":49.9773758,"Longitude":9.1335281}},"Address":{"Label":"Ziegelbergstraße 11, 63739 Aschaffenburg, Deutschland","Country":"DEU","State":"Bayern","County":"Aschaffenburg (Stadt)","City":"Aschaffenburg","District":"Aschaffenburg","Street":"Ziegelbergstraße","HouseNumber":"11","PostalCode":"63739","AdditionalData":[{"value":"Deutschland","key":"CountryName"},{"value":"Bayern","key":"StateName"},{"value":"Aschaffenburg (Stadt)","key":"CountyName"}]},"MapReference":{"ReferenceId":"1053966778","Spot":0.43,"SideOfStreet":"right","CountryId":"20147700","StateId":"20177250","CountyId":"20183925","CityId":"20183926","DistrictId":"20183928","AddressId":"183855361","RoadLinkId":"373570621"}}},{"Relevance":1.0,"Distance":96.5,"MatchLevel":"landmark","MatchQuality":{"Country":1.0,"State":1.0,"Name":1.0},"Location":{"LocationId":"NT_FwuAEa3mNkd9JvgIKP6KOD","LocationType":"river","Name":"Main","DisplayPosition":{"Latitude":49.93133,"Longitude":9.1335},"MapView":{"TopLeft":{"Latitude":50.06846,"Longitude":8.976},"BottomRight":{"Latitude":49.7942,"Longitude":9.16565}},"Address":{"Label":"Deutschland","Country":"DEU","State":"Bayern","AdditionalData":[{"value":"Deutschland","key":"CountryName"},{"value":"Bayern","key":"StateName"}]},"MapReference":{"CountryId":"20147700","StateId":"20177250","PlaceId":"550122162"}}}]}]}}