{"Response":{"MetaInfo":{"Timestamp":"2020-03-28T11:28:19.989+0000","NextPageInformation":"2"},"View":[{"_type":"SearchResultsViewType","ViewId":0,"Result":[{"Relevance":1.0,"Distance":0.0,"Direction":0.0,"MatchLevel":"district","MatchQuality":{"Country":1.0,"State":1.0,"County":1.0,"City":1.0,"District":1.0,"PostalCode":1.0},"Location":{"LocationId":"NT_l1EFb3kIZFOr7HNo.9VLWA","LocationType":"point","DisplayPosition":{"Latitude":49.9653513,"Longitude":5.9339156},"MapView":{"TopLeft":{"Latitude":49.97356,"Longitude":5.91329},"BottomRight":{"Latitude":49.95542,"Longitude":5.94161}},"Address":{"Label":"Wiltz, Diekirch, Luxembourg","Country":"LUX","State":"Diekirch","County":"Wiltz","City":"Wiltz","District":"Wiltz","PostalCode":"9573","AdditionalData":[{"value":"Luxembourg","key":"CountryName"},{"value":"Diekirch","key":"StateName"},{"value":"Wiltz","key":"CountyName"}]},"MapReference":{"ReferenceId":"973058814","SideOfStreet":"neither","CountryId":"20128887","StateId":"20199554","CountyId":"20199783","CityId":"20199834","DistrictId":"20199836"}}},{"Relevance":1.0,"Distance":20.6,"MatchLevel":"houseNumber","MatchQuality":{"Country":1.0,"State":1.0,"County":1.0,"City":1.0,"District":1.0,"Street":[1.0],"HouseNumber":1.0,"PostalCode":1.0},"MatchType":"interpolated","Location":{"LocationId":"NT_nIo4RaiWkP-dHdpGjfGOLB_l_54071100_L_xID","LocationType":"point","DisplayPosition":{"Latitude":49.9650321,"Longitude":5.9339256},"MapView":{"TopLeft":{"Latitude":49.9661563,"Longitude":5.932178},"BottomRight":{"Latitude":49.9639079,"Longitude":5.9356732}},"Address":{"Label":"12 Rue Grande-Duchesse Charlotte, L-9515 Wiltz, Luxembourg","Country":"LUX","State":"Diekirch","County":"Wiltz","City":"Wiltz","District":"Wiltz","Street":"Rue Grande-Duchesse Charlotte","HouseNumber":"12","PostalCode":"9515","AdditionalData":[{"value":"Luxembourg","key":"CountryName"},{"value":"Diekirch","key":"StateName"},{"value":"Wiltz","key":"CountyName"}]},"MapReference":{"ReferenceId":"54071100","Spot":0.5,"SideOfStreet":"left","CountryId":"20128887","StateId":"20199554","CountyId":"20199783","CityId":"20199834","DistrictId":"20199836"}}},{"Relevance":1.0,"Distance":25.1,"MatchLevel":"houseNumber","MatchQuality":{"Country":1.0,"State":1.0,"County":1.0,"City":1.0,"District":1.0,"Street":[1.0],"HouseNumber":1.0,"PostalCode":1.0},"MatchType":"interpolated","Location":{"LocationId":"NT_ghd97wT.B7VMlyz2U3GFfC_xAD","LocationType":"point","DisplayPosition":{"Latitude":49.9653,"Longitude":5.93453},"MapView":{"TopLeft":{"Latitude":49.9664242,"Longitude":5.9327824},"BottomRight":{"Latitude":49.9641758,"Longitude":5.9362776}},"Address":{"Label":"10 Rue Grande-Duchesse Charlotte, L-9515 Wiltz, Luxembourg","Country":"LUX","State":"Diekirch","County":"Wiltz","City":"Wiltz","District":"Wiltz","Street":"Rue Grande-Duchesse Charlotte","HouseNumber":"10","PostalCode":"9515","AdditionalData":[{"value":"Luxembourg","key":"CountryName"},{"value":"Diekirch","key":"StateName"},{"value":"Wiltz","key":"CountyName"}]},"MapReference":{"ReferenceId":"54071083","Spot":0.49,"SideOfStreet":"right","CountryId":"20128887","StateId":"20199554","CountyId":"20199783","CityId":"20199834","DistrictId":"20199836","AddressId":"376603778","RoadLinkId":"31079916"}}},{"Relevance":1.0,"Distance":48.0,"MatchLevel":"street","MatchQuality":{"Country":1.0,"State":1.0,"County":1.0,"City":1.0,"District":1.0,"PostalCode":1.0},"Location":{"LocationId":"NT_C8Hy6r2e3j6UQr933cY9nB_l_54071101_R","LocationType":"point","DisplayPosition":{"Latitude":49.9653865,"Longitude":5.9332461},"MapView":{"TopLeft":{"Latitude":49.96581,"Longitude":5.933},"BottomRight":{"Latitude":49.96489,"Longitude":5.93325}},"Address":{"Label":"L-9573 Wiltz, Luxembourg","Country":"LUX","State":"Diekirch","County":"Wiltz","City":"Wiltz","District":"Wiltz","PostalCode":"9573","AdditionalData":[{"value":"Luxembourg","key":"CountryName"},{"value":"Diekirch","key":"StateName"},{"value":"Wiltz","key":"CountyName"}]},"MapReference":{"ReferenceId":"54071101","Spot":0.5,"SideOfStreet":"right","CountryId":"20128887","StateId":"20199554","CountyId":"20199783","CityId":"20199834","DistrictId":"20199836"}}},{"Relevance":1.0,"Distance":53.9,"MatchLevel":"street","MatchQuality":{"Country":1.0,"State":1.0,"County":1.0,"City":1.0,"District":1.0,"Street":[1.0],"PostalCode":1.0},"Location":{"LocationId":"NT_ghd97wT.B7VMlyz2U3GFfC_l_999194408_L","LocationType":"point","DisplayPosition":{"Latitude":49.96518,"Longitude":5.93462},"MapView":{"TopLeft":{"Latitude":49.96523,"Longitude":5.93462},"BottomRight":{"Latitude":49.96518,"Longitude":5.93466}},"Address":{"Label":"Rue Grande-Duchesse Charlotte, L-9515 Wiltz, Luxembourg","Country":"LUX","State":"Diekirch","County":"Wiltz","City":"Wiltz","District":"Wiltz","Street":"Rue Grande-Duchesse Charlotte","PostalCode":"9515","AdditionalData":[{"value":"Luxembourg","key":"CountryName"},{"value":"Diekirch","key":"StateName"},{"value":"Wiltz","key":"CountyName"}]},"MapReference":{"ReferenceId":"999194408","Spot":0.0,"SideOfStreet":"left","CountryId":"20128887","StateId":"20199554","CountyId":"20199783","CityId":"20199834","DistrictId":"20199836"}}},{"Relevance":1.0,"Distance":54.0,"MatchLevel":"houseNumber","MatchQuality":{"Country":1.0,"State":1.0,"County":1.0,"City":1.0,"District":1.0,"Street":[1.0],"HouseNumber":1.0,"PostalCode":1.0},"MatchType":"interpolated","Location":{"LocationId":"NT_7yQF9crZQ9ybWiG0pflNSC_l_999194409_L_1A","LocationType":"point","DisplayPosition":{"Latitude":49.96534,"Longitude":5.93477},"MapView":{"TopLeft":{"Latitude":49.9664642,"Longitude":5.9330224},"BottomRight":{"Latitude":49.9642159,"Longitude":5.9365177}},"Address":{"Label":"5 Rue du Fossé, L-9522 Wiltz, Luxembourg","Country":"LUX","State":"Diekirch","County":"Wiltz","City":"Wiltz","District":"Wiltz","Street":"Rue du Fossé","HouseNumber":"5","PostalCode":"9522","AdditionalData":[{"value":"Luxembourg","key":"CountryName"},{"value":"Diekirch","key":"StateName"},{"value":"Wiltz","key":"CountyName"}]},"MapReference":{"ReferenceId":"999194409","Spot":0.22,"SideOfStreet":"left","CountryId":"20128887","StateId":"20199554","CountyId":"20199783","CityId":"20199834","DistrictId":"20199836"}}},{"Relevance":1.0,"Distance":55.5,"MatchLevel":"houseNumber","MatchQuality":{"Country":1.0,"State":1.0,"County":1.0,"City":1.0,"District":1.0,"Street":[1.0],"HouseNumber":1.0,"PostalCode":1.0},"MatchType":"interpolated","Location":{"LocationId":"NT_ZPCu6b3cCnXliLPrR7OqYC_1A","LocationType":"point","DisplayPosition":{"Latitude":49.96596,"Longitude":5.93384},"MapView":{"TopLeft":{"Latitude":49.9670842,"Longitude":5.9320924},"BottomRight":{"Latitude":49.9648358,"Longitude":5.9355876}},"Address":{"Label":"5 Rue de l'Indépendance, L-9532 Wiltz, Luxembourg","Country":"LUX","State":"Diekirch","County":"Wiltz","City":"Wiltz","District":"Wiltz","Street":"Rue de l'Indépendance","HouseNumber":"5","PostalCode":"9532","AdditionalData":[{"value":"Luxembourg","key":"CountryName"},{"value":"Diekirch","key":"StateName"},{"value":"Wiltz","key":"CountyName"}]},"MapReference":{"ReferenceId":"54071060","Spot":0.54,"SideOfStreet":"right","CountryId":"20128887","StateId":"20199554","CountyId":"20199783","CityId":"20199834","DistrictId":"20199836","AddressId":"376612313","RoadLinkId":"31063494"}}},{"Relevance":1.0,"Distance":69.9,"MatchLevel":"houseNumber","MatchQuality":{"Country":1.0,"State":1.0,"County":1.0,"City":1.0,"District":1.0,"Street":[1.0],"HouseNumber":1.0,"PostalCode":1.0},"MatchType":"interpolated","Location":{"LocationId":"NT_ghd97wT.B7VMlyz2U3GFfC_2A","LocationType":"point","DisplayPosition":{"Latitude":49.96519,"Longitude":5.93486},"MapView":{"TopLeft":{"Latitude":49.9663142,"Longitude":5.9331124},"BottomRight":{"Latitude":49.9640658,"Longitude":5.9366076}},"Address":{"Label":"6 Rue Grande-Duchesse Charlotte, L-9515 Wiltz, Luxembourg","Country":"LUX","State":"Diekirch","County":"Wiltz","City":"Wiltz","District":"Wiltz","Street":"Rue Grande-Duchesse Charlotte","HouseNumber":"6","PostalCode":"9515","AdditionalData":[{"value":"Luxembourg","key":"CountryName"},{"value":"Diekirch","key":"StateName"},{"value":"Wiltz","key":"CountyName"}]},"MapReference":{"ReferenceId":"703706908","Spot":0.58,"SideOfStreet":"right","CountryId":"20128887","StateId":"20199554","CountyId":"20199783","CityId":"20199834","DistrictId":"20199836","AddressId":"376585546","RoadLinkId":"60909798"}}},{"Relevance":1.0,"Distance":70.5,"MatchLevel":"houseNumber","MatchQuality":{"Country":1.0,"State":1.0,"County":1.0,"City":1.0,"District":1.0,"Street":[1.0],"HouseNumber":1.0,"PostalCode":1.0},"MatchType":"interpolated","Location":{"LocationId":"NT_z4THwzQEznUppzvYPWgqNB_xAD","LocationType":"point","DisplayPosition":{"Latitude":49.96596,"Longitude":5.93478},"MapView":{"TopLeft":{"Latitude":49.9670842,"Longitude":5.9330324},"BottomRight":{"Latitude":49.9648358,"Longitude":5.9365276}},"Address":{"Label":"10 Rue des Tondeurs, L-9570 Wiltz, Luxembourg","Country":"LUX","State":"Diekirch","County":"Wiltz","City":"Wiltz","District":"Wiltz","Street":"Rue des Tondeurs","HouseNumber":"10","PostalCode":"9570","AdditionalData":[{"value":"Luxembourg","key":"CountryName"},{"value":"Diekirch","key":"StateName"},{"value":"Wiltz","key":"CountyName"}]},"MapReference":{"ReferenceId":"54071064","Spot":0.64,"SideOfStreet":"left","CountryId":"20128887","StateId":"20199554","CountyId":"20199783","CityId":"20199834","DistrictId":"20199836","AddressId":"757504393","RoadLinkId":"31069250"}}},{"Relevance":1.0,"Distance":79.3,"MatchLevel":"houseNumber","MatchQuality":{"Country":1.0,"State":1.0,"County":1.0,"City":1.0,"District":1.0,"Street":[1.0],"HouseNumber":1.0,"PostalCode":1.0},"MatchType":"interpolated","Location":{"LocationId":"NT_ZPCu6b3cCnXliLPrR7OqYC_xQD","LocationType":"point","DisplayPosition":{"Latitude":49.96594,"Longitude":5.93313},"MapView":{"TopLeft":{"Latitude":49.9670642,"Longitude":5.9313824},"BottomRight":{"Latitude":49.9648158,"Longitude":5.9348776}},"Address":{"Label":"14 Rue de l'Indépendance, L-9532 Wiltz, Luxembourg","Country":"LUX","State":"Diekirch","County":"Wiltz","City":"Wiltz","District":"Wiltz","Street":"Rue de l'Indépendance","HouseNumber":"14","PostalCode":"9532","AdditionalData":[{"value":"Luxembourg","key":"CountryName"},{"value":"Diekirch","key":"StateName"},{"value":"Wiltz","key":"CountyName"}]},"MapReference":{"ReferenceId":"54071061","Spot":0.33,"SideOfStreet":"right","CountryId":"20128887","StateId":"20199554","CountyId":"20199783","CityId":"20199834","DistrictId":"20199836","AddressId":"376610864","RoadLinkId":"31054957"}}}]}]}}