{"Response":{"MetaInfo":{"Timestamp":"2020-03-28T10:53:46.286+0000","NextPageInformation":"2"},"View":[{"_type":"SearchResultsViewType","ViewId":0,"Result":[{"Relevance":1.0,"Distance":-6.2,"MatchLevel":"landmark","MatchQuality":{"Country":1.0,"State":1.0,"County":1.0,"City":1.0,"District":1.0,"Street":[1.0],"PostalCode":1.0,"Name":1.0},"Location":{"LocationId":"NT_NMmay1ZHug8WXhezHSnAvC_p_oHQs08EBvLEOWmZWn9s4eC","LocationType":"hospital","Name":"FN Královské Vinohrady","DisplayPosition":{"Latitude":50.07629,"Longitude":14.47699},"MapView":{"TopLeft":{"Latitude":50.07639,"Longitude":14.47324},"BottomRight":{"Latitude":50.0728,"Longitude":14.48415}},"Address":{"Label":"Šrobárova, 100 00 Praha, Česká Republika","Country":"CZE","State":"Hlavní město Praha","County":"Hlavní město Praha","City":"Praha","District":"Praha 10","Street":"Šrobárova","PostalCode":"100 00","AdditionalData":[{"value":"Česká Republika","key":"CountryName"},{"value":"Hlavní město Praha","key":"StateName"},{"value":"Hlavní město Praha","key":"CountyName"}]},"MapReference":{"CountryId":"20427915","StateId":"20442647","CountyId":"20442648","CityId":"20442649","DistrictId":"20442651","PlaceId":"545981429"}}},{"Relevance":1.0,"Distance":0.0,"Direction":0.0,"MatchLevel":"district","MatchQuality":{"Country":1.0,"State":1.0,"County":1.0,"City":1.0,"District":1.0,"PostalCode":1.0},"Location":{"LocationId":"NT_dfvBxF1UA0UiJpwHU5f7XD","LocationType":"point","DisplayPosition":{"Latitude":50.0761686,"Longitude":14.473889},"MapView":{"TopLeft":{"Latitude":50.08906,"Longitude":14.44125},"BottomRight":{"Latitude":50.04388,"Longitude":14.53933}},"Address":{"Label":"Praha 10, Praha, Hlavní město Praha, Česká Republika","Country":"CZE","State":"Hlavní město Praha","County":"Hlavní město Praha","City":"Praha","District":"Praha 10","PostalCode":"101 00","AdditionalData":[{"value":"Česká Republika","key":"CountryName"},{"value":"Hlavní město Praha","key":"StateName"},{"value":"Hlavní město Praha","key":"CountyName"}]},"MapReference":{"ReferenceId":"920261576","SideOfStreet":"neither","CountryId":"20427915","StateId":"20442647","CountyId":"20442648","CityId":"20442649","DistrictId":"20442651"}}},{"Relevance":1.0,"Distance":6.8,"MatchLevel":"houseNumber","MatchQuality":{"Country":1.0,"State":1.0,"County":1.0,"City":1.0,"District":1.0,"Street":[1.0],"HouseNumber":1.0,"PostalCode":1.0},"MatchType":"interpolated","Location":{"LocationId":"NT_INL4aOonynPD-4aa5kH28D_yEDMy8SNzA","LocationType":"point","DisplayPosition":{"Latitude":50.07623,"Longitude":14.47389},"MapView":{"TopLeft":{"Latitude":50.0773542,"Longitude":14.4721384},"BottomRight":{"Latitude":50.0751058,"Longitude":14.4756416}},"Address":{"Label":"Šrobárova 2102/53, 100 00 Praha, Česká Republika","Country":"CZE","State":"Hlavní město Praha","County":"Hlavní město Praha","City":"Praha","District":"Praha 3","Street":"Šrobárova","HouseNumber":"2102/53","PostalCode":"100 00","AdditionalData":[{"value":"Česká Republika","key":"CountryName"},{"value":"Hlavní město Praha","key":"StateName"},{"value":"Hlavní město Praha","key":"CountyName"}]},"MapReference":{"ReferenceId":"565782905","Spot":0.28,"SideOfStreet":"left","CountryId":"20427915","StateId":"20442647","CountyId":"20442648","CityId":"20442649","DistrictId":"20442653","AddressId":"239385205","RoadLinkId":"40418617"}}},{"Relevance":1.0,"Distance":34.3,"MatchLevel":"street","MatchQuality":{"Country":1.0,"State":1.0,"County":1.0,"City":1.0,"District":1.0,"PostalCode":1.0},"Location":{"LocationId":"NT_EUbpxUNtbpMzaoYXk4ojNB_l_936859264_L","LocationType":"point","DisplayPosition":{"Latitude":50.07602,"Longitude":14.47431},"MapView":{"TopLeft":{"Latitude":50.07602,"Longitude":14.47419},"BottomRight":{"Latitude":50.07548,"Longitude":14.47431}},"Address":{"Label":"100 00 Praha, Česká Republika","Country":"CZE","State":"Hlavní město Praha","County":"Hlavní město Praha","City":"Praha","District":"Praha 10","PostalCode":"100 00","AdditionalData":[{"value":"Česká Republika","key":"CountryName"},{"value":"Hlavní město Praha","key":"StateName"},{"value":"Hlavní město Praha","key":"CountyName"}]},"MapReference":{"ReferenceId":"936859264","Spot":1.0,"SideOfStreet":"left","CountryId":"20427915","StateId":"20442647","CountyId":"20442648","CityId":"20442649","DistrictId":"20442651"}}},{"Relevance":1.0,"Distance":41.3,"MatchLevel":"street","MatchQuality":{"Country":1.0,"State":1.0,"County":1.0,"City":1.0,"District":1.0,"Street":[1.0],"PostalCode":1.0},"Location":{"LocationId":"NT_QKD9aQje.7xIa04FU-H4DA_l_565782906_R","LocationType":"point","DisplayPosition":{"Latitude":50.07618,"Longitude":14.47331},"MapView":{"TopLeft":{"Latitude":50.07668,"Longitude":14.47326},"BottomRight":{"Latitude":50.07618,"Longitude":14.47331}},"Address":{"Label":"Votická, 130 00 Praha, Česká Republika","Country":"CZE","State":"Hlavní město Praha","County":"Hlavní město Praha","City":"Praha","District":"Praha 3","Street":"Votická","PostalCode":"130 00","AdditionalData":[{"value":"Česká Republika","key":"CountryName"},{"value":"Hlavní město Praha","key":"StateName"},{"value":"Hlavní město Praha","key":"CountyName"}]},"MapReference":{"ReferenceId":"565782906","Spot":0.0,"SideOfStreet":"right","CountryId":"20427915","StateId":"20442647","CountyId":"20442648","CityId":"20442649","DistrictId":"20442653"}}},{"Relevance":1.0,"Distance":49.2,"MatchLevel":"houseNumber","MatchQuality":{"Country":1.0,"State":1.0,"County":1.0,"City":1.0,"District":1.0,"Street":[1.0],"HouseNumber":1.0,"PostalCode":1.0},"MatchType":"interpolated","Location":{"LocationId":"NT_fx8wh5FuSwPLmyskU04VkB_yEDMz8iM4A","LocationType":"point","DisplayPosition":{"Latitude":50.07672,"Longitude":14.47391},"MapView":{"TopLeft":{"Latitude":50.0778442,"Longitude":14.4721583},"BottomRight":{"Latitude":50.0755958,"Longitude":14.4756617}},"Address":{"Label":"Květná 2103/28, 130 00 Praha, Česká Republika","Country":"CZE","State":"Hlavní město Praha","County":"Hlavní město Praha","City":"Praha","District":"Praha 3","Street":"Květná","HouseNumber":"2103/28","PostalCode":"130 00","AdditionalData":[{"value":"Česká Republika","key":"CountryName"},{"value":"Hlavní město Praha","key":"StateName"},{"value":"Hlavní město Praha","key":"CountyName"}]},"MapReference":{"ReferenceId":"565782810","Spot":0.53,"SideOfStreet":"right","CountryId":"20427915","StateId":"20442647","CountyId":"20442648","CityId":"20442649","DistrictId":"20442653","AddressId":"239385227","RoadLinkId":"40258750"}}},{"Relevance":1.0,"Distance":69.9,"MatchLevel":"houseNumber","MatchQuality":{"Country":1.0,"State":1.0,"County":1.0,"City":1.0,"District":1.0,"Street":[1.0],"HouseNumber":1.0,"PostalCode":1.0},"MatchType":"interpolated","Location":{"LocationId":"NT_K11xtfaXHERFQuyELim0DD_0kzL0gD","LocationType":"point","DisplayPosition":{"Latitude":50.07617,"Longitude":14.47291},"MapView":{"TopLeft":{"Latitude":50.0772942,"Longitude":14.4711584},"BottomRight":{"Latitude":50.0750458,"Longitude":14.4746616}},"Address":{"Label":"Šrobárova 49/48, 100 00 Praha, Česká Republika","Country":"CZE","State":"Hlavní město Praha","County":"Hlavní město Praha","City":"Praha","District":"Praha 10","Street":"Šrobárova","HouseNumber":"49/48","PostalCode":"100 00","AdditionalData":[{"value":"Česká Republika","key":"CountryName"},{"value":"Hlavní město Praha","key":"StateName"},{"value":"Hlavní město Praha","key":"CountyName"}]},"MapReference":{"ReferenceId":"565782921","Spot":0.83,"SideOfStreet":"right","CountryId":"20427915","StateId":"20442647","CountyId":"20442648","CityId":"20442649","DistrictId":"20442651","AddressId":"239366585","RoadLinkId":"40480509"}}},{"Relevance":1.0,"Distance":72.4,"MatchLevel":"street","MatchQuality":{"Country":1.0,"State":1.0,"County":1.0,"City":1.0,"District":1.0,"Street":[1.0],"PostalCode":1.0},"Location":{"LocationId":"NT_QKD9aQje.7xIa04FU-H4DA_l_1217127773_R","LocationType":"point","DisplayPosition":{"Latitude":50.07668,"Longitude":14.47326},"MapView":{"TopLeft":{"Latitude":50.07719,"Longitude":14.4732},"BottomRight":{"Latitude":50.07668,"Longitude":14.47326}},"Address":{"Label":"Votická, 130 00 Praha, Česká Republika","Country":"CZE","State":"Hlavní město Praha","County":"Hlavní město Praha","City":"Praha","District":"Praha 3","Street":"Votická","PostalCode":"130 00","AdditionalData":[{"value":"Česká Republika","key":"CountryName"},{"value":"Hlavní město Praha","key":"StateName"},{"value":"Hlavní město Praha","key":"CountyName"}]},"MapReference":{"ReferenceId":"1217127773","Spot":0.0,"SideOfStreet":"right","CountryId":"20427915","StateId":"20442647","CountyId":"20442648","CityId":"20442649","DistrictId":"20442653"}}},{"Relevance":1.0,"Distance":76.9,"MatchLevel":"houseNumber","MatchQuality":{"Country":1.0,"State":1.0,"County":1.0,"City":1.0,"District":1.0,"Street":[1.0],"HouseNumber":1.0,"PostalCode":1.0},"MatchType":"interpolated","Location":{"LocationId":"NT_fx8wh5FuSwPLmyskU04VkB_yADO28iMwA","LocationType":"point","DisplayPosition":{"Latitude":50.07667,"Longitude":14.47309},"MapView":{"TopLeft":{"Latitude":50.0777942,"Longitude":14.4713383},"BottomRight":{"Latitude":50.0755458,"Longitude":14.4748417}},"Address":{"Label":"Květná 2086/20, 130 00 Praha, Česká Republika","Country":"CZE","State":"Hlavní město Praha","County":"Hlavní město Praha","City":"Praha","District":"Praha 3","Street":"Květná","HouseNumber":"2086/20","PostalCode":"130 00","AdditionalData":[{"value":"Česká Republika","key":"CountryName"},{"value":"Hlavní město Praha","key":"StateName"},{"value":"Hlavní město Praha","key":"CountyName"}]},"MapReference":{"ReferenceId":"565782922","Spot":0.93,"SideOfStreet":"right","CountryId":"20427915","StateId":"20442647","CountyId":"20442648","CityId":"20442649","DistrictId":"20442653","AddressId":"239366606","RoadLinkId":"40490749"}}},{"Relevance":1.0,"Distance":80.3,"MatchLevel":"street","MatchQuality":{"Country":1.0,"State":1.0,"County":1.0,"City":1.0,"District":1.0,"PostalCode":1.0},"Location":{"LocationId":"NT_EUbpxUNtbpMzaoYXk4ojNB_l_936859279_L","LocationType":"point","DisplayPosition":{"Latitude":50.07548,"Longitude":14.47423},"MapView":{"TopLeft":{"Latitude":50.07554,"Longitude":14.47423},"BottomRight":{"Latitude":50.07548,"Longitude":14.47545}},"Address":{"Label":"100 00 Praha, Česká Republika","Country":"CZE","State":"Hlavní město Praha","County":"Hlavní město Praha","City":"Praha","District":"Praha 10","PostalCode":"100 00","AdditionalData":[{"value":"Česká Republika","key":"CountryName"},{"value":"Hlavní město Praha","key":"StateName"},{"value":"Hlavní město Praha","key":"CountyName"}]},"MapReference":{"ReferenceId":"936859279","Spot":0.0,"SideOfStreet":"left","CountryId":"20427915","StateId":"20442647","CountyId":"20442648","CityId":"20442649","DistrictId":"20442651"}}}]}]}}