{"Response":{"MetaInfo":{"Timestamp":"2020-03-28T12:05:51.068+0000","NextPageInformation":"2"},"View":[{"_type":"SearchResultsViewType","ViewId":0,"Result":[{"Relevance":1.0,"Distance":0.0,"Direction":0.0,"MatchLevel":"district","MatchQuality":{"Country":1.0,"State":1.0,"County":1.0,"City":1.0,"District":1.0,"PostalCode":1.0},"Location":{"LocationId":"NT_K7Klui-wq1Ha5adVNd.2GC","LocationType":"point","DisplayPosition":{"Latitude":50.0053093,"Longitude":18.4695753},"MapView":{"TopLeft":{"Latitude":50.03763,"Longitude":18.35366},"BottomRight":{"Latitude":49.96914,"Longitude":18.50968}},"Address":{"Label":"Wodzisław Śląski, Woj. Śląskie, Polska","Country":"POL","State":"Woj. Śląskie","County":"Powiat Wodzisławski","City":"Wodzisław Śląski","District":"Wodzisław Śląski","PostalCode":"44-300","AdditionalData":[{"value":"Polska","key":"CountryName"},{"value":"Woj. Śląskie","key":"StateName"},{"value":"Powiat Wodzisławski","key":"CountyName"}]},"MapReference":{"ReferenceId":"1170134186","SideOfStreet":"neither","CountryId":"20624059","StateId":"20629003","CountyId":"20629305","CityId":"20629324","DistrictId":"20646838"}}},{"Relevance":1.0,"Distance":10.7,"MatchLevel":"houseNumber","MatchQuality":{"Country":1.0,"State":1.0,"County":1.0,"City":1.0,"District":1.0,"Street":[1.0],"HouseNumber":1.0,"PostalCode":1.0},"MatchType":"interpolated","Location":{"LocationId":"NT_vRz2YoDSRqwvRsTp4640LB_xgD","LocationType":"point","DisplayPosition":{"Latitude":50.00544,"Longitude":18.46951},"MapView":{"TopLeft":{"Latitude":50.0065642,"Longitude":18.4677609},"BottomRight":{"Latitude":50.0043158,"Longitude":18.4712591}},"Address":{"Label":"ulica 26 Marca 18, 44-300 Wodzisław Śląski, Polska","Country":"POL","State":"Woj. Śląskie","County":"Powiat Wodzisławski","City":"Wodzisław Śląski","District":"Wodzisław Śląski","Street":"ulica 26 Marca","HouseNumber":"18","PostalCode":"44-300","AdditionalData":[{"value":"Polska","key":"CountryName"},{"value":"Woj. Śląskie","key":"StateName"},{"value":"Powiat Wodzisławski","key":"CountyName"}]},"MapReference":{"ReferenceId":"1076334299","Spot":0.0,"SideOfStreet":"right","CountryId":"20624059","StateId":"20629003","CountyId":"20629305","CityId":"20629324","DistrictId":"20646838","AddressId":"209857704","RoadLinkId":"396312020"}}},{"Relevance":1.0,"Distance":15.7,"MatchLevel":"houseNumber","MatchQuality":{"Country":1.0,"State":1.0,"County":1.0,"City":1.0,"District":1.0,"Street":[1.0],"HouseNumber":1.0,"PostalCode":1.0},"MatchType":"interpolated","Location":{"LocationId":"NT_vRz2YoDSRqwvRsTp4640LB_xED","LocationType":"point","DisplayPosition":{"Latitude":50.00536,"Longitude":18.46937},"MapView":{"TopLeft":{"Latitude":50.0064842,"Longitude":18.4676209},"BottomRight":{"Latitude":50.0042358,"Longitude":18.4711191}},"Address":{"Label":"ulica 26 Marca 11, 44-300 Wodzisław Śląski, Polska","Country":"POL","State":"Woj. Śląskie","County":"Powiat Wodzisławski","City":"Wodzisław Śląski","District":"Wodzisław Śląski","Street":"ulica 26 Marca","HouseNumber":"11","PostalCode":"44-300","AdditionalData":[{"value":"Polska","key":"CountryName"},{"value":"Woj. Śląskie","key":"StateName"},{"value":"Powiat Wodzisławski","key":"CountyName"}]},"MapReference":{"ReferenceId":"1076334298","Spot":0.05,"SideOfStreet":"left","CountryId":"20624059","StateId":"20629003","CountyId":"20629305","CityId":"20629324","DistrictId":"20646838","AddressId":"211216692","RoadLinkId":"396312019"}}},{"Relevance":1.0,"Distance":16.4,"MatchLevel":"street","MatchQuality":{"Country":1.0,"State":1.0,"County":1.0,"City":1.0,"District":1.0,"Street":[1.0],"PostalCode":1.0},"Location":{"LocationId":"NT_vRz2YoDSRqwvRsTp4640LB_l_1076334297_R","LocationType":"point","DisplayPosition":{"Latitude":50.00536,"Longitude":18.46936},"MapView":{"TopLeft":{"Latitude":50.00536,"Longitude":18.46919},"BottomRight":{"Latitude":50.00524,"Longitude":18.46936}},"Address":{"Label":"ulica 26 Marca, 44-300 Wodzisław Śląski, Polska","Country":"POL","State":"Woj. Śląskie","County":"Powiat Wodzisławski","City":"Wodzisław Śląski","District":"Wodzisław Śląski","Street":"ulica 26 Marca","PostalCode":"44-300","AdditionalData":[{"value":"Polska","key":"CountryName"},{"value":"Woj. Śląskie","key":"StateName"},{"value":"Powiat Wodzisławski","key":"CountyName"}]},"MapReference":{"ReferenceId":"1076334297","Spot":1.0,"SideOfStreet":"right","CountryId":"20624059","StateId":"20629003","CountyId":"20629305","CityId":"20629324","DistrictId":"20646838"}}},{"Relevance":1.0,"Distance":26.7,"MatchLevel":"street","MatchQuality":{"Country":1.0,"State":1.0,"County":1.0,"City":1.0,"District":1.0,"Street":[1.0],"PostalCode":1.0},"Location":{"LocationId":"NT_WiSR9hCHcXWwbRZJRcDQ3C_l_957994642_R","LocationType":"point","DisplayPosition":{"Latitude":50.00514,"Longitude":18.46931},"MapView":{"TopLeft":{"Latitude":50.00524,"Longitude":18.46919},"BottomRight":{"Latitude":50.00514,"Longitude":18.46931}},"Address":{"Label":"ulica Stefana Żeromskiego, 44-300 Wodzisław Śląski, Polska","Country":"POL","State":"Woj. Śląskie","County":"Powiat Wodzisławski","City":"Wodzisław Śląski","District":"Wodzisław Śląski","Street":"ulica Stefana Żeromskiego","PostalCode":"44-300","AdditionalData":[{"value":"Polska","key":"CountryName"},{"value":"Woj. Śląskie","key":"StateName"},{"value":"Powiat Wodzisławski","key":"CountyName"}]},"MapReference":{"ReferenceId":"957994642","Spot":0.0,"SideOfStreet":"right","CountryId":"20624059","StateId":"20629003","CountyId":"20629305","CityId":"20629324","DistrictId":"20646838"}}},{"Relevance":1.0,"Distance":37.5,"MatchLevel":"houseNumber","MatchQuality":{"Country":1.0,"State":1.0,"County":1.0,"City":1.0,"District":1.0,"Street":[1.0],"HouseNumber":1.0,"PostalCode":1.0},"MatchType":"interpolated","Location":{"LocationId":"NT_6dY7iRkmwOEMGmKh21i-EC_xED","LocationType":"point","DisplayPosition":{"Latitude":50.00498,"Longitude":18.46946},"MapView":{"TopLeft":{"Latitude":50.0061042,"Longitude":18.4677109},"BottomRight":{"Latitude":50.0038558,"Longitude":18.4712091}},"Address":{"Label":"ulica Słoneczna 11, 44-300 Wodzisław Śląski, Polska","Country":"POL","State":"Woj. Śląskie","County":"Powiat Wodzisławski","City":"Wodzisław Śląski","District":"Wodzisław Śląski","Street":"ulica Słoneczna","HouseNumber":"11","PostalCode":"44-300","AdditionalData":[{"value":"Polska","key":"CountryName"},{"value":"Woj. Śląskie","key":"StateName"},{"value":"Powiat Wodzisławski","key":"CountyName"}]},"MapReference":{"ReferenceId":"594399495","Spot":0.8,"SideOfStreet":"left","CountryId":"20624059","StateId":"20629003","CountyId":"20629305","CityId":"20629324","DistrictId":"20646838","AddressId":"210324428","RoadLinkId":"96327564"}}},{"Relevance":1.0,"Distance":38.5,"MatchLevel":"street","MatchQuality":{"Country":1.0,"State":1.0,"County":1.0,"City":1.0,"District":1.0,"PostalCode":1.0},"Location":{"LocationId":"NT_sSpYAIfarVJDUTWmtDNnrA_l_957994640_R","LocationType":"point","DisplayPosition":{"Latitude":50.00527,"Longitude":18.47011},"MapView":{"TopLeft":{"Latitude":50.00532,"Longitude":18.47011},"BottomRight":{"Latitude":50.00506,"Longitude":18.47075}},"Address":{"Label":"44-300 Wodzisław Śląski, Polska","Country":"POL","State":"Woj. Śląskie","County":"Powiat Wodzisławski","City":"Wodzisław Śląski","District":"Wodzisław Śląski","PostalCode":"44-300","AdditionalData":[{"value":"Polska","key":"CountryName"},{"value":"Woj. Śląskie","key":"StateName"},{"value":"Powiat Wodzisławski","key":"CountyName"}]},"MapReference":{"ReferenceId":"957994640","Spot":1.0,"SideOfStreet":"right","CountryId":"20624059","StateId":"20629003","CountyId":"20629305","CityId":"20629324","DistrictId":"20646838"}}},{"Relevance":1.0,"Distance":38.5,"MatchLevel":"street","MatchQuality":{"Country":1.0,"State":1.0,"County":1.0,"City":1.0,"District":1.0,"PostalCode":1.0},"Location":{"LocationId":"NT_sSpYAIfarVJDUTWmtDNnrA_l_778861490_L","LocationType":"point","DisplayPosition":{"Latitude":50.00527,"Longitude":18.47011},"MapView":{"TopLeft":{"Latitude":50.00527,"Longitude":18.47011},"BottomRight":{"Latitude":50.00498,"Longitude":18.4706}},"Address":{"Label":"44-300 Wodzisław Śląski, Polska","Country":"POL","State":"Woj. Śląskie","County":"Powiat Wodzisławski","City":"Wodzisław Śląski","District":"Wodzisław Śląski","PostalCode":"44-300","AdditionalData":[{"value":"Polska","key":"CountryName"},{"value":"Woj. Śląskie","key":"StateName"},{"value":"Powiat Wodzisławski","key":"CountyName"}]},"MapReference":{"ReferenceId":"778861490","Spot":1.0,"SideOfStreet":"left","CountryId":"20624059","StateId":"20629003","CountyId":"20629305","CityId":"20629324","DistrictId":"20646838"}}},{"Relevance":1.0,"Distance":55.2,"MatchLevel":"houseNumber","MatchQuality":{"Country":1.0,"State":1.0,"County":1.0,"City":1.0,"District":1.0,"Street":[1.0],"HouseNumber":1.0,"PostalCode":1.0},"MatchType":"interpolated","Location":{"LocationId":"NT_vRz2YoDSRqwvRsTp4640LB_l_1076481192_R_xYD","LocationType":"point","DisplayPosition":{"Latitude":50.0049905,"Longitude":18.4689825},"MapView":{"TopLeft":{"Latitude":50.0061146,"Longitude":18.4672335},"BottomRight":{"Latitude":50.0038663,"Longitude":18.4707316}},"Address":{"Label":"ulica 26 Marca 16, 44-300 Wodzisław Śląski, Polska","Country":"POL","State":"Woj. Śląskie","County":"Powiat Wodzisławski","City":"Wodzisław Śląski","District":"Wodzisław Śląski","Street":"ulica 26 Marca","HouseNumber":"16","PostalCode":"44-300","AdditionalData":[{"value":"Polska","key":"CountryName"},{"value":"Woj. Śląskie","key":"StateName"},{"value":"Powiat Wodzisławski","key":"CountyName"}]},"MapReference":{"ReferenceId":"1076481192","Spot":0.49,"SideOfStreet":"right","CountryId":"20624059","StateId":"20629003","CountyId":"20629305","CityId":"20629324","DistrictId":"20646838"}}},{"Relevance":1.0,"Distance":57.3,"MatchLevel":"houseNumber","MatchQuality":{"Country":1.0,"State":1.0,"County":1.0,"City":1.0,"District":1.0,"Street":[1.0],"HouseNumber":1.0,"PostalCode":1.0},"MatchType":"interpolated","Location":{"LocationId":"NT_vRz2YoDSRqwvRsTp4640LB_yAD","LocationType":"point","DisplayPosition":{"Latitude":50.00571,"Longitude":18.47008},"MapView":{"TopLeft":{"Latitude":50.0068342,"Longitude":18.4683309},"BottomRight":{"Latitude":50.0045858,"Longitude":18.4718291}},"Address":{"Label":"ulica 26 Marca 20, 44-300 Wodzisław Śląski, Polska","Country":"POL","State":"Woj. Śląskie","County":"Powiat Wodzisławski","City":"Wodzisław Śląski","District":"Wodzisław Śląski","Street":"ulica 26 Marca","HouseNumber":"20","PostalCode":"44-300","AdditionalData":[{"value":"Polska","key":"CountryName"},{"value":"Woj. Śląskie","key":"StateName"},{"value":"Powiat Wodzisławski","key":"CountyName"}]},"MapReference":{"ReferenceId":"1076481193","Spot":0.12,"SideOfStreet":"right","CountryId":"20624059","StateId":"20629003","CountyId":"20629305","CityId":"20629324","DistrictId":"20646838","AddressId":"211072567","RoadLinkId":"396374369"}}}]}]}}