{"Response":{"MetaInfo":{"Timestamp":"2020-03-28T12:05:12.787+0000","NextPageInformation":"2"},"View":[{"_type":"SearchResultsViewType","ViewId":0,"Result":[{"Relevance":1.0,"Distance":0.0,"Direction":0.0,"MatchLevel":"district","MatchQuality":{"Country":1.0,"State":1.0,"County":1.0,"City":1.0,"District":1.0,"PostalCode":1.0},"Location":{"LocationId":"NT_r.2YRlrABE9CNY0vUb.soD","LocationType":"point","DisplayPosition":{"Latitude":50.0149461,"Longitude":22.0070086},"MapView":{"TopLeft":{"Latitude":50.07813,"Longitude":21.8696},"BottomRight":{"Latitude":49.95819,"Longitude":22.08652}},"Address":{"Label":"Rzeszów, Woj. Podkarpackie, Polska","Country":"POL","State":"Woj. Podkarpackie","County":"Rzeszów","City":"Rzeszów","District":"Rzeszów","PostalCode":"35-074","AdditionalData":[{"value":"Polska","key":"CountryName"},{"value":"Woj. Podkarpackie","key":"StateName"},{"value":"Rzeszów","key":"CountyName"}]},"MapReference":{"ReferenceId":"594507490","SideOfStreet":"neither","CountryId":"20624059","StateId":"20628101","CountyId":"20628460","CityId":"20628461","DistrictId":"20646808"}}},{"Relevance":1.0,"Distance":10.5,"MatchLevel":"houseNumber","MatchQuality":{"Country":1.0,"State":1.0,"County":1.0,"City":1.0,"District":1.0,"Street":[1.0],"HouseNumber":1.0,"PostalCode":1.0},"MatchType":"interpolated","Location":{"LocationId":"NT_JiRth2huzXij0IK5C.TMbB_yETQ","LocationType":"point","DisplayPosition":{"Latitude":50.01513,"Longitude":22.00678},"MapView":{"TopLeft":{"Latitude":50.0162542,"Longitude":22.0050306},"BottomRight":{"Latitude":50.0140058,"Longitude":22.0085294}},"Address":{"Label":"ulica Graniczna 21A, 35-326 Rzeszów, Polska","Country":"POL","State":"Woj. Podkarpackie","County":"Rzeszów","City":"Rzeszów","District":"Rzeszów","Street":"ulica Graniczna","HouseNumber":"21A","PostalCode":"35-326","AdditionalData":[{"value":"Polska","key":"CountryName"},{"value":"Woj. Podkarpackie","key":"StateName"},{"value":"Rzeszów","key":"CountyName"}]},"MapReference":{"ReferenceId":"594032151","Spot":0.57,"SideOfStreet":"right","CountryId":"20624059","StateId":"20628101","CountyId":"20628460","CityId":"20628461","DistrictId":"20646808","AddressId":"732118958","RoadLinkId":"96102687"}}},{"Relevance":1.0,"Distance":35.7,"MatchLevel":"houseNumber","MatchQuality":{"Country":1.0,"State":1.0,"County":1.0,"City":1.0,"District":1.0,"Street":[1.0],"HouseNumber":1.0,"PostalCode":1.0},"MatchType":"interpolated","Location":{"LocationId":"NT_nyrHX69ddZ-MJKsnxsHDOD_yYD","LocationType":"point","DisplayPosition":{"Latitude":50.01444,"Longitude":22.00718},"MapView":{"TopLeft":{"Latitude":50.0155642,"Longitude":22.0054306},"BottomRight":{"Latitude":50.0133158,"Longitude":22.0089294}},"Address":{"Label":"ulica Nowowiejska 26, 35-326 Rzeszów, Polska","Country":"POL","State":"Woj. Podkarpackie","County":"Rzeszów","City":"Rzeszów","District":"Rzeszów","Street":"ulica Nowowiejska","HouseNumber":"26","PostalCode":"35-326","AdditionalData":[{"value":"Polska","key":"CountryName"},{"value":"Woj. Podkarpackie","key":"StateName"},{"value":"Rzeszów","key":"CountyName"}]},"MapReference":{"ReferenceId":"1036039584","Spot":0.84,"SideOfStreet":"right","CountryId":"20624059","StateId":"20628101","CountyId":"20628460","CityId":"20628461","DistrictId":"20646808","AddressId":"582548238","RoadLinkId":"357971674"}}},{"Relevance":1.0,"Distance":56.3,"MatchLevel":"houseNumber","MatchQuality":{"Country":1.0,"State":1.0,"County":1.0,"City":1.0,"District":1.0,"Street":[1.0],"HouseNumber":1.0,"PostalCode":1.0},"MatchType":"interpolated","Location":{"LocationId":"NT_nyrHX69ddZ-MJKsnxsHDOD_zUD","LocationType":"point","DisplayPosition":{"Latitude":50.01444,"Longitude":22.00703},"MapView":{"TopLeft":{"Latitude":50.0155642,"Longitude":22.0052806},"BottomRight":{"Latitude":50.0133158,"Longitude":22.0087794}},"Address":{"Label":"ulica Nowowiejska 35, 35-326 Rzeszów, Polska","Country":"POL","State":"Woj. Podkarpackie","County":"Rzeszów","City":"Rzeszów","District":"Rzeszów","Street":"ulica Nowowiejska","HouseNumber":"35","PostalCode":"35-326","AdditionalData":[{"value":"Polska","key":"CountryName"},{"value":"Woj. Podkarpackie","key":"StateName"},{"value":"Rzeszów","key":"CountyName"}]},"MapReference":{"ReferenceId":"1036039583","Spot":0.86,"SideOfStreet":"right","CountryId":"20624059","StateId":"20628101","CountyId":"20628460","CityId":"20628461","DistrictId":"20646808","AddressId":"209544106","RoadLinkId":"357971673"}}},{"Relevance":1.0,"Distance":67.3,"MatchLevel":"houseNumber","MatchQuality":{"Country":1.0,"State":1.0,"County":1.0,"City":1.0,"District":1.0,"Street":[1.0],"HouseNumber":1.0,"PostalCode":1.0},"MatchType":"interpolated","Location":{"LocationId":"NT_nyrHX69ddZ-MJKsnxsHDOD_zUzLxA","LocationType":"point","DisplayPosition":{"Latitude":50.01443,"Longitude":22.0075},"MapView":{"TopLeft":{"Latitude":50.0155542,"Longitude":22.0057506},"BottomRight":{"Latitude":50.0133058,"Longitude":22.0092494}},"Address":{"Label":"ulica Nowowiejska 35/1, 35-326 Rzeszów, Polska","Country":"POL","State":"Woj. Podkarpackie","County":"Rzeszów","City":"Rzeszów","District":"Rzeszów","Street":"ulica Nowowiejska","HouseNumber":"35/1","PostalCode":"35-326","AdditionalData":[{"value":"Polska","key":"CountryName"},{"value":"Woj. Podkarpackie","key":"StateName"},{"value":"Rzeszów","key":"CountyName"}]},"MapReference":{"ReferenceId":"1035991831","Spot":0.0,"SideOfStreet":"right","CountryId":"20624059","StateId":"20628101","CountyId":"20628460","CityId":"20628461","DistrictId":"20646808","AddressId":"582480913","RoadLinkId":"357913924"}}},{"Relevance":1.0,"Distance":69.8,"MatchLevel":"houseNumber","MatchQuality":{"Country":1.0,"State":1.0,"County":1.0,"City":1.0,"District":1.0,"Street":[1.0],"HouseNumber":1.0,"PostalCode":1.0},"MatchType":"interpolated","Location":{"LocationId":"NT_nyrHX69ddZ-MJKsnxsHDOD_zkD","LocationType":"point","DisplayPosition":{"Latitude":50.01444,"Longitude":22.00643},"MapView":{"TopLeft":{"Latitude":50.0155642,"Longitude":22.0046806},"BottomRight":{"Latitude":50.0133158,"Longitude":22.0081794}},"Address":{"Label":"ulica Nowowiejska 39, 35-326 Rzeszów, Polska","Country":"POL","State":"Woj. Podkarpackie","County":"Rzeszów","City":"Rzeszów","District":"Rzeszów","Street":"ulica Nowowiejska","HouseNumber":"39","PostalCode":"35-326","AdditionalData":[{"value":"Polska","key":"CountryName"},{"value":"Woj. Podkarpackie","key":"StateName"},{"value":"Rzeszów","key":"CountyName"}]},"MapReference":{"ReferenceId":"1035923538","Spot":0.21,"SideOfStreet":"left","CountryId":"20624059","StateId":"20628101","CountyId":"20628460","CityId":"20628461","DistrictId":"20646808","AddressId":"732004606","RoadLinkId":"357840693"}}},{"Relevance":1.0,"Distance":75.9,"MatchLevel":"street","MatchQuality":{"Country":1.0,"State":1.0,"County":1.0,"City":1.0,"District":1.0,"Street":[1.0],"PostalCode":1.0},"Location":{"LocationId":"NT_cfVpQGoOqJ.WO-WTWimpnD_l_594031918_L","LocationType":"point","DisplayPosition":{"Latitude":50.01562,"Longitude":22.00718},"MapView":{"TopLeft":{"Latitude":50.01594,"Longitude":22.00693},"BottomRight":{"Latitude":50.01562,"Longitude":22.00718}},"Address":{"Label":"ulica Cicha, 35-326 Rzeszów, Polska","Country":"POL","State":"Woj. Podkarpackie","County":"Rzeszów","City":"Rzeszów","District":"Rzeszów","Street":"ulica Cicha","PostalCode":"35-326","AdditionalData":[{"value":"Polska","key":"CountryName"},{"value":"Woj. Podkarpackie","key":"StateName"},{"value":"Rzeszów","key":"CountyName"}]},"MapReference":{"ReferenceId":"594031918","Spot":0.0,"SideOfStreet":"left","CountryId":"20624059","StateId":"20628101","CountyId":"20628460","CityId":"20628461","DistrictId":"20646808"}}},{"Relevance":1.0,"Distance":76.3,"MatchLevel":"street","MatchQuality":{"Country":1.0,"State":1.0,"County":1.0,"City":1.0,"District":1.0,"Street":[1.0],"PostalCode":1.0},"Location":{"LocationId":"NT_JiRth2huzXij0IK5C.TMbB_l_1035923540_R","LocationType":"point","DisplayPosition":{"Latitude":50.01447,"Longitude":22.00624},"MapView":{"TopLeft":{"Latitude":50.01447,"Longitude":22.00616},"BottomRight":{"Latitude":50.01437,"Longitude":22.00624}},"Address":{"Label":"ulica Graniczna, 35-326 Rzeszów, Polska","Country":"POL","State":"Woj. Podkarpackie","County":"Rzeszów","City":"Rzeszów","District":"Rzeszów","Street":"ulica Graniczna","PostalCode":"35-326","AdditionalData":[{"value":"Polska","key":"CountryName"},{"value":"Woj. Podkarpackie","key":"StateName"},{"value":"Rzeszów","key":"CountyName"}]},"MapReference":{"ReferenceId":"1035923540","Spot":1.0,"SideOfStreet":"right","CountryId":"20624059","StateId":"20628101","CountyId":"20628460","CityId":"20628461","DistrictId":"20646808"}}},{"Relevance":1.0,"Distance":77.0,"MatchLevel":"houseNumber","MatchQuality":{"Country":1.0,"State":1.0,"County":1.0,"City":1.0,"District":1.0,"Street":[1.0],"HouseNumber":1.0,"PostalCode":1.0},"MatchType":"interpolated","Location":{"LocationId":"NT_JiRth2huzXij0IK5C.TMbB_xkTQ","LocationType":"point","DisplayPosition":{"Latitude":50.01519,"Longitude":22.00807},"MapView":{"TopLeft":{"Latitude":50.0163142,"Longitude":22.0063206},"BottomRight":{"Latitude":50.0140658,"Longitude":22.0098194}},"Address":{"Label":"ulica Graniczna 19A, 35-326 Rzeszów, Polska","Country":"POL","State":"Woj. Podkarpackie","County":"Rzeszów","City":"Rzeszów","District":"Rzeszów","Street":"ulica Graniczna","HouseNumber":"19A","PostalCode":"35-326","AdditionalData":[{"value":"Polska","key":"CountryName"},{"value":"Woj. Podkarpackie","key":"StateName"},{"value":"Rzeszów","key":"CountyName"}]},"MapReference":{"ReferenceId":"722357143","Spot":0.48,"SideOfStreet":"left","CountryId":"20624059","StateId":"20628101","CountyId":"20628460","CityId":"20628461","DistrictId":"20646808","AddressId":"582542883","RoadLinkId":"126194999"}}},{"Relevance":1.0,"Distance":77.1,"MatchLevel":"street","MatchQuality":{"Country":1.0,"State":1.0,"County":1.0,"City":1.0,"District":1.0,"Street":[1.0],"PostalCode":1.0},"Location":{"LocationId":"NT_nyrHX69ddZ-MJKsnxsHDOD_l_1036112540_L","LocationType":"point","DisplayPosition":{"Latitude":50.01443,"Longitude":22.00773},"MapView":{"TopLeft":{"Latitude":50.01443,"Longitude":22.00773},"BottomRight":{"Latitude":50.01443,"Longitude":22.00807}},"Address":{"Label":"ulica Nowowiejska, 35-326 Rzeszów, Polska","Country":"POL","State":"Woj. Podkarpackie","County":"Rzeszów","City":"Rzeszów","District":"Rzeszów","Street":"ulica Nowowiejska","PostalCode":"35-326","AdditionalData":[{"value":"Polska","key":"CountryName"},{"value":"Woj. Podkarpackie","key":"StateName"},{"value":"Rzeszów","key":"CountyName"}]},"MapReference":{"ReferenceId":"1036112540","Spot":0.0,"SideOfStreet":"left","CountryId":"20624059","StateId":"20628101","CountyId":"20628460","CityId":"20628461","DistrictId":"20646808"}}}]}]}}