{"Response":{"MetaInfo":{"Timestamp":"2020-03-28T10:56:48.487+0000","NextPageInformation":"2"},"View":[{"_type":"SearchResultsViewType","ViewId":0,"Result":[{"Relevance":1.0,"Distance":0.0,"Direction":0.0,"MatchLevel":"district","MatchQuality":{"Country":1.0,"State":1.0,"County":1.0,"City":1.0,"District":1.0,"PostalCode":1.0},"Location":{"LocationId":"NT_otCicPTXovfVk9MunRRyWA","LocationType":"point","DisplayPosition":{"Latitude":50.040715,"Longitude":10.5128431},"MapView":{"TopLeft":{"Latitude":50.04293,"Longitude":10.48667},"BottomRight":{"Latitude":50.02386,"Longitude":10.54688}},"Address":{"Label":"Haßfurt, Bayern, Deutschland","Country":"DEU","State":"Bayern","County":"Haßberge","City":"Haßfurt","District":"Haßfurt","PostalCode":"97437","AdditionalData":[{"value":"Deutschland","key":"CountryName"},{"value":"Bayern","key":"StateName"},{"value":"Haßberge","key":"CountyName"}]},"MapReference":{"ReferenceId":"541839935","SideOfStreet":"neither","CountryId":"20147700","StateId":"20177250","CountyId":"20184391","CityId":"20184427","DistrictId":"20184429"}}},{"Relevance":1.0,"Distance":2.7,"MatchLevel":"landmark","MatchQuality":{"Country":1.0,"State":1.0,"County":1.0,"City":1.0,"District":1.0,"Street":[1.0],"PostalCode":1.0,"Name":1.0},"Location":{"LocationId":"NT_1yu-BRZDQm9TjuyYjc8ggD_p_VxTC1KWDVzxnkHqlIFN26C","LocationType":"hospital","Name":"Haßbergkliniken Haßfurt","DisplayPosition":{"Latitude":50.04035,"Longitude":10.51487},"MapView":{"TopLeft":{"Latitude":50.04161,"Longitude":10.51284},"BottomRight":{"Latitude":50.03912,"Longitude":10.51643}},"Address":{"Label":"Hofheimer Straße, 97437 Haßfurt, Deutschland","Country":"DEU","State":"Bayern","County":"Haßberge","City":"Haßfurt","District":"Haßfurt","Street":"Hofheimer Straße","PostalCode":"97437","AdditionalData":[{"value":"Deutschland","key":"CountryName"},{"value":"Bayern","key":"StateName"},{"value":"Haßberge","key":"CountyName"}]},"MapReference":{"CountryId":"20147700","StateId":"20177250","CountyId":"20184391","CityId":"20184427","DistrictId":"20184429","PlaceId":"55772494"}}},{"Relevance":1.0,"Distance":18.5,"MatchLevel":"houseNumber","MatchQuality":{"Country":1.0,"State":1.0,"County":1.0,"City":1.0,"District":1.0,"Street":[1.0],"HouseNumber":1.0,"PostalCode":1.0},"MatchType":"interpolated","Location":{"LocationId":"NT_lQ0Fipt6mIBiijODP7F73A_zA","LocationType":"point","DisplayPosition":{"Latitude":50.04042,"Longitude":10.5123},"MapView":{"TopLeft":{"Latitude":50.0415442,"Longitude":10.5105497},"BottomRight":{"Latitude":50.0392958,"Longitude":10.5140503}},"Address":{"Label":"Dresdener Straße 3, 97437 Haßfurt, Deutschland","Country":"DEU","State":"Bayern","County":"Haßberge","City":"Haßfurt","District":"Haßfurt","Street":"Dresdener Straße","HouseNumber":"3","PostalCode":"97437","AdditionalData":[{"value":"Deutschland","key":"CountryName"},{"value":"Bayern","key":"StateName"},{"value":"Haßberge","key":"CountyName"}]},"MapReference":{"ReferenceId":"541799966","Spot":1.0,"SideOfStreet":"left","CountryId":"20147700","StateId":"20177250","CountyId":"20184391","CityId":"20184427","DistrictId":"20184429","AddressId":"249181415","RoadLinkId":"32476874"}}},{"Relevance":1.0,"Distance":21.4,"MatchLevel":"street","MatchQuality":{"Country":1.0,"State":1.0,"County":1.0,"City":1.0,"District":1.0,"PostalCode":1.0},"Location":{"LocationId":"NT_yRseH5bwugbhDaMTz534nB_l_943577704_L","LocationType":"point","DisplayPosition":{"Latitude":50.04057,"Longitude":10.51304},"MapView":{"TopLeft":{"Latitude":50.04064,"Longitude":10.51304},"BottomRight":{"Latitude":50.0404,"Longitude":10.51319}},"Address":{"Label":"97437 Haßfurt, Deutschland","Country":"DEU","State":"Bayern","County":"Haßberge","City":"Haßfurt","District":"Haßfurt","PostalCode":"97437","AdditionalData":[{"value":"Deutschland","key":"CountryName"},{"value":"Bayern","key":"StateName"},{"value":"Haßberge","key":"CountyName"}]},"MapReference":{"ReferenceId":"943577704","Spot":0.59,"SideOfStreet":"left","CountryId":"20147700","StateId":"20177250","CountyId":"20184391","CityId":"20184427","DistrictId":"20184429"}}},{"Relevance":1.0,"Distance":26.1,"MatchLevel":"street","MatchQuality":{"Country":1.0,"State":1.0,"County":1.0,"City":1.0,"District":1.0,"PostalCode":1.0},"Location":{"LocationId":"NT_yRseH5bwugbhDaMTz534nB_l_943577705_R","LocationType":"point","DisplayPosition":{"Latitude":50.04064,"Longitude":10.51319},"MapView":{"TopLeft":{"Latitude":50.04078,"Longitude":10.51319},"BottomRight":{"Latitude":50.04056,"Longitude":10.51518}},"Address":{"Label":"97437 Haßfurt, Deutschland","Country":"DEU","State":"Bayern","County":"Haßberge","City":"Haßfurt","District":"Haßfurt","PostalCode":"97437","AdditionalData":[{"value":"Deutschland","key":"CountryName"},{"value":"Bayern","key":"StateName"},{"value":"Haßberge","key":"CountyName"}]},"MapReference":{"ReferenceId":"943577705","Spot":1.0,"SideOfStreet":"right","CountryId":"20147700","StateId":"20177250","CountyId":"20184391","CityId":"20184427","DistrictId":"20184429"}}},{"Relevance":1.0,"Distance":29.5,"MatchLevel":"houseNumber","MatchQuality":{"Country":1.0,"State":1.0,"County":1.0,"City":1.0,"District":1.0,"Street":[1.0],"HouseNumber":1.0,"PostalCode":1.0},"MatchType":"interpolated","Location":{"LocationId":"NT_4dzzFdTAoEWJA-wfw1G2KD_xkD","LocationType":"point","DisplayPosition":{"Latitude":50.04116,"Longitude":10.51283},"MapView":{"TopLeft":{"Latitude":50.0422842,"Longitude":10.5110796},"BottomRight":{"Latitude":50.0400358,"Longitude":10.5145804}},"Address":{"Label":"Amonshöhe 19, 97437 Haßfurt, Deutschland","Country":"DEU","State":"Bayern","County":"Haßberge","City":"Haßfurt","District":"Haßfurt","Street":"Amonshöhe","HouseNumber":"19","PostalCode":"97437","AdditionalData":[{"value":"Deutschland","key":"CountryName"},{"value":"Bayern","key":"StateName"},{"value":"Haßberge","key":"CountyName"}]},"MapReference":{"ReferenceId":"773840868","Spot":0.24,"SideOfStreet":"right","CountryId":"20147700","StateId":"20177250","CountyId":"20184391","CityId":"20184427","DistrictId":"20184429","AddressId":"185462249","RoadLinkId":"167527467"}}},{"Relevance":1.0,"Distance":76.7,"MatchLevel":"houseNumber","MatchQuality":{"Country":1.0,"State":1.0,"County":1.0,"City":1.0,"District":1.0,"Street":[1.0],"HouseNumber":1.0,"PostalCode":1.0},"MatchType":"interpolated","Location":{"LocationId":"NT_Mam6GijM7.9oXOwMTEANnB_zYD","LocationType":"point","DisplayPosition":{"Latitude":50.04074,"Longitude":10.51149},"MapView":{"TopLeft":{"Latitude":50.0418642,"Longitude":10.5097396},"BottomRight":{"Latitude":50.0396158,"Longitude":10.5132404}},"Address":{"Label":"Virdungstraße 36, 97437 Haßfurt, Deutschland","Country":"DEU","State":"Bayern","County":"Haßberge","City":"Haßfurt","District":"Haßfurt","Street":"Virdungstraße","HouseNumber":"36","PostalCode":"97437","AdditionalData":[{"value":"Deutschland","key":"CountryName"},{"value":"Bayern","key":"StateName"},{"value":"Haßberge","key":"CountyName"}]},"MapReference":{"ReferenceId":"773844031","Spot":0.66,"SideOfStreet":"right","CountryId":"20147700","StateId":"20177250","CountyId":"20184391","CityId":"20184427","DistrictId":"20184429","AddressId":"183866539","RoadLinkId":"167531090"}}},{"Relevance":1.0,"Distance":82.4,"MatchLevel":"houseNumber","MatchQuality":{"Country":1.0,"State":1.0,"County":1.0,"City":1.0,"District":1.0,"Street":[1.0],"HouseNumber":1.0,"PostalCode":1.0},"MatchType":"interpolated","Location":{"LocationId":"NT_Mam6GijM7.9oXOwMTEANnB_zgD","LocationType":"point","DisplayPosition":{"Latitude":50.04093,"Longitude":10.51148},"MapView":{"TopLeft":{"Latitude":50.0420542,"Longitude":10.5097296},"BottomRight":{"Latitude":50.0398058,"Longitude":10.5132304}},"Address":{"Label":"Virdungstraße 38, 97437 Haßfurt, Deutschland","Country":"DEU","State":"Bayern","County":"Haßberge","City":"Haßfurt","District":"Haßfurt","Street":"Virdungstraße","HouseNumber":"38","PostalCode":"97437","AdditionalData":[{"value":"Deutschland","key":"CountryName"},{"value":"Bayern","key":"StateName"},{"value":"Haßberge","key":"CountyName"}]},"MapReference":{"ReferenceId":"773844032","Spot":0.0,"SideOfStreet":"right","CountryId":"20147700","StateId":"20177250","CountyId":"20184391","CityId":"20184427","DistrictId":"20184429","AddressId":"186077628","RoadLinkId":"167531091"}}},{"Relevance":1.0,"Distance":96.9,"MatchLevel":"houseNumber","MatchQuality":{"Country":1.0,"State":1.0,"County":1.0,"City":1.0,"District":1.0,"Street":[1.0],"HouseNumber":1.0,"PostalCode":1.0},"MatchType":"interpolated","Location":{"LocationId":"NT_Mam6GijM7.9oXOwMTEANnB_zID","LocationType":"point","DisplayPosition":{"Latitude":50.04019,"Longitude":10.5115},"MapView":{"TopLeft":{"Latitude":50.0413142,"Longitude":10.5097497},"BottomRight":{"Latitude":50.0390658,"Longitude":10.5132503}},"Address":{"Label":"Virdungstraße 32, 97437 Haßfurt, Deutschland","Country":"DEU","State":"Bayern","County":"Haßberge","City":"Haßfurt","District":"Haßfurt","Street":"Virdungstraße","HouseNumber":"32","PostalCode":"97437","AdditionalData":[{"value":"Deutschland","key":"CountryName"},{"value":"Bayern","key":"StateName"},{"value":"Haßberge","key":"CountyName"}]},"MapReference":{"ReferenceId":"541799962","Spot":0.75,"SideOfStreet":"right","CountryId":"20147700","StateId":"20177250","CountyId":"20184391","CityId":"20184427","DistrictId":"20184429","AddressId":"183554913","RoadLinkId":"33004350"}}},{"Relevance":1.0,"Distance":109.2,"MatchLevel":"houseNumber","MatchQuality":{"Country":1.0,"State":1.0,"County":1.0,"City":1.0,"District":1.0,"Street":[1.0],"HouseNumber":1.0,"PostalCode":1.0},"MatchType":"interpolated","Location":{"LocationId":"NT_AzzeqlI2FoZ-9wXznT45EC_2kD","LocationType":"point","DisplayPosition":{"Latitude":50.04039,"Longitude":10.51485},"MapView":{"TopLeft":{"Latitude":50.0415142,"Longitude":10.5130997},"BottomRight":{"Latitude":50.0392658,"Longitude":10.5166003}},"Address":{"Label":"Hofheimer Straße 69, 97437 Haßfurt, Deutschland","Country":"DEU","State":"Bayern","County":"Haßberge","City":"Haßfurt","District":"Haßfurt","Street":"Hofheimer Straße","HouseNumber":"69","PostalCode":"97437","AdditionalData":[{"value":"Deutschland","key":"CountryName"},{"value":"Bayern","key":"StateName"},{"value":"Haßberge","key":"CountyName"}]},"MapReference":{"ReferenceId":"541799992","Spot":0.09,"SideOfStreet":"left","CountryId":"20147700","StateId":"20177250","CountyId":"20184391","CityId":"20184427","DistrictId":"20184429","AddressId":"585278390","RoadLinkId":"33167625"}}}]}]}}