{"Response":{"MetaInfo":{"Timestamp":"2020-03-28T10:54:28.897+0000","NextPageInformation":"2"},"View":[{"_type":"SearchResultsViewType","ViewId":0,"Result":[{"Relevance":1.0,"Distance":0.0,"Direction":0.0,"MatchLevel":"district","MatchQuality":{"Country":1.0,"State":1.0,"County":1.0,"City":1.0,"District":1.0,"PostalCode":1.0},"Location":{"LocationId":"NT_-4XpUe.p0sV82w-.Z6-HIB","LocationType":"point","DisplayPosition":{"Latitude":50.0712578,"Longitude":15.8035883},"MapView":{"TopLeft":{"Latitude":50.08277,"Longitude":15.79968},"BottomRight":{"Latitude":50.06823,"Longitude":15.8187}},"Address":{"Label":"Ráby, Pardubický kraj, Česká Republika","Country":"CZE","State":"Pardubický kraj","County":"Pardubice","City":"Ráby","District":"Ráby","PostalCode":"533 52","AdditionalData":[{"value":"Česká Republika","key":"CountryName"},{"value":"Pardubický kraj","key":"StateName"},{"value":"Pardubice","key":"CountyName"}]},"MapReference":{"ReferenceId":"707897443","SideOfStreet":"neither","CountryId":"20427915","StateId":"20439757","CountyId":"20440098","CityId":"20440303","DistrictId":"20440304"}}},{"Relevance":1.0,"Distance":1.5,"MatchLevel":"landmark","MatchQuality":{"Country":1.0,"State":1.0,"County":1.0,"Name":1.0},"Location":{"LocationId":"NT_BIusFDkfn8yRwN9dGQwhkB","LocationType":"river","Name":"Rábský Odpad","DisplayPosition":{"Latitude":50.0648,"Longitude":15.80988},"MapView":{"TopLeft":{"Latitude":50.07262,"Longitude":15.80353},"BottomRight":{"Latitude":50.05774,"Longitude":15.8149}},"Address":{"Label":"Česká Republika","Country":"CZE","State":"Pardubický kraj","County":"Pardubice","AdditionalData":[{"value":"Česká Republika","key":"CountryName"},{"value":"Pardubický kraj","key":"StateName"},{"value":"Pardubice","key":"CountyName"}]},"MapReference":{"CountryId":"20427915","StateId":"20439757","CountyId":"20440098","PlaceId":"1404477005"}}},{"Relevance":1.0,"Distance":8.0,"MatchLevel":"street","MatchQuality":{"Country":1.0,"State":1.0,"County":1.0,"City":1.0,"District":1.0,"Street":[1.0],"PostalCode":1.0},"Location":{"LocationId":"NT_lCrKQBzdiRws7PRQpgxfkC_l_707897375_R","LocationType":"point","DisplayPosition":{"Latitude":50.0713295,"Longitude":15.8035857},"MapView":{"TopLeft":{"Latitude":50.07133,"Longitude":15.80304},"BottomRight":{"Latitude":50.07131,"Longitude":15.8036}},"Address":{"Label":"Ráby, 533 52 Ráby, Česká Republika","Country":"CZE","State":"Pardubický kraj","County":"Pardubice","City":"Ráby","District":"Ráby","Street":"Ráby","PostalCode":"533 52","AdditionalData":[{"value":"Česká Republika","key":"CountryName"},{"value":"Pardubický kraj","key":"StateName"},{"value":"Pardubice","key":"CountyName"}]},"MapReference":{"ReferenceId":"707897375","Spot":0.97,"SideOfStreet":"right","CountryId":"20427915","StateId":"20439757","CountyId":"20440098","CityId":"20440303","DistrictId":"20440304"}}},{"Relevance":1.0,"Distance":8.1,"MatchLevel":"street","MatchQuality":{"Country":1.0,"State":1.0,"County":1.0,"City":1.0,"District":1.0,"Street":[1.0],"PostalCode":1.0},"Location":{"LocationId":"NT_lCrKQBzdiRws7PRQpgxfkC_l_707897449_R","LocationType":"point","DisplayPosition":{"Latitude":50.07133,"Longitude":15.8036},"MapView":{"TopLeft":{"Latitude":50.07135,"Longitude":15.8036},"BottomRight":{"Latitude":50.07133,"Longitude":15.80406}},"Address":{"Label":"Ráby, 533 52 Ráby, Česká Republika","Country":"CZE","State":"Pardubický kraj","County":"Pardubice","City":"Ráby","District":"Ráby","Street":"Ráby","PostalCode":"533 52","AdditionalData":[{"value":"Česká Republika","key":"CountryName"},{"value":"Pardubický kraj","key":"StateName"},{"value":"Pardubice","key":"CountyName"}]},"MapReference":{"ReferenceId":"707897449","Spot":0.0,"SideOfStreet":"right","CountryId":"20427915","StateId":"20439757","CountyId":"20440098","CityId":"20440303","DistrictId":"20440304"}}},{"Relevance":1.0,"Distance":26.1,"MatchLevel":"houseNumber","MatchQuality":{"Country":1.0,"State":1.0,"County":1.0,"City":1.0,"District":1.0,"Street":[1.0],"HouseNumber":1.0,"PostalCode":1.0},"MatchType":"interpolated","Location":{"LocationId":"NT_lCrKQBzdiRws7PRQpgxfkC_xUjN","LocationType":"point","DisplayPosition":{"Latitude":50.07122,"Longitude":15.80406},"MapView":{"TopLeft":{"Latitude":50.0723442,"Longitude":15.8023085},"BottomRight":{"Latitude":50.0700958,"Longitude":15.8058115}},"Address":{"Label":"Ráby 156, 533 52 Ráby, Česká Republika","Country":"CZE","State":"Pardubický kraj","County":"Pardubice","City":"Ráby","District":"Ráby","Street":"Ráby","HouseNumber":"156","PostalCode":"533 52","AdditionalData":[{"value":"Česká Republika","key":"CountryName"},{"value":"Pardubický kraj","key":"StateName"},{"value":"Pardubice","key":"CountyName"}]},"MapReference":{"ReferenceId":"1052214910","Spot":0.59,"SideOfStreet":"left","CountryId":"20427915","StateId":"20439757","CountyId":"20440098","CityId":"20440303","DistrictId":"20440304","AddressId":"240854102","RoadLinkId":"371861825"}}},{"Relevance":1.0,"Distance":37.6,"MatchLevel":"street","MatchQuality":{"Country":1.0,"State":1.0,"County":1.0,"City":1.0,"District":1.0,"Street":[1.0],"PostalCode":1.0},"Location":{"LocationId":"NT_lCrKQBzdiRws7PRQpgxfkC_l_1052214914_R","LocationType":"point","DisplayPosition":{"Latitude":50.07117,"Longitude":15.80308},"MapView":{"TopLeft":{"Latitude":50.07131,"Longitude":15.80304},"BottomRight":{"Latitude":50.07117,"Longitude":15.80308}},"Address":{"Label":"Ráby, 533 52 Ráby, Česká Republika","Country":"CZE","State":"Pardubický kraj","County":"Pardubice","City":"Ráby","District":"Ráby","Street":"Ráby","PostalCode":"533 52","AdditionalData":[{"value":"Česká Republika","key":"CountryName"},{"value":"Pardubický kraj","key":"StateName"},{"value":"Pardubice","key":"CountyName"}]},"MapReference":{"ReferenceId":"1052214914","Spot":0.0,"SideOfStreet":"right","CountryId":"20427915","StateId":"20439757","CountyId":"20440098","CityId":"20440303","DistrictId":"20440304"}}},{"Relevance":1.0,"Distance":39.6,"MatchLevel":"street","MatchQuality":{"Country":1.0,"State":1.0,"County":1.0,"City":1.0,"District":1.0,"Street":[1.0],"PostalCode":1.0},"Location":{"LocationId":"NT_lCrKQBzdiRws7PRQpgxfkC_l_707897374_L","LocationType":"point","DisplayPosition":{"Latitude":50.07131,"Longitude":15.80304},"MapView":{"TopLeft":{"Latitude":50.07132,"Longitude":15.80258},"BottomRight":{"Latitude":50.07131,"Longitude":15.80304}},"Address":{"Label":"Ráby, 533 52 Ráby, Česká Republika","Country":"CZE","State":"Pardubický kraj","County":"Pardubice","City":"Ráby","District":"Ráby","Street":"Ráby","PostalCode":"533 52","AdditionalData":[{"value":"Česká Republika","key":"CountryName"},{"value":"Pardubický kraj","key":"StateName"},{"value":"Pardubice","key":"CountyName"}]},"MapReference":{"ReferenceId":"707897374","Spot":0.0,"SideOfStreet":"left","CountryId":"20427915","StateId":"20439757","CountyId":"20440098","CityId":"20440303","DistrictId":"20440304"}}},{"Relevance":1.0,"Distance":52.8,"MatchLevel":"houseNumber","MatchQuality":{"Country":1.0,"State":1.0,"County":1.0,"City":1.0,"District":1.0,"Street":[1.0],"HouseNumber":1.0,"PostalCode":1.0},"MatchType":"interpolated","Location":{"LocationId":"NT_lCrKQBzdiRws7PRQpgxfkC_xkDN","LocationType":"point","DisplayPosition":{"Latitude":50.07171,"Longitude":15.80284},"MapView":{"TopLeft":{"Latitude":50.0728342,"Longitude":15.8010885},"BottomRight":{"Latitude":50.0705858,"Longitude":15.8045915}},"Address":{"Label":"Ráby 194, 533 52 Ráby, Česká Republika","Country":"CZE","State":"Pardubický kraj","County":"Pardubice","City":"Ráby","District":"Ráby","Street":"Ráby","HouseNumber":"194","PostalCode":"533 52","AdditionalData":[{"value":"Česká Republika","key":"CountryName"},{"value":"Pardubický kraj","key":"StateName"},{"value":"Pardubice","key":"CountyName"}]},"MapReference":{"ReferenceId":"707897443","Spot":0.31,"SideOfStreet":"right","CountryId":"20427915","StateId":"20439757","CountyId":"20440098","CityId":"20440303","DistrictId":"20440304","AddressId":"767598530","RoadLinkId":"113304948"}}},{"Relevance":1.0,"Distance":77.3,"MatchLevel":"houseNumber","MatchQuality":{"Country":1.0,"State":1.0,"County":1.0,"City":1.0,"District":1.0,"Street":[1.0],"HouseNumber":1.0,"PostalCode":1.0},"MatchType":"interpolated","Location":{"LocationId":"NT_lCrKQBzdiRws7PRQpgxfkC_0gD","LocationType":"point","DisplayPosition":{"Latitude":50.07109,"Longitude":15.80239},"MapView":{"TopLeft":{"Latitude":50.0722142,"Longitude":15.8006385},"BottomRight":{"Latitude":50.0699658,"Longitude":15.8041415}},"Address":{"Label":"Ráby 48, 533 52 Ráby, Česká Republika","Country":"CZE","State":"Pardubický kraj","County":"Pardubice","City":"Ráby","District":"Ráby","Street":"Ráby","HouseNumber":"48","PostalCode":"533 52","AdditionalData":[{"value":"Česká Republika","key":"CountryName"},{"value":"Pardubický kraj","key":"StateName"},{"value":"Pardubice","key":"CountyName"}]},"MapReference":{"ReferenceId":"591304787","Spot":0.22,"SideOfStreet":"right","CountryId":"20427915","StateId":"20439757","CountyId":"20440098","CityId":"20440303","DistrictId":"20440304","AddressId":"240484649","RoadLinkId":"40215688"}}},{"Relevance":1.0,"Distance":85.3,"MatchLevel":"houseNumber","MatchQuality":{"Country":1.0,"State":1.0,"County":1.0,"City":1.0,"District":1.0,"Street":[1.0],"HouseNumber":1.0,"PostalCode":1.0},"MatchType":"interpolated","Location":{"LocationId":"NT_lCrKQBzdiRws7PRQpgxfkC_xYjM","LocationType":"point","DisplayPosition":{"Latitude":50.07137,"Longitude":15.80477},"MapView":{"TopLeft":{"Latitude":50.0724942,"Longitude":15.8030185},"BottomRight":{"Latitude":50.0702458,"Longitude":15.8065215}},"Address":{"Label":"Ráby 162, 533 52 Ráby, Česká Republika","Country":"CZE","State":"Pardubický kraj","County":"Pardubice","City":"Ráby","District":"Ráby","Street":"Ráby","HouseNumber":"162","PostalCode":"533 52","AdditionalData":[{"value":"Česká Republika","key":"CountryName"},{"value":"Pardubický kraj","key":"StateName"},{"value":"Pardubice","key":"CountyName"}]},"MapReference":{"ReferenceId":"707897450","Spot":0.44,"SideOfStreet":"right","CountryId":"20427915","StateId":"20439757","CountyId":"20440098","CityId":"20440303","DistrictId":"20440304","AddressId":"240109936","RoadLinkId":"114430342"}}}]}]}}