{"Response":{"MetaInfo":{"Timestamp":"2020-03-28T10:53:46.547+0000","NextPageInformation":"2"},"View":[{"_type":"SearchResultsViewType","ViewId":0,"Result":[{"Relevance":1.0,"Distance":-9.4,"MatchLevel":"landmark","MatchQuality":{"Country":1.0,"State":1.0,"County":1.0,"City":1.0,"District":1.0,"Street":[1.0],"HouseNumber":1.0,"PostalCode":1.0,"Name":1.0},"Location":{"LocationId":"NT_T2Mj16vedHQVzBpv-zmu2D_p_gv8g9xfUMQ94vPakFL9uBC","LocationType":"hospital","Name":"FN v Motole","DisplayPosition":{"Latitude":50.07384,"Longitude":14.34003},"MapView":{"TopLeft":{"Latitude":50.0749642,"Longitude":14.3382784},"BottomRight":{"Latitude":50.0727158,"Longitude":14.3417816}},"Address":{"Label":"V Úvalu 1, 150 00 Praha, Česká Republika","Country":"CZE","State":"Hlavní město Praha","County":"Hlavní město Praha","City":"Praha","District":"Praha 5","Street":"V Úvalu","HouseNumber":"1","PostalCode":"150 00","AdditionalData":[{"value":"Česká Republika","key":"CountryName"},{"value":"Hlavní město Praha","key":"StateName"},{"value":"Hlavní město Praha","key":"CountyName"}]},"MapReference":{"CountryId":"20427915","StateId":"20442647","CountyId":"20442648","CityId":"20442649","DistrictId":"20442655","PlaceId":"545981372"}}},{"Relevance":1.0,"Distance":0.0,"Direction":0.0,"MatchLevel":"district","MatchQuality":{"Country":1.0,"State":1.0,"County":1.0,"City":1.0,"District":1.0,"PostalCode":1.0},"Location":{"LocationId":"NT_nuQHv3X2DATxQwBn8ufi4D","LocationType":"point","DisplayPosition":{"Latitude":50.0749962,"Longitude":14.3493238},"MapView":{"TopLeft":{"Latitude":50.08129,"Longitude":14.3222},"BottomRight":{"Latitude":50.00556,"Longitude":14.41484}},"Address":{"Label":"Praha 5, Praha, Hlavní město Praha, Česká Republika","Country":"CZE","State":"Hlavní město Praha","County":"Hlavní město Praha","City":"Praha","District":"Praha 5","PostalCode":"150 00","AdditionalData":[{"value":"Česká Republika","key":"CountryName"},{"value":"Hlavní město Praha","key":"StateName"},{"value":"Hlavní město Praha","key":"CountyName"}]},"MapReference":{"ReferenceId":"1112069226","SideOfStreet":"neither","CountryId":"20427915","StateId":"20442647","CountyId":"20442648","CityId":"20442649","DistrictId":"20442655"}}},{"Relevance":1.0,"Distance":9.5,"MatchLevel":"street","MatchQuality":{"Country":1.0,"State":1.0,"County":1.0,"City":1.0,"District":1.0,"Street":[1.0],"PostalCode":1.0},"Location":{"LocationId":"NT_-u.gpwhz.NosvJSt7HAEnB_l_792337447_L","LocationType":"point","DisplayPosition":{"Latitude":50.0750807,"Longitude":14.3493374},"MapView":{"TopLeft":{"Latitude":50.07509,"Longitude":14.34928},"BottomRight":{"Latitude":50.07504,"Longitude":14.34959}},"Address":{"Label":"Roentgenova, 169 00 Praha, Česká Republika","Country":"CZE","State":"Hlavní město Praha","County":"Hlavní město Praha","City":"Praha","District":"Praha 5","Street":"Roentgenova","PostalCode":"169 00","AdditionalData":[{"value":"Česká Republika","key":"CountryName"},{"value":"Hlavní město Praha","key":"StateName"},{"value":"Hlavní město Praha","key":"CountyName"}]},"MapReference":{"ReferenceId":"792337447","Spot":0.81,"SideOfStreet":"left","CountryId":"20427915","StateId":"20442647","CountyId":"20442648","CityId":"20442649","DistrictId":"20442655"}}},{"Relevance":1.0,"Distance":10.9,"MatchLevel":"street","MatchQuality":{"Country":1.0,"State":1.0,"County":1.0,"City":1.0,"District":1.0,"Street":[1.0],"PostalCode":1.0},"Location":{"LocationId":"NT_-u.gpwhz.NosvJSt7HAEnB_l_931139003_L","LocationType":"point","DisplayPosition":{"Latitude":50.07509,"Longitude":14.34928},"MapView":{"TopLeft":{"Latitude":50.0753,"Longitude":14.34852},"BottomRight":{"Latitude":50.07509,"Longitude":14.34928}},"Address":{"Label":"Roentgenova, 169 00 Praha, Česká Republika","Country":"CZE","State":"Hlavní město Praha","County":"Hlavní město Praha","City":"Praha","District":"Praha 5","Street":"Roentgenova","PostalCode":"169 00","AdditionalData":[{"value":"Česká Republika","key":"CountryName"},{"value":"Hlavní město Praha","key":"StateName"},{"value":"Hlavní město Praha","key":"CountyName"}]},"MapReference":{"ReferenceId":"931139003","Spot":0.0,"SideOfStreet":"left","CountryId":"20427915","StateId":"20442647","CountyId":"20442648","CityId":"20442649","DistrictId":"20442655"}}},{"Relevance":1.0,"Distance":18.5,"MatchLevel":"landmark","MatchQuality":{"Country":1.0,"State":1.0,"County":1.0,"City":1.0,"District":1.0,"Street":[1.0],"HouseNumber":1.0,"PostalCode":1.0,"Name":1.0},"Location":{"LocationId":"NT_ItFjfqhT1c7X0Z2-KmcUwB_p_wRWQmoDkeGhWu1AkLK7OSB","LocationType":"hospital","Name":"Nemocnice Na Homolce","DisplayPosition":{"Latitude":50.07535,"Longitude":14.35399},"MapView":{"TopLeft":{"Latitude":50.0764742,"Longitude":14.3522384},"BottomRight":{"Latitude":50.0742258,"Longitude":14.3557416}},"Address":{"Label":"Roentgenova 2, 150 00 Praha, Česká Republika","Country":"CZE","State":"Hlavní město Praha","County":"Hlavní město Praha","City":"Praha","District":"Praha 5","Street":"Roentgenova","HouseNumber":"2","PostalCode":"150 00","AdditionalData":[{"value":"Česká Republika","key":"CountryName"},{"value":"Hlavní město Praha","key":"StateName"},{"value":"Hlavní město Praha","key":"CountyName"}]},"MapReference":{"CountryId":"20427915","StateId":"20442647","CountyId":"20442648","CityId":"20442649","DistrictId":"20442655","PlaceId":"545981192"}}},{"Relevance":1.0,"Distance":19.6,"MatchLevel":"street","MatchQuality":{"Country":1.0,"State":1.0,"County":1.0,"City":1.0,"District":1.0,"Street":[1.0],"PostalCode":1.0},"Location":{"LocationId":"NT_ZS6WuERkC4BaG5pWXSxfxA_l_792336855_L","LocationType":"point","DisplayPosition":{"Latitude":50.07504,"Longitude":14.34959},"MapView":{"TopLeft":{"Latitude":50.07504,"Longitude":14.34959},"BottomRight":{"Latitude":50.07499,"Longitude":14.34988}},"Address":{"Label":"Roentgenova, 150 00 Praha, Česká Republika","Country":"CZE","State":"Hlavní město Praha","County":"Hlavní město Praha","City":"Praha","District":"Praha 5","Street":"Roentgenova","PostalCode":"150 00","AdditionalData":[{"value":"Česká Republika","key":"CountryName"},{"value":"Hlavní město Praha","key":"StateName"},{"value":"Hlavní město Praha","key":"CountyName"}]},"MapReference":{"ReferenceId":"792336855","Spot":1.0,"SideOfStreet":"left","CountryId":"20427915","StateId":"20442647","CountyId":"20442648","CityId":"20442649","DistrictId":"20442655"}}},{"Relevance":1.0,"Distance":19.6,"MatchLevel":"street","MatchQuality":{"Country":1.0,"State":1.0,"County":1.0,"City":1.0,"District":1.0,"Street":[1.0],"PostalCode":1.0},"Location":{"LocationId":"NT_ZS6WuERkC4BaG5pWXSxfxA_l_810591950_L","LocationType":"point","DisplayPosition":{"Latitude":50.07504,"Longitude":14.34959},"MapView":{"TopLeft":{"Latitude":50.07525,"Longitude":14.34959},"BottomRight":{"Latitude":50.07504,"Longitude":14.34995}},"Address":{"Label":"Roentgenova, 150 00 Praha, Česká Republika","Country":"CZE","State":"Hlavní město Praha","County":"Hlavní město Praha","City":"Praha","District":"Praha 5","Street":"Roentgenova","PostalCode":"150 00","AdditionalData":[{"value":"Česká Republika","key":"CountryName"},{"value":"Hlavní město Praha","key":"StateName"},{"value":"Hlavní město Praha","key":"CountyName"}]},"MapReference":{"ReferenceId":"810591950","Spot":0.0,"SideOfStreet":"left","CountryId":"20427915","StateId":"20442647","CountyId":"20442648","CityId":"20442649","DistrictId":"20442655"}}},{"Relevance":1.0,"Distance":39.7,"MatchLevel":"street","MatchQuality":{"Country":1.0,"State":1.0,"County":1.0,"City":1.0,"District":1.0,"Street":[1.0],"PostalCode":1.0},"Location":{"LocationId":"NT_ZS6WuERkC4BaG5pWXSxfxA_l_810591939_L","LocationType":"point","DisplayPosition":{"Latitude":50.07499,"Longitude":14.34988},"MapView":{"TopLeft":{"Latitude":50.07499,"Longitude":14.34988},"BottomRight":{"Latitude":50.07495,"Longitude":14.35053}},"Address":{"Label":"Roentgenova, 150 00 Praha, Česká Republika","Country":"CZE","State":"Hlavní město Praha","County":"Hlavní město Praha","City":"Praha","District":"Praha 5","Street":"Roentgenova","PostalCode":"150 00","AdditionalData":[{"value":"Česká Republika","key":"CountryName"},{"value":"Hlavní město Praha","key":"StateName"},{"value":"Hlavní město Praha","key":"CountyName"}]},"MapReference":{"ReferenceId":"810591939","Spot":1.0,"SideOfStreet":"left","CountryId":"20427915","StateId":"20442647","CountyId":"20442648","CityId":"20442649","DistrictId":"20442655"}}},{"Relevance":1.0,"Distance":45.5,"MatchLevel":"street","MatchQuality":{"Country":1.0,"State":1.0,"County":1.0,"City":1.0,"District":1.0,"PostalCode":1.0},"Location":{"LocationId":"NT_QYwjhBnMk0ccR1eCmedPNA_l_810591940_R","LocationType":"point","DisplayPosition":{"Latitude":50.07482,"Longitude":14.3499},"MapView":{"TopLeft":{"Latitude":50.07482,"Longitude":14.3499},"BottomRight":{"Latitude":50.07478,"Longitude":14.35049}},"Address":{"Label":"150 00 Praha, Česká Republika","Country":"CZE","State":"Hlavní město Praha","County":"Hlavní město Praha","City":"Praha","District":"Praha 5","PostalCode":"150 00","AdditionalData":[{"value":"Česká Republika","key":"CountryName"},{"value":"Hlavní město Praha","key":"StateName"},{"value":"Hlavní město Praha","key":"CountyName"}]},"MapReference":{"ReferenceId":"810591940","Spot":1.0,"SideOfStreet":"right","CountryId":"20427915","StateId":"20442647","CountyId":"20442648","CityId":"20442649","DistrictId":"20442655"}}},{"Relevance":1.0,"Distance":49.8,"MatchLevel":"street","MatchQuality":{"Country":1.0,"State":1.0,"County":1.0,"City":1.0,"District":1.0,"PostalCode":1.0},"Location":{"LocationId":"NT_QYwjhBnMk0ccR1eCmedPNA_l_1186167781_R","LocationType":"point","DisplayPosition":{"Latitude":50.07513,"Longitude":14.34999},"MapView":{"TopLeft":{"Latitude":50.07528,"Longitude":14.34999},"BottomRight":{"Latitude":50.07513,"Longitude":14.3516}},"Address":{"Label":"150 00 Praha, Česká Republika","Country":"CZE","State":"Hlavní město Praha","County":"Hlavní město Praha","City":"Praha","District":"Praha 5","PostalCode":"150 00","AdditionalData":[{"value":"Česká Republika","key":"CountryName"},{"value":"Hlavní město Praha","key":"StateName"},{"value":"Hlavní město Praha","key":"CountyName"}]},"MapReference":{"ReferenceId":"1186167781","Spot":0.0,"SideOfStreet":"right","CountryId":"20427915","StateId":"20442647","CountyId":"20442648","CityId":"20442649","DistrictId":"20442655"}}}]}]}}