{"Response":{"MetaInfo":{"Timestamp":"2020-03-28T10:45:58.146+0000","NextPageInformation":"2"},"View":[{"_type":"SearchResultsViewType","ViewId":0,"Result":[{"Relevance":1.0,"Distance":0.0,"Direction":0.0,"MatchLevel":"district","MatchQuality":{"Country":1.0,"State":1.0,"County":1.0,"City":1.0,"District":1.0,"PostalCode":1.0},"Location":{"LocationId":"NT_0oR4iC1n75HJBPIRZLBwjD","LocationType":"point","DisplayPosition":{"Latitude":50.0368495,"Longitude":20.2202255},"MapView":{"TopLeft":{"Latitude":50.05669,"Longitude":20.14292},"BottomRight":{"Latitude":50.01685,"Longitude":20.25423}},"Address":{"Label":"Niepołomice, Woj. Małopolskie, Polska","Country":"POL","State":"Woj. Małopolskie","County":"Powiat Wielicki","City":"Niepołomice","District":"Niepołomice","PostalCode":"32-005","AdditionalData":[{"value":"Polska","key":"CountryName"},{"value":"Woj. Małopolskie","key":"StateName"},{"value":"Powiat Wielicki","key":"CountyName"}]},"MapReference":{"ReferenceId":"594523568","SideOfStreet":"neither","CountryId":"20624059","StateId":"20626775","CountyId":"20627166","CityId":"20627173","DistrictId":"20687129"}}},{"Relevance":1.0,"Distance":53.6,"MatchLevel":"houseNumber","MatchQuality":{"Country":1.0,"State":1.0,"County":1.0,"City":1.0,"District":1.0,"Street":[1.0],"HouseNumber":1.0,"PostalCode":1.0},"MatchType":"interpolated","Location":{"LocationId":"NT_W4rh7CZhWxJM6eZ9VtplOB_4A","LocationType":"point","DisplayPosition":{"Latitude":50.03632,"Longitude":20.21917},"MapView":{"TopLeft":{"Latitude":50.0374442,"Longitude":20.2174198},"BottomRight":{"Latitude":50.0351958,"Longitude":20.2209202}},"Address":{"Label":"ulica Targowa 8, 32-005 Niepołomice, Polska","Country":"POL","State":"Woj. Małopolskie","County":"Powiat Wielicki","City":"Niepołomice","District":"Niepołomice","Street":"ulica Targowa","HouseNumber":"8","PostalCode":"32-005","AdditionalData":[{"value":"Polska","key":"CountryName"},{"value":"Woj. Małopolskie","key":"StateName"},{"value":"Powiat Wielicki","key":"CountyName"}]},"MapReference":{"ReferenceId":"709328235","Spot":0.0,"SideOfStreet":"right","CountryId":"20624059","StateId":"20626775","CountyId":"20627166","CityId":"20627173","DistrictId":"20687129","AddressId":"771131181","RoadLinkId":"114657154"}}},{"Relevance":1.0,"Distance":125.6,"MatchLevel":"houseNumber","MatchQuality":{"Country":1.0,"State":1.0,"County":1.0,"City":1.0,"District":1.0,"Street":[1.0],"HouseNumber":1.0,"PostalCode":1.0},"MatchType":"interpolated","Location":{"LocationId":"NT_tGd5xBdwGNCawzawOUttJC_xED","LocationType":"point","DisplayPosition":{"Latitude":50.03613,"Longitude":20.21887},"MapView":{"TopLeft":{"Latitude":50.0372542,"Longitude":20.2171198},"BottomRight":{"Latitude":50.0350058,"Longitude":20.2206202}},"Address":{"Label":"ulica Spółdzielcza 11, 32-005 Niepołomice, Polska","Country":"POL","State":"Woj. Małopolskie","County":"Powiat Wielicki","City":"Niepołomice","District":"Niepołomice","Street":"ulica Spółdzielcza","HouseNumber":"11","PostalCode":"32-005","AdditionalData":[{"value":"Polska","key":"CountryName"},{"value":"Woj. Małopolskie","key":"StateName"},{"value":"Powiat Wielicki","key":"CountyName"}]},"MapReference":{"ReferenceId":"1267118545","Spot":0.38,"SideOfStreet":"left","CountryId":"20624059","StateId":"20626775","CountyId":"20627166","CityId":"20627173","DistrictId":"20687129","AddressId":"222284455","RoadLinkId":"593830720"}}},{"Relevance":1.0,"Distance":166.1,"MatchLevel":"street","MatchQuality":{"Country":1.0,"State":1.0,"County":1.0,"City":1.0,"District":1.0,"Street":[1.0],"PostalCode":1.0},"Location":{"LocationId":"NT_DujZ8Ns910AXItWK2.LtrD_l_1267118549_R","LocationType":"point","DisplayPosition":{"Latitude":50.03819,"Longitude":20.2192},"MapView":{"TopLeft":{"Latitude":50.03819,"Longitude":20.21888},"BottomRight":{"Latitude":50.03811,"Longitude":20.2192}},"Address":{"Label":"ulica Na Grobli, 32-005 Niepołomice, Polska","Country":"POL","State":"Woj. Małopolskie","County":"Powiat Wielicki","City":"Niepołomice","District":"Niepołomice","Street":"ulica Na Grobli","PostalCode":"32-005","AdditionalData":[{"value":"Polska","key":"CountryName"},{"value":"Woj. Małopolskie","key":"StateName"},{"value":"Powiat Wielicki","key":"CountyName"}]},"MapReference":{"ReferenceId":"1267118549","Spot":1.0,"SideOfStreet":"right","CountryId":"20624059","StateId":"20626775","CountyId":"20627166","CityId":"20627173","DistrictId":"20687129"}}},{"Relevance":1.0,"Distance":168.8,"MatchLevel":"street","MatchQuality":{"Country":1.0,"State":1.0,"County":1.0,"City":1.0,"Street":[1.0],"PostalCode":1.0},"Location":{"LocationId":"NT_0D2NRj.CVcxAKMmcnY57bC_l_1267118550_R","LocationType":"point","DisplayPosition":{"Latitude":50.0383496,"Longitude":20.2198658},"MapView":{"TopLeft":{"Latitude":50.0386,"Longitude":20.2192},"BottomRight":{"Latitude":50.03819,"Longitude":20.22091}},"Address":{"Label":"ulica Na Grobli, 32-005, Polska","Country":"POL","State":"Woj. Małopolskie","County":"Powiat Wielicki","City":"Niepołomice","Street":"ulica Na Grobli","PostalCode":"32-005","AdditionalData":[{"value":"Polska","key":"CountryName"},{"value":"Woj. Małopolskie","key":"StateName"},{"value":"Powiat Wielicki","key":"CountyName"}]},"MapReference":{"ReferenceId":"1267118550","Spot":0.39,"SideOfStreet":"right","CountryId":"20624059","StateId":"20626775","CountyId":"20627166","CityId":"20627173"}}},{"Relevance":1.0,"Distance":171.1,"MatchLevel":"houseNumber","MatchQuality":{"Country":1.0,"State":1.0,"County":1.0,"City":1.0,"District":1.0,"Street":[1.0],"HouseNumber":1.0,"PostalCode":1.0},"MatchType":"interpolated","Location":{"LocationId":"NT_DujZ8Ns910AXItWK2.LtrD_xEE","LocationType":"point","DisplayPosition":{"Latitude":50.0381,"Longitude":20.21883},"MapView":{"TopLeft":{"Latitude":50.0392242,"Longitude":20.2170797},"BottomRight":{"Latitude":50.0369758,"Longitude":20.2205803}},"Address":{"Label":"ulica Na Grobli 1A, 32-005 Niepołomice, Polska","Country":"POL","State":"Woj. Małopolskie","County":"Powiat Wielicki","City":"Niepołomice","District":"Niepołomice","Street":"ulica Na Grobli","HouseNumber":"1A","PostalCode":"32-005","AdditionalData":[{"value":"Polska","key":"CountryName"},{"value":"Woj. Małopolskie","key":"StateName"},{"value":"Powiat Wielicki","key":"CountyName"}]},"MapReference":{"ReferenceId":"1267118547","Spot":0.97,"SideOfStreet":"left","CountryId":"20624059","StateId":"20626775","CountyId":"20627166","CityId":"20627173","DistrictId":"20687129","AddressId":"731713519","RoadLinkId":"593830721"}}},{"Relevance":1.0,"Distance":181.0,"MatchLevel":"houseNumber","MatchQuality":{"Country":1.0,"State":1.0,"County":1.0,"City":1.0,"District":1.0,"Street":[1.0],"HouseNumber":1.0,"PostalCode":1.0},"MatchType":"interpolated","Location":{"LocationId":"NT_tGd5xBdwGNCawzawOUttJC_5A","LocationType":"point","DisplayPosition":{"Latitude":50.03588,"Longitude":20.21819},"MapView":{"TopLeft":{"Latitude":50.0370042,"Longitude":20.2164398},"BottomRight":{"Latitude":50.0347558,"Longitude":20.2199402}},"Address":{"Label":"ulica Spółdzielcza 9, 32-005 Niepołomice, Polska","Country":"POL","State":"Woj. Małopolskie","County":"Powiat Wielicki","City":"Niepołomice","District":"Niepołomice","Street":"ulica Spółdzielcza","HouseNumber":"9","PostalCode":"32-005","AdditionalData":[{"value":"Polska","key":"CountryName"},{"value":"Woj. Małopolskie","key":"StateName"},{"value":"Powiat Wielicki","key":"CountyName"}]},"MapReference":{"ReferenceId":"1267118544","Spot":0.72,"SideOfStreet":"left","CountryId":"20624059","StateId":"20626775","CountyId":"20627166","CityId":"20627173","DistrictId":"20687129","AddressId":"222284454","RoadLinkId":"593830719"}}},{"Relevance":1.0,"Distance":206.4,"MatchLevel":"houseNumber","MatchQuality":{"Country":1.0,"State":1.0,"County":1.0,"City":1.0,"District":1.0,"Street":[1.0],"HouseNumber":1.0,"PostalCode":1.0},"MatchType":"interpolated","Location":{"LocationId":"NT_DujZ8Ns910AXItWK2.LtrD_xwE","LocationType":"point","DisplayPosition":{"Latitude":50.03863,"Longitude":20.22104},"MapView":{"TopLeft":{"Latitude":50.0397542,"Longitude":20.2192897},"BottomRight":{"Latitude":50.0375058,"Longitude":20.2227903}},"Address":{"Label":"ulica Na Grobli 1L, 32-005 Niepołomice, Polska","Country":"POL","State":"Woj. Małopolskie","County":"Powiat Wielicki","City":"Niepołomice","District":"Niepołomice","Street":"ulica Na Grobli","HouseNumber":"1L","PostalCode":"32-005","AdditionalData":[{"value":"Polska","key":"CountryName"},{"value":"Woj. Małopolskie","key":"StateName"},{"value":"Powiat Wielicki","key":"CountyName"}]},"MapReference":{"ReferenceId":"1267118551","Spot":0.06,"SideOfStreet":"left","CountryId":"20624059","StateId":"20626775","CountyId":"20627166","CityId":"20627173","DistrictId":"20687129","AddressId":"771077423","RoadLinkId":"593830724"}}},{"Relevance":1.0,"Distance":224.1,"MatchLevel":"houseNumber","MatchQuality":{"Country":1.0,"State":1.0,"County":1.0,"City":1.0,"District":1.0,"Street":[1.0],"HouseNumber":1.0,"PostalCode":1.0},"MatchType":"interpolated","Location":{"LocationId":"NT_LRmtWZASuAnp5XGn5UHzcD_xID","LocationType":"point","DisplayPosition":{"Latitude":50.0364,"Longitude":20.21677},"MapView":{"TopLeft":{"Latitude":50.0375242,"Longitude":20.2150198},"BottomRight":{"Latitude":50.0352758,"Longitude":20.2185202}},"Address":{"Label":"ulica Kazimierza Wielkiego 12, 32-005 Niepołomice, Polska","Country":"POL","State":"Woj. Małopolskie","County":"Powiat Wielicki","City":"Niepołomice","District":"Niepołomice","Street":"ulica Kazimierza Wielkiego","HouseNumber":"12","PostalCode":"32-005","AdditionalData":[{"value":"Polska","key":"CountryName"},{"value":"Woj. Małopolskie","key":"StateName"},{"value":"Powiat Wielicki","key":"CountyName"}]},"MapReference":{"ReferenceId":"732240322","Spot":0.48,"SideOfStreet":"right","CountryId":"20624059","StateId":"20626775","CountyId":"20627166","CityId":"20627173","DistrictId":"20687129","AddressId":"210319859","RoadLinkId":"134378321"}}},{"Relevance":1.0,"Distance":225.8,"MatchLevel":"houseNumber","MatchQuality":{"Country":1.0,"State":1.0,"County":1.0,"City":1.0,"District":1.0,"Street":[1.0],"HouseNumber":1.0,"PostalCode":1.0},"MatchType":"interpolated","Location":{"LocationId":"NT_6NO9sco3pTKyTePThYMgMB_yAD","LocationType":"point","DisplayPosition":{"Latitude":50.03729,"Longitude":20.21668},"MapView":{"TopLeft":{"Latitude":50.0384142,"Longitude":20.2149298},"BottomRight":{"Latitude":50.0361658,"Longitude":20.2184302}},"Address":{"Label":"ulica 3 Maja 20, 32-005 Niepołomice, Polska","Country":"POL","State":"Woj. Małopolskie","County":"Powiat Wielicki","City":"Niepołomice","District":"Niepołomice","Street":"ulica 3 Maja","HouseNumber":"20","PostalCode":"32-005","AdditionalData":[{"value":"Polska","key":"CountryName"},{"value":"Woj. Małopolskie","key":"StateName"},{"value":"Powiat Wielicki","key":"CountyName"}]},"MapReference":{"ReferenceId":"594523859","Spot":0.15,"SideOfStreet":"right","CountryId":"20624059","StateId":"20626775","CountyId":"20627166","CityId":"20627173","DistrictId":"20687129","AddressId":"731867996","RoadLinkId":"95976635"}}}]}]}}