{"Response":{"MetaInfo":{"Timestamp":"2020-03-28T10:49:07.022+0000","NextPageInformation":"2"},"View":[{"_type":"SearchResultsViewType","ViewId":0,"Result":[{"Relevance":1.0,"Distance":0.0,"Direction":0.0,"MatchLevel":"district","MatchQuality":{"Country":1.0,"State":1.0,"County":1.0,"City":1.0,"District":1.0,"PostalCode":1.0},"Location":{"LocationId":"NT_EThIwNj5mIR7U6hxePAEJD","LocationType":"point","DisplayPosition":{"Latitude":50.0779564,"Longitude":22.715405},"MapView":{"TopLeft":{"Latitude":50.09329,"Longitude":22.67454},"BottomRight":{"Latitude":50.06416,"Longitude":22.72015}},"Address":{"Label":"Wiązownica, Woj. Podkarpackie, Polska","Country":"POL","State":"Woj. Podkarpackie","County":"Powiat Jarosławski","City":"Wiązownica","District":"Wiązownica","PostalCode":"37-522","AdditionalData":[{"value":"Polska","key":"CountryName"},{"value":"Woj. Podkarpackie","key":"StateName"},{"value":"Powiat Jarosławski","key":"CountyName"}]},"MapReference":{"CountryId":"20624059","StateId":"20628101","CountyId":"20628144","CityId":"20628163"}}},{"Relevance":1.0,"Distance":12.3,"MatchLevel":"houseNumber","MatchQuality":{"Country":1.0,"State":1.0,"County":1.0,"City":1.0,"District":1.0,"Street":[1.0],"HouseNumber":1.0,"PostalCode":1.0},"MatchType":"interpolated","Location":{"LocationId":"NT_MddknpwrIcWgNkES8oWUNC_0UDNBB","LocationType":"point","DisplayPosition":{"Latitude":50.07806,"Longitude":22.71562},"MapView":{"TopLeft":{"Latitude":50.0791842,"Longitude":22.7138683},"BottomRight":{"Latitude":50.0769358,"Longitude":22.7173717}},"Address":{"Label":"Wiązownica 454A, 37-522 Wiązownica, Polska","Country":"POL","State":"Woj. Podkarpackie","County":"Powiat Jarosławski","City":"Wiązownica","District":"Wiązownica","Street":"Wiązownica","HouseNumber":"454A","PostalCode":"37-522","AdditionalData":[{"value":"Polska","key":"CountryName"},{"value":"Woj. Podkarpackie","key":"StateName"},{"value":"Powiat Jarosławski","key":"CountyName"}]},"MapReference":{"ReferenceId":"1208257153","Spot":0.17,"SideOfStreet":"left","CountryId":"20624059","StateId":"20628101","CountyId":"20628144","CityId":"20628163","AddressId":"732213461","RoadLinkId":"522589971"}}},{"Relevance":1.0,"Distance":50.8,"MatchLevel":"houseNumber","MatchQuality":{"Country":1.0,"State":1.0,"County":1.0,"City":1.0,"District":1.0,"Street":[1.0],"HouseNumber":1.0,"PostalCode":1.0},"MatchType":"interpolated","Location":{"LocationId":"NT_MddknpwrIcWgNkES8oWUNC_0UDN","LocationType":"point","DisplayPosition":{"Latitude":50.07743,"Longitude":22.71576},"MapView":{"TopLeft":{"Latitude":50.0785542,"Longitude":22.7140083},"BottomRight":{"Latitude":50.0763058,"Longitude":22.7175117}},"Address":{"Label":"Wiązownica 454, 37-522 Wiązownica, Polska","Country":"POL","State":"Woj. Podkarpackie","County":"Powiat Jarosławski","City":"Wiązownica","District":"Wiązownica","Street":"Wiązownica","HouseNumber":"454","PostalCode":"37-522","AdditionalData":[{"value":"Polska","key":"CountryName"},{"value":"Woj. Podkarpackie","key":"StateName"},{"value":"Powiat Jarosławski","key":"CountyName"}]},"MapReference":{"ReferenceId":"778606810","Spot":0.73,"SideOfStreet":"left","CountryId":"20624059","StateId":"20628101","CountyId":"20628144","CityId":"20628163","AddressId":"353136967","RoadLinkId":"172119213"}}},{"Relevance":1.0,"Distance":91.4,"MatchLevel":"street","MatchQuality":{"Country":1.0,"State":1.0,"County":1.0,"City":1.0,"PostalCode":1.0},"Location":{"LocationId":"NT_Dl0SG0w1QVEOpCBeQuMgsC_l_1207251544_R","LocationType":"point","DisplayPosition":{"Latitude":50.0787716,"Longitude":22.7155725},"MapView":{"TopLeft":{"Latitude":50.08029,"Longitude":22.71116},"BottomRight":{"Latitude":50.07853,"Longitude":22.71666}},"Address":{"Label":"37-522, Polska","Country":"POL","State":"Woj. Podkarpackie","County":"Powiat Jarosławski","City":"Wiązownica","PostalCode":"37-522","AdditionalData":[{"value":"Polska","key":"CountryName"},{"value":"Woj. Podkarpackie","key":"StateName"},{"value":"Powiat Jarosławski","key":"CountyName"}]},"MapReference":{"ReferenceId":"1207251544","Spot":0.24,"SideOfStreet":"right","CountryId":"20624059","StateId":"20628101","CountyId":"20628144","CityId":"20628163"}}},{"Relevance":1.0,"Distance":101.2,"MatchLevel":"houseNumber","MatchQuality":{"Country":1.0,"State":1.0,"County":1.0,"City":1.0,"District":1.0,"Street":[1.0],"HouseNumber":1.0,"PostalCode":1.0},"MatchType":"interpolated","Location":{"LocationId":"NT_MddknpwrIcWgNkES8oWUNC_0UzM","LocationType":"point","DisplayPosition":{"Latitude":50.07781,"Longitude":22.71681},"MapView":{"TopLeft":{"Latitude":50.0789342,"Longitude":22.7150583},"BottomRight":{"Latitude":50.0766858,"Longitude":22.7185617}},"Address":{"Label":"Wiązownica 453, 37-522 Wiązownica, Polska","Country":"POL","State":"Woj. Podkarpackie","County":"Powiat Jarosławski","City":"Wiązownica","District":"Wiązownica","Street":"Wiązownica","HouseNumber":"453","PostalCode":"37-522","AdditionalData":[{"value":"Polska","key":"CountryName"},{"value":"Woj. Podkarpackie","key":"StateName"},{"value":"Powiat Jarosławski","key":"CountyName"}]},"MapReference":{"ReferenceId":"778606808","Spot":0.82,"SideOfStreet":"left","CountryId":"20624059","StateId":"20628101","CountyId":"20628144","CityId":"20628163","AddressId":"353115375","RoadLinkId":"172119211"}}},{"Relevance":1.0,"Distance":159.5,"MatchLevel":"houseNumber","MatchQuality":{"Country":1.0,"State":1.0,"County":1.0,"City":1.0,"District":1.0,"Street":[1.0],"HouseNumber":1.0,"PostalCode":1.0},"MatchType":"interpolated","Location":{"LocationId":"NT_MddknpwrIcWgNkES8oWUNC_0YDN","LocationType":"point","DisplayPosition":{"Latitude":50.07758,"Longitude":22.71266},"MapView":{"TopLeft":{"Latitude":50.0787042,"Longitude":22.7109083},"BottomRight":{"Latitude":50.0764558,"Longitude":22.7144117}},"Address":{"Label":"Wiązownica 464, 37-522 Wiązownica, Polska","Country":"POL","State":"Woj. Podkarpackie","County":"Powiat Jarosławski","City":"Wiązownica","District":"Wiązownica","Street":"Wiązownica","HouseNumber":"464","PostalCode":"37-522","AdditionalData":[{"value":"Polska","key":"CountryName"},{"value":"Woj. Podkarpackie","key":"StateName"},{"value":"Powiat Jarosławski","key":"CountyName"}]},"MapReference":{"ReferenceId":"778606807","Spot":0.21,"SideOfStreet":"right","CountryId":"20624059","StateId":"20628101","CountyId":"20628144","CityId":"20628163","AddressId":"731492725","RoadLinkId":"172119210"}}},{"Relevance":1.0,"Distance":174.1,"MatchLevel":"houseNumber","MatchQuality":{"Country":1.0,"State":1.0,"County":1.0,"City":1.0,"District":1.0,"Street":[1.0],"HouseNumber":1.0,"PostalCode":1.0},"MatchType":"interpolated","Location":{"LocationId":"NT_MddknpwrIcWgNkES8oWUNC_0AzN","LocationType":"point","DisplayPosition":{"Latitude":50.07856,"Longitude":22.71322},"MapView":{"TopLeft":{"Latitude":50.0796842,"Longitude":22.7114683},"BottomRight":{"Latitude":50.0774358,"Longitude":22.7149717}},"Address":{"Label":"Wiązownica 407, 37-522 Wiązownica, Polska","Country":"POL","State":"Woj. Podkarpackie","County":"Powiat Jarosławski","City":"Wiązownica","District":"Wiązownica","Street":"Wiązownica","HouseNumber":"407","PostalCode":"37-522","AdditionalData":[{"value":"Polska","key":"CountryName"},{"value":"Woj. Podkarpackie","key":"StateName"},{"value":"Powiat Jarosławski","key":"CountyName"}]},"MapReference":{"ReferenceId":"1208257154","Spot":0.79,"SideOfStreet":"right","CountryId":"20624059","StateId":"20628101","CountyId":"20628144","CityId":"20628163","AddressId":"353423412","RoadLinkId":"522589972"}}},{"Relevance":1.0,"Distance":241.6,"MatchLevel":"houseNumber","MatchQuality":{"Country":1.0,"State":1.0,"County":1.0,"City":1.0,"District":1.0,"Street":[1.0],"HouseNumber":1.0,"PostalCode":1.0},"MatchType":"interpolated","Location":{"LocationId":"NT_MddknpwrIcWgNkES8oWUNC_zcTOBB","LocationType":"point","DisplayPosition":{"Latitude":50.07876,"Longitude":22.71226},"MapView":{"TopLeft":{"Latitude":50.0798842,"Longitude":22.7105083},"BottomRight":{"Latitude":50.0776358,"Longitude":22.7140117}},"Address":{"Label":"Wiązownica 379A, 37-522 Wiązownica, Polska","Country":"POL","State":"Woj. Podkarpackie","County":"Powiat Jarosławski","City":"Wiązownica","District":"Wiązownica","Street":"Wiązownica","HouseNumber":"379A","PostalCode":"37-522","AdditionalData":[{"value":"Polska","key":"CountryName"},{"value":"Woj. Podkarpackie","key":"StateName"},{"value":"Powiat Jarosławski","key":"CountyName"}]},"MapReference":{"ReferenceId":"1202118101","Spot":0.45,"SideOfStreet":"left","CountryId":"20624059","StateId":"20628101","CountyId":"20628144","CityId":"20628163","AddressId":"731629581","RoadLinkId":"514851106"}}},{"Relevance":1.0,"Distance":349.7,"MatchLevel":"houseNumber","MatchQuality":{"Country":1.0,"State":1.0,"County":1.0,"City":1.0,"District":1.0,"Street":[1.0],"HouseNumber":1.0,"PostalCode":1.0},"MatchType":"interpolated","Location":{"LocationId":"NT_hxbNkCGCGDgfWve0x-8B9D_xITN","LocationType":"point","DisplayPosition":{"Latitude":50.07543,"Longitude":22.71197},"MapView":{"TopLeft":{"Latitude":50.0765542,"Longitude":22.7102184},"BottomRight":{"Latitude":50.0743058,"Longitude":22.7137216}},"Address":{"Label":"870 125, 37-522 Wiązownica, Polska","Country":"POL","State":"Woj. Podkarpackie","County":"Powiat Jarosławski","City":"Wiązownica","District":"Wiązownica","Street":"870","HouseNumber":"125","PostalCode":"37-522","AdditionalData":[{"value":"Polska","key":"CountryName"},{"value":"Woj. Podkarpackie","key":"StateName"},{"value":"Powiat Jarosławski","key":"CountyName"}]},"MapReference":{"ReferenceId":"594507862","Spot":0.0,"SideOfStreet":"right","CountryId":"20624059","StateId":"20628101","CountyId":"20628144","CityId":"20628163","DistrictId":"20690973","AddressId":"353390217","RoadLinkId":"120066793"}}},{"Relevance":1.0,"Distance":365.4,"MatchLevel":"houseNumber","MatchQuality":{"Country":1.0,"State":1.0,"County":1.0,"City":1.0,"District":1.0,"Street":[1.0],"HouseNumber":1.0,"PostalCode":1.0},"MatchType":"interpolated","Location":{"LocationId":"NT_hxbNkCGCGDgfWve0x-8B9D_xEDO","LocationType":"point","DisplayPosition":{"Latitude":50.07512,"Longitude":22.7122},"MapView":{"TopLeft":{"Latitude":50.0762442,"Longitude":22.7104484},"BottomRight":{"Latitude":50.0739958,"Longitude":22.7139516}},"Address":{"Label":"870 118, 37-522 Wiązownica, Polska","Country":"POL","State":"Woj. Podkarpackie","County":"Powiat Jarosławski","City":"Wiązownica","District":"Wiązownica","Street":"870","HouseNumber":"118","PostalCode":"37-522","AdditionalData":[{"value":"Polska","key":"CountryName"},{"value":"Woj. Podkarpackie","key":"StateName"},{"value":"Powiat Jarosławski","key":"CountyName"}]},"MapReference":{"ReferenceId":"594015734","Spot":0.9,"SideOfStreet":"right","CountryId":"20624059","StateId":"20628101","CountyId":"20628144","CityId":"20628163","DistrictId":"20690973","AddressId":"353301159","RoadLinkId":"120066781"}}}]}]}}