{"Response":{"MetaInfo":{"Timestamp":"2020-03-28T10:53:52.793+0000","NextPageInformation":"2"},"View":[{"_type":"SearchResultsViewType","ViewId":0,"Result":[{"Relevance":1.0,"Distance":0.0,"Direction":0.0,"MatchLevel":"city","MatchQuality":{"Country":1.0,"State":1.0,"County":1.0,"City":1.0,"PostalCode":1.0},"Location":{"LocationId":"NT_krzkSpRRYFJTLVq7yHPTcC","LocationType":"point","DisplayPosition":{"Latitude":50.0435679,"Longitude":16.7355304},"MapView":{"TopLeft":{"Latitude":50.07443,"Longitude":16.69257},"BottomRight":{"Latitude":49.99458,"Longitude":16.81872}},"Address":{"Label":"Červená Voda, Pardubický kraj, Česká Republika","Country":"CZE","State":"Pardubický kraj","County":"Ústí nad Orlicí","City":"Červená Voda","PostalCode":"561 61","AdditionalData":[{"value":"Česká Republika","key":"CountryName"},{"value":"Pardubický kraj","key":"StateName"},{"value":"Ústí nad Orlicí","key":"CountyName"}]},"MapReference":{"ReferenceId":"707915149","SideOfStreet":"neither","CountryId":"20427915","StateId":"20439757","CountyId":"20440784","CityId":"20440809"}}},{"Relevance":1.0,"Distance":39.1,"MatchLevel":"street","MatchQuality":{"Country":1.0,"State":1.0,"County":1.0,"City":1.0,"District":1.0,"Street":[1.0],"PostalCode":1.0},"Location":{"LocationId":"NT_OHn.NBbKP-2Bn2Hbu8kSGB_l_707593878_L","LocationType":"point","DisplayPosition":{"Latitude":50.04341,"Longitude":16.73602},"MapView":{"TopLeft":{"Latitude":50.04369,"Longitude":16.73602},"BottomRight":{"Latitude":50.04341,"Longitude":16.73646}},"Address":{"Label":"11, 561 61 Červená Voda, Česká Republika","Country":"CZE","State":"Pardubický kraj","County":"Ústí nad Orlicí","City":"Červená Voda","District":"Červená Voda","Street":"11","PostalCode":"561 61","AdditionalData":[{"value":"Česká Republika","key":"CountryName"},{"value":"Pardubický kraj","key":"StateName"},{"value":"Ústí nad Orlicí","key":"CountyName"}]},"MapReference":{"ReferenceId":"707593878","Spot":0.0,"SideOfStreet":"left","CountryId":"20427915","StateId":"20439757","CountyId":"20440784","CityId":"20440809","DistrictId":"20440810"}}},{"Relevance":1.0,"Distance":39.8,"MatchLevel":"houseNumber","MatchQuality":{"Country":1.0,"State":1.0,"County":1.0,"City":1.0,"District":1.0,"Street":[1.0],"HouseNumber":1.0,"PostalCode":1.0},"MatchType":"interpolated","Location":{"LocationId":"NT_2Ik4nOc.Queid.qiJZpfkC_zMjN","LocationType":"point","DisplayPosition":{"Latitude":50.0439,"Longitude":16.73626},"MapView":{"TopLeft":{"Latitude":50.0450242,"Longitude":16.7345095},"BottomRight":{"Latitude":50.0427758,"Longitude":16.7380105}},"Address":{"Label":"Červená Voda 336, 561 61 Červená Voda, Česká Republika","Country":"CZE","State":"Pardubický kraj","County":"Ústí nad Orlicí","City":"Červená Voda","District":"Červená Voda","Street":"Červená Voda","HouseNumber":"336","PostalCode":"561 61","AdditionalData":[{"value":"Česká Republika","key":"CountryName"},{"value":"Pardubický kraj","key":"StateName"},{"value":"Ústí nad Orlicí","key":"CountyName"}]},"MapReference":{"ReferenceId":"1206906388","Spot":0.19,"SideOfStreet":"left","CountryId":"20427915","StateId":"20439757","CountyId":"20440784","CityId":"20440809","DistrictId":"20440810","AddressId":"239537257","RoadLinkId":"520965612"}}},{"Relevance":1.0,"Distance":40.2,"MatchLevel":"street","MatchQuality":{"Country":1.0,"State":1.0,"County":1.0,"City":1.0,"Street":[1.0],"PostalCode":1.0},"Location":{"LocationId":"NT_vPq7EVxf.tf8zOt8eW-zlD_l_1157821558_L","LocationType":"point","DisplayPosition":{"Latitude":50.0432334,"Longitude":16.7357458},"MapView":{"TopLeft":{"Latitude":50.04341,"Longitude":16.73543},"BottomRight":{"Latitude":50.04303,"Longitude":16.73602}},"Address":{"Label":"11, 561 61 Červená Voda, Česká Republika","Country":"CZE","State":"Pardubický kraj","County":"Ústí nad Orlicí","City":"Červená Voda","Street":"11","PostalCode":"561 61","AdditionalData":[{"value":"Česká Republika","key":"CountryName"},{"value":"Pardubický kraj","key":"StateName"},{"value":"Ústí nad Orlicí","key":"CountyName"}]},"MapReference":{"ReferenceId":"1157821558","Spot":0.54,"SideOfStreet":"left","CountryId":"20427915","StateId":"20439757","CountyId":"20440784","CityId":"20440809"}}},{"Relevance":1.0,"Distance":60.2,"MatchLevel":"street","MatchQuality":{"Country":1.0,"State":1.0,"County":1.0,"City":1.0,"Street":[1.0],"PostalCode":1.0},"Location":{"LocationId":"NT_vPq7EVxf.tf8zOt8eW-zlD_l_1157821557_L","LocationType":"point","DisplayPosition":{"Latitude":50.04303,"Longitude":16.73543},"MapView":{"TopLeft":{"Latitude":50.04303,"Longitude":16.73511},"BottomRight":{"Latitude":50.04283,"Longitude":16.73543}},"Address":{"Label":"11, 561 61 Červená Voda, Česká Republika","Country":"CZE","State":"Pardubický kraj","County":"Ústí nad Orlicí","City":"Červená Voda","Street":"11","PostalCode":"561 61","AdditionalData":[{"value":"Česká Republika","key":"CountryName"},{"value":"Pardubický kraj","key":"StateName"},{"value":"Ústí nad Orlicí","key":"CountyName"}]},"MapReference":{"ReferenceId":"1157821557","Spot":1.0,"SideOfStreet":"left","CountryId":"20427915","StateId":"20439757","CountyId":"20440784","CityId":"20440809"}}},{"Relevance":1.0,"Distance":82.9,"MatchLevel":"houseNumber","MatchQuality":{"Country":1.0,"State":1.0,"County":1.0,"City":1.0,"District":1.0,"Street":[1.0],"HouseNumber":1.0,"PostalCode":1.0},"MatchType":"interpolated","Location":{"LocationId":"NT_2Ik4nOc.Queid.qiJZpfkC_ykTM","LocationType":"point","DisplayPosition":{"Latitude":50.04354,"Longitude":16.73669},"MapView":{"TopLeft":{"Latitude":50.0446642,"Longitude":16.7349395},"BottomRight":{"Latitude":50.0424158,"Longitude":16.7384405}},"Address":{"Label":"Červená Voda 291, 561 61 Červená Voda, Česká Republika","Country":"CZE","State":"Pardubický kraj","County":"Ústí nad Orlicí","City":"Červená Voda","District":"Červená Voda","Street":"Červená Voda","HouseNumber":"291","PostalCode":"561 61","AdditionalData":[{"value":"Česká Republika","key":"CountryName"},{"value":"Pardubický kraj","key":"StateName"},{"value":"Ústí nad Orlicí","key":"CountyName"}]},"MapReference":{"ReferenceId":"1206901705","Spot":0.86,"SideOfStreet":"right","CountryId":"20427915","StateId":"20439757","CountyId":"20440784","CityId":"20440809","DistrictId":"20440810","AddressId":"677002967","RoadLinkId":"520959277"}}},{"Relevance":1.0,"Distance":87.4,"MatchLevel":"street","MatchQuality":{"Country":1.0,"State":1.0,"County":1.0,"City":1.0,"Street":[1.0],"PostalCode":1.0},"Location":{"LocationId":"NT_vPq7EVxf.tf8zOt8eW-zlD_l_792877090_L","LocationType":"point","DisplayPosition":{"Latitude":50.04283,"Longitude":16.73511},"MapView":{"TopLeft":{"Latitude":50.04283,"Longitude":16.72895},"BottomRight":{"Latitude":50.03892,"Longitude":16.73511}},"Address":{"Label":"11, 561 61 Červená Voda, Česká Republika","Country":"CZE","State":"Pardubický kraj","County":"Ústí nad Orlicí","City":"Červená Voda","Street":"11","PostalCode":"561 61","AdditionalData":[{"value":"Česká Republika","key":"CountryName"},{"value":"Pardubický kraj","key":"StateName"},{"value":"Ústí nad Orlicí","key":"CountyName"}]},"MapReference":{"ReferenceId":"792877090","Spot":1.0,"SideOfStreet":"left","CountryId":"20427915","StateId":"20439757","CountyId":"20440784","CityId":"20440809"}}},{"Relevance":1.0,"Distance":123.9,"MatchLevel":"houseNumber","MatchQuality":{"Country":1.0,"State":1.0,"County":1.0,"City":1.0,"District":1.0,"Street":[1.0],"HouseNumber":1.0,"PostalCode":1.0},"MatchType":"interpolated","Location":{"LocationId":"NT_RVnmOOxqrzIy2OZYplEz0D_zkTM","LocationType":"point","DisplayPosition":{"Latitude":50.044,"Longitude":16.73713},"MapView":{"TopLeft":{"Latitude":50.0451242,"Longitude":16.7353795},"BottomRight":{"Latitude":50.0428758,"Longitude":16.7388805}},"Address":{"Label":"11 391, 561 61 Červená Voda, Česká Republika","Country":"CZE","State":"Pardubický kraj","County":"Ústí nad Orlicí","City":"Červená Voda","District":"Červená Voda","Street":"11","HouseNumber":"391","PostalCode":"561 61","AdditionalData":[{"value":"Česká Republika","key":"CountryName"},{"value":"Pardubický kraj","key":"StateName"},{"value":"Ústí nad Orlicí","key":"CountyName"}]},"MapReference":{"ReferenceId":"1206906389","Spot":0.68,"SideOfStreet":"right","CountryId":"20427915","StateId":"20439757","CountyId":"20440784","CityId":"20440809","DistrictId":"20440810","AddressId":"240513173","RoadLinkId":"520965614"}}},{"Relevance":1.0,"Distance":138.5,"MatchLevel":"houseNumber","MatchQuality":{"Country":1.0,"State":1.0,"County":1.0,"City":1.0,"District":1.0,"Street":[1.0],"HouseNumber":1.0,"PostalCode":1.0},"MatchType":"interpolated","Location":{"LocationId":"NT_2Ik4nOc.Queid.qiJZpfkC_zMjM","LocationType":"point","DisplayPosition":{"Latitude":50.04423,"Longitude":16.73738},"MapView":{"TopLeft":{"Latitude":50.0453542,"Longitude":16.7356295},"BottomRight":{"Latitude":50.0431058,"Longitude":16.7391305}},"Address":{"Label":"Červená Voda 332, 561 61 Červená Voda, Česká Republika","Country":"CZE","State":"Pardubický kraj","County":"Ústí nad Orlicí","City":"Červená Voda","District":"Červená Voda","Street":"Červená Voda","HouseNumber":"332","PostalCode":"561 61","AdditionalData":[{"value":"Česká Republika","key":"CountryName"},{"value":"Pardubický kraj","key":"StateName"},{"value":"Ústí nad Orlicí","key":"CountyName"}]},"MapReference":{"ReferenceId":"707921030","Spot":0.11,"SideOfStreet":"left","CountryId":"20427915","StateId":"20439757","CountyId":"20440784","CityId":"20440809","DistrictId":"20440810","AddressId":"240797050","RoadLinkId":"156881424"}}},{"Relevance":1.0,"Distance":140.9,"MatchLevel":"street","MatchQuality":{"Country":1.0,"State":1.0,"County":1.0,"City":1.0,"District":1.0,"Street":[1.0],"PostalCode":1.0},"Location":{"LocationId":"NT_2Ik4nOc.Queid.qiJZpfkC_l_707921027_R","LocationType":"point","DisplayPosition":{"Latitude":50.04476,"Longitude":16.7362},"MapView":{"TopLeft":{"Latitude":50.04489,"Longitude":16.7362},"BottomRight":{"Latitude":50.04476,"Longitude":16.73646}},"Address":{"Label":"Červená Voda, 561 61 Červená Voda, Česká Republika","Country":"CZE","State":"Pardubický kraj","County":"Ústí nad Orlicí","City":"Červená Voda","District":"Červená Voda","Street":"Červená Voda","PostalCode":"561 61","AdditionalData":[{"value":"Česká Republika","key":"CountryName"},{"value":"Pardubický kraj","key":"StateName"},{"value":"Ústí nad Orlicí","key":"CountyName"}]},"MapReference":{"ReferenceId":"707921027","Spot":0.0,"SideOfStreet":"right","CountryId":"20427915","StateId":"20439757","CountyId":"20440784","CityId":"20440809","DistrictId":"20440810"}}}]}]}}