{"Response":{"MetaInfo":{"Timestamp":"2020-03-28T09:34:42.204+0000","NextPageInformation":"2"},"View":[{"_type":"SearchResultsViewType","ViewId":0,"Result":[{"Relevance":1.0,"Distance":0.0,"Direction":0.0,"MatchLevel":"district","MatchQuality":{"Country":1.0,"State":1.0,"County":1.0,"City":1.0,"District":1.0,"PostalCode":1.0},"Location":{"LocationId":"NT_uu1ODBO3v5Ri-qO0yKzoqA","LocationType":"point","DisplayPosition":{"Latitude":50.0812864,"Longitude":14.4230319},"MapView":{"TopLeft":{"Latitude":50.09539,"Longitude":14.38469},"BottomRight":{"Latitude":50.07558,"Longitude":14.43793}},"Address":{"Label":"Praha 1, Praha, Hlavní město Praha, Česká Republika","Country":"CZE","State":"Hlavní město Praha","County":"Hlavní město Praha","City":"Praha","District":"Praha 1","PostalCode":"110 00","AdditionalData":[{"value":"Česká Republika","key":"CountryName"},{"value":"Hlavní město Praha","key":"StateName"},{"value":"Hlavní město Praha","key":"CountyName"}]},"MapReference":{"ReferenceId":"565780896","SideOfStreet":"neither","CountryId":"20427915","StateId":"20442647","CountyId":"20442648","CityId":"20442649","DistrictId":"20442650"}}},{"Relevance":1.0,"Distance":10.2,"MatchLevel":"houseNumber","MatchQuality":{"Country":1.0,"State":1.0,"County":1.0,"City":1.0,"District":1.0,"Street":[1.0],"HouseNumber":1.0,"PostalCode":1.0},"MatchType":"interpolated","Location":{"LocationId":"NT_ZJHuW.CVS-yMhKyB5blCaD_3ITMvMD","LocationType":"point","DisplayPosition":{"Latitude":50.08113,"Longitude":14.42284},"MapView":{"TopLeft":{"Latitude":50.0822542,"Longitude":14.4210882},"BottomRight":{"Latitude":50.0800058,"Longitude":14.4245918}},"Address":{"Label":"Palackého 721/3, 110 00 Praha, Česká Republika","Country":"CZE","State":"Hlavní město Praha","County":"Hlavní město Praha","City":"Praha","District":"Praha 1","Street":"Palackého","HouseNumber":"721/3","PostalCode":"110 00","AdditionalData":[{"value":"Česká Republika","key":"CountryName"},{"value":"Hlavní město Praha","key":"StateName"},{"value":"Hlavní město Praha","key":"CountyName"}]},"MapReference":{"ReferenceId":"748868891","Spot":0.54,"SideOfStreet":"right","CountryId":"20427915","StateId":"20442647","CountyId":"20442648","CityId":"20442649","DistrictId":"20442650","AddressId":"239376495","RoadLinkId":"145691855"}}},{"Relevance":1.0,"Distance":28.0,"MatchLevel":"houseNumber","MatchQuality":{"Country":1.0,"State":1.0,"County":1.0,"City":1.0,"District":1.0,"Street":[1.0],"HouseNumber":1.0,"PostalCode":1.0},"MatchType":"interpolated","Location":{"LocationId":"NT_ZOAPoyNY6BjPaBX5vgM.wC_3QDNvIDNhB","LocationType":"point","DisplayPosition":{"Latitude":50.08153,"Longitude":14.42243},"MapView":{"TopLeft":{"Latitude":50.0826542,"Longitude":14.4206782},"BottomRight":{"Latitude":50.0804058,"Longitude":14.4241818}},"Address":{"Label":"Jungmannova 744/24a, 110 00 Praha, Česká Republika","Country":"CZE","State":"Hlavní město Praha","County":"Hlavní město Praha","City":"Praha","District":"Praha 1","Street":"Jungmannova","HouseNumber":"744/24a","PostalCode":"110 00","AdditionalData":[{"value":"Česká Republika","key":"CountryName"},{"value":"Hlavní město Praha","key":"StateName"},{"value":"Hlavní město Praha","key":"CountyName"}]},"MapReference":{"ReferenceId":"565781934","Spot":0.6,"SideOfStreet":"right","CountryId":"20427915","StateId":"20442647","CountyId":"20442648","CityId":"20442649","DistrictId":"20442650","AddressId":"384552690","RoadLinkId":"40464329"}}},{"Relevance":1.0,"Distance":44.1,"MatchLevel":"houseNumber","MatchQuality":{"Country":1.0,"State":1.0,"County":1.0,"City":1.0,"District":1.0,"Street":[1.0],"HouseNumber":1.0,"PostalCode":1.0},"MatchType":"interpolated","Location":{"LocationId":"NT_ZOAPoyNY6BjPaBX5vgM.wC_3MDOvEDO","LocationType":"point","DisplayPosition":{"Latitude":50.08103,"Longitude":14.42242},"MapView":{"TopLeft":{"Latitude":50.0821542,"Longitude":14.4206682},"BottomRight":{"Latitude":50.0799058,"Longitude":14.4241718}},"Address":{"Label":"Jungmannova 738/18, 110 00 Praha, Česká Republika","Country":"CZE","State":"Hlavní město Praha","County":"Hlavní město Praha","City":"Praha","District":"Praha 1","Street":"Jungmannova","HouseNumber":"738/18","PostalCode":"110 00","AdditionalData":[{"value":"Česká Republika","key":"CountryName"},{"value":"Hlavní město Praha","key":"StateName"},{"value":"Hlavní město Praha","key":"CountyName"}]},"MapReference":{"ReferenceId":"748931194","Spot":0.75,"SideOfStreet":"right","CountryId":"20427915","StateId":"20442647","CountyId":"20442648","CityId":"20442649","DistrictId":"20442650","AddressId":"239264695","RoadLinkId":"145723143"}}},{"Relevance":1.0,"Distance":50.5,"MatchLevel":"houseNumber","MatchQuality":{"Country":1.0,"State":1.0,"County":1.0,"City":1.0,"District":1.0,"Street":[1.0],"HouseNumber":1.0,"PostalCode":1.0},"MatchType":"interpolated","Location":{"LocationId":"NT_ZJHuW.CVS-yMhKyB5blCaD_3EDOvkD","LocationType":"point","DisplayPosition":{"Latitude":50.08093,"Longitude":14.42347},"MapView":{"TopLeft":{"Latitude":50.0820542,"Longitude":14.4217182},"BottomRight":{"Latitude":50.0798058,"Longitude":14.4252218}},"Address":{"Label":"Palackého 718/9, 110 00 Praha, Česká Republika","Country":"CZE","State":"Hlavní město Praha","County":"Hlavní město Praha","City":"Praha","District":"Praha 1","Street":"Palackého","HouseNumber":"718/9","PostalCode":"110 00","AdditionalData":[{"value":"Česká Republika","key":"CountryName"},{"value":"Hlavní město Praha","key":"StateName"},{"value":"Hlavní město Praha","key":"CountyName"}]},"MapReference":{"ReferenceId":"748868890","Spot":0.83,"SideOfStreet":"right","CountryId":"20427915","StateId":"20442647","CountyId":"20442648","CityId":"20442649","DistrictId":"20442650","AddressId":"239376488","RoadLinkId":"145691854"}}},{"Relevance":1.0,"Distance":64.6,"MatchLevel":"street","MatchQuality":{"Country":1.0,"State":1.0,"County":1.0,"City":1.0,"District":1.0,"Street":[1.0],"PostalCode":1.0},"Location":{"LocationId":"NT_dTYbdufs5nOtXd-RF-lv6D_l_1164680116_R","LocationType":"point","DisplayPosition":{"Latitude":50.08172,"Longitude":14.42243},"MapView":{"TopLeft":{"Latitude":50.08172,"Longitude":14.42212},"BottomRight":{"Latitude":50.08171,"Longitude":14.42243}},"Address":{"Label":"Charvátova, 110 00 Praha, Česká Republika","Country":"CZE","State":"Hlavní město Praha","County":"Hlavní město Praha","City":"Praha","District":"Praha 1","Street":"Charvátova","PostalCode":"110 00","AdditionalData":[{"value":"Česká Republika","key":"CountryName"},{"value":"Hlavní město Praha","key":"StateName"},{"value":"Hlavní město Praha","key":"CountyName"}]},"MapReference":{"ReferenceId":"1164680116","Spot":1.0,"SideOfStreet":"right","CountryId":"20427915","StateId":"20442647","CountyId":"20442648","CityId":"20442649","DistrictId":"20442650"}}},{"Relevance":1.0,"Distance":65.0,"MatchLevel":"houseNumber","MatchQuality":{"Country":1.0,"State":1.0,"County":1.0,"City":1.0,"District":1.0,"Street":[1.0],"HouseNumber":1.0,"PostalCode":1.0},"MatchType":"interpolated","Location":{"LocationId":"NT_ZOAPoyNY6BjPaBX5vgM.wC_3QTNvIDN","LocationType":"point","DisplayPosition":{"Latitude":50.08181,"Longitude":14.42242},"MapView":{"TopLeft":{"Latitude":50.0829342,"Longitude":14.4206681},"BottomRight":{"Latitude":50.0806858,"Longitude":14.4241719}},"Address":{"Label":"Jungmannova 745/24, 110 00 Praha, Česká Republika","Country":"CZE","State":"Hlavní město Praha","County":"Hlavní město Praha","City":"Praha","District":"Praha 1","Street":"Jungmannova","HouseNumber":"745/24","PostalCode":"110 00","AdditionalData":[{"value":"Česká Republika","key":"CountryName"},{"value":"Hlavní město Praha","key":"StateName"},{"value":"Hlavní město Praha","key":"CountyName"}]},"MapReference":{"ReferenceId":"748865310","Spot":0.19,"SideOfStreet":"right","CountryId":"20427915","StateId":"20442647","CountyId":"20442648","CityId":"20442649","DistrictId":"20442650","AddressId":"239376523","RoadLinkId":"145689529"}}},{"Relevance":1.0,"Distance":70.9,"MatchLevel":"street","MatchQuality":{"Country":1.0,"State":1.0,"County":1.0,"City":1.0,"District":1.0,"PostalCode":1.0},"Location":{"LocationId":"NT_x88Bj66PpziwDqjFtun5KA_l_801200406_R","LocationType":"point","DisplayPosition":{"Latitude":50.08174,"Longitude":14.42373},"MapView":{"TopLeft":{"Latitude":50.08176,"Longitude":14.42373},"BottomRight":{"Latitude":50.08174,"Longitude":14.42379}},"Address":{"Label":"110 00 Praha, Česká Republika","Country":"CZE","State":"Hlavní město Praha","County":"Hlavní město Praha","City":"Praha","District":"Praha 1","PostalCode":"110 00","AdditionalData":[{"value":"Česká Republika","key":"CountryName"},{"value":"Hlavní město Praha","key":"StateName"},{"value":"Hlavní město Praha","key":"CountyName"}]},"MapReference":{"ReferenceId":"801200406","Spot":0.0,"SideOfStreet":"right","CountryId":"20427915","StateId":"20442647","CountyId":"20442648","CityId":"20442649","DistrictId":"20442650"}}},{"Relevance":1.0,"Distance":75.5,"MatchLevel":"street","MatchQuality":{"Country":1.0,"State":1.0,"County":1.0,"City":1.0,"District":1.0,"PostalCode":1.0},"Location":{"LocationId":"NT_x88Bj66PpziwDqjFtun5KA_l_801200408_L","LocationType":"point","DisplayPosition":{"Latitude":50.08176,"Longitude":14.42379},"MapView":{"TopLeft":{"Latitude":50.08187,"Longitude":14.42374},"BottomRight":{"Latitude":50.08176,"Longitude":14.42379}},"Address":{"Label":"110 00 Praha, Česká Republika","Country":"CZE","State":"Hlavní město Praha","County":"Hlavní město Praha","City":"Praha","District":"Praha 1","PostalCode":"110 00","AdditionalData":[{"value":"Česká Republika","key":"CountryName"},{"value":"Hlavní město Praha","key":"StateName"},{"value":"Hlavní město Praha","key":"CountyName"}]},"MapReference":{"ReferenceId":"801200408","Spot":0.0,"SideOfStreet":"left","CountryId":"20427915","StateId":"20442647","CountyId":"20442648","CityId":"20442649","DistrictId":"20442650"}}},{"Relevance":1.0,"Distance":75.5,"MatchLevel":"street","MatchQuality":{"Country":1.0,"State":1.0,"County":1.0,"City":1.0,"District":1.0,"PostalCode":1.0},"Location":{"LocationId":"NT_x88Bj66PpziwDqjFtun5KA_l_801200407_R","LocationType":"point","DisplayPosition":{"Latitude":50.08176,"Longitude":14.42379},"MapView":{"TopLeft":{"Latitude":50.08189,"Longitude":14.42379},"BottomRight":{"Latitude":50.08176,"Longitude":14.42412}},"Address":{"Label":"110 00 Praha, Česká Republika","Country":"CZE","State":"Hlavní město Praha","County":"Hlavní město Praha","City":"Praha","District":"Praha 1","PostalCode":"110 00","AdditionalData":[{"value":"Česká Republika","key":"CountryName"},{"value":"Hlavní město Praha","key":"StateName"},{"value":"Hlavní město Praha","key":"CountyName"}]},"MapReference":{"ReferenceId":"801200407","Spot":0.0,"SideOfStreet":"right","CountryId":"20427915","StateId":"20442647","CountyId":"20442648","CityId":"20442649","DistrictId":"20442650"}}}]}]}}