{"Response":{"MetaInfo":{"Timestamp":"2020-03-28T09:57:36.192+0000","NextPageInformation":"2"},"View":[{"_type":"SearchResultsViewType","ViewId":0,"Result":[{"Relevance":1.0,"Distance":0.0,"Direction":0.0,"MatchLevel":"district","MatchQuality":{"Country":1.0,"State":1.0,"County":1.0,"City":1.0,"District":1.0,"PostalCode":1.0},"Location":{"LocationId":"NT_DrCm8oNcqQTMvj9k0CEoAD","LocationType":"point","DisplayPosition":{"Latitude":50.0971094,"Longitude":18.2263469},"MapView":{"TopLeft":{"Latitude":50.12845,"Longitude":18.15822},"BottomRight":{"Latitude":50.04854,"Longitude":18.29436}},"Address":{"Label":"Racibórz, Woj. Śląskie, Polska","Country":"POL","State":"Woj. Śląskie","County":"Powiat Raciborski","City":"Racibórz","District":"Racibórz","PostalCode":"47-400","AdditionalData":[{"value":"Polska","key":"CountryName"},{"value":"Woj. Śląskie","key":"StateName"},{"value":"Powiat Raciborski","key":"CountyName"}]},"MapReference":{"ReferenceId":"913782344","SideOfStreet":"neither","CountryId":"20624059","StateId":"20629003","CountyId":"20629252","CityId":"20629267","DistrictId":"20646801"}}},{"Relevance":1.0,"Distance":30.7,"MatchLevel":"houseNumber","MatchQuality":{"Country":1.0,"State":1.0,"County":1.0,"City":1.0,"District":1.0,"Street":[1.0],"HouseNumber":1.0,"PostalCode":1.0},"MatchType":"interpolated","Location":{"LocationId":"NT_ohose-NtJJTfKBhCXddXyD_yEE","LocationType":"point","DisplayPosition":{"Latitude":50.09684,"Longitude":18.22625},"MapView":{"TopLeft":{"Latitude":50.0979642,"Longitude":18.2244976},"BottomRight":{"Latitude":50.0957158,"Longitude":18.2280024}},"Address":{"Label":"ulica Bielska 2A, 47-400 Racibórz, Polska","Country":"POL","State":"Woj. Śląskie","County":"Powiat Raciborski","City":"Racibórz","District":"Racibórz","Street":"ulica Bielska","HouseNumber":"2A","PostalCode":"47-400","AdditionalData":[{"value":"Polska","key":"CountryName"},{"value":"Woj. Śląskie","key":"StateName"},{"value":"Powiat Raciborski","key":"CountyName"}]},"MapReference":{"ReferenceId":"745126613","Spot":0.5,"SideOfStreet":"left","CountryId":"20624059","StateId":"20629003","CountyId":"20629252","CityId":"20629267","DistrictId":"20646801","AddressId":"701983278","RoadLinkId":"142989114"}}},{"Relevance":1.0,"Distance":42.3,"MatchLevel":"street","MatchQuality":{"Country":1.0,"State":1.0,"County":1.0,"City":1.0,"District":1.0,"PostalCode":1.0},"Location":{"LocationId":"NT_Xc.rBJSWsw3zvyoCVEN-RB_l_1210985361_L","LocationType":"point","DisplayPosition":{"Latitude":50.09723,"Longitude":18.22691},"MapView":{"TopLeft":{"Latitude":50.09723,"Longitude":18.22691},"BottomRight":{"Latitude":50.09681,"Longitude":18.22877}},"Address":{"Label":"47-400 Racibórz, Polska","Country":"POL","State":"Woj. Śląskie","County":"Powiat Raciborski","City":"Racibórz","District":"Racibórz","PostalCode":"47-400","AdditionalData":[{"value":"Polska","key":"CountryName"},{"value":"Woj. Śląskie","key":"StateName"},{"value":"Powiat Raciborski","key":"CountyName"}]},"MapReference":{"ReferenceId":"1210985361","Spot":1.0,"SideOfStreet":"left","CountryId":"20624059","StateId":"20629003","CountyId":"20629252","CityId":"20629267","DistrictId":"20646801"}}},{"Relevance":1.0,"Distance":44.7,"MatchLevel":"houseNumber","MatchQuality":{"Country":1.0,"State":1.0,"County":1.0,"City":1.0,"District":1.0,"Street":[1.0],"HouseNumber":1.0,"PostalCode":1.0},"MatchType":"interpolated","Location":{"LocationId":"NT_ohose-NtJJTfKBhCXddXyD_2A","LocationType":"point","DisplayPosition":{"Latitude":50.09726,"Longitude":18.22696},"MapView":{"TopLeft":{"Latitude":50.0983842,"Longitude":18.2252076},"BottomRight":{"Latitude":50.0961358,"Longitude":18.2287124}},"Address":{"Label":"ulica Bielska 6, 47-400 Racibórz, Polska","Country":"POL","State":"Woj. Śląskie","County":"Powiat Raciborski","City":"Racibórz","District":"Racibórz","Street":"ulica Bielska","HouseNumber":"6","PostalCode":"47-400","AdditionalData":[{"value":"Polska","key":"CountryName"},{"value":"Woj. Śląskie","key":"StateName"},{"value":"Powiat Raciborski","key":"CountyName"}]},"MapReference":{"ReferenceId":"745126614","Spot":0.08,"SideOfStreet":"left","CountryId":"20624059","StateId":"20629003","CountyId":"20629252","CityId":"20629267","DistrictId":"20646801","AddressId":"210991472","RoadLinkId":"142989115"}}},{"Relevance":1.0,"Distance":64.8,"MatchLevel":"street","MatchQuality":{"Country":1.0,"State":1.0,"County":1.0,"City":1.0,"District":1.0,"PostalCode":1.0},"Location":{"LocationId":"NT_Xc.rBJSWsw3zvyoCVEN-RB_l_1211060207_R","LocationType":"point","DisplayPosition":{"Latitude":50.09756,"Longitude":18.22577},"MapView":{"TopLeft":{"Latitude":50.09756,"Longitude":18.2254},"BottomRight":{"Latitude":50.09723,"Longitude":18.22577}},"Address":{"Label":"47-400 Racibórz, Polska","Country":"POL","State":"Woj. Śląskie","County":"Powiat Raciborski","City":"Racibórz","District":"Racibórz","PostalCode":"47-400","AdditionalData":[{"value":"Polska","key":"CountryName"},{"value":"Woj. Śląskie","key":"StateName"},{"value":"Powiat Raciborski","key":"CountyName"}]},"MapReference":{"ReferenceId":"1211060207","Spot":1.0,"SideOfStreet":"right","CountryId":"20624059","StateId":"20629003","CountyId":"20629252","CityId":"20629267","DistrictId":"20646801"}}},{"Relevance":1.0,"Distance":68.9,"MatchLevel":"street","MatchQuality":{"Country":1.0,"State":1.0,"County":1.0,"City":1.0,"District":1.0,"PostalCode":1.0},"Location":{"LocationId":"NT_Xc.rBJSWsw3zvyoCVEN-RB_l_1211060239_R","LocationType":"point","DisplayPosition":{"Latitude":50.09723,"Longitude":18.2254},"MapView":{"TopLeft":{"Latitude":50.09747,"Longitude":18.22481},"BottomRight":{"Latitude":50.09723,"Longitude":18.2254}},"Address":{"Label":"47-400 Racibórz, Polska","Country":"POL","State":"Woj. Śląskie","County":"Powiat Raciborski","City":"Racibórz","District":"Racibórz","PostalCode":"47-400","AdditionalData":[{"value":"Polska","key":"CountryName"},{"value":"Woj. Śląskie","key":"StateName"},{"value":"Powiat Raciborski","key":"CountyName"}]},"MapReference":{"ReferenceId":"1211060239","Spot":0.0,"SideOfStreet":"right","CountryId":"20624059","StateId":"20629003","CountyId":"20629252","CityId":"20629267","DistrictId":"20646801"}}},{"Relevance":1.0,"Distance":68.9,"MatchLevel":"street","MatchQuality":{"Country":1.0,"State":1.0,"County":1.0,"City":1.0,"District":1.0,"PostalCode":1.0},"Location":{"LocationId":"NT_Xc.rBJSWsw3zvyoCVEN-RB_l_1211060220_R","LocationType":"point","DisplayPosition":{"Latitude":50.09723,"Longitude":18.2254},"MapView":{"TopLeft":{"Latitude":50.09723,"Longitude":18.22513},"BottomRight":{"Latitude":50.09664,"Longitude":18.2254}},"Address":{"Label":"47-400 Racibórz, Polska","Country":"POL","State":"Woj. Śląskie","County":"Powiat Raciborski","City":"Racibórz","District":"Racibórz","PostalCode":"47-400","AdditionalData":[{"value":"Polska","key":"CountryName"},{"value":"Woj. Śląskie","key":"StateName"},{"value":"Powiat Raciborski","key":"CountyName"}]},"MapReference":{"ReferenceId":"1211060220","Spot":1.0,"SideOfStreet":"right","CountryId":"20624059","StateId":"20629003","CountyId":"20629252","CityId":"20629267","DistrictId":"20646801"}}},{"Relevance":1.0,"Distance":83.1,"MatchLevel":"houseNumber","MatchQuality":{"Country":1.0,"State":1.0,"County":1.0,"City":1.0,"District":1.0,"Street":[1.0],"HouseNumber":1.0,"PostalCode":1.0},"MatchType":"interpolated","Location":{"LocationId":"NT_.5Sohv.dqAv-UbU5AtoUiC_xQD","LocationType":"point","DisplayPosition":{"Latitude":50.09647,"Longitude":18.22553},"MapView":{"TopLeft":{"Latitude":50.0975942,"Longitude":18.2237776},"BottomRight":{"Latitude":50.0953458,"Longitude":18.2272824}},"Address":{"Label":"ulica Jana 14, 47-400 Racibórz, Polska","Country":"POL","State":"Woj. Śląskie","County":"Powiat Raciborski","City":"Racibórz","District":"Racibórz","Street":"ulica Jana","HouseNumber":"14","PostalCode":"47-400","AdditionalData":[{"value":"Polska","key":"CountryName"},{"value":"Woj. Śląskie","key":"StateName"},{"value":"Powiat Raciborski","key":"CountyName"}]},"MapReference":{"ReferenceId":"1210838496","Spot":0.13,"SideOfStreet":"right","CountryId":"20624059","StateId":"20629003","CountyId":"20629252","CityId":"20629267","DistrictId":"20646801","AddressId":"209217993","RoadLinkId":"525872636"}}},{"Relevance":1.0,"Distance":91.6,"MatchLevel":"houseNumber","MatchQuality":{"Country":1.0,"State":1.0,"County":1.0,"City":1.0,"District":1.0,"Street":[1.0],"HouseNumber":1.0,"PostalCode":1.0},"MatchType":"interpolated","Location":{"LocationId":"NT_FU5-rfuVm8652g6ChEAsUA_3A","LocationType":"point","DisplayPosition":{"Latitude":50.09788,"Longitude":18.22705},"MapView":{"TopLeft":{"Latitude":50.0990042,"Longitude":18.2252976},"BottomRight":{"Latitude":50.0967558,"Longitude":18.2288024}},"Address":{"Label":"ulica Przejazdowa 7, 47-400 Racibórz, Polska","Country":"POL","State":"Woj. Śląskie","County":"Powiat Raciborski","City":"Racibórz","District":"Racibórz","Street":"ulica Przejazdowa","HouseNumber":"7","PostalCode":"47-400","AdditionalData":[{"value":"Polska","key":"CountryName"},{"value":"Woj. Śląskie","key":"StateName"},{"value":"Powiat Raciborski","key":"CountyName"}]},"MapReference":{"ReferenceId":"594573683","Spot":0.46,"SideOfStreet":"left","CountryId":"20624059","StateId":"20629003","CountyId":"20629252","CityId":"20629267","DistrictId":"20646801","AddressId":"701976153","RoadLinkId":"96558466"}}},{"Relevance":1.0,"Distance":93.7,"MatchLevel":"houseNumber","MatchQuality":{"Country":1.0,"State":1.0,"County":1.0,"City":1.0,"District":1.0,"Street":[1.0],"HouseNumber":1.0,"PostalCode":1.0},"MatchType":"interpolated","Location":{"LocationId":"NT_.5Sohv.dqAv-UbU5AtoUiC_xYD","LocationType":"point","DisplayPosition":{"Latitude":50.09625,"Longitude":18.22602},"MapView":{"TopLeft":{"Latitude":50.0973742,"Longitude":18.2242676},"BottomRight":{"Latitude":50.0951258,"Longitude":18.2277724}},"Address":{"Label":"ulica Jana 16, 47-400 Racibórz, Polska","Country":"POL","State":"Woj. Śląskie","County":"Powiat Raciborski","City":"Racibórz","District":"Racibórz","Street":"ulica Jana","HouseNumber":"16","PostalCode":"47-400","AdditionalData":[{"value":"Polska","key":"CountryName"},{"value":"Woj. Śląskie","key":"StateName"},{"value":"Powiat Raciborski","key":"CountyName"}]},"MapReference":{"ReferenceId":"1208494775","Spot":0.69,"SideOfStreet":"right","CountryId":"20624059","StateId":"20629003","CountyId":"20629252","CityId":"20629267","DistrictId":"20646801","AddressId":"210421755","RoadLinkId":"522911803"}}}]}]}}