{"Response":{"MetaInfo":{"Timestamp":"2020-03-28T11:48:50.538+0000","NextPageInformation":"2"},"View":[{"_type":"SearchResultsViewType","ViewId":0,"Result":[{"Relevance":1.0,"Distance":-6011.7,"MatchLevel":"landmark","MatchQuality":{"Country":1.0,"State":1.0,"Name":1.0},"Location":{"LocationId":"NT_teLpjNuk5j7MRDoOwBk0rA","LocationType":"park","Name":"P.N.R. de l'Avesnois","DisplayPosition":{"Latitude":50.16217,"Longitude":4.01512},"MapView":{"TopLeft":{"Latitude":50.35528,"Longitude":3.53329},"BottomRight":{"Latitude":49.96906,"Longitude":4.23093}},"Address":{"Label":"France","Country":"FRA","State":"Hauts-de-France","AdditionalData":[{"value":"France","key":"CountryName"},{"value":"Hauts-de-France","key":"StateName"}]},"MapReference":{"CountryId":"20000001","StateId":"20000002","PlaceId":"1511401163"}}},{"Relevance":1.0,"Distance":0.0,"Direction":0.0,"MatchLevel":"city","MatchQuality":{"Country":1.0,"State":1.0,"County":1.0,"City":1.0,"PostalCode":1.0},"Location":{"LocationId":"NT_cC4uEcE3Q9aNmxB3QPDzHA","LocationType":"point","DisplayPosition":{"Latitude":50.093639,"Longitude":4.010865},"MapView":{"TopLeft":{"Latitude":50.108,"Longitude":3.99187},"BottomRight":{"Latitude":50.06414,"Longitude":4.07961}},"Address":{"Label":"Sains-du-Nord, Hauts-de-France, France","Country":"FRA","State":"Hauts-de-France","County":"Nord","City":"Sains-du-Nord","PostalCode":"59177","AdditionalData":[{"value":"France","key":"CountryName"},{"value":"Hauts-de-France","key":"StateName"},{"value":"Nord","key":"CountyName"}]},"MapReference":{"ReferenceId":"542346313","SideOfStreet":"neither","CountryId":"20000001","StateId":"20000002","CountyId":"20000003","CityId":"20027669"}}},{"Relevance":1.0,"Distance":17.9,"MatchLevel":"houseNumber","MatchQuality":{"Country":1.0,"State":1.0,"County":1.0,"City":1.0,"Street":[1.0],"HouseNumber":1.0,"PostalCode":1.0},"MatchType":"interpolated","Location":{"LocationId":"NT_pS1KyG345ngsmETwbWrZ4B_xQD","LocationType":"point","DisplayPosition":{"Latitude":50.09386,"Longitude":4.0108},"MapView":{"TopLeft":{"Latitude":50.0949842,"Longitude":4.0090477},"BottomRight":{"Latitude":50.0927358,"Longitude":4.0125523}},"Address":{"Label":"14 Rue Jean Jaurès, 59177 Sains-du-Nord, France","Country":"FRA","State":"Hauts-de-France","County":"Nord","City":"Sains-du-Nord","Street":"Rue Jean Jaurès","HouseNumber":"14","PostalCode":"59177","AdditionalData":[{"value":"France","key":"CountryName"},{"value":"Hauts-de-France","key":"StateName"},{"value":"Nord","key":"CountyName"}]},"MapReference":{"ReferenceId":"542346317","Spot":0.21,"SideOfStreet":"right","CountryId":"20000001","StateId":"20000002","CountyId":"20000003","CityId":"20027669","AddressId":"379756171","RoadLinkId":"44772314"}}},{"Relevance":1.0,"Distance":33.3,"MatchLevel":"houseNumber","MatchQuality":{"Country":1.0,"State":1.0,"County":1.0,"City":1.0,"Street":[1.0],"HouseNumber":1.0,"PostalCode":1.0},"MatchType":"interpolated","Location":{"LocationId":"NT_pS1KyG345ngsmETwbWrZ4B_2A","LocationType":"point","DisplayPosition":{"Latitude":50.09371,"Longitude":4.01039},"MapView":{"TopLeft":{"Latitude":50.0948342,"Longitude":4.0086377},"BottomRight":{"Latitude":50.0925858,"Longitude":4.0121423}},"Address":{"Label":"6 Rue Jean Jaurès, 59177 Sains-du-Nord, France","Country":"FRA","State":"Hauts-de-France","County":"Nord","City":"Sains-du-Nord","Street":"Rue Jean Jaurès","HouseNumber":"6","PostalCode":"59177","AdditionalData":[{"value":"France","key":"CountryName"},{"value":"Hauts-de-France","key":"StateName"},{"value":"Nord","key":"CountyName"}]},"MapReference":{"ReferenceId":"779263370","Spot":0.95,"SideOfStreet":"right","CountryId":"20000001","StateId":"20000002","CountyId":"20000003","CityId":"20027669","AddressId":"379733751","RoadLinkId":"172741717"}}},{"Relevance":1.0,"Distance":67.9,"MatchLevel":"houseNumber","MatchQuality":{"Country":1.0,"State":1.0,"County":1.0,"City":1.0,"Street":[1.0],"HouseNumber":1.0,"PostalCode":1.0},"MatchType":"interpolated","Location":{"LocationId":"NT_Qbr6a9blcF.min0b4DbRzD_yA","LocationType":"point","DisplayPosition":{"Latitude":50.09302,"Longitude":4.01117},"MapView":{"TopLeft":{"Latitude":50.0941442,"Longitude":4.0094177},"BottomRight":{"Latitude":50.0918958,"Longitude":4.0129223}},"Address":{"Label":"2 Rue Marcoux, 59177 Sains-du-Nord, France","Country":"FRA","State":"Hauts-de-France","County":"Nord","City":"Sains-du-Nord","Street":"Rue Marcoux","HouseNumber":"2","PostalCode":"59177","AdditionalData":[{"value":"France","key":"CountryName"},{"value":"Hauts-de-France","key":"StateName"},{"value":"Nord","key":"CountyName"}]},"MapReference":{"ReferenceId":"542346316","Spot":0.37,"SideOfStreet":"right","CountryId":"20000001","StateId":"20000002","CountyId":"20000003","CityId":"20027669","AddressId":"323087531","RoadLinkId":"44671326"}}},{"Relevance":1.0,"Distance":89.6,"MatchLevel":"houseNumber","MatchQuality":{"Country":1.0,"State":1.0,"County":1.0,"City":1.0,"Street":[1.0],"HouseNumber":1.0,"PostalCode":1.0},"MatchType":"interpolated","Location":{"LocationId":"NT_00vwIh7uysbBUn63E5VC4C_zIE","LocationType":"point","DisplayPosition":{"Latitude":50.09263,"Longitude":4.01019},"MapView":{"TopLeft":{"Latitude":50.0937542,"Longitude":4.0084378},"BottomRight":{"Latitude":50.0915058,"Longitude":4.0119422}},"Address":{"Label":"3B Rue Roger Salengro, 59177 Sains-du-Nord, France","Country":"FRA","State":"Hauts-de-France","County":"Nord","City":"Sains-du-Nord","Street":"Rue Roger Salengro","HouseNumber":"3B","PostalCode":"59177","AdditionalData":[{"value":"France","key":"CountryName"},{"value":"Hauts-de-France","key":"StateName"},{"value":"Nord","key":"CountyName"}]},"MapReference":{"ReferenceId":"542346311","Spot":0.67,"SideOfStreet":"right","CountryId":"20000001","StateId":"20000002","CountyId":"20000003","CityId":"20027669","AddressId":"323105907","RoadLinkId":"43814199"}}},{"Relevance":1.0,"Distance":104.5,"MatchLevel":"houseNumber","MatchQuality":{"Country":1.0,"State":1.0,"County":1.0,"City":1.0,"Street":[1.0],"HouseNumber":1.0,"PostalCode":1.0},"MatchType":"interpolated","Location":{"LocationId":"NT_00vwIh7uysbBUn63E5VC4C_zA","LocationType":"point","DisplayPosition":{"Latitude":50.09288,"Longitude":4.00985},"MapView":{"TopLeft":{"Latitude":50.0940042,"Longitude":4.0080977},"BottomRight":{"Latitude":50.0917558,"Longitude":4.0116023}},"Address":{"Label":"3 Rue Roger Salengro, 59177 Sains-du-Nord, France","Country":"FRA","State":"Hauts-de-France","County":"Nord","City":"Sains-du-Nord","Street":"Rue Roger Salengro","HouseNumber":"3","PostalCode":"59177","AdditionalData":[{"value":"France","key":"CountryName"},{"value":"Hauts-de-France","key":"StateName"},{"value":"Nord","key":"CountyName"}]},"MapReference":{"ReferenceId":"542346312","Spot":0.06,"SideOfStreet":"right","CountryId":"20000001","StateId":"20000002","CountyId":"20000003","CityId":"20027669","AddressId":"322770640","RoadLinkId":"44996439"}}},{"Relevance":1.0,"Distance":115.8,"MatchLevel":"houseNumber","MatchQuality":{"Country":1.0,"State":1.0,"County":1.0,"City":1.0,"Street":[1.0],"HouseNumber":1.0,"PostalCode":1.0},"MatchType":"interpolated","Location":{"LocationId":"NT_YVZR9JC6Cge57sr-HtYGcC_1UD","LocationType":"point","DisplayPosition":{"Latitude":50.0927,"Longitude":4.01173},"MapView":{"TopLeft":{"Latitude":50.0938242,"Longitude":4.0099777},"BottomRight":{"Latitude":50.0915758,"Longitude":4.0134823}},"Address":{"Label":"55 Rue Léon Gambetta, 59177 Sains-du-Nord, France","Country":"FRA","State":"Hauts-de-France","County":"Nord","City":"Sains-du-Nord","Street":"Rue Léon Gambetta","HouseNumber":"55","PostalCode":"59177","AdditionalData":[{"value":"France","key":"CountryName"},{"value":"Hauts-de-France","key":"StateName"},{"value":"Nord","key":"CountyName"}]},"MapReference":{"ReferenceId":"542346313","Spot":0.04,"SideOfStreet":"left","CountryId":"20000001","StateId":"20000002","CountyId":"20000003","CityId":"20027669","AddressId":"322655655","RoadLinkId":"44934251"}}},{"Relevance":1.0,"Distance":116.4,"MatchLevel":"houseNumber","MatchQuality":{"Country":1.0,"State":1.0,"County":1.0,"City":1.0,"Street":[1.0],"HouseNumber":1.0,"PostalCode":1.0},"MatchType":"interpolated","Location":{"LocationId":"NT_YVZR9JC6Cge57sr-HtYGcC_1MD","LocationType":"point","DisplayPosition":{"Latitude":50.09248,"Longitude":4.01131},"MapView":{"TopLeft":{"Latitude":50.0936042,"Longitude":4.0095578},"BottomRight":{"Latitude":50.0913558,"Longitude":4.0130622}},"Address":{"Label":"53 Rue Léon Gambetta, 59177 Sains-du-Nord, France","Country":"FRA","State":"Hauts-de-France","County":"Nord","City":"Sains-du-Nord","Street":"Rue Léon Gambetta","HouseNumber":"53","PostalCode":"59177","AdditionalData":[{"value":"France","key":"CountryName"},{"value":"Hauts-de-France","key":"StateName"},{"value":"Nord","key":"CountyName"}]},"MapReference":{"ReferenceId":"542346314","Spot":0.66,"SideOfStreet":"left","CountryId":"20000001","StateId":"20000002","CountyId":"20000003","CityId":"20027669","AddressId":"371522890","RoadLinkId":"45061746"}}},{"Relevance":1.0,"Distance":122.6,"MatchLevel":"houseNumber","MatchQuality":{"Country":1.0,"State":1.0,"County":1.0,"City":1.0,"Street":[1.0],"HouseNumber":1.0,"PostalCode":1.0},"MatchType":"interpolated","Location":{"LocationId":"NT_0klLmsf9Sf8KLl7ETxJ9IC_xAD","LocationType":"point","DisplayPosition":{"Latitude":50.09277,"Longitude":4.00977},"MapView":{"TopLeft":{"Latitude":50.0938942,"Longitude":4.0080177},"BottomRight":{"Latitude":50.0916458,"Longitude":4.0115223}},"Address":{"Label":"10 Rue des Jardins, 59177 Sains-du-Nord, France","Country":"FRA","State":"Hauts-de-France","County":"Nord","City":"Sains-du-Nord","Street":"Rue des Jardins","HouseNumber":"10","PostalCode":"59177","AdditionalData":[{"value":"France","key":"CountryName"},{"value":"Hauts-de-France","key":"StateName"},{"value":"Nord","key":"CountyName"}]},"MapReference":{"ReferenceId":"542346310","Spot":0.96,"SideOfStreet":"left","CountryId":"20000001","StateId":"20000002","CountyId":"20000003","CityId":"20027669","AddressId":"371502271","RoadLinkId":"44298812"}}}]}]}}