{"Response":{"MetaInfo":{"Timestamp":"2020-03-28T10:53:58.578+0000","NextPageInformation":"2"},"View":[{"_type":"SearchResultsViewType","ViewId":0,"Result":[{"Relevance":1.0,"Distance":-4.8,"MatchLevel":"landmark","MatchQuality":{"Country":1.0,"State":1.0,"County":1.0,"City":1.0,"District":1.0,"Street":[1.0],"HouseNumber":1.0,"PostalCode":1.0,"Name":1.0},"Location":{"LocationId":"NT_-dDovPp7q8k3yTaTvWLfqD_p_o1moZObe5lSaBh0MNlT2AC","LocationType":"hospital","Name":"Nemocnice Cheb","DisplayPosition":{"Latitude":50.07001,"Longitude":12.36647},"MapView":{"TopLeft":{"Latitude":50.0711342,"Longitude":12.3647186},"BottomRight":{"Latitude":50.0688858,"Longitude":12.3682214}},"Address":{"Label":"K Nemocnici 17, 350 02 Cheb, Česká Republika","Country":"CZE","State":"Karlovarský kraj","County":"Cheb","City":"Cheb","District":"Cheb","Street":"K Nemocnici","HouseNumber":"17","PostalCode":"350 02","AdditionalData":[{"value":"Česká Republika","key":"CountryName"},{"value":"Karlovarský kraj","key":"StateName"},{"value":"Cheb","key":"CountyName"}]},"MapReference":{"CountryId":"20427915","StateId":"20435257","CountyId":"20435258","CityId":"20435262","DistrictId":"20435263","PlaceId":"996501615"}}},{"Relevance":1.0,"Distance":0.0,"Direction":0.0,"MatchLevel":"district","MatchQuality":{"Country":1.0,"State":1.0,"County":1.0,"City":1.0,"District":1.0,"PostalCode":1.0},"Location":{"LocationId":"NT_VNQNrOX.Sw.xwnoC0BZTDB","LocationType":"point","DisplayPosition":{"Latitude":50.0692705,"Longitude":12.3631789},"MapView":{"TopLeft":{"Latitude":50.0956,"Longitude":12.34158},"BottomRight":{"Latitude":50.05488,"Longitude":12.39525}},"Address":{"Label":"Cheb, Karlovarský kraj, Česká Republika","Country":"CZE","State":"Karlovarský kraj","County":"Cheb","City":"Cheb","District":"Cheb","PostalCode":"350 02","AdditionalData":[{"value":"Česká Republika","key":"CountryName"},{"value":"Karlovarský kraj","key":"StateName"},{"value":"Cheb","key":"CountyName"}]},"MapReference":{"ReferenceId":"704157289","SideOfStreet":"neither","CountryId":"20427915","StateId":"20435257","CountyId":"20435258","CityId":"20435262","DistrictId":"20435263"}}},{"Relevance":1.0,"Distance":9.6,"MatchLevel":"street","MatchQuality":{"Country":1.0,"State":1.0,"County":1.0,"City":1.0,"District":1.0,"Street":[1.0],"PostalCode":1.0},"Location":{"LocationId":"NT_bpTFbG6idA54hvAem8tEqD_l_761942443_R","LocationType":"point","DisplayPosition":{"Latitude":50.0693334,"Longitude":12.363087},"MapView":{"TopLeft":{"Latitude":50.06973,"Longitude":12.36303},"BottomRight":{"Latitude":50.06925,"Longitude":12.36335}},"Address":{"Label":"17. listopadu, 350 02 Cheb, Česká Republika","Country":"CZE","State":"Karlovarský kraj","County":"Cheb","City":"Cheb","District":"Cheb","Street":"17. listopadu","PostalCode":"350 02","AdditionalData":[{"value":"Česká Republika","key":"CountryName"},{"value":"Karlovarský kraj","key":"StateName"},{"value":"Cheb","key":"CountyName"}]},"MapReference":{"ReferenceId":"761942443","Spot":0.18,"SideOfStreet":"right","CountryId":"20427915","StateId":"20435257","CountyId":"20435258","CityId":"20435262","DistrictId":"20435263"}}},{"Relevance":1.0,"Distance":24.8,"MatchLevel":"houseNumber","MatchQuality":{"Country":1.0,"State":1.0,"County":1.0,"City":1.0,"District":1.0,"Street":[1.0],"HouseNumber":1.0,"PostalCode":1.0},"MatchType":"interpolated","Location":{"LocationId":"NT_bpTFbG6idA54hvAem8tEqD_2czMvQzM","LocationType":"point","DisplayPosition":{"Latitude":50.06914,"Longitude":12.36294},"MapView":{"TopLeft":{"Latitude":50.0702642,"Longitude":12.3611886},"BottomRight":{"Latitude":50.0680158,"Longitude":12.3646914}},"Address":{"Label":"17. listopadu 673/43, 350 02 Cheb, Česká Republika","Country":"CZE","State":"Karlovarský kraj","County":"Cheb","City":"Cheb","District":"Cheb","Street":"17. listopadu","HouseNumber":"673/43","PostalCode":"350 02","AdditionalData":[{"value":"Česká Republika","key":"CountryName"},{"value":"Karlovarský kraj","key":"StateName"},{"value":"Cheb","key":"CountyName"}]},"MapReference":{"ReferenceId":"761942442","Spot":0.73,"SideOfStreet":"right","CountryId":"20427915","StateId":"20435257","CountyId":"20435258","CityId":"20435262","DistrictId":"20435263","AddressId":"240246161","RoadLinkId":"156153329"}}},{"Relevance":1.0,"Distance":52.5,"MatchLevel":"street","MatchQuality":{"Country":1.0,"State":1.0,"County":1.0,"City":1.0,"District":1.0,"Street":[1.0],"PostalCode":1.0},"Location":{"LocationId":"NT_gxjGFuHnj0Sz.vI9OIkLbD_l_1143033365_R","LocationType":"point","DisplayPosition":{"Latitude":50.06973,"Longitude":12.36335},"MapView":{"TopLeft":{"Latitude":50.07034,"Longitude":12.36335},"BottomRight":{"Latitude":50.06973,"Longitude":12.36369}},"Address":{"Label":"17. listopadu, 350 02 Cheb, Česká Republika","Country":"CZE","State":"Karlovarský kraj","County":"Cheb","City":"Cheb","District":"Cheb","Street":"17. listopadu","PostalCode":"350 02","AdditionalData":[{"value":"Česká Republika","key":"CountryName"},{"value":"Karlovarský kraj","key":"StateName"},{"value":"Cheb","key":"CountyName"}]},"MapReference":{"ReferenceId":"1143033365","Spot":0.0,"SideOfStreet":"right","CountryId":"20427915","StateId":"20435257","CountyId":"20435258","CityId":"20435262","DistrictId":"20435263"}}},{"Relevance":1.0,"Distance":55.4,"MatchLevel":"houseNumber","MatchQuality":{"Country":1.0,"State":1.0,"County":1.0,"City":1.0,"District":1.0,"Street":[1.0],"HouseNumber":1.0,"PostalCode":1.0},"MatchType":"interpolated","Location":{"LocationId":"NT_0T23Xy9X92v80lNVTbCLKD_4UTOvMDM","LocationType":"point","DisplayPosition":{"Latitude":50.06893,"Longitude":12.36401},"MapView":{"TopLeft":{"Latitude":50.0700542,"Longitude":12.3622586},"BottomRight":{"Latitude":50.0678058,"Longitude":12.3657614}},"Address":{"Label":"Jungmannova 859/30, 350 02 Cheb, Česká Republika","Country":"CZE","State":"Karlovarský kraj","County":"Cheb","City":"Cheb","District":"Cheb","Street":"Jungmannova","HouseNumber":"859/30","PostalCode":"350 02","AdditionalData":[{"value":"Česká Republika","key":"CountryName"},{"value":"Karlovarský kraj","key":"StateName"},{"value":"Cheb","key":"CountyName"}]},"MapReference":{"ReferenceId":"704162731","Spot":1.0,"SideOfStreet":"left","CountryId":"20427915","StateId":"20435257","CountyId":"20435258","CityId":"20435262","DistrictId":"20435263","AddressId":"241115773","RoadLinkId":"152233014"}}},{"Relevance":1.0,"Distance":62.4,"MatchLevel":"street","MatchQuality":{"Country":1.0,"State":1.0,"County":1.0,"City":1.0,"District":1.0,"Street":[1.0],"PostalCode":1.0},"Location":{"LocationId":"NT_0T23Xy9X92v80lNVTbCLKD_l_735986246_R","LocationType":"point","DisplayPosition":{"Latitude":50.0687247,"Longitude":12.3629742},"MapView":{"TopLeft":{"Latitude":50.06884,"Longitude":12.36269},"BottomRight":{"Latitude":50.06862,"Longitude":12.36321}},"Address":{"Label":"Jungmannova, 350 02 Cheb, Česká Republika","Country":"CZE","State":"Karlovarský kraj","County":"Cheb","City":"Cheb","District":"Cheb","Street":"Jungmannova","PostalCode":"350 02","AdditionalData":[{"value":"Česká Republika","key":"CountryName"},{"value":"Karlovarský kraj","key":"StateName"},{"value":"Cheb","key":"CountyName"}]},"MapReference":{"ReferenceId":"735986246","Spot":0.46,"SideOfStreet":"right","CountryId":"20427915","StateId":"20435257","CountyId":"20435258","CityId":"20435262","DistrictId":"20435263"}}},{"Relevance":1.0,"Distance":63.5,"MatchLevel":"houseNumber","MatchQuality":{"Country":1.0,"State":1.0,"County":1.0,"City":1.0,"District":1.0,"Street":[1.0],"HouseNumber":1.0,"PostalCode":1.0},"MatchType":"interpolated","Location":{"LocationId":"NT_0T23Xy9X92v80lNVTbCLKD_5EzMvMjM","LocationType":"point","DisplayPosition":{"Latitude":50.0686,"Longitude":12.36347},"MapView":{"TopLeft":{"Latitude":50.0697242,"Longitude":12.3617186},"BottomRight":{"Latitude":50.0674758,"Longitude":12.3652214}},"Address":{"Label":"Jungmannova 913/32, 350 02 Cheb, Česká Republika","Country":"CZE","State":"Karlovarský kraj","County":"Cheb","City":"Cheb","District":"Cheb","Street":"Jungmannova","HouseNumber":"913/32","PostalCode":"350 02","AdditionalData":[{"value":"Česká Republika","key":"CountryName"},{"value":"Karlovarský kraj","key":"StateName"},{"value":"Cheb","key":"CountyName"}]},"MapReference":{"ReferenceId":"735986245","Spot":0.13,"SideOfStreet":"right","CountryId":"20427915","StateId":"20435257","CountyId":"20435258","CityId":"20435262","DistrictId":"20435263","AddressId":"239616453","RoadLinkId":"135719905"}}},{"Relevance":1.0,"Distance":66.3,"MatchLevel":"houseNumber","MatchQuality":{"Country":1.0,"State":1.0,"County":1.0,"City":1.0,"District":1.0,"Street":[1.0],"HouseNumber":1.0,"PostalCode":1.0},"MatchType":"interpolated","Location":{"LocationId":"NT_bpTFbG6idA54hvAem8tEqD_l_722761233_L_zQD","LocationType":"point","DisplayPosition":{"Latitude":50.0687605,"Longitude":12.3626245},"MapView":{"TopLeft":{"Latitude":50.0698846,"Longitude":12.3608731},"BottomRight":{"Latitude":50.0676363,"Longitude":12.3643759}},"Address":{"Label":"17. listopadu 34, 350 02 Cheb, Česká Republika","Country":"CZE","State":"Karlovarský kraj","County":"Cheb","City":"Cheb","District":"Cheb","Street":"17. listopadu","HouseNumber":"34","PostalCode":"350 02","AdditionalData":[{"value":"Česká Republika","key":"CountryName"},{"value":"Karlovarský kraj","key":"StateName"},{"value":"Cheb","key":"CountyName"}]},"MapReference":{"ReferenceId":"722761233","Spot":0.53,"SideOfStreet":"left","CountryId":"20427915","StateId":"20435257","CountyId":"20435258","CityId":"20435262","DistrictId":"20435263"}}},{"Relevance":1.0,"Distance":72.8,"MatchLevel":"houseNumber","MatchQuality":{"Country":1.0,"State":1.0,"County":1.0,"City":1.0,"District":1.0,"Street":[1.0],"HouseNumber":1.0,"PostalCode":1.0},"MatchType":"interpolated","Location":{"LocationId":"NT_0T23Xy9X92v80lNVTbCLKD_xEzNy8iM3A","LocationType":"point","DisplayPosition":{"Latitude":50.06862,"Longitude":12.36306},"MapView":{"TopLeft":{"Latitude":50.0697442,"Longitude":12.3613086},"BottomRight":{"Latitude":50.0674958,"Longitude":12.3648114}},"Address":{"Label":"Jungmannova 1172/27, 350 02 Cheb, Česká Republika","Country":"CZE","State":"Karlovarský kraj","County":"Cheb","City":"Cheb","District":"Cheb","Street":"Jungmannova","HouseNumber":"1172/27","PostalCode":"350 02","AdditionalData":[{"value":"Česká Republika","key":"CountryName"},{"value":"Karlovarský kraj","key":"StateName"},{"value":"Cheb","key":"CountyName"}]},"MapReference":{"ReferenceId":"735986247","Spot":0.23,"SideOfStreet":"left","CountryId":"20427915","StateId":"20435257","CountyId":"20435258","CityId":"20435262","DistrictId":"20435263","AddressId":"239957117","RoadLinkId":"135719907"}}}]}]}}