{"Response":{"MetaInfo":{"Timestamp":"2020-03-28T11:39:13.125+0000","NextPageInformation":"2"},"View":[{"_type":"SearchResultsViewType","ViewId":0,"Result":[{"Relevance":1.0,"Distance":0.0,"Direction":0.0,"MatchLevel":"district","MatchQuality":{"Country":1.0,"State":1.0,"County":1.0,"City":1.0,"District":1.0,"PostalCode":1.0},"Location":{"LocationId":"NT_-eO7jaNA0CF5QxFm0qNMjA","LocationType":"point","DisplayPosition":{"Latitude":50.0739685,"Longitude":4.6003754},"MapView":{"TopLeft":{"Latitude":50.07729,"Longitude":4.59784},"BottomRight":{"Latitude":50.06534,"Longitude":4.61255}},"Address":{"Label":"Olloy-sur-Viroin, Viroinval, Wallonie, Belgique","Country":"BEL","State":"Wallonie","County":"Namur","City":"Viroinval","District":"Olloy-sur-Viroin","PostalCode":"5670","AdditionalData":[{"value":"Belgique","key":"CountryName"},{"value":"Wallonie","key":"StateName"},{"value":"Namur","key":"CountyName"}]},"MapReference":{"ReferenceId":"801755805","SideOfStreet":"neither","CountryId":"20128886","StateId":"20205526","CountyId":"20207338","CityId":"20207786","DistrictId":"20207793"}}},{"Relevance":1.0,"Distance":10.5,"MatchLevel":"houseNumber","MatchQuality":{"Country":1.0,"State":1.0,"County":1.0,"City":1.0,"District":1.0,"Street":[1.0],"HouseNumber":1.0,"PostalCode":1.0},"MatchType":"interpolated","Location":{"LocationId":"NT_SMdSLwhG4tE9Fj6Vs4J7DD_3ID","LocationType":"point","DisplayPosition":{"Latitude":50.07394,"Longitude":4.60026},"MapView":{"TopLeft":{"Latitude":50.0750642,"Longitude":4.5985084},"BottomRight":{"Latitude":50.0728158,"Longitude":4.6020116}},"Address":{"Label":"Rue Jean Chot 72, 5670 Viroinval, Belgique","Country":"BEL","State":"Wallonie","County":"Namur","City":"Viroinval","District":"Olloy-sur-Viroin","Street":"Rue Jean Chot","HouseNumber":"72","PostalCode":"5670","AdditionalData":[{"value":"Belgique","key":"CountryName"},{"value":"Wallonie","key":"StateName"},{"value":"Namur","key":"CountyName"}]},"MapReference":{"ReferenceId":"53803348","Spot":0.03,"SideOfStreet":"right","CountryId":"20128886","StateId":"20205526","CountyId":"20207338","CityId":"20207786","DistrictId":"20207793","AddressId":"673710808","RoadLinkId":"31026932"}}},{"Relevance":1.0,"Distance":24.9,"MatchLevel":"houseNumber","MatchQuality":{"Country":1.0,"State":1.0,"County":1.0,"City":1.0,"District":1.0,"Street":[1.0],"HouseNumber":1.0,"PostalCode":1.0},"MatchType":"interpolated","Location":{"LocationId":"NT_SMdSLwhG4tE9Fj6Vs4J7DD_3AD","LocationType":"point","DisplayPosition":{"Latitude":50.07386,"Longitude":4.60068},"MapView":{"TopLeft":{"Latitude":50.0749842,"Longitude":4.5989284},"BottomRight":{"Latitude":50.0727358,"Longitude":4.6024316}},"Address":{"Label":"Rue Jean Chot 70, 5670 Viroinval, Belgique","Country":"BEL","State":"Wallonie","County":"Namur","City":"Viroinval","District":"Olloy-sur-Viroin","Street":"Rue Jean Chot","HouseNumber":"70","PostalCode":"5670","AdditionalData":[{"value":"Belgique","key":"CountryName"},{"value":"Wallonie","key":"StateName"},{"value":"Namur","key":"CountyName"}]},"MapReference":{"ReferenceId":"53803354","Spot":0.05,"SideOfStreet":"left","CountryId":"20128886","StateId":"20205526","CountyId":"20207338","CityId":"20207786","DistrictId":"20207793","AddressId":"673712116","RoadLinkId":"30691750"}}},{"Relevance":1.0,"Distance":56.8,"MatchLevel":"landmark","MatchQuality":{"Country":1.0,"State":1.0,"County":1.0,"City":1.0,"PostalCode":1.0,"Name":1.0},"Location":{"LocationId":"NT_jKIdUiFJaiDDlotiD0wVDB","LocationType":"river","Name":"Le Viroin","DisplayPosition":{"Latitude":50.07698,"Longitude":4.62878},"MapView":{"TopLeft":{"Latitude":50.09433,"Longitude":4.56316},"BottomRight":{"Latitude":50.06943,"Longitude":4.69832}},"Address":{"Label":"5670 Viroinval, Belgique","Country":"BEL","State":"Wallonie","County":"Namur","City":"Viroinval","PostalCode":"5670","AdditionalData":[{"value":"Belgique","key":"CountryName"},{"value":"Wallonie","key":"StateName"},{"value":"Namur","key":"CountyName"}]},"MapReference":{"CountryId":"20128886","StateId":"20205526","CountyId":"20207338","CityId":"20207786","PlaceId":"751877451"}}},{"Relevance":1.0,"Distance":73.4,"MatchLevel":"street","MatchQuality":{"Country":1.0,"State":1.0,"County":1.0,"City":1.0,"District":1.0,"Street":[1.0],"PostalCode":1.0},"Location":{"LocationId":"NT_niDtQXjXsXMwPNk8F.o7iD_l_53803321_R","LocationType":"point","DisplayPosition":{"Latitude":50.0746282,"Longitude":4.6003394},"MapView":{"TopLeft":{"Latitude":50.07473,"Longitude":4.60019},"BottomRight":{"Latitude":50.07462,"Longitude":4.60266}},"Address":{"Label":"Route du Viroin, 5670 Viroinval, Belgique","Country":"BEL","State":"Wallonie","County":"Namur","City":"Viroinval","District":"Olloy-sur-Viroin","Street":"Route du Viroin","PostalCode":"5670","AdditionalData":[{"value":"Belgique","key":"CountryName"},{"value":"Wallonie","key":"StateName"},{"value":"Namur","key":"CountyName"}]},"MapReference":{"ReferenceId":"53803321","Spot":0.06,"SideOfStreet":"right","CountryId":"20128886","StateId":"20205526","CountyId":"20207338","CityId":"20207786","DistrictId":"20207793"}}},{"Relevance":1.0,"Distance":73.6,"MatchLevel":"street","MatchQuality":{"Country":1.0,"State":1.0,"County":1.0,"City":1.0,"District":1.0,"Street":[1.0],"PostalCode":1.0},"Location":{"LocationId":"NT_niDtQXjXsXMwPNk8F.o7iD_l_801748618_R","LocationType":"point","DisplayPosition":{"Latitude":50.07462,"Longitude":4.60019},"MapView":{"TopLeft":{"Latitude":50.07462,"Longitude":4.59816},"BottomRight":{"Latitude":50.07432,"Longitude":4.60019}},"Address":{"Label":"Route du Viroin, 5670 Viroinval, Belgique","Country":"BEL","State":"Wallonie","County":"Namur","City":"Viroinval","District":"Olloy-sur-Viroin","Street":"Route du Viroin","PostalCode":"5670","AdditionalData":[{"value":"Belgique","key":"CountryName"},{"value":"Wallonie","key":"StateName"},{"value":"Namur","key":"CountyName"}]},"MapReference":{"ReferenceId":"801748618","Spot":1.0,"SideOfStreet":"right","CountryId":"20128886","StateId":"20205526","CountyId":"20207338","CityId":"20207786","DistrictId":"20207793"}}},{"Relevance":1.0,"Distance":141.8,"MatchLevel":"houseNumber","MatchQuality":{"Country":1.0,"State":1.0,"County":1.0,"City":1.0,"District":1.0,"Street":[1.0],"HouseNumber":1.0,"PostalCode":1.0},"MatchType":"interpolated","Location":{"LocationId":"NT_WFGn4JnxNutQoms4KjdgSC_xUD","LocationType":"point","DisplayPosition":{"Latitude":50.07536,"Longitude":4.60072},"MapView":{"TopLeft":{"Latitude":50.0764842,"Longitude":4.5989684},"BottomRight":{"Latitude":50.0742358,"Longitude":4.6024716}},"Address":{"Label":"Rue Autre Côté de l'Eau 15, 5670 Viroinval, Belgique","Country":"BEL","State":"Wallonie","County":"Namur","City":"Viroinval","District":"Olloy-sur-Viroin","Street":"Rue Autre Côté de l'Eau","HouseNumber":"15","PostalCode":"5670","AdditionalData":[{"value":"Belgique","key":"CountryName"},{"value":"Wallonie","key":"StateName"},{"value":"Namur","key":"CountyName"}]},"MapReference":{"ReferenceId":"59205973","Spot":0.9,"SideOfStreet":"left","CountryId":"20128886","StateId":"20205526","CountyId":"20207338","CityId":"20207786","DistrictId":"20207793","AddressId":"673821858","RoadLinkId":"30486651"}}},{"Relevance":1.0,"Distance":158.7,"MatchLevel":"landmark","MatchQuality":{"Country":1.0,"State":1.0,"County":1.0,"Name":1.0},"Location":{"LocationId":"NT_0enY.NNfwJNfL7MA3auz0A","LocationType":"woodland","Name":"Le Franc Bois","DisplayPosition":{"Latitude":50.08943,"Longitude":4.55782},"MapView":{"TopLeft":{"Latitude":50.10412,"Longitude":4.5428},"BottomRight":{"Latitude":50.07473,"Longitude":4.62592}},"Address":{"Label":"Belgique","Country":"BEL","State":"Wallonie","County":"Namur","AdditionalData":[{"value":"Belgique","key":"CountryName"},{"value":"Wallonie","key":"StateName"},{"value":"Namur","key":"CountyName"}]},"MapReference":{"CountryId":"20128886","StateId":"20205526","CountyId":"20207338","PlaceId":"50763853"}}},{"Relevance":1.0,"Distance":162.9,"MatchLevel":"street","MatchQuality":{"Country":1.0,"State":1.0,"County":1.0,"City":1.0,"District":1.0,"Street":[1.0],"PostalCode":1.0},"Location":{"LocationId":"NT_GU-pkxVgXMjFs7BwpoCw9D_l_801748617_R","LocationType":"point","DisplayPosition":{"Latitude":50.07432,"Longitude":4.59816},"MapView":{"TopLeft":{"Latitude":50.07432,"Longitude":4.59784},"BottomRight":{"Latitude":50.07426,"Longitude":4.59816}},"Address":{"Label":"Route du Viroin, 5670 Viroinval, Belgique","Country":"BEL","State":"Wallonie","County":"Namur","City":"Viroinval","District":"Olloy-sur-Viroin","Street":"Route du Viroin","PostalCode":"5670","AdditionalData":[{"value":"Belgique","key":"CountryName"},{"value":"Wallonie","key":"StateName"},{"value":"Namur","key":"CountyName"}]},"MapReference":{"ReferenceId":"801748617","Spot":1.0,"SideOfStreet":"right","CountryId":"20128886","StateId":"20205526","CountyId":"20207338","CityId":"20207786","DistrictId":"20207793"}}},{"Relevance":1.0,"Distance":167.4,"MatchLevel":"street","MatchQuality":{"Country":1.0,"State":1.0,"County":1.0,"City":1.0,"District":1.0,"Street":[1.0],"PostalCode":1.0},"Location":{"LocationId":"NT_WFGn4JnxNutQoms4KjdgSC_l_59205976_L","LocationType":"point","DisplayPosition":{"Latitude":50.07547,"Longitude":4.60054},"MapView":{"TopLeft":{"Latitude":50.07588,"Longitude":4.59826},"BottomRight":{"Latitude":50.07547,"Longitude":4.60054}},"Address":{"Label":"Rue Autre Côté de l'Eau, 5670 Viroinval, Belgique","Country":"BEL","State":"Wallonie","County":"Namur","City":"Viroinval","District":"Olloy-sur-Viroin","Street":"Rue Autre Côté de l'Eau","PostalCode":"5670","AdditionalData":[{"value":"Belgique","key":"CountryName"},{"value":"Wallonie","key":"StateName"},{"value":"Namur","key":"CountyName"}]},"MapReference":{"ReferenceId":"59205976","Spot":0.0,"SideOfStreet":"left","CountryId":"20128886","StateId":"20205526","CountyId":"20207338","CityId":"20207786","DistrictId":"20207793"}}}]}]}}