{"Response":{"MetaInfo":{"Timestamp":"2020-03-28T11:31:32.704+0000","NextPageInformation":"2"},"View":[{"_type":"SearchResultsViewType","ViewId":0,"Result":[{"Relevance":1.0,"Distance":0.0,"Direction":0.0,"MatchLevel":"district","MatchQuality":{"Country":1.0,"State":1.0,"County":1.0,"City":1.0,"District":1.0,"PostalCode":1.0},"Location":{"LocationId":"NT_5IH2uyjDJFo-7ogOwUiCjB","LocationType":"point","DisplayPosition":{"Latitude":50.0394198,"Longitude":19.2389987},"MapView":{"TopLeft":{"Latitude":50.05736,"Longitude":19.18685},"BottomRight":{"Latitude":50.01403,"Longitude":19.32686}},"Address":{"Label":"Oświęcim, Woj. Małopolskie, Polska","Country":"POL","State":"Woj. Małopolskie","County":"Powiat Oświęcimski","City":"Oświęcim","District":"Oświęcim","PostalCode":"32-600","AdditionalData":[{"value":"Polska","key":"CountryName"},{"value":"Woj. Małopolskie","key":"StateName"},{"value":"Powiat Oświęcimski","key":"CountyName"}]},"MapReference":{"ReferenceId":"1202858325","SideOfStreet":"neither","CountryId":"20624059","StateId":"20626775","CountyId":"20627044","CityId":"20686728","DistrictId":"20686729"}}},{"Relevance":1.0,"Distance":7.3,"MatchLevel":"street","MatchQuality":{"Country":1.0,"State":1.0,"County":1.0,"City":1.0,"District":1.0,"Street":[1.0],"PostalCode":1.0},"Location":{"LocationId":"NT_-B2TPvHachn1TOJQcgyJHC_l_958186173_L","LocationType":"point","DisplayPosition":{"Latitude":50.039371,"Longitude":19.2390678},"MapView":{"TopLeft":{"Latitude":50.03953,"Longitude":19.23882},"BottomRight":{"Latitude":50.03902,"Longitude":19.23918}},"Address":{"Label":"ulica Szpitalna, 32-600 Oświęcim, Polska","Country":"POL","State":"Woj. Małopolskie","County":"Powiat Oświęcimski","City":"Oświęcim","District":"Oświęcim","Street":"ulica Szpitalna","PostalCode":"32-600","AdditionalData":[{"value":"Polska","key":"CountryName"},{"value":"Woj. Małopolskie","key":"StateName"},{"value":"Powiat Oświęcimski","key":"CountyName"}]},"MapReference":{"ReferenceId":"958186173","Spot":0.69,"SideOfStreet":"left","CountryId":"20624059","StateId":"20626775","CountyId":"20627044","CityId":"20686728","DistrictId":"20686729"}}},{"Relevance":1.0,"Distance":12.1,"MatchLevel":"landmark","MatchQuality":{"Country":1.0,"State":1.0,"County":1.0,"City":1.0,"District":1.0,"PostalCode":1.0,"Name":1.0},"Location":{"LocationId":"NT_tx9tRa9Yv5wi1BNYhTomrC","LocationType":"hospital","Name":"Szpital Pow. im. św. Masymiliana","DisplayPosition":{"Latitude":50.04052,"Longitude":19.23698},"MapView":{"TopLeft":{"Latitude":50.04168,"Longitude":19.23376},"BottomRight":{"Latitude":50.03935,"Longitude":19.24009}},"Address":{"Label":"32-600 Oświęcim, Polska","Country":"POL","State":"Woj. Małopolskie","County":"Powiat Oświęcimski","City":"Oświęcim","District":"Oświęcim","PostalCode":"32-600","AdditionalData":[{"value":"Polska","key":"CountryName"},{"value":"Woj. Małopolskie","key":"StateName"},{"value":"Powiat Oświęcimski","key":"CountyName"}]},"MapReference":{"CountryId":"20624059","StateId":"20626775","CountyId":"20627044","CityId":"20686728","DistrictId":"20686729","PlaceId":"1457631223"}}},{"Relevance":1.0,"Distance":18.8,"MatchLevel":"street","MatchQuality":{"Country":1.0,"State":1.0,"County":1.0,"City":1.0,"District":1.0,"Street":[1.0],"PostalCode":1.0},"Location":{"LocationId":"NT_-B2TPvHachn1TOJQcgyJHC_l_594023347_L","LocationType":"point","DisplayPosition":{"Latitude":50.0392972,"Longitude":19.2391805},"MapView":{"TopLeft":{"Latitude":50.04042,"Longitude":19.23898},"BottomRight":{"Latitude":50.039,"Longitude":19.23999}},"Address":{"Label":"ulica Szpitalna, 32-600 Oświęcim, Polska","Country":"POL","State":"Woj. Małopolskie","County":"Powiat Oświęcimski","City":"Oświęcim","District":"Oświęcim","Street":"ulica Szpitalna","PostalCode":"32-600","AdditionalData":[{"value":"Polska","key":"CountryName"},{"value":"Woj. Małopolskie","key":"StateName"},{"value":"Powiat Oświęcimski","key":"CountyName"}]},"MapReference":{"ReferenceId":"594023347","Spot":0.21,"SideOfStreet":"left","CountryId":"20624059","StateId":"20626775","CountyId":"20627044","CityId":"20686728","DistrictId":"20686729"}}},{"Relevance":1.0,"Distance":46.4,"MatchLevel":"street","MatchQuality":{"Country":1.0,"State":1.0,"County":1.0,"City":1.0,"District":1.0,"Street":[1.0],"PostalCode":1.0},"Location":{"LocationId":"NT_-B2TPvHachn1TOJQcgyJHC_l_957780412_R","LocationType":"point","DisplayPosition":{"Latitude":50.0390042,"Longitude":19.2389467},"MapView":{"TopLeft":{"Latitude":50.03902,"Longitude":19.23882},"BottomRight":{"Latitude":50.039,"Longitude":19.23898}},"Address":{"Label":"ulica Szpitalna, 32-600 Oświęcim, Polska","Country":"POL","State":"Woj. Małopolskie","County":"Powiat Oświęcimski","City":"Oświęcim","District":"Oświęcim","Street":"ulica Szpitalna","PostalCode":"32-600","AdditionalData":[{"value":"Polska","key":"CountryName"},{"value":"Woj. Małopolskie","key":"StateName"},{"value":"Powiat Oświęcimski","key":"CountyName"}]},"MapReference":{"ReferenceId":"957780412","Spot":0.21,"SideOfStreet":"right","CountryId":"20624059","StateId":"20626775","CountyId":"20627044","CityId":"20686728","DistrictId":"20686729"}}},{"Relevance":1.0,"Distance":46.7,"MatchLevel":"street","MatchQuality":{"Country":1.0,"State":1.0,"County":1.0,"City":1.0,"District":1.0,"PostalCode":1.0},"Location":{"LocationId":"NT_eNjGICBzehOBiG7b.3lAYB_l_594023548_L","LocationType":"point","DisplayPosition":{"Latitude":50.039,"Longitude":19.23898},"MapView":{"TopLeft":{"Latitude":50.039,"Longitude":19.23888},"BottomRight":{"Latitude":50.03834,"Longitude":19.23898}},"Address":{"Label":"32-600 Oświęcim, Polska","Country":"POL","State":"Woj. Małopolskie","County":"Powiat Oświęcimski","City":"Oświęcim","District":"Oświęcim","PostalCode":"32-600","AdditionalData":[{"value":"Polska","key":"CountryName"},{"value":"Woj. Małopolskie","key":"StateName"},{"value":"Powiat Oświęcimski","key":"CountyName"}]},"MapReference":{"ReferenceId":"594023548","Spot":1.0,"SideOfStreet":"left","CountryId":"20624059","StateId":"20626775","CountyId":"20627044","CityId":"20686728","DistrictId":"20686729"}}},{"Relevance":1.0,"Distance":48.6,"MatchLevel":"houseNumber","MatchQuality":{"Country":1.0,"State":1.0,"County":1.0,"City":1.0,"District":1.0,"Street":[1.0],"HouseNumber":1.0,"PostalCode":1.0},"MatchType":"interpolated","Location":{"LocationId":"NT_-B2TPvHachn1TOJQcgyJHC_zA","LocationType":"point","DisplayPosition":{"Latitude":50.039,"Longitude":19.23881},"MapView":{"TopLeft":{"Latitude":50.0401242,"Longitude":19.2370597},"BottomRight":{"Latitude":50.0378758,"Longitude":19.2405603}},"Address":{"Label":"ulica Szpitalna 3, 32-600 Oświęcim, Polska","Country":"POL","State":"Woj. Małopolskie","County":"Powiat Oświęcimski","City":"Oświęcim","District":"Oświęcim","Street":"ulica Szpitalna","HouseNumber":"3","PostalCode":"32-600","AdditionalData":[{"value":"Polska","key":"CountryName"},{"value":"Woj. Małopolskie","key":"StateName"},{"value":"Powiat Oświęcimski","key":"CountyName"}]},"MapReference":{"ReferenceId":"957780411","Spot":0.96,"SideOfStreet":"left","CountryId":"20624059","StateId":"20626775","CountyId":"20627044","CityId":"20686728","DistrictId":"20686729","AddressId":"209771301","RoadLinkId":"300748934"}}},{"Relevance":1.0,"Distance":78.6,"MatchLevel":"houseNumber","MatchQuality":{"Country":1.0,"State":1.0,"County":1.0,"City":1.0,"District":1.0,"Street":[1.0],"HouseNumber":1.0,"PostalCode":1.0},"MatchType":"interpolated","Location":{"LocationId":"NT_-B2TPvHachn1TOJQcgyJHC_xITQ","LocationType":"point","DisplayPosition":{"Latitude":50.0391,"Longitude":19.23998},"MapView":{"TopLeft":{"Latitude":50.0402242,"Longitude":19.2382297},"BottomRight":{"Latitude":50.0379758,"Longitude":19.2417303}},"Address":{"Label":"ulica Szpitalna 12A, 32-600 Oświęcim, Polska","Country":"POL","State":"Woj. Małopolskie","County":"Powiat Oświęcimski","City":"Oświęcim","District":"Oświęcim","Street":"ulica Szpitalna","HouseNumber":"12A","PostalCode":"32-600","AdditionalData":[{"value":"Polska","key":"CountryName"},{"value":"Woj. Małopolskie","key":"StateName"},{"value":"Powiat Oświęcimski","key":"CountyName"}]},"MapReference":{"ReferenceId":"779009954","Spot":0.79,"SideOfStreet":"right","CountryId":"20624059","StateId":"20626775","CountyId":"20627044","CityId":"20686728","DistrictId":"20686729","AddressId":"732245382","RoadLinkId":"301095552"}}},{"Relevance":1.0,"Distance":81.9,"MatchLevel":"houseNumber","MatchQuality":{"Country":1.0,"State":1.0,"County":1.0,"City":1.0,"District":1.0,"Street":[1.0],"HouseNumber":1.0,"PostalCode":1.0},"MatchType":"interpolated","Location":{"LocationId":"NT_gRHG.TqipC6Q5ZFUajEMcD_1kD","LocationType":"point","DisplayPosition":{"Latitude":50.03917,"Longitude":19.23792},"MapView":{"TopLeft":{"Latitude":50.0402942,"Longitude":19.2361697},"BottomRight":{"Latitude":50.0380458,"Longitude":19.2396703}},"Address":{"Label":"ulica gen. Jarosława Dąbrowskiego 59, 32-600 Oświęcim, Polska","Country":"POL","State":"Woj. Małopolskie","County":"Powiat Oświęcimski","City":"Oświęcim","District":"Oświęcim","Street":"ulica gen. Jarosława Dąbrowskiego","HouseNumber":"59","PostalCode":"32-600","AdditionalData":[{"value":"Polska","key":"CountryName"},{"value":"Woj. Małopolskie","key":"StateName"},{"value":"Powiat Oświęcimski","key":"CountyName"}]},"MapReference":{"ReferenceId":"958186183","Spot":0.96,"SideOfStreet":"right","CountryId":"20624059","StateId":"20626775","CountyId":"20627044","CityId":"20686728","DistrictId":"20686729","AddressId":"222304439","RoadLinkId":"301159175"}}},{"Relevance":1.0,"Distance":82.1,"MatchLevel":"street","MatchQuality":{"Country":1.0,"State":1.0,"County":1.0,"City":1.0,"District":1.0,"Street":[1.0],"PostalCode":1.0},"Location":{"LocationId":"NT_-B2TPvHachn1TOJQcgyJHC_l_779009955_L","LocationType":"point","DisplayPosition":{"Latitude":50.03933,"Longitude":19.24014},"MapView":{"TopLeft":{"Latitude":50.03971,"Longitude":19.24014},"BottomRight":{"Latitude":50.03933,"Longitude":19.24037}},"Address":{"Label":"ulica Szpitalna, 32-600 Oświęcim, Polska","Country":"POL","State":"Woj. Małopolskie","County":"Powiat Oświęcimski","City":"Oświęcim","District":"Oświęcim","Street":"ulica Szpitalna","PostalCode":"32-600","AdditionalData":[{"value":"Polska","key":"CountryName"},{"value":"Woj. Małopolskie","key":"StateName"},{"value":"Powiat Oświęcimski","key":"CountyName"}]},"MapReference":{"ReferenceId":"779009955","Spot":0.0,"SideOfStreet":"left","CountryId":"20624059","StateId":"20626775","CountyId":"20627044","CityId":"20686728","DistrictId":"20686729"}}}]}]}}