{"Response":{"MetaInfo":{"Timestamp":"2020-03-28T11:14:41.725+0000","NextPageInformation":"2"},"View":[{"_type":"SearchResultsViewType","ViewId":0,"Result":[{"Relevance":1.0,"Distance":-1333.2,"MatchLevel":"landmark","MatchQuality":{"Country":1.0,"State":1.0,"Name":1.0},"Location":{"LocationId":"NT_teLpjNuk5j7MRDoOwBk0rA","LocationType":"park","Name":"P.N.R. de l'Avesnois","DisplayPosition":{"Latitude":50.16217,"Longitude":4.01512},"MapView":{"TopLeft":{"Latitude":50.35528,"Longitude":3.53329},"BottomRight":{"Latitude":49.96906,"Longitude":4.23093}},"Address":{"Label":"France","Country":"FRA","State":"Hauts-de-France","AdditionalData":[{"value":"France","key":"CountryName"},{"value":"Hauts-de-France","key":"StateName"}]},"MapReference":{"CountryId":"20000001","StateId":"20000002","PlaceId":"1511401163"}}},{"Relevance":1.0,"Distance":-29.0,"MatchLevel":"landmark","MatchQuality":{"Country":1.0,"State":1.0,"County":1.0,"City":1.0,"PostalCode":1.0,"Name":1.0},"Location":{"LocationId":"NT_zB0uYTqrVMis0AqPVEB0WA","LocationType":"industrialComplex","Name":"Z.I. Nord","DisplayPosition":{"Latitude":50.0264,"Longitude":4.01296},"MapView":{"TopLeft":{"Latitude":50.02874,"Longitude":4.01154},"BottomRight":{"Latitude":50.02405,"Longitude":4.01667}},"Address":{"Label":"59212 Wignehies, France","Country":"FRA","State":"Hauts-de-France","County":"Nord","City":"Wignehies","PostalCode":"59212","AdditionalData":[{"value":"France","key":"CountryName"},{"value":"Hauts-de-France","key":"StateName"},{"value":"Nord","key":"CountyName"}]},"MapReference":{"CountryId":"20000001","StateId":"20000002","CountyId":"20000003","CityId":"20028020","PlaceId":"554591422"}}},{"Relevance":1.0,"Distance":0.0,"Direction":0.0,"MatchLevel":"city","MatchQuality":{"Country":1.0,"State":1.0,"County":1.0,"City":1.0,"PostalCode":1.0},"Location":{"LocationId":"NT_TFXliruuyn951qP6CyUvDA","LocationType":"point","DisplayPosition":{"Latitude":50.0280225,"Longitude":4.014127},"MapView":{"TopLeft":{"Latitude":50.04253,"Longitude":3.97942},"BottomRight":{"Latitude":49.9855,"Longitude":4.02902}},"Address":{"Label":"Wignehies, Hauts-de-France, France","Country":"FRA","State":"Hauts-de-France","County":"Nord","City":"Wignehies","PostalCode":"59212","AdditionalData":[{"value":"France","key":"CountryName"},{"value":"Hauts-de-France","key":"StateName"},{"value":"Nord","key":"CountyName"}]},"MapReference":{"ReferenceId":"792487066","SideOfStreet":"neither","CountryId":"20000001","StateId":"20000002","CountyId":"20000003","CityId":"20028020"}}},{"Relevance":1.0,"Distance":2.3,"MatchLevel":"street","MatchQuality":{"Country":1.0,"State":1.0,"County":1.0,"City":1.0,"PostalCode":1.0},"Location":{"LocationId":"NT_lQK2ug8cZPBCame6pDINTD_l_857349915_L","LocationType":"point","DisplayPosition":{"Latitude":50.0280385,"Longitude":4.0141074},"MapView":{"TopLeft":{"Latitude":50.02825,"Longitude":4.01397},"BottomRight":{"Latitude":50.02787,"Longitude":4.01428}},"Address":{"Label":"59212 Wignehies, France","Country":"FRA","State":"Hauts-de-France","County":"Nord","City":"Wignehies","PostalCode":"59212","AdditionalData":[{"value":"France","key":"CountryName"},{"value":"Hauts-de-France","key":"StateName"},{"value":"Nord","key":"CountyName"}]},"MapReference":{"ReferenceId":"857349915","Spot":0.44,"SideOfStreet":"neither","CountryId":"20000001","StateId":"20000002","CountyId":"20000003","CityId":"20028020"}}},{"Relevance":1.0,"Distance":20.3,"MatchLevel":"street","MatchQuality":{"Country":1.0,"State":1.0,"County":1.0,"City":1.0,"PostalCode":1.0},"Location":{"LocationId":"NT_lQK2ug8cZPBCame6pDINTD_l_857349914_R","LocationType":"point","DisplayPosition":{"Latitude":50.02787,"Longitude":4.01397},"MapView":{"TopLeft":{"Latitude":50.02801,"Longitude":4.01372},"BottomRight":{"Latitude":50.02787,"Longitude":4.01397}},"Address":{"Label":"59212 Wignehies, France","Country":"FRA","State":"Hauts-de-France","County":"Nord","City":"Wignehies","PostalCode":"59212","AdditionalData":[{"value":"France","key":"CountryName"},{"value":"Hauts-de-France","key":"StateName"},{"value":"Nord","key":"CountyName"}]},"MapReference":{"ReferenceId":"857349914","Spot":0.0,"SideOfStreet":"right","CountryId":"20000001","StateId":"20000002","CountyId":"20000003","CityId":"20028020"}}},{"Relevance":1.0,"Distance":21.6,"MatchLevel":"street","MatchQuality":{"Country":1.0,"State":1.0,"County":1.0,"City":1.0,"PostalCode":1.0},"Location":{"LocationId":"NT_lQK2ug8cZPBCame6pDINTD_l_857349913_R","LocationType":"point","DisplayPosition":{"Latitude":50.0278381,"Longitude":4.0140317},"MapView":{"TopLeft":{"Latitude":50.02787,"Longitude":4.01397},"BottomRight":{"Latitude":50.02741,"Longitude":4.01486}},"Address":{"Label":"59212 Wignehies, France","Country":"FRA","State":"Hauts-de-France","County":"Nord","City":"Wignehies","PostalCode":"59212","AdditionalData":[{"value":"France","key":"CountryName"},{"value":"Hauts-de-France","key":"StateName"},{"value":"Nord","key":"CountyName"}]},"MapReference":{"ReferenceId":"857349913","Spot":0.93,"SideOfStreet":"right","CountryId":"20000001","StateId":"20000002","CountyId":"20000003","CityId":"20028020"}}},{"Relevance":1.0,"Distance":82.4,"MatchLevel":"street","MatchQuality":{"Country":1.0,"State":1.0,"County":1.0,"City":1.0,"Street":[1.0],"PostalCode":1.0},"Location":{"LocationId":"NT_Y6n0n81FFrwe.BJTksRq8A_l_857349912_L","LocationType":"point","DisplayPosition":{"Latitude":50.02757,"Longitude":4.01504},"MapView":{"TopLeft":{"Latitude":50.02769,"Longitude":4.01504},"BottomRight":{"Latitude":50.02757,"Longitude":4.01519}},"Address":{"Label":"Rue de Feron, 59212 Wignehies, France","Country":"FRA","State":"Hauts-de-France","County":"Nord","City":"Wignehies","Street":"Rue de Feron","PostalCode":"59212","AdditionalData":[{"value":"France","key":"CountryName"},{"value":"Hauts-de-France","key":"StateName"},{"value":"Nord","key":"CountyName"}]},"MapReference":{"ReferenceId":"857349912","Spot":0.0,"SideOfStreet":"left","CountryId":"20000001","StateId":"20000002","CountyId":"20000003","CityId":"20028020"}}},{"Relevance":1.0,"Distance":85.9,"MatchLevel":"street","MatchQuality":{"Country":1.0,"State":1.0,"County":1.0,"City":1.0,"Street":[1.0],"PostalCode":1.0},"Location":{"LocationId":"NT_Y6n0n81FFrwe.BJTksRq8A_l_857349911_L","LocationType":"point","DisplayPosition":{"Latitude":50.02741,"Longitude":4.01486},"MapView":{"TopLeft":{"Latitude":50.02757,"Longitude":4.01486},"BottomRight":{"Latitude":50.02741,"Longitude":4.01504}},"Address":{"Label":"Rue de Feron, 59212 Wignehies, France","Country":"FRA","State":"Hauts-de-France","County":"Nord","City":"Wignehies","Street":"Rue de Feron","PostalCode":"59212","AdditionalData":[{"value":"France","key":"CountryName"},{"value":"Hauts-de-France","key":"StateName"},{"value":"Nord","key":"CountyName"}]},"MapReference":{"ReferenceId":"857349911","Spot":0.0,"SideOfStreet":"left","CountryId":"20000001","StateId":"20000002","CountyId":"20000003","CityId":"20028020"}}},{"Relevance":1.0,"Distance":88.3,"MatchLevel":"houseNumber","MatchQuality":{"Country":1.0,"State":1.0,"County":1.0,"City":1.0,"Street":[1.0],"HouseNumber":1.0,"PostalCode":1.0},"MatchType":"interpolated","Location":{"LocationId":"NT_Y6n0n81FFrwe.BJTksRq8A_yID","LocationType":"point","DisplayPosition":{"Latitude":50.02784,"Longitude":4.01538},"MapView":{"TopLeft":{"Latitude":50.0289642,"Longitude":4.0136301},"BottomRight":{"Latitude":50.0267158,"Longitude":4.0171299}},"Address":{"Label":"22 Rue de Feron, 59212 Wignehies, France","Country":"FRA","State":"Hauts-de-France","County":"Nord","City":"Wignehies","Street":"Rue de Feron","HouseNumber":"22","PostalCode":"59212","AdditionalData":[{"value":"France","key":"CountryName"},{"value":"Hauts-de-France","key":"StateName"},{"value":"Nord","key":"CountyName"}]},"MapReference":{"ReferenceId":"1222632566","Spot":0.83,"SideOfStreet":"left","CountryId":"20000001","StateId":"20000002","CountyId":"20000003","CityId":"20028020","AddressId":"379751368","RoadLinkId":"540377844"}}},{"Relevance":1.0,"Distance":90.7,"MatchLevel":"houseNumber","MatchQuality":{"Country":1.0,"State":1.0,"County":1.0,"City":1.0,"Street":[1.0],"HouseNumber":1.0,"PostalCode":1.0},"MatchType":"interpolated","Location":{"LocationId":"NT_Y6n0n81FFrwe.BJTksRq8A_ycD","LocationType":"point","DisplayPosition":{"Latitude":50.02763,"Longitude":4.01533},"MapView":{"TopLeft":{"Latitude":50.0287542,"Longitude":4.0135801},"BottomRight":{"Latitude":50.0265058,"Longitude":4.0170799}},"Address":{"Label":"27 Rue de Feron, 59212 Wignehies, France","Country":"FRA","State":"Hauts-de-France","County":"Nord","City":"Wignehies","Street":"Rue de Feron","HouseNumber":"27","PostalCode":"59212","AdditionalData":[{"value":"France","key":"CountryName"},{"value":"Hauts-de-France","key":"StateName"},{"value":"Nord","key":"CountyName"}]},"MapReference":{"ReferenceId":"857349917","Spot":0.9,"SideOfStreet":"left","CountryId":"20000001","StateId":"20000002","CountyId":"20000003","CityId":"20028020","AddressId":"376271059","RoadLinkId":"234096702"}}}]}]}}