{"Response":{"MetaInfo":{"Timestamp":"2020-03-28T09:34:46.111+0000","NextPageInformation":"2"},"View":[{"_type":"SearchResultsViewType","ViewId":0,"Result":[{"Relevance":1.0,"Distance":0.0,"Direction":0.0,"MatchLevel":"district","MatchQuality":{"Country":1.0,"State":1.0,"County":1.0,"City":1.0,"District":1.0,"PostalCode":1.0},"Location":{"LocationId":"NT_nuQHv3X2DATxQwBn8ufi4D","LocationType":"point","DisplayPosition":{"Latitude":50.073543,"Longitude":14.4006059},"MapView":{"TopLeft":{"Latitude":50.08129,"Longitude":14.3222},"BottomRight":{"Latitude":50.00556,"Longitude":14.41484}},"Address":{"Label":"Praha 5, Praha, Hlavní město Praha, Česká Republika","Country":"CZE","State":"Hlavní město Praha","County":"Hlavní město Praha","City":"Praha","District":"Praha 5","PostalCode":"150 00","AdditionalData":[{"value":"Česká Republika","key":"CountryName"},{"value":"Hlavní město Praha","key":"StateName"},{"value":"Hlavní město Praha","key":"CountyName"}]},"MapReference":{"ReferenceId":"1112069226","SideOfStreet":"neither","CountryId":"20427915","StateId":"20442647","CountyId":"20442648","CityId":"20442649","DistrictId":"20442655"}}},{"Relevance":1.0,"Distance":22.2,"MatchLevel":"street","MatchQuality":{"Country":1.0,"State":1.0,"County":1.0,"City":1.0,"District":1.0,"PostalCode":1.0},"Location":{"LocationId":"NT_MfrHBwvyu.t6cUeLpuhjsB_l_810223318_R","LocationType":"point","DisplayPosition":{"Latitude":50.07342,"Longitude":14.40036},"MapView":{"TopLeft":{"Latitude":50.07371,"Longitude":14.40011},"BottomRight":{"Latitude":50.07319,"Longitude":14.40039}},"Address":{"Label":"150 00 Praha, Česká Republika","Country":"CZE","State":"Hlavní město Praha","County":"Hlavní město Praha","City":"Praha","District":"Praha 5","PostalCode":"150 00","AdditionalData":[{"value":"Česká Republika","key":"CountryName"},{"value":"Hlavní město Praha","key":"StateName"},{"value":"Hlavní město Praha","key":"CountyName"}]},"MapReference":{"ReferenceId":"810223318","Spot":0.39,"SideOfStreet":"right","CountryId":"20427915","StateId":"20442647","CountyId":"20442648","CityId":"20442649","DistrictId":"20442655"}}},{"Relevance":1.0,"Distance":37.2,"MatchLevel":"houseNumber","MatchQuality":{"Country":1.0,"State":1.0,"County":1.0,"City":1.0,"District":1.0,"Street":[1.0],"HouseNumber":1.0,"PostalCode":1.0},"MatchType":"interpolated","Location":{"LocationId":"NT_oJAKiPh-F83On5o-NGH4YB_zIzN08SMwA","LocationType":"point","DisplayPosition":{"Latitude":50.07332,"Longitude":14.40124},"MapView":{"TopLeft":{"Latitude":50.0744442,"Longitude":14.3994885},"BottomRight":{"Latitude":50.0721958,"Longitude":14.4029915}},"Address":{"Label":"Kartouzská 3274/10, 150 00 Praha, Česká Republika","Country":"CZE","State":"Hlavní město Praha","County":"Hlavní město Praha","City":"Praha","District":"Praha 5","Street":"Kartouzská","HouseNumber":"3274/10","PostalCode":"150 00","AdditionalData":[{"value":"Česká Republika","key":"CountryName"},{"value":"Hlavní město Praha","key":"StateName"},{"value":"Hlavní město Praha","key":"CountyName"}]},"MapReference":{"ReferenceId":"913554561","Spot":0.93,"SideOfStreet":"left","CountryId":"20427915","StateId":"20442647","CountyId":"20442648","CityId":"20442649","DistrictId":"20442655","AddressId":"241260817","RoadLinkId":"271356941"}}},{"Relevance":1.0,"Distance":38.6,"MatchLevel":"street","MatchQuality":{"Country":1.0,"State":1.0,"County":1.0,"City":1.0,"District":1.0,"PostalCode":1.0},"Location":{"LocationId":"NT_MfrHBwvyu.t6cUeLpuhjsB_l_801536857_L","LocationType":"point","DisplayPosition":{"Latitude":50.0731957,"Longitude":14.4006263},"MapView":{"TopLeft":{"Latitude":50.07322,"Longitude":14.40035},"BottomRight":{"Latitude":50.07319,"Longitude":14.40108}},"Address":{"Label":"150 00 Praha, Česká Republika","Country":"CZE","State":"Hlavní město Praha","County":"Hlavní město Praha","City":"Praha","District":"Praha 5","PostalCode":"150 00","AdditionalData":[{"value":"Česká Republika","key":"CountryName"},{"value":"Hlavní město Praha","key":"StateName"},{"value":"Hlavní město Praha","key":"CountyName"}]},"MapReference":{"ReferenceId":"801536857","Spot":0.38,"SideOfStreet":"left","CountryId":"20427915","StateId":"20442647","CountyId":"20442648","CityId":"20442649","DistrictId":"20442655"}}},{"Relevance":1.0,"Distance":40.0,"MatchLevel":"street","MatchQuality":{"Country":1.0,"State":1.0,"County":1.0,"City":1.0,"District":1.0,"PostalCode":1.0},"Location":{"LocationId":"NT_MfrHBwvyu.t6cUeLpuhjsB_l_810223320_R","LocationType":"point","DisplayPosition":{"Latitude":50.07371,"Longitude":14.40011},"MapView":{"TopLeft":{"Latitude":50.07418,"Longitude":14.40011},"BottomRight":{"Latitude":50.07371,"Longitude":14.40017}},"Address":{"Label":"150 00 Praha, Česká Republika","Country":"CZE","State":"Hlavní město Praha","County":"Hlavní město Praha","City":"Praha","District":"Praha 5","PostalCode":"150 00","AdditionalData":[{"value":"Česká Republika","key":"CountryName"},{"value":"Hlavní město Praha","key":"StateName"},{"value":"Hlavní město Praha","key":"CountyName"}]},"MapReference":{"ReferenceId":"810223320","Spot":0.0,"SideOfStreet":"right","CountryId":"20427915","StateId":"20442647","CountyId":"20442648","CityId":"20442649","DistrictId":"20442655"}}},{"Relevance":1.0,"Distance":40.0,"MatchLevel":"street","MatchQuality":{"Country":1.0,"State":1.0,"County":1.0,"City":1.0,"District":1.0,"PostalCode":1.0},"Location":{"LocationId":"NT_MfrHBwvyu.t6cUeLpuhjsB_l_810223319_R","LocationType":"point","DisplayPosition":{"Latitude":50.07371,"Longitude":14.40011},"MapView":{"TopLeft":{"Latitude":50.07405,"Longitude":14.39973},"BottomRight":{"Latitude":50.07371,"Longitude":14.40011}},"Address":{"Label":"150 00 Praha, Česká Republika","Country":"CZE","State":"Hlavní město Praha","County":"Hlavní město Praha","City":"Praha","District":"Praha 5","PostalCode":"150 00","AdditionalData":[{"value":"Česká Republika","key":"CountryName"},{"value":"Hlavní město Praha","key":"StateName"},{"value":"Hlavní město Praha","key":"CountyName"}]},"MapReference":{"ReferenceId":"810223319","Spot":0.0,"SideOfStreet":"right","CountryId":"20427915","StateId":"20442647","CountyId":"20442648","CityId":"20442649","DistrictId":"20442655"}}},{"Relevance":1.0,"Distance":42.3,"MatchLevel":"street","MatchQuality":{"Country":1.0,"State":1.0,"County":1.0,"City":1.0,"District":1.0,"PostalCode":1.0},"Location":{"LocationId":"NT_MfrHBwvyu.t6cUeLpuhjsB_l_956541548_R","LocationType":"point","DisplayPosition":{"Latitude":50.073405,"Longitude":14.4000538},"MapView":{"TopLeft":{"Latitude":50.07344,"Longitude":14.40002},"BottomRight":{"Latitude":50.07317,"Longitude":14.40006}},"Address":{"Label":"150 00 Praha, Česká Republika","Country":"CZE","State":"Hlavní město Praha","County":"Hlavní město Praha","City":"Praha","District":"Praha 5","PostalCode":"150 00","AdditionalData":[{"value":"Česká Republika","key":"CountryName"},{"value":"Hlavní město Praha","key":"StateName"},{"value":"Hlavní město Praha","key":"CountyName"}]},"MapReference":{"ReferenceId":"956541548","Spot":0.82,"SideOfStreet":"right","CountryId":"20427915","StateId":"20442647","CountyId":"20442648","CityId":"20442649","DistrictId":"20442655"}}},{"Relevance":1.0,"Distance":43.3,"MatchLevel":"street","MatchQuality":{"Country":1.0,"State":1.0,"County":1.0,"City":1.0,"District":1.0,"PostalCode":1.0},"Location":{"LocationId":"NT_MfrHBwvyu.t6cUeLpuhjsB_l_956541535_L","LocationType":"point","DisplayPosition":{"Latitude":50.07319,"Longitude":14.40035},"MapView":{"TopLeft":{"Latitude":50.07319,"Longitude":14.40012},"BottomRight":{"Latitude":50.07318,"Longitude":14.40035}},"Address":{"Label":"150 00 Praha, Česká Republika","Country":"CZE","State":"Hlavní město Praha","County":"Hlavní město Praha","City":"Praha","District":"Praha 5","PostalCode":"150 00","AdditionalData":[{"value":"Česká Republika","key":"CountryName"},{"value":"Hlavní město Praha","key":"StateName"},{"value":"Hlavní město Praha","key":"CountyName"}]},"MapReference":{"ReferenceId":"956541535","Spot":1.0,"SideOfStreet":"left","CountryId":"20427915","StateId":"20442647","CountyId":"20442648","CityId":"20442649","DistrictId":"20442655"}}},{"Relevance":1.0,"Distance":43.3,"MatchLevel":"street","MatchQuality":{"Country":1.0,"State":1.0,"County":1.0,"City":1.0,"District":1.0,"PostalCode":1.0},"Location":{"LocationId":"NT_MfrHBwvyu.t6cUeLpuhjsB_l_801536853_R","LocationType":"point","DisplayPosition":{"Latitude":50.07319,"Longitude":14.40035},"MapView":{"TopLeft":{"Latitude":50.07319,"Longitude":14.40035},"BottomRight":{"Latitude":50.07313,"Longitude":14.40036}},"Address":{"Label":"150 00 Praha, Česká Republika","Country":"CZE","State":"Hlavní město Praha","County":"Hlavní město Praha","City":"Praha","District":"Praha 5","PostalCode":"150 00","AdditionalData":[{"value":"Česká Republika","key":"CountryName"},{"value":"Hlavní město Praha","key":"StateName"},{"value":"Hlavní město Praha","key":"CountyName"}]},"MapReference":{"ReferenceId":"801536853","Spot":1.0,"SideOfStreet":"right","CountryId":"20427915","StateId":"20442647","CountyId":"20442648","CityId":"20442649","DistrictId":"20442655"}}},{"Relevance":1.0,"Distance":44.5,"MatchLevel":"street","MatchQuality":{"Country":1.0,"State":1.0,"County":1.0,"City":1.0,"District":1.0,"PostalCode":1.0},"Location":{"LocationId":"NT_MfrHBwvyu.t6cUeLpuhjsB_l_749300973_R","LocationType":"point","DisplayPosition":{"Latitude":50.0731428,"Longitude":14.4006253},"MapView":{"TopLeft":{"Latitude":50.07318,"Longitude":14.40036},"BottomRight":{"Latitude":50.07308,"Longitude":14.40139}},"Address":{"Label":"150 00 Praha, Česká Republika","Country":"CZE","State":"Hlavní město Praha","County":"Hlavní město Praha","City":"Praha","District":"Praha 5","PostalCode":"150 00","AdditionalData":[{"value":"Česká Republika","key":"CountryName"},{"value":"Hlavní město Praha","key":"StateName"},{"value":"Hlavní město Praha","key":"CountyName"}]},"MapReference":{"ReferenceId":"749300973","Spot":0.83,"SideOfStreet":"right","CountryId":"20427915","StateId":"20442647","CountyId":"20442648","CityId":"20442649","DistrictId":"20442655"}}}]}]}}