{"Response":{"MetaInfo":{"Timestamp":"2020-03-28T11:44:16.923+0000","NextPageInformation":"2"},"View":[{"_type":"SearchResultsViewType","ViewId":0,"Result":[{"Relevance":1.0,"Distance":0.0,"Direction":0.0,"MatchLevel":"district","MatchQuality":{"Country":1.0,"State":1.0,"County":1.0,"City":1.0,"District":1.0,"PostalCode":1.0},"Location":{"LocationId":"NT_L99J.ZW1zz-rQCD.ckCyxA","LocationType":"point","DisplayPosition":{"Latitude":50.037587,"Longitude":12.0009741},"MapView":{"TopLeft":{"Latitude":50.04977,"Longitude":11.98723},"BottomRight":{"Latitude":50.02852,"Longitude":12.0246}},"Address":{"Label":"Wunsiedel, Bayern, Deutschland","Country":"DEU","State":"Bayern","County":"Wunsiedel im Fichtelgebirge","City":"Wunsiedel","District":"Wunsiedel","PostalCode":"95632","AdditionalData":[{"value":"Deutschland","key":"CountryName"},{"value":"Bayern","key":"StateName"},{"value":"Wunsiedel im Fichtelgebirge","key":"CountyName"}]},"MapReference":{"ReferenceId":"917432809","SideOfStreet":"neither","CountryId":"20147700","StateId":"20177250","CountyId":"20182867","CityId":"20182933","DistrictId":"20182935"}}},{"Relevance":1.0,"Distance":4.8,"MatchLevel":"houseNumber","MatchQuality":{"Country":1.0,"State":1.0,"County":1.0,"City":1.0,"District":1.0,"Street":[1.0],"HouseNumber":1.0,"PostalCode":1.0},"MatchType":"interpolated","Location":{"LocationId":"NT_qPFfBkdKSJH1WPzM-4G-CA_xQD","LocationType":"point","DisplayPosition":{"Latitude":50.0376,"Longitude":12.00091},"MapView":{"TopLeft":{"Latitude":50.0387242,"Longitude":11.9991598},"BottomRight":{"Latitude":50.0364758,"Longitude":12.0026602}},"Address":{"Label":"Maximilianstraße 14, 95632 Wunsiedel, Deutschland","Country":"DEU","State":"Bayern","County":"Wunsiedel im Fichtelgebirge","City":"Wunsiedel","District":"Wunsiedel","Street":"Maximilianstraße","HouseNumber":"14","PostalCode":"95632","AdditionalData":[{"value":"Deutschland","key":"CountryName"},{"value":"Bayern","key":"StateName"},{"value":"Wunsiedel im Fichtelgebirge","key":"CountyName"}]},"MapReference":{"ReferenceId":"545130760","Spot":0.44,"SideOfStreet":"right","CountryId":"20147700","StateId":"20177250","CountyId":"20182867","CityId":"20182933","DistrictId":"20182935","AddressId":"185776133","RoadLinkId":"32768327"}}},{"Relevance":1.0,"Distance":17.5,"MatchLevel":"houseNumber","MatchQuality":{"Country":1.0,"State":1.0,"County":1.0,"City":1.0,"District":1.0,"Street":[1.0],"HouseNumber":1.0,"PostalCode":1.0},"MatchType":"interpolated","Location":{"LocationId":"NT_EQLE.eMGMUctriltdZtZED_yA","LocationType":"point","DisplayPosition":{"Latitude":50.0373,"Longitude":12.00099},"MapView":{"TopLeft":{"Latitude":50.0384242,"Longitude":11.9992398},"BottomRight":{"Latitude":50.0361758,"Longitude":12.0027402}},"Address":{"Label":"Turmgäßchen 2, 95632 Wunsiedel, Deutschland","Country":"DEU","State":"Bayern","County":"Wunsiedel im Fichtelgebirge","City":"Wunsiedel","District":"Wunsiedel","Street":"Turmgäßchen","HouseNumber":"2","PostalCode":"95632","AdditionalData":[{"value":"Deutschland","key":"CountryName"},{"value":"Bayern","key":"StateName"},{"value":"Wunsiedel im Fichtelgebirge","key":"CountyName"}]},"MapReference":{"ReferenceId":"1262202210","Spot":0.0,"SideOfStreet":"left","CountryId":"20147700","StateId":"20177250","CountyId":"20182867","CityId":"20182933","DistrictId":"20182935","AddressId":"182165556","RoadLinkId":"587884274"}}},{"Relevance":1.0,"Distance":20.8,"MatchLevel":"houseNumber","MatchQuality":{"Country":1.0,"State":1.0,"County":1.0,"City":1.0,"District":1.0,"Street":[1.0],"HouseNumber":1.0,"PostalCode":1.0},"MatchType":"interpolated","Location":{"LocationId":"NT_EQLE.eMGMUctriltdZtZED_xA","LocationType":"point","DisplayPosition":{"Latitude":50.0373,"Longitude":12.00099},"MapView":{"TopLeft":{"Latitude":50.0384242,"Longitude":11.9992398},"BottomRight":{"Latitude":50.0361758,"Longitude":12.0027402}},"Address":{"Label":"Turmgäßchen 1, 95632 Wunsiedel, Deutschland","Country":"DEU","State":"Bayern","County":"Wunsiedel im Fichtelgebirge","City":"Wunsiedel","District":"Wunsiedel","Street":"Turmgäßchen","HouseNumber":"1","PostalCode":"95632","AdditionalData":[{"value":"Deutschland","key":"CountryName"},{"value":"Bayern","key":"StateName"},{"value":"Wunsiedel im Fichtelgebirge","key":"CountyName"}]},"MapReference":{"ReferenceId":"1262202209","Spot":1.0,"SideOfStreet":"left","CountryId":"20147700","StateId":"20177250","CountyId":"20182867","CityId":"20182933","DistrictId":"20182935","AddressId":"185364406","RoadLinkId":"587884273"}}},{"Relevance":1.0,"Distance":20.8,"MatchLevel":"street","MatchQuality":{"Country":1.0,"State":1.0,"County":1.0,"City":1.0,"District":1.0,"PostalCode":1.0},"Location":{"LocationId":"NT_XaYkBKwsypAvPHUacEEV6A_l_1262202211_R","LocationType":"point","DisplayPosition":{"Latitude":50.03741,"Longitude":12.00088},"MapView":{"TopLeft":{"Latitude":50.03743,"Longitude":12.00062},"BottomRight":{"Latitude":50.0373,"Longitude":12.00099}},"Address":{"Label":"95632 Wunsiedel, Deutschland","Country":"DEU","State":"Bayern","County":"Wunsiedel im Fichtelgebirge","City":"Wunsiedel","District":"Wunsiedel","PostalCode":"95632","AdditionalData":[{"value":"Deutschland","key":"CountryName"},{"value":"Bayern","key":"StateName"},{"value":"Wunsiedel im Fichtelgebirge","key":"CountyName"}]},"MapReference":{"ReferenceId":"1262202211","Spot":0.37,"SideOfStreet":"right","CountryId":"20147700","StateId":"20177250","CountyId":"20182867","CityId":"20182933","DistrictId":"20182935"}}},{"Relevance":1.0,"Distance":25.5,"MatchLevel":"street","MatchQuality":{"Country":1.0,"State":1.0,"County":1.0,"City":1.0,"District":1.0,"Street":[1.0],"PostalCode":1.0},"Location":{"LocationId":"NT_sraKTn8fue1cLwCtvZOMwB_l_545130762_L","LocationType":"point","DisplayPosition":{"Latitude":50.037686,"Longitude":12.0012958},"MapView":{"TopLeft":{"Latitude":50.03802,"Longitude":12.00122},"BottomRight":{"Latitude":50.03764,"Longitude":12.00131}},"Address":{"Label":"Sigmund-Wann-Straße, 95632 Wunsiedel, Deutschland","Country":"DEU","State":"Bayern","County":"Wunsiedel im Fichtelgebirge","City":"Wunsiedel","District":"Wunsiedel","Street":"Sigmund-Wann-Straße","PostalCode":"95632","AdditionalData":[{"value":"Deutschland","key":"CountryName"},{"value":"Bayern","key":"StateName"},{"value":"Wunsiedel im Fichtelgebirge","key":"CountyName"}]},"MapReference":{"ReferenceId":"545130762","Spot":0.12,"SideOfStreet":"left","CountryId":"20147700","StateId":"20177250","CountyId":"20182867","CityId":"20182933","DistrictId":"20182935"}}},{"Relevance":1.0,"Distance":28.1,"MatchLevel":"houseNumber","MatchQuality":{"Country":1.0,"State":1.0,"County":1.0,"City":1.0,"District":1.0,"Street":[1.0],"HouseNumber":1.0,"PostalCode":1.0},"MatchType":"interpolated","Location":{"LocationId":"NT_M1sy0NM4pUvEFG1zAV-uUC_yMD","LocationType":"point","DisplayPosition":{"Latitude":50.03777,"Longitude":12.00055},"MapView":{"TopLeft":{"Latitude":50.0388942,"Longitude":11.9987998},"BottomRight":{"Latitude":50.0366458,"Longitude":12.0023002}},"Address":{"Label":"Sechsämterlandstraße 23, 95632 Wunsiedel, Deutschland","Country":"DEU","State":"Bayern","County":"Wunsiedel im Fichtelgebirge","City":"Wunsiedel","District":"Wunsiedel","Street":"Sechsämterlandstraße","HouseNumber":"23","PostalCode":"95632","AdditionalData":[{"value":"Deutschland","key":"CountryName"},{"value":"Bayern","key":"StateName"},{"value":"Wunsiedel im Fichtelgebirge","key":"CountyName"}]},"MapReference":{"ReferenceId":"554345859","Spot":0.31,"SideOfStreet":"right","CountryId":"20147700","StateId":"20177250","CountyId":"20182867","CityId":"20182933","DistrictId":"20182935","AddressId":"183509158","RoadLinkId":"33642772"}}},{"Relevance":1.0,"Distance":30.1,"MatchLevel":"houseNumber","MatchQuality":{"Country":1.0,"State":1.0,"County":1.0,"City":1.0,"District":1.0,"Street":[1.0],"HouseNumber":1.0,"PostalCode":1.0},"MatchType":"interpolated","Location":{"LocationId":"NT_M1sy0NM4pUvEFG1zAV-uUC_ycD","LocationType":"point","DisplayPosition":{"Latitude":50.03732,"Longitude":12.00064},"MapView":{"TopLeft":{"Latitude":50.0384442,"Longitude":11.9988898},"BottomRight":{"Latitude":50.0361958,"Longitude":12.0023902}},"Address":{"Label":"Sechsämterlandstraße 27, 95632 Wunsiedel, Deutschland","Country":"DEU","State":"Bayern","County":"Wunsiedel im Fichtelgebirge","City":"Wunsiedel","District":"Wunsiedel","Street":"Sechsämterlandstraße","HouseNumber":"27","PostalCode":"95632","AdditionalData":[{"value":"Deutschland","key":"CountryName"},{"value":"Bayern","key":"StateName"},{"value":"Wunsiedel im Fichtelgebirge","key":"CountyName"}]},"MapReference":{"ReferenceId":"1262202207","Spot":0.18,"SideOfStreet":"right","CountryId":"20147700","StateId":"20177250","CountyId":"20182867","CityId":"20182933","DistrictId":"20182935","AddressId":"184700786","RoadLinkId":"587884271"}}},{"Relevance":1.0,"Distance":31.4,"MatchLevel":"houseNumber","MatchQuality":{"Country":1.0,"State":1.0,"County":1.0,"City":1.0,"District":1.0,"Street":[1.0],"HouseNumber":1.0,"PostalCode":1.0},"MatchType":"interpolated","Location":{"LocationId":"NT_M1sy0NM4pUvEFG1zAV-uUC_yYD","LocationType":"point","DisplayPosition":{"Latitude":50.03742,"Longitude":12.00062},"MapView":{"TopLeft":{"Latitude":50.0385442,"Longitude":11.9988698},"BottomRight":{"Latitude":50.0362958,"Longitude":12.0023702}},"Address":{"Label":"Sechsämterlandstraße 26, 95632 Wunsiedel, Deutschland","Country":"DEU","State":"Bayern","County":"Wunsiedel im Fichtelgebirge","City":"Wunsiedel","District":"Wunsiedel","Street":"Sechsämterlandstraße","HouseNumber":"26","PostalCode":"95632","AdditionalData":[{"value":"Deutschland","key":"CountryName"},{"value":"Bayern","key":"StateName"},{"value":"Wunsiedel im Fichtelgebirge","key":"CountyName"}]},"MapReference":{"ReferenceId":"1262202208","Spot":0.0,"SideOfStreet":"left","CountryId":"20147700","StateId":"20177250","CountyId":"20182867","CityId":"20182933","DistrictId":"20182935","AddressId":"183804210","RoadLinkId":"587884272"}}},{"Relevance":1.0,"Distance":34.7,"MatchLevel":"houseNumber","MatchQuality":{"Country":1.0,"State":1.0,"County":1.0,"City":1.0,"District":1.0,"Street":[1.0],"HouseNumber":1.0,"PostalCode":1.0},"MatchType":"interpolated","Location":{"LocationId":"NT_qPFfBkdKSJH1WPzM-4G-CA_yAD","LocationType":"point","DisplayPosition":{"Latitude":50.03765,"Longitude":12.00145},"MapView":{"TopLeft":{"Latitude":50.0387742,"Longitude":11.9996998},"BottomRight":{"Latitude":50.0365258,"Longitude":12.0032002}},"Address":{"Label":"Maximilianstraße 20, 95632 Wunsiedel, Deutschland","Country":"DEU","State":"Bayern","County":"Wunsiedel im Fichtelgebirge","City":"Wunsiedel","District":"Wunsiedel","Street":"Maximilianstraße","HouseNumber":"20","PostalCode":"95632","AdditionalData":[{"value":"Deutschland","key":"CountryName"},{"value":"Bayern","key":"StateName"},{"value":"Wunsiedel im Fichtelgebirge","key":"CountyName"}]},"MapReference":{"ReferenceId":"545130761","Spot":0.25,"SideOfStreet":"right","CountryId":"20147700","StateId":"20177250","CountyId":"20182867","CityId":"20182933","DistrictId":"20182935","AddressId":"184734175","RoadLinkId":"33425196"}}}]}]}}