{"Response":{"MetaInfo":{"Timestamp":"2020-03-28T11:38:52.253+0000","NextPageInformation":"2"},"View":[{"_type":"SearchResultsViewType","ViewId":0,"Result":[{"Relevance":1.0,"Distance":0.0,"Direction":0.0,"MatchLevel":"city","MatchQuality":{"Country":1.0,"State":1.0,"County":1.0,"City":1.0,"PostalCode":1.0},"Location":{"LocationId":"NT_7xcCGefx0cVVCxzaz8Y4gD","LocationType":"point","DisplayPosition":{"Latitude":50.1958601,"Longitude":4.5435481},"MapView":{"TopLeft":{"Latitude":50.23132,"Longitude":4.47643},"BottomRight":{"Latitude":50.09101,"Longitude":4.72942}},"Address":{"Label":"Philippeville, Wallonie, Belgique","Country":"BEL","State":"Wallonie","County":"Namur","City":"Philippeville","PostalCode":"5600","AdditionalData":[{"value":"Belgique","key":"CountryName"},{"value":"Wallonie","key":"StateName"},{"value":"Namur","key":"CountyName"}]},"MapReference":{"ReferenceId":"801419715","SideOfStreet":"neither","CountryId":"20128886","StateId":"20205526","CountyId":"20207338","CityId":"20207749"}}},{"Relevance":1.0,"Distance":2.6,"MatchLevel":"houseNumber","MatchQuality":{"Country":1.0,"State":1.0,"County":1.0,"City":1.0,"Street":[1.0],"HouseNumber":1.0,"PostalCode":1.0},"MatchType":"interpolated","Location":{"LocationId":"NT_jeIJXoEna70yB0EYb0M5LA_xQD","LocationType":"point","DisplayPosition":{"Latitude":50.19601,"Longitude":4.54344},"MapView":{"TopLeft":{"Latitude":50.1971342,"Longitude":4.541684},"BottomRight":{"Latitude":50.1948858,"Longitude":4.545196}},"Address":{"Label":"Place d'Armes 14, 5600 Philippeville, Belgique","Country":"BEL","State":"Wallonie","County":"Namur","City":"Philippeville","Street":"Place d'Armes","HouseNumber":"14","PostalCode":"5600","AdditionalData":[{"value":"Belgique","key":"CountryName"},{"value":"Wallonie","key":"StateName"},{"value":"Namur","key":"CountyName"}]},"MapReference":{"ReferenceId":"544989635","Spot":0.47,"SideOfStreet":"right","CountryId":"20128886","StateId":"20205526","CountyId":"20207338","CityId":"20207749","AddressId":"368608453","RoadLinkId":"30702447"}}},{"Relevance":1.0,"Distance":29.1,"MatchLevel":"houseNumber","MatchQuality":{"Country":1.0,"State":1.0,"County":1.0,"City":1.0,"Street":[1.0],"HouseNumber":1.0,"PostalCode":1.0},"MatchType":"interpolated","Location":{"LocationId":"NT_jeIJXoEna70yB0EYb0M5LA_xcD","LocationType":"point","DisplayPosition":{"Latitude":50.19596,"Longitude":4.54317},"MapView":{"TopLeft":{"Latitude":50.1970842,"Longitude":4.541414},"BottomRight":{"Latitude":50.1948358,"Longitude":4.544926}},"Address":{"Label":"Place d'Armes 17, 5600 Philippeville, Belgique","Country":"BEL","State":"Wallonie","County":"Namur","City":"Philippeville","Street":"Place d'Armes","HouseNumber":"17","PostalCode":"5600","AdditionalData":[{"value":"Belgique","key":"CountryName"},{"value":"Wallonie","key":"StateName"},{"value":"Namur","key":"CountyName"}]},"MapReference":{"ReferenceId":"544989636","Spot":0.53,"SideOfStreet":"left","CountryId":"20128886","StateId":"20205526","CountyId":"20207338","CityId":"20207749","AddressId":"455894386","RoadLinkId":"30684096"}}},{"Relevance":1.0,"Distance":30.9,"MatchLevel":"houseNumber","MatchQuality":{"Country":1.0,"State":1.0,"County":1.0,"City":1.0,"Street":[1.0],"HouseNumber":1.0,"PostalCode":1.0},"MatchType":"interpolated","Location":{"LocationId":"NT_H3i-67C3.T4TddSd30TPjD_xA","LocationType":"point","DisplayPosition":{"Latitude":50.1957,"Longitude":4.54399},"MapView":{"TopLeft":{"Latitude":50.1968242,"Longitude":4.542234},"BottomRight":{"Latitude":50.1945758,"Longitude":4.545746}},"Address":{"Label":"Rue de la Reine 1, 5600 Philippeville, Belgique","Country":"BEL","State":"Wallonie","County":"Namur","City":"Philippeville","Street":"Rue de la Reine","HouseNumber":"1","PostalCode":"5600","AdditionalData":[{"value":"Belgique","key":"CountryName"},{"value":"Wallonie","key":"StateName"},{"value":"Namur","key":"CountyName"}]},"MapReference":{"ReferenceId":"68216352","Spot":0.82,"SideOfStreet":"left","CountryId":"20128886","StateId":"20205526","CountyId":"20207338","CityId":"20207749","AddressId":"368688550","RoadLinkId":"30774107"}}},{"Relevance":1.0,"Distance":33.1,"MatchLevel":"houseNumber","MatchQuality":{"Country":1.0,"State":1.0,"County":1.0,"City":1.0,"Street":[1.0],"HouseNumber":1.0,"PostalCode":1.0},"MatchType":"interpolated","Location":{"LocationId":"NT_jeIJXoEna70yB0EYb0M5LA_xID","LocationType":"point","DisplayPosition":{"Latitude":50.19611,"Longitude":4.5438},"MapView":{"TopLeft":{"Latitude":50.1972342,"Longitude":4.542044},"BottomRight":{"Latitude":50.1949858,"Longitude":4.545556}},"Address":{"Label":"Place d'Armes 12, 5600 Philippeville, Belgique","Country":"BEL","State":"Wallonie","County":"Namur","City":"Philippeville","Street":"Place d'Armes","HouseNumber":"12","PostalCode":"5600","AdditionalData":[{"value":"Belgique","key":"CountryName"},{"value":"Wallonie","key":"StateName"},{"value":"Namur","key":"CountyName"}]},"MapReference":{"ReferenceId":"544989634","Spot":0.31,"SideOfStreet":"right","CountryId":"20128886","StateId":"20205526","CountyId":"20207338","CityId":"20207749","AddressId":"368586222","RoadLinkId":"31015417"}}},{"Relevance":1.0,"Distance":36.8,"MatchLevel":"houseNumber","MatchQuality":{"Country":1.0,"State":1.0,"County":1.0,"City":1.0,"Street":[1.0],"HouseNumber":1.0,"PostalCode":1.0},"MatchType":"interpolated","Location":{"LocationId":"NT_CW6lQg.joMvFbD1LihpOcA_yA","LocationType":"point","DisplayPosition":{"Latitude":50.19561,"Longitude":4.54314},"MapView":{"TopLeft":{"Latitude":50.1967342,"Longitude":4.541384},"BottomRight":{"Latitude":50.1944858,"Longitude":4.544896}},"Address":{"Label":"Rue de la Roche 2, 5600 Philippeville, Belgique","Country":"BEL","State":"Wallonie","County":"Namur","City":"Philippeville","Street":"Rue de la Roche","HouseNumber":"2","PostalCode":"5600","AdditionalData":[{"value":"Belgique","key":"CountryName"},{"value":"Wallonie","key":"StateName"},{"value":"Namur","key":"CountyName"}]},"MapReference":{"ReferenceId":"60038083","Spot":0.4,"SideOfStreet":"right","CountryId":"20128886","StateId":"20205526","CountyId":"20207338","CityId":"20207749","AddressId":"368750178","RoadLinkId":"30989089"}}},{"Relevance":1.0,"Distance":41.9,"MatchLevel":"houseNumber","MatchQuality":{"Country":1.0,"State":1.0,"County":1.0,"City":1.0,"Street":[1.0],"HouseNumber":1.0,"PostalCode":1.0},"MatchType":"interpolated","Location":{"LocationId":"NT_jeIJXoEna70yB0EYb0M5LA_xgD","LocationType":"point","DisplayPosition":{"Latitude":50.19607,"Longitude":4.54306},"MapView":{"TopLeft":{"Latitude":50.1971942,"Longitude":4.541304},"BottomRight":{"Latitude":50.1949458,"Longitude":4.544816}},"Address":{"Label":"Place d'Armes 18, 5600 Philippeville, Belgique","Country":"BEL","State":"Wallonie","County":"Namur","City":"Philippeville","Street":"Place d'Armes","HouseNumber":"18","PostalCode":"5600","AdditionalData":[{"value":"Belgique","key":"CountryName"},{"value":"Wallonie","key":"StateName"},{"value":"Namur","key":"CountyName"}]},"MapReference":{"ReferenceId":"544989637","Spot":0.37,"SideOfStreet":"left","CountryId":"20128886","StateId":"20205526","CountyId":"20207338","CityId":"20207749","AddressId":"368623803","RoadLinkId":"30877179"}}},{"Relevance":1.0,"Distance":45.5,"MatchLevel":"houseNumber","MatchQuality":{"Country":1.0,"State":1.0,"County":1.0,"City":1.0,"Street":[1.0],"HouseNumber":1.0,"PostalCode":1.0},"MatchType":"interpolated","Location":{"LocationId":"NT_9NwHugea9LUri.nD6VU-gD_yIE","LocationType":"point","DisplayPosition":{"Latitude":50.19589,"Longitude":4.54286},"MapView":{"TopLeft":{"Latitude":50.1970142,"Longitude":4.541104},"BottomRight":{"Latitude":50.1947658,"Longitude":4.544616}},"Address":{"Label":"Rue du Moulin 2B, 5600 Philippeville, Belgique","Country":"BEL","State":"Wallonie","County":"Namur","City":"Philippeville","Street":"Rue du Moulin","HouseNumber":"2B","PostalCode":"5600","AdditionalData":[{"value":"Belgique","key":"CountryName"},{"value":"Wallonie","key":"StateName"},{"value":"Namur","key":"CountyName"}]},"MapReference":{"ReferenceId":"60038265","Spot":0.79,"SideOfStreet":"right","CountryId":"20128886","StateId":"20205526","CountyId":"20207338","CityId":"20207749","AddressId":"368549048","RoadLinkId":"30236098"}}},{"Relevance":1.0,"Distance":52.8,"MatchLevel":"street","MatchQuality":{"Country":1.0,"State":1.0,"County":1.0,"City":1.0,"Street":[1.0],"PostalCode":1.0},"Location":{"LocationId":"NT_xpfzqJv.LM829yBHstn.5D_l_801419715_L","LocationType":"point","DisplayPosition":{"Latitude":50.19621,"Longitude":4.54405},"MapView":{"TopLeft":{"Latitude":50.19621,"Longitude":4.54405},"BottomRight":{"Latitude":50.19612,"Longitude":4.54437}},"Address":{"Label":"Rue Église Saint Philippe, 5600 Philippeville, Belgique","Country":"BEL","State":"Wallonie","County":"Namur","City":"Philippeville","Street":"Rue Église Saint Philippe","PostalCode":"5600","AdditionalData":[{"value":"Belgique","key":"CountryName"},{"value":"Wallonie","key":"StateName"},{"value":"Namur","key":"CountyName"}]},"MapReference":{"ReferenceId":"801419715","Spot":1.0,"SideOfStreet":"left","CountryId":"20128886","StateId":"20205526","CountyId":"20207338","CityId":"20207749"}}},{"Relevance":1.0,"Distance":54.9,"MatchLevel":"houseNumber","MatchQuality":{"Country":1.0,"State":1.0,"County":1.0,"City":1.0,"Street":[1.0],"HouseNumber":1.0,"PostalCode":1.0},"MatchType":"interpolated","Location":{"LocationId":"NT_jeIJXoEna70yB0EYb0M5LA_5A","LocationType":"point","DisplayPosition":{"Latitude":50.19624,"Longitude":4.54404},"MapView":{"TopLeft":{"Latitude":50.1973642,"Longitude":4.542284},"BottomRight":{"Latitude":50.1951158,"Longitude":4.545796}},"Address":{"Label":"Place d'Armes 9, 5600 Philippeville, Belgique","Country":"BEL","State":"Wallonie","County":"Namur","City":"Philippeville","Street":"Place d'Armes","HouseNumber":"9","PostalCode":"5600","AdditionalData":[{"value":"Belgique","key":"CountryName"},{"value":"Wallonie","key":"StateName"},{"value":"Namur","key":"CountyName"}]},"MapReference":{"ReferenceId":"544989633","Spot":0.45,"SideOfStreet":"right","CountryId":"20128886","StateId":"20205526","CountyId":"20207338","CityId":"20207749","AddressId":"368593034","RoadLinkId":"30266245"}}}]}]}}