{"Response":{"MetaInfo":{"Timestamp":"2020-03-28T10:34:30.590+0000","NextPageInformation":"2"},"View":[{"_type":"SearchResultsViewType","ViewId":0,"Result":[{"Relevance":1.0,"Distance":0.0,"Direction":0.0,"MatchLevel":"district","MatchQuality":{"Country":1.0,"State":1.0,"County":1.0,"City":1.0,"District":1.0,"PostalCode":1.0},"Location":{"LocationId":"NT_GpJGlyF7cCb581xyufRpdB","LocationType":"point","DisplayPosition":{"Latitude":50.1563366,"Longitude":-5.0865302},"MapView":{"TopLeft":{"Latitude":50.16521,"Longitude":-5.10382},"BottomRight":{"Latitude":50.13789,"Longitude":-5.0418}},"Address":{"Label":"Falmouth, England, United Kingdom","Country":"GBR","State":"England","County":"Cornwall","City":"Falmouth","District":"Falmouth","PostalCode":"TR11 3","AdditionalData":[{"value":"United Kingdom","key":"CountryName"},{"value":"England","key":"StateName"},{"value":"Cornwall","key":"CountyName"}]},"MapReference":{"ReferenceId":"26842374","SideOfStreet":"neither","StateId":"20248595","CountyId":"20352622","CityId":"20352817","DistrictId":"20352818"}}},{"Relevance":1.0,"Distance":2.0,"MatchLevel":"houseNumber","MatchQuality":{"Country":1.0,"State":1.0,"County":1.0,"City":1.0,"District":1.0,"Street":[1.0],"HouseNumber":1.0,"PostalCode":1.0},"MatchType":"interpolated","Location":{"LocationId":"NT_gNG3vIpego40lQPPXWRlMB_l_26640092_R_xMD","LocationType":"point","DisplayPosition":{"Latitude":50.1564672,"Longitude":-5.0866328},"MapView":{"TopLeft":{"Latitude":50.1575914,"Longitude":-5.0883874},"BottomRight":{"Latitude":50.1553431,"Longitude":-5.0848782}},"Address":{"Label":"13 Trevaylor Road, Falmouth, TR11 2JY, United Kingdom","Country":"GBR","State":"England","County":"Cornwall","City":"Falmouth","District":"Falmouth","Street":"Trevaylor Road","HouseNumber":"13","PostalCode":"TR11 2JY","AdditionalData":[{"value":"United Kingdom","key":"CountryName"},{"value":"England","key":"StateName"},{"value":"Cornwall","key":"CountyName"}]},"MapReference":{"ReferenceId":"26640092","Spot":0.46,"SideOfStreet":"right","StateId":"20248595","CountyId":"20352622","CityId":"20352817","DistrictId":"20352818"}}},{"Relevance":1.0,"Distance":24.6,"MatchLevel":"postalCode","MatchQuality":{"PostalCode":1.0},"MatchType":"interpolated","Location":{"LocationId":"NT_gNG3vIpego40lQPPXWRlMB_l_26640092_R_xMD","LocationType":"point","DisplayPosition":{"Latitude":50.15655,"Longitude":-5.08662},"MapView":{"TopLeft":{"Latitude":50.1655432,"Longitude":-5.1006567},"BottomRight":{"Latitude":50.1475568,"Longitude":-5.0725833}},"Address":{"Label":"TR11 2JY, Falmouth, England, United Kingdom","Country":"GBR","State":"England","County":"Cornwall","City":"Falmouth","PostalCode":"TR11 2JY","AdditionalData":[{"value":"United Kingdom","key":"CountryName"},{"value":"England","key":"StateName"},{"value":"Cornwall","key":"CountyName"}]},"MapReference":{"ReferenceId":"26640092","Spot":0.46,"SideOfStreet":"neither","StateId":"20248595","CountyId":"20352622","CityId":"20352817"}}},{"Relevance":1.0,"Distance":64.0,"MatchLevel":"houseNumber","MatchQuality":{"Country":1.0,"State":1.0,"County":1.0,"City":1.0,"District":1.0,"Street":[1.0],"HouseNumber":1.0,"PostalCode":1.0},"MatchType":"interpolated","Location":{"LocationId":"NT_kiAOUGC6zyEH8X-f8aTePB_l_26640058_R_2A","LocationType":"point","DisplayPosition":{"Latitude":50.156832,"Longitude":-5.087296},"MapView":{"TopLeft":{"Latitude":50.1579562,"Longitude":-5.0890506},"BottomRight":{"Latitude":50.1557079,"Longitude":-5.0855414}},"Address":{"Label":"6 Trelissick Road, Falmouth, TR11 2JT, United Kingdom","Country":"GBR","State":"England","County":"Cornwall","City":"Falmouth","District":"Falmouth","Street":"Trelissick Road","HouseNumber":"6","PostalCode":"TR11 2JT","AdditionalData":[{"value":"United Kingdom","key":"CountryName"},{"value":"England","key":"StateName"},{"value":"Cornwall","key":"CountyName"}]},"MapReference":{"ReferenceId":"26640058","Spot":0.63,"SideOfStreet":"right","StateId":"20248595","CountyId":"20352622","CityId":"20352817","DistrictId":"20352818"}}},{"Relevance":1.0,"Distance":69.8,"MatchLevel":"houseNumber","MatchQuality":{"Country":1.0,"State":1.0,"County":1.0,"City":1.0,"District":1.0,"Street":[1.0],"HouseNumber":1.0,"PostalCode":1.0},"MatchType":"interpolated","Location":{"LocationId":"NT_kiAOUGC6zyEH8X-f8aTePB_l_26640032_R_3A","LocationType":"point","DisplayPosition":{"Latitude":50.15705,"Longitude":-5.08695},"MapView":{"TopLeft":{"Latitude":50.1581742,"Longitude":-5.0887046},"BottomRight":{"Latitude":50.1559259,"Longitude":-5.0851954}},"Address":{"Label":"7 Trelissick Road, Falmouth, TR11 2JT, United Kingdom","Country":"GBR","State":"England","County":"Cornwall","City":"Falmouth","District":"Falmouth","Street":"Trelissick Road","HouseNumber":"7","PostalCode":"TR11 2JT","AdditionalData":[{"value":"United Kingdom","key":"CountryName"},{"value":"England","key":"StateName"},{"value":"Cornwall","key":"CountyName"}]},"MapReference":{"ReferenceId":"26640032","Spot":0.28,"SideOfStreet":"right","StateId":"20248595","CountyId":"20352622","CityId":"20352817","DistrictId":"20352818"}}},{"Relevance":1.0,"Distance":75.7,"MatchLevel":"postalCode","MatchQuality":{"PostalCode":1.0},"MatchType":"interpolated","Location":{"LocationId":"NT_kiAOUGC6zyEH8X-f8aTePB_l_26640032_R_3A","LocationType":"point","DisplayPosition":{"Latitude":50.15693,"Longitude":-5.08705},"MapView":{"TopLeft":{"Latitude":50.1659232,"Longitude":-5.1010868},"BottomRight":{"Latitude":50.1479368,"Longitude":-5.0730132}},"Address":{"Label":"TR11 2JT, Falmouth, England, United Kingdom","Country":"GBR","State":"England","County":"Cornwall","City":"Falmouth","PostalCode":"TR11 2JT","AdditionalData":[{"value":"United Kingdom","key":"CountryName"},{"value":"England","key":"StateName"},{"value":"Cornwall","key":"CountyName"}]},"MapReference":{"ReferenceId":"26640032","Spot":0.28,"SideOfStreet":"neither","StateId":"20248595","CountyId":"20352622","CityId":"20352817"}}},{"Relevance":1.0,"Distance":80.9,"MatchLevel":"street","MatchQuality":{"Country":1.0,"State":1.0,"County":1.0,"City":1.0,"District":1.0,"PostalCode":1.0},"Location":{"LocationId":"NT_290rfnGzpiMZPelEBLmJbD_l_26640068_R","LocationType":"point","DisplayPosition":{"Latitude":50.15658,"Longitude":-5.0876},"MapView":{"TopLeft":{"Latitude":50.15663,"Longitude":-5.08766},"BottomRight":{"Latitude":50.15651,"Longitude":-5.0876}},"Address":{"Label":"Falmouth, TR11 2, United Kingdom","Country":"GBR","State":"England","County":"Cornwall","City":"Falmouth","District":"Falmouth","PostalCode":"TR11 2","AdditionalData":[{"value":"United Kingdom","key":"CountryName"},{"value":"England","key":"StateName"},{"value":"Cornwall","key":"CountyName"}]},"MapReference":{"ReferenceId":"26640068","Spot":0.62,"SideOfStreet":"right","StateId":"20248595","CountyId":"20352622","CityId":"20352817","DistrictId":"20352818"}}},{"Relevance":1.0,"Distance":82.8,"MatchLevel":"street","MatchQuality":{"Country":1.0,"State":1.0,"County":1.0,"City":1.0,"District":1.0,"PostalCode":1.0},"Location":{"LocationId":"NT_290rfnGzpiMZPelEBLmJbD_l_26640069_L","LocationType":"point","DisplayPosition":{"Latitude":50.15651,"Longitude":-5.08766},"MapView":{"TopLeft":{"Latitude":50.15653,"Longitude":-5.0878},"BottomRight":{"Latitude":50.1565,"Longitude":-5.08766}},"Address":{"Label":"Falmouth, TR11 2, United Kingdom","Country":"GBR","State":"England","County":"Cornwall","City":"Falmouth","District":"Falmouth","PostalCode":"TR11 2","AdditionalData":[{"value":"United Kingdom","key":"CountryName"},{"value":"England","key":"StateName"},{"value":"Cornwall","key":"CountyName"}]},"MapReference":{"ReferenceId":"26640069","Spot":0.0,"SideOfStreet":"left","StateId":"20248595","CountyId":"20352622","CityId":"20352817","DistrictId":"20352818"}}},{"Relevance":1.0,"Distance":84.9,"MatchLevel":"street","MatchQuality":{"Country":1.0,"State":1.0,"County":1.0,"City":1.0,"District":1.0,"PostalCode":1.0},"Location":{"LocationId":"NT_290rfnGzpiMZPelEBLmJbD_l_26640059_L","LocationType":"point","DisplayPosition":{"Latitude":50.15663,"Longitude":-5.08763},"MapView":{"TopLeft":{"Latitude":50.15665,"Longitude":-5.08779},"BottomRight":{"Latitude":50.15663,"Longitude":-5.08763}},"Address":{"Label":"Falmouth, TR11 2, United Kingdom","Country":"GBR","State":"England","County":"Cornwall","City":"Falmouth","District":"Falmouth","PostalCode":"TR11 2","AdditionalData":[{"value":"United Kingdom","key":"CountryName"},{"value":"England","key":"StateName"},{"value":"Cornwall","key":"CountyName"}]},"MapReference":{"ReferenceId":"26640059","Spot":1.0,"SideOfStreet":"left","StateId":"20248595","CountyId":"20352622","CityId":"20352817","DistrictId":"20352818"}}},{"Relevance":1.0,"Distance":86.8,"MatchLevel":"houseNumber","MatchQuality":{"Country":1.0,"State":1.0,"County":1.0,"City":1.0,"District":1.0,"Street":[1.0],"HouseNumber":1.0,"PostalCode":1.0},"MatchType":"interpolated","Location":{"LocationId":"NT_Pexafna6xsRZGH4xf6QpID_l_26640033_L_yA","LocationType":"point","DisplayPosition":{"Latitude":50.1570501,"Longitude":-5.0872501},"MapView":{"TopLeft":{"Latitude":50.1581742,"Longitude":-5.0890048},"BottomRight":{"Latitude":50.1559259,"Longitude":-5.0854955}},"Address":{"Label":"2 Trevarth Road, Falmouth, TR11 2, United Kingdom","Country":"GBR","State":"England","County":"Cornwall","City":"Falmouth","District":"Falmouth","Street":"Trevarth Road","HouseNumber":"2","PostalCode":"TR11 2","AdditionalData":[{"value":"United Kingdom","key":"CountryName"},{"value":"England","key":"StateName"},{"value":"Cornwall","key":"CountyName"}]},"MapReference":{"ReferenceId":"26640033","Spot":0.07,"SideOfStreet":"left","StateId":"20248595","CountyId":"20352622","CityId":"20352817","DistrictId":"20352818"}}}]}]}}