{"Response":{"MetaInfo":{"Timestamp":"2020-03-28T10:13:11.219+0000","NextPageInformation":"2"},"View":[{"_type":"SearchResultsViewType","ViewId":0,"Result":[{"Relevance":1.0,"Distance":0.0,"Direction":0.0,"MatchLevel":"district","MatchQuality":{"Country":1.0,"State":1.0,"County":1.0,"City":1.0,"District":1.0,"PostalCode":1.0},"Location":{"LocationId":"NT_z2KKLtP8xjFRu75B-IlXCC","LocationType":"point","DisplayPosition":{"Latitude":50.1527111,"Longitude":21.9592254},"MapView":{"TopLeft":{"Latitude":50.17446,"Longitude":21.93223},"BottomRight":{"Latitude":50.13469,"Longitude":21.99517}},"Address":{"Label":"Głogów Małopolski, Woj. Podkarpackie, Polska","Country":"POL","State":"Woj. Podkarpackie","County":"Powiat Rzeszowski","City":"Głogów Małopolski","District":"Głogów Małopolski","PostalCode":"36-060","AdditionalData":[{"value":"Polska","key":"CountryName"},{"value":"Woj. Podkarpackie","key":"StateName"},{"value":"Powiat Rzeszowski","key":"CountyName"}]},"MapReference":{"ReferenceId":"594512267","SideOfStreet":"neither","CountryId":"20624059","StateId":"20628101","CountyId":"20628372","CityId":"20628381","DistrictId":"20691703"}}},{"Relevance":1.0,"Distance":37.5,"MatchLevel":"houseNumber","MatchQuality":{"Country":1.0,"State":1.0,"County":1.0,"City":1.0,"District":1.0,"Street":[1.0],"HouseNumber":1.0,"PostalCode":1.0},"MatchType":"interpolated","Location":{"LocationId":"NT_Xfxz-WW3uCJI9KuNQzOJAD_0A","LocationType":"point","DisplayPosition":{"Latitude":50.15267,"Longitude":21.95856},"MapView":{"TopLeft":{"Latitude":50.1537942,"Longitude":21.9568056},"BottomRight":{"Latitude":50.1515458,"Longitude":21.9603144}},"Address":{"Label":"ulica Fabryczna 4, 36-060 Głogów Małopolski, Polska","Country":"POL","State":"Woj. Podkarpackie","County":"Powiat Rzeszowski","City":"Głogów Małopolski","District":"Głogów Małopolski","Street":"ulica Fabryczna","HouseNumber":"4","PostalCode":"36-060","AdditionalData":[{"value":"Polska","key":"CountryName"},{"value":"Woj. Podkarpackie","key":"StateName"},{"value":"Powiat Rzeszowski","key":"CountyName"}]},"MapReference":{"ReferenceId":"1167299172","Spot":0.82,"SideOfStreet":"right","CountryId":"20624059","StateId":"20628101","CountyId":"20628372","CityId":"20628381","DistrictId":"20691703","AddressId":"701901222","RoadLinkId":"473911726"}}},{"Relevance":1.0,"Distance":61.7,"MatchLevel":"street","MatchQuality":{"Country":1.0,"State":1.0,"County":1.0,"City":1.0,"District":1.0,"Street":[1.0],"PostalCode":1.0},"Location":{"LocationId":"NT_Xfxz-WW3uCJI9KuNQzOJAD_l_1167299177_R","LocationType":"point","DisplayPosition":{"Latitude":50.15288,"Longitude":21.9584},"MapView":{"TopLeft":{"Latitude":50.15312,"Longitude":21.95827},"BottomRight":{"Latitude":50.15288,"Longitude":21.9584}},"Address":{"Label":"ulica Fabryczna, 36-060 Głogów Małopolski, Polska","Country":"POL","State":"Woj. Podkarpackie","County":"Powiat Rzeszowski","City":"Głogów Małopolski","District":"Głogów Małopolski","Street":"ulica Fabryczna","PostalCode":"36-060","AdditionalData":[{"value":"Polska","key":"CountryName"},{"value":"Woj. Podkarpackie","key":"StateName"},{"value":"Powiat Rzeszowski","key":"CountyName"}]},"MapReference":{"ReferenceId":"1167299177","Spot":0.0,"SideOfStreet":"right","CountryId":"20624059","StateId":"20628101","CountyId":"20628372","CityId":"20628381","DistrictId":"20691703"}}},{"Relevance":1.0,"Distance":61.7,"MatchLevel":"street","MatchQuality":{"Country":1.0,"State":1.0,"County":1.0,"City":1.0,"District":1.0,"PostalCode":1.0},"Location":{"LocationId":"NT_GagYNoeQ12zl.GGBBqBSPD_l_1167299173_R","LocationType":"point","DisplayPosition":{"Latitude":50.15288,"Longitude":21.9584},"MapView":{"TopLeft":{"Latitude":50.15288,"Longitude":21.95772},"BottomRight":{"Latitude":50.1527,"Longitude":21.9584}},"Address":{"Label":"36-060 Głogów Małopolski, Polska","Country":"POL","State":"Woj. Podkarpackie","County":"Powiat Rzeszowski","City":"Głogów Małopolski","District":"Głogów Małopolski","PostalCode":"36-060","AdditionalData":[{"value":"Polska","key":"CountryName"},{"value":"Woj. Podkarpackie","key":"StateName"},{"value":"Powiat Rzeszowski","key":"CountyName"}]},"MapReference":{"ReferenceId":"1167299173","Spot":1.0,"SideOfStreet":"right","CountryId":"20624059","StateId":"20628101","CountyId":"20628372","CityId":"20628381","DistrictId":"20691703"}}},{"Relevance":1.0,"Distance":67.4,"MatchLevel":"street","MatchQuality":{"Country":1.0,"State":1.0,"County":1.0,"City":1.0,"District":1.0,"Street":[1.0],"PostalCode":1.0},"Location":{"LocationId":"NT_Xfxz-WW3uCJI9KuNQzOJAD_l_1167299164_L","LocationType":"point","DisplayPosition":{"Latitude":50.15218,"Longitude":21.95968},"MapView":{"TopLeft":{"Latitude":50.15218,"Longitude":21.95968},"BottomRight":{"Latitude":50.15207,"Longitude":21.95977}},"Address":{"Label":"ulica Fabryczna, 36-060 Głogów Małopolski, Polska","Country":"POL","State":"Woj. Podkarpackie","County":"Powiat Rzeszowski","City":"Głogów Małopolski","District":"Głogów Małopolski","Street":"ulica Fabryczna","PostalCode":"36-060","AdditionalData":[{"value":"Polska","key":"CountryName"},{"value":"Woj. Podkarpackie","key":"StateName"},{"value":"Powiat Rzeszowski","key":"CountyName"}]},"MapReference":{"ReferenceId":"1167299164","Spot":1.0,"SideOfStreet":"left","CountryId":"20624059","StateId":"20628101","CountyId":"20628372","CityId":"20628381","DistrictId":"20691703"}}},{"Relevance":1.0,"Distance":67.4,"MatchLevel":"street","MatchQuality":{"Country":1.0,"State":1.0,"County":1.0,"City":1.0,"District":1.0,"PostalCode":1.0},"Location":{"LocationId":"NT_GagYNoeQ12zl.GGBBqBSPD_l_1167299181_L","LocationType":"point","DisplayPosition":{"Latitude":50.15218,"Longitude":21.95968},"MapView":{"TopLeft":{"Latitude":50.1526,"Longitude":21.95968},"BottomRight":{"Latitude":50.15218,"Longitude":21.96022}},"Address":{"Label":"36-060 Głogów Małopolski, Polska","Country":"POL","State":"Woj. Podkarpackie","County":"Powiat Rzeszowski","City":"Głogów Małopolski","District":"Głogów Małopolski","PostalCode":"36-060","AdditionalData":[{"value":"Polska","key":"CountryName"},{"value":"Woj. Podkarpackie","key":"StateName"},{"value":"Powiat Rzeszowski","key":"CountyName"}]},"MapReference":{"ReferenceId":"1167299181","Spot":0.0,"SideOfStreet":"left","CountryId":"20624059","StateId":"20628101","CountyId":"20628372","CityId":"20628381","DistrictId":"20691703"}}},{"Relevance":1.0,"Distance":68.7,"MatchLevel":"street","MatchQuality":{"Country":1.0,"State":1.0,"County":1.0,"City":1.0,"District":1.0,"PostalCode":1.0},"Location":{"LocationId":"NT_GagYNoeQ12zl.GGBBqBSPD_l_1167299179_R","LocationType":"point","DisplayPosition":{"Latitude":50.1533207,"Longitude":21.959073},"MapView":{"TopLeft":{"Latitude":50.15335,"Longitude":21.95827},"BottomRight":{"Latitude":50.15312,"Longitude":21.95919}},"Address":{"Label":"36-060 Głogów Małopolski, Polska","Country":"POL","State":"Woj. Podkarpackie","County":"Powiat Rzeszowski","City":"Głogów Małopolski","District":"Głogów Małopolski","PostalCode":"36-060","AdditionalData":[{"value":"Polska","key":"CountryName"},{"value":"Woj. Podkarpackie","key":"StateName"},{"value":"Powiat Rzeszowski","key":"CountyName"}]},"MapReference":{"ReferenceId":"1167299179","Spot":0.87,"SideOfStreet":"right","CountryId":"20624059","StateId":"20628101","CountyId":"20628372","CityId":"20628381","DistrictId":"20691703"}}},{"Relevance":1.0,"Distance":69.2,"MatchLevel":"houseNumber","MatchQuality":{"Country":1.0,"State":1.0,"County":1.0,"City":1.0,"District":1.0,"Street":[1.0],"HouseNumber":1.0,"PostalCode":1.0},"MatchType":"interpolated","Location":{"LocationId":"NT_9xYjxhZH8HSs.7CpbDwGeA_zA","LocationType":"point","DisplayPosition":{"Latitude":50.15334,"Longitude":21.95977},"MapView":{"TopLeft":{"Latitude":50.1544642,"Longitude":21.9580155},"BottomRight":{"Latitude":50.1522158,"Longitude":21.9615245}},"Address":{"Label":"ulica kard. Stefana Wyszyńskiego 3, 36-060 Głogów Małopolski, Polska","Country":"POL","State":"Woj. Podkarpackie","County":"Powiat Rzeszowski","City":"Głogów Małopolski","District":"Głogów Małopolski","Street":"ulica kard. Stefana Wyszyńskiego","HouseNumber":"3","PostalCode":"36-060","AdditionalData":[{"value":"Polska","key":"CountryName"},{"value":"Woj. Podkarpackie","key":"StateName"},{"value":"Powiat Rzeszowski","key":"CountyName"}]},"MapReference":{"ReferenceId":"1167299152","Spot":0.01,"SideOfStreet":"left","CountryId":"20624059","StateId":"20628101","CountyId":"20628372","CityId":"20628381","DistrictId":"20691703","AddressId":"701893035","RoadLinkId":"473911706"}}},{"Relevance":1.0,"Distance":71.4,"MatchLevel":"houseNumber","MatchQuality":{"Country":1.0,"State":1.0,"County":1.0,"City":1.0,"District":1.0,"Street":[1.0],"HouseNumber":1.0,"PostalCode":1.0},"MatchType":"interpolated","Location":{"LocationId":"NT_9xYjxhZH8HSs.7CpbDwGeA_xA","LocationType":"point","DisplayPosition":{"Latitude":50.15302,"Longitude":21.96041},"MapView":{"TopLeft":{"Latitude":50.1541442,"Longitude":21.9586555},"BottomRight":{"Latitude":50.1518958,"Longitude":21.9621645}},"Address":{"Label":"ulica kard. Stefana Wyszyńskiego 1, 36-060 Głogów Małopolski, Polska","Country":"POL","State":"Woj. Podkarpackie","County":"Powiat Rzeszowski","City":"Głogów Małopolski","District":"Głogów Małopolski","Street":"ulica kard. Stefana Wyszyńskiego","HouseNumber":"1","PostalCode":"36-060","AdditionalData":[{"value":"Polska","key":"CountryName"},{"value":"Woj. Podkarpackie","key":"StateName"},{"value":"Powiat Rzeszowski","key":"CountyName"}]},"MapReference":{"ReferenceId":"1167299151","Spot":0.5,"SideOfStreet":"left","CountryId":"20624059","StateId":"20628101","CountyId":"20628372","CityId":"20628381","DistrictId":"20691703","AddressId":"701893036","RoadLinkId":"473911705"}}},{"Relevance":1.0,"Distance":79.4,"MatchLevel":"street","MatchQuality":{"Country":1.0,"State":1.0,"County":1.0,"City":1.0,"District":1.0,"PostalCode":1.0},"Location":{"LocationId":"NT_GagYNoeQ12zl.GGBBqBSPD_l_1167299155_R","LocationType":"point","DisplayPosition":{"Latitude":50.15333,"Longitude":21.95978},"MapView":{"TopLeft":{"Latitude":50.15363,"Longitude":21.95978},"BottomRight":{"Latitude":50.15333,"Longitude":21.96116}},"Address":{"Label":"36-060 Głogów Małopolski, Polska","Country":"POL","State":"Woj. Podkarpackie","County":"Powiat Rzeszowski","City":"Głogów Małopolski","District":"Głogów Małopolski","PostalCode":"36-060","AdditionalData":[{"value":"Polska","key":"CountryName"},{"value":"Woj. Podkarpackie","key":"StateName"},{"value":"Powiat Rzeszowski","key":"CountyName"}]},"MapReference":{"ReferenceId":"1167299155","Spot":0.0,"SideOfStreet":"right","CountryId":"20624059","StateId":"20628101","CountyId":"20628372","CityId":"20628381","DistrictId":"20691703"}}}]}]}}