{"Response":{"MetaInfo":{"Timestamp":"2020-03-28T09:57:41.787+0000","NextPageInformation":"2"},"View":[{"_type":"SearchResultsViewType","ViewId":0,"Result":[{"Relevance":1.0,"Distance":-48.0,"MatchLevel":"landmark","MatchQuality":{"Country":1.0,"State":1.0,"County":1.0,"City":1.0,"District":1.0,"PostalCode":1.0,"Name":1.0},"Location":{"LocationId":"NT_pfhaR-9t5RKQrVo1iilJSA","LocationType":"hospital","Name":"Szpital Rejonowy im. dr Rostka","DisplayPosition":{"Latitude":50.10214,"Longitude":18.20451},"MapView":{"TopLeft":{"Latitude":50.10385,"Longitude":18.20165},"BottomRight":{"Latitude":50.10042,"Longitude":18.20713}},"Address":{"Label":"47-400 Racibórz, Polska","Country":"POL","State":"Woj. Śląskie","County":"Powiat Raciborski","City":"Racibórz","District":"Racibórz","PostalCode":"47-400","AdditionalData":[{"value":"Polska","key":"CountryName"},{"value":"Woj. Śląskie","key":"StateName"},{"value":"Powiat Raciborski","key":"CountyName"}]},"MapReference":{"CountryId":"20624059","StateId":"20629003","CountyId":"20629252","CityId":"20629267","DistrictId":"20646801","PlaceId":"1578359774"}}},{"Relevance":1.0,"Distance":0.0,"Direction":0.0,"MatchLevel":"district","MatchQuality":{"Country":1.0,"State":1.0,"County":1.0,"City":1.0,"District":1.0,"PostalCode":1.0},"Location":{"LocationId":"NT_DrCm8oNcqQTMvj9k0CEoAD","LocationType":"point","DisplayPosition":{"Latitude":50.1024114,"Longitude":18.2033008},"MapView":{"TopLeft":{"Latitude":50.12845,"Longitude":18.15822},"BottomRight":{"Latitude":50.04854,"Longitude":18.29436}},"Address":{"Label":"Racibórz, Woj. Śląskie, Polska","Country":"POL","State":"Woj. Śląskie","County":"Powiat Raciborski","City":"Racibórz","District":"Racibórz","PostalCode":"47-400","AdditionalData":[{"value":"Polska","key":"CountryName"},{"value":"Woj. Śląskie","key":"StateName"},{"value":"Powiat Raciborski","key":"CountyName"}]},"MapReference":{"ReferenceId":"913782344","SideOfStreet":"neither","CountryId":"20624059","StateId":"20629003","CountyId":"20629252","CityId":"20629267","DistrictId":"20646801"}}},{"Relevance":1.0,"Distance":48.1,"MatchLevel":"street","MatchQuality":{"Country":1.0,"State":1.0,"County":1.0,"City":1.0,"District":1.0,"PostalCode":1.0},"Location":{"LocationId":"NT_Xc.rBJSWsw3zvyoCVEN-RB_l_746222804_R","LocationType":"point","DisplayPosition":{"Latitude":50.1027304,"Longitude":18.2028445},"MapView":{"TopLeft":{"Latitude":50.10301,"Longitude":18.20195},"BottomRight":{"Latitude":50.10176,"Longitude":18.20304}},"Address":{"Label":"47-400 Racibórz, Polska","Country":"POL","State":"Woj. Śląskie","County":"Powiat Raciborski","City":"Racibórz","District":"Racibórz","PostalCode":"47-400","AdditionalData":[{"value":"Polska","key":"CountryName"},{"value":"Woj. Śląskie","key":"StateName"},{"value":"Powiat Raciborski","key":"CountyName"}]},"MapReference":{"ReferenceId":"746222804","Spot":0.8,"SideOfStreet":"right","CountryId":"20624059","StateId":"20629003","CountyId":"20629252","CityId":"20629267","DistrictId":"20646801"}}},{"Relevance":1.0,"Distance":56.0,"MatchLevel":"street","MatchQuality":{"Country":1.0,"State":1.0,"County":1.0,"City":1.0,"District":1.0,"PostalCode":1.0},"Location":{"LocationId":"NT_Xc.rBJSWsw3zvyoCVEN-RB_l_746222807_L","LocationType":"point","DisplayPosition":{"Latitude":50.10291,"Longitude":18.20341},"MapView":{"TopLeft":{"Latitude":50.10301,"Longitude":18.20304},"BottomRight":{"Latitude":50.10291,"Longitude":18.20341}},"Address":{"Label":"47-400 Racibórz, Polska","Country":"POL","State":"Woj. Śląskie","County":"Powiat Raciborski","City":"Racibórz","District":"Racibórz","PostalCode":"47-400","AdditionalData":[{"value":"Polska","key":"CountryName"},{"value":"Woj. Śląskie","key":"StateName"},{"value":"Powiat Raciborski","key":"CountyName"}]},"MapReference":{"ReferenceId":"746222807","Spot":0.0,"SideOfStreet":"left","CountryId":"20624059","StateId":"20629003","CountyId":"20629252","CityId":"20629267","DistrictId":"20646801"}}},{"Relevance":1.0,"Distance":69.1,"MatchLevel":"street","MatchQuality":{"Country":1.0,"State":1.0,"County":1.0,"City":1.0,"District":1.0,"PostalCode":1.0},"Location":{"LocationId":"NT_Xc.rBJSWsw3zvyoCVEN-RB_l_594542036_L","LocationType":"point","DisplayPosition":{"Latitude":50.10301,"Longitude":18.20304},"MapView":{"TopLeft":{"Latitude":50.10311,"Longitude":18.20272},"BottomRight":{"Latitude":50.10301,"Longitude":18.20304}},"Address":{"Label":"47-400 Racibórz, Polska","Country":"POL","State":"Woj. Śląskie","County":"Powiat Raciborski","City":"Racibórz","District":"Racibórz","PostalCode":"47-400","AdditionalData":[{"value":"Polska","key":"CountryName"},{"value":"Woj. Śląskie","key":"StateName"},{"value":"Powiat Raciborski","key":"CountyName"}]},"MapReference":{"ReferenceId":"594542036","Spot":0.0,"SideOfStreet":"left","CountryId":"20624059","StateId":"20629003","CountyId":"20629252","CityId":"20629267","DistrictId":"20646801"}}},{"Relevance":1.0,"Distance":84.5,"MatchLevel":"street","MatchQuality":{"Country":1.0,"State":1.0,"County":1.0,"City":1.0,"District":1.0,"PostalCode":1.0},"Location":{"LocationId":"NT_Xc.rBJSWsw3zvyoCVEN-RB_l_746222803_R","LocationType":"point","DisplayPosition":{"Latitude":50.1030511,"Longitude":18.2026611},"MapView":{"TopLeft":{"Latitude":50.10311,"Longitude":18.20195},"BottomRight":{"Latitude":50.10176,"Longitude":18.20272}},"Address":{"Label":"47-400 Racibórz, Polska","Country":"POL","State":"Woj. Śląskie","County":"Powiat Raciborski","City":"Racibórz","District":"Racibórz","PostalCode":"47-400","AdditionalData":[{"value":"Polska","key":"CountryName"},{"value":"Woj. Śląskie","key":"StateName"},{"value":"Powiat Raciborski","key":"CountyName"}]},"MapReference":{"ReferenceId":"746222803","Spot":0.95,"SideOfStreet":"right","CountryId":"20624059","StateId":"20629003","CountyId":"20629252","CityId":"20629267","DistrictId":"20646801"}}},{"Relevance":1.0,"Distance":85.5,"MatchLevel":"street","MatchQuality":{"Country":1.0,"State":1.0,"County":1.0,"City":1.0,"District":1.0,"PostalCode":1.0},"Location":{"LocationId":"NT_Xc.rBJSWsw3zvyoCVEN-RB_l_1170804659_L","LocationType":"point","DisplayPosition":{"Latitude":50.1024,"Longitude":18.2045},"MapView":{"TopLeft":{"Latitude":50.10337,"Longitude":18.2045},"BottomRight":{"Latitude":50.1024,"Longitude":18.20519}},"Address":{"Label":"47-400 Racibórz, Polska","Country":"POL","State":"Woj. Śląskie","County":"Powiat Raciborski","City":"Racibórz","District":"Racibórz","PostalCode":"47-400","AdditionalData":[{"value":"Polska","key":"CountryName"},{"value":"Woj. Śląskie","key":"StateName"},{"value":"Powiat Raciborski","key":"CountyName"}]},"MapReference":{"ReferenceId":"1170804659","Spot":0.0,"SideOfStreet":"left","CountryId":"20624059","StateId":"20629003","CountyId":"20629252","CityId":"20629267","DistrictId":"20646801"}}},{"Relevance":1.0,"Distance":88.0,"MatchLevel":"street","MatchQuality":{"Country":1.0,"State":1.0,"County":1.0,"City":1.0,"District":1.0,"PostalCode":1.0},"Location":{"LocationId":"NT_Xc.rBJSWsw3zvyoCVEN-RB_l_1170804662_R","LocationType":"point","DisplayPosition":{"Latitude":50.10311,"Longitude":18.20272},"MapView":{"TopLeft":{"Latitude":50.10385,"Longitude":18.20272},"BottomRight":{"Latitude":50.10311,"Longitude":18.20468}},"Address":{"Label":"47-400 Racibórz, Polska","Country":"POL","State":"Woj. Śląskie","County":"Powiat Raciborski","City":"Racibórz","District":"Racibórz","PostalCode":"47-400","AdditionalData":[{"value":"Polska","key":"CountryName"},{"value":"Woj. Śląskie","key":"StateName"},{"value":"Powiat Raciborski","key":"CountyName"}]},"MapReference":{"ReferenceId":"1170804662","Spot":0.0,"SideOfStreet":"right","CountryId":"20624059","StateId":"20629003","CountyId":"20629252","CityId":"20629267","DistrictId":"20646801"}}},{"Relevance":1.0,"Distance":120.5,"MatchLevel":"street","MatchQuality":{"Country":1.0,"State":1.0,"County":1.0,"City":1.0,"District":1.0,"Street":[1.0],"PostalCode":1.0},"Location":{"LocationId":"NT_hm2oGlqYNt3U8FXMl9wKbD_l_1211605422_L","LocationType":"point","DisplayPosition":{"Latitude":50.10176,"Longitude":18.20195},"MapView":{"TopLeft":{"Latitude":50.10177,"Longitude":18.20145},"BottomRight":{"Latitude":50.10145,"Longitude":18.20195}},"Address":{"Label":"ulica Gamowska, 47-400 Racibórz, Polska","Country":"POL","State":"Woj. Śląskie","County":"Powiat Raciborski","City":"Racibórz","District":"Racibórz","Street":"ulica Gamowska","PostalCode":"47-400","AdditionalData":[{"value":"Polska","key":"CountryName"},{"value":"Woj. Śląskie","key":"StateName"},{"value":"Powiat Raciborski","key":"CountyName"}]},"MapReference":{"ReferenceId":"1211605422","Spot":1.0,"SideOfStreet":"left","CountryId":"20624059","StateId":"20629003","CountyId":"20629252","CityId":"20629267","DistrictId":"20646801"}}},{"Relevance":1.0,"Distance":120.5,"MatchLevel":"street","MatchQuality":{"Country":1.0,"State":1.0,"County":1.0,"City":1.0,"District":1.0,"PostalCode":1.0},"Location":{"LocationId":"NT_Xc.rBJSWsw3zvyoCVEN-RB_l_1210839708_R","LocationType":"point","DisplayPosition":{"Latitude":50.10176,"Longitude":18.20195},"MapView":{"TopLeft":{"Latitude":50.10176,"Longitude":18.2019},"BottomRight":{"Latitude":50.10162,"Longitude":18.20195}},"Address":{"Label":"47-400 Racibórz, Polska","Country":"POL","State":"Woj. Śląskie","County":"Powiat Raciborski","City":"Racibórz","District":"Racibórz","PostalCode":"47-400","AdditionalData":[{"value":"Polska","key":"CountryName"},{"value":"Woj. Śląskie","key":"StateName"},{"value":"Powiat Raciborski","key":"CountyName"}]},"MapReference":{"ReferenceId":"1210839708","Spot":1.0,"SideOfStreet":"right","CountryId":"20624059","StateId":"20629003","CountyId":"20629252","CityId":"20629267","DistrictId":"20646801"}}}]}]}}