{"Response":{"MetaInfo":{"Timestamp":"2020-03-28T11:00:46.482+0000","NextPageInformation":"2"},"View":[{"_type":"SearchResultsViewType","ViewId":0,"Result":[{"Relevance":1.0,"Distance":0.0,"Direction":0.0,"MatchLevel":"city","MatchQuality":{"Country":1.0,"State":1.0,"County":1.0,"City":1.0,"PostalCode":1.0},"Location":{"LocationId":"NT_yWw7XRBdfu6fwKuWmd3-jC","LocationType":"point","DisplayPosition":{"Latitude":50.1730118,"Longitude":8.4744331},"MapView":{"TopLeft":{"Latitude":50.17333,"Longitude":8.45178},"BottomRight":{"Latitude":50.12855,"Longitude":8.51818}},"Address":{"Label":"Bad Soden am Taunus, Hessen, Deutschland","Country":"DEU","State":"Hessen","County":"Main-Taunus-Kreis","City":"Bad Soden am Taunus","PostalCode":"65812","AdditionalData":[{"value":"Deutschland","key":"CountryName"},{"value":"Hessen","key":"StateName"},{"value":"Main-Taunus-Kreis","key":"CountyName"}]},"MapReference":{"ReferenceId":"990072655","SideOfStreet":"neither","CountryId":"20147700","StateId":"20160993","CountyId":"20161614","CityId":"20161615"}}},{"Relevance":1.0,"Distance":0.9,"MatchLevel":"landmark","MatchQuality":{"Country":1.0,"State":1.0,"Name":1.0},"Location":{"LocationId":"NT_ccUErptNxfPNin9X2OmxUA","LocationType":"woodland","Name":"Bad Sodener Stadtwald","DisplayPosition":{"Latitude":50.16532,"Longitude":8.47786},"MapView":{"TopLeft":{"Latitude":50.17333,"Longitude":8.46243},"BottomRight":{"Latitude":50.15731,"Longitude":8.50453}},"Address":{"Label":"Deutschland","Country":"DEU","State":"Hessen","AdditionalData":[{"value":"Deutschland","key":"CountryName"},{"value":"Hessen","key":"StateName"}]},"MapReference":{"CountryId":"20147700","StateId":"20160993","PlaceId":"77701677"}}},{"Relevance":1.0,"Distance":11.2,"MatchLevel":"street","MatchQuality":{"Country":1.0,"State":1.0,"County":1.0,"City":1.0,"PostalCode":1.0},"Location":{"LocationId":"NT_fG2.h32S83lTm9dsCA-ZeC_l_52372777_L","LocationType":"point","DisplayPosition":{"Latitude":50.1731116,"Longitude":8.4744512},"MapView":{"TopLeft":{"Latitude":50.17313,"Longitude":8.47423},"BottomRight":{"Latitude":50.17288,"Longitude":8.47539}},"Address":{"Label":"61462 Königstein im Taunus, Deutschland","Country":"DEU","State":"Hessen","County":"Hochtaunuskreis","City":"Königstein im Taunus","PostalCode":"61462","AdditionalData":[{"value":"Deutschland","key":"CountryName"},{"value":"Hessen","key":"StateName"},{"value":"Hochtaunuskreis","key":"CountyName"}]},"MapReference":{"ReferenceId":"52372777","Spot":0.81,"SideOfStreet":"left","CountryId":"20147700","StateId":"20160993","CountyId":"20161339","CityId":"20161361"}}},{"Relevance":1.0,"Distance":16.9,"MatchLevel":"street","MatchQuality":{"Country":1.0,"State":1.0,"County":1.0,"City":1.0,"PostalCode":1.0},"Location":{"LocationId":"NT_5vG6RB7WbGPMvvUk9X6K3C_l_52364042_R","LocationType":"point","DisplayPosition":{"Latitude":50.17309,"Longitude":8.47423},"MapView":{"TopLeft":{"Latitude":50.17309,"Longitude":8.47417},"BottomRight":{"Latitude":50.17212,"Longitude":8.47467}},"Address":{"Label":"65812 Bad Soden am Taunus, Deutschland","Country":"DEU","State":"Hessen","County":"Main-Taunus-Kreis","City":"Bad Soden am Taunus","PostalCode":"65812","AdditionalData":[{"value":"Deutschland","key":"CountryName"},{"value":"Hessen","key":"StateName"},{"value":"Main-Taunus-Kreis","key":"CountyName"}]},"MapReference":{"ReferenceId":"52364042","Spot":1.0,"SideOfStreet":"right","CountryId":"20147700","StateId":"20160993","CountyId":"20161614","CityId":"20161615"}}},{"Relevance":1.0,"Distance":35.1,"MatchLevel":"street","MatchQuality":{"Country":1.0,"State":1.0,"County":1.0,"City":1.0,"Street":[1.0],"PostalCode":1.0},"Location":{"LocationId":"NT_YiD0yDSHL80XTvU39pEWpC_l_1038336342_R","LocationType":"point","DisplayPosition":{"Latitude":50.17302,"Longitude":8.47394},"MapView":{"TopLeft":{"Latitude":50.17302,"Longitude":8.47382},"BottomRight":{"Latitude":50.17271,"Longitude":8.47394}},"Address":{"Label":"B8, 65812 Bad Soden am Taunus, Deutschland","Country":"DEU","State":"Hessen","County":"Main-Taunus-Kreis","City":"Bad Soden am Taunus","Street":"B8","PostalCode":"65812","AdditionalData":[{"value":"Deutschland","key":"CountryName"},{"value":"Hessen","key":"StateName"},{"value":"Main-Taunus-Kreis","key":"CountyName"}]},"MapReference":{"ReferenceId":"1038336342","Spot":1.0,"SideOfStreet":"right","CountryId":"20147700","StateId":"20160993","CountyId":"20161614","CityId":"20161615"}}},{"Relevance":1.0,"Distance":35.7,"MatchLevel":"street","MatchQuality":{"Country":1.0,"State":1.0,"County":1.0,"City":1.0,"Street":[1.0],"PostalCode":1.0},"Location":{"LocationId":"NT_YiD0yDSHL80XTvU39pEWpC_l_1038336343_R","LocationType":"point","DisplayPosition":{"Latitude":50.1731427,"Longitude":8.473975},"MapView":{"TopLeft":{"Latitude":50.17333,"Longitude":8.47394},"BottomRight":{"Latitude":50.17302,"Longitude":8.47403}},"Address":{"Label":"B8, 65812 Bad Soden am Taunus, Deutschland","Country":"DEU","State":"Hessen","County":"Main-Taunus-Kreis","City":"Bad Soden am Taunus","Street":"B8","PostalCode":"65812","AdditionalData":[{"value":"Deutschland","key":"CountryName"},{"value":"Hessen","key":"StateName"},{"value":"Main-Taunus-Kreis","key":"CountyName"}]},"MapReference":{"ReferenceId":"1038336343","Spot":0.4,"SideOfStreet":"right","CountryId":"20147700","StateId":"20160993","CountyId":"20161614","CityId":"20161615"}}},{"Relevance":1.0,"Distance":43.5,"MatchLevel":"street","MatchQuality":{"Country":1.0,"State":1.0,"County":1.0,"City":1.0,"PostalCode":1.0},"Location":{"LocationId":"NT_5vG6RB7WbGPMvvUk9X6K3C_l_1145409618_R","LocationType":"point","DisplayPosition":{"Latitude":50.1731693,"Longitude":8.4738732},"MapView":{"TopLeft":{"Latitude":50.1733,"Longitude":8.4719},"BottomRight":{"Latitude":50.17107,"Longitude":8.47391}},"Address":{"Label":"65812 Bad Soden am Taunus, Deutschland","Country":"DEU","State":"Hessen","County":"Main-Taunus-Kreis","City":"Bad Soden am Taunus","PostalCode":"65812","AdditionalData":[{"value":"Deutschland","key":"CountryName"},{"value":"Hessen","key":"StateName"},{"value":"Main-Taunus-Kreis","key":"CountyName"}]},"MapReference":{"ReferenceId":"1145409618","Spot":0.96,"SideOfStreet":"right","CountryId":"20147700","StateId":"20160993","CountyId":"20161614","CityId":"20161615"}}},{"Relevance":1.0,"Distance":45.6,"MatchLevel":"street","MatchQuality":{"Country":1.0,"State":1.0,"County":1.0,"City":1.0,"Street":[1.0],"PostalCode":1.0},"Location":{"LocationId":"NT_8VlpubgtPQsfaM1VNGPkpC_l_1037116169_R","LocationType":"point","DisplayPosition":{"Latitude":50.17333,"Longitude":8.47403},"MapView":{"TopLeft":{"Latitude":50.17371,"Longitude":8.47403},"BottomRight":{"Latitude":50.17333,"Longitude":8.47414}},"Address":{"Label":"Sodener Straße, 61462 Königstein im Taunus, Deutschland","Country":"DEU","State":"Hessen","County":"Hochtaunuskreis","City":"Königstein im Taunus","Street":"Sodener Straße","PostalCode":"61462","AdditionalData":[{"value":"Deutschland","key":"CountryName"},{"value":"Hessen","key":"StateName"},{"value":"Hochtaunuskreis","key":"CountyName"}]},"MapReference":{"ReferenceId":"1037116169","Spot":0.0,"SideOfStreet":"right","CountryId":"20147700","StateId":"20160993","CountyId":"20161339","CityId":"20161361"}}},{"Relevance":1.0,"Distance":49.1,"MatchLevel":"street","MatchQuality":{"Country":1.0,"State":1.0,"County":1.0,"City":1.0,"PostalCode":1.0},"Location":{"LocationId":"NT_fG2.h32S83lTm9dsCA-ZeC_l_1145409619_R","LocationType":"point","DisplayPosition":{"Latitude":50.1733,"Longitude":8.47391},"MapView":{"TopLeft":{"Latitude":50.17403,"Longitude":8.47391},"BottomRight":{"Latitude":50.1733,"Longitude":8.47408}},"Address":{"Label":"61462 Königstein im Taunus, Deutschland","Country":"DEU","State":"Hessen","County":"Hochtaunuskreis","City":"Königstein im Taunus","PostalCode":"61462","AdditionalData":[{"value":"Deutschland","key":"CountryName"},{"value":"Hessen","key":"StateName"},{"value":"Hochtaunuskreis","key":"CountyName"}]},"MapReference":{"ReferenceId":"1145409619","Spot":0.0,"SideOfStreet":"right","CountryId":"20147700","StateId":"20160993","CountyId":"20161339","CityId":"20161361"}}},{"Relevance":1.0,"Distance":55.1,"MatchLevel":"street","MatchQuality":{"Country":1.0,"State":1.0,"County":1.0,"City":1.0,"Street":[1.0],"PostalCode":1.0},"Location":{"LocationId":"NT_YiD0yDSHL80XTvU39pEWpC_l_576449500_R","LocationType":"point","DisplayPosition":{"Latitude":50.17271,"Longitude":8.47382},"MapView":{"TopLeft":{"Latitude":50.17271,"Longitude":8.47364},"BottomRight":{"Latitude":50.17241,"Longitude":8.47382}},"Address":{"Label":"B8, 65812 Bad Soden am Taunus, Deutschland","Country":"DEU","State":"Hessen","County":"Main-Taunus-Kreis","City":"Bad Soden am Taunus","Street":"B8","PostalCode":"65812","AdditionalData":[{"value":"Deutschland","key":"CountryName"},{"value":"Hessen","key":"StateName"},{"value":"Main-Taunus-Kreis","key":"CountyName"}]},"MapReference":{"ReferenceId":"576449500","Spot":1.0,"SideOfStreet":"right","CountryId":"20147700","StateId":"20160993","CountyId":"20161614","CityId":"20161615"}}}]}]}}