{"Response":{"MetaInfo":{"Timestamp":"2020-03-28T10:54:19.493+0000","NextPageInformation":"2"},"View":[{"_type":"SearchResultsViewType","ViewId":0,"Result":[{"Relevance":1.0,"Distance":0.0,"Direction":0.0,"MatchLevel":"district","MatchQuality":{"Country":1.0,"State":1.0,"County":1.0,"City":1.0,"District":1.0,"PostalCode":1.0},"Location":{"LocationId":"NT_0I7nZATnZN5f4kUcudKePA","LocationType":"point","DisplayPosition":{"Latitude":50.1262653,"Longitude":13.4422607},"MapView":{"TopLeft":{"Latitude":50.13948,"Longitude":13.43376},"BottomRight":{"Latitude":50.12447,"Longitude":13.4525}},"Address":{"Label":"Petrohrad, Ústecký kraj, Česká Republika","Country":"CZE","State":"Ústecký kraj","County":"Louny","City":"Petrohrad","District":"Petrohrad","PostalCode":"439 85","AdditionalData":[{"value":"Česká Republika","key":"CountryName"},{"value":"Ústecký kraj","key":"StateName"},{"value":"Louny","key":"CountyName"}]},"MapReference":{"ReferenceId":"845824255","SideOfStreet":"neither","CountryId":"20427915","StateId":"20446117","CountyId":"20446724","CityId":"20446854","DistrictId":"20446855"}}},{"Relevance":1.0,"Distance":15.1,"MatchLevel":"houseNumber","MatchQuality":{"Country":1.0,"State":1.0,"County":1.0,"City":1.0,"District":1.0,"Street":[1.0],"HouseNumber":1.0,"PostalCode":1.0},"MatchType":"interpolated","Location":{"LocationId":"NT_PBCblhaRBdTtb0anib.J4C_yATM","LocationType":"point","DisplayPosition":{"Latitude":50.12617,"Longitude":13.44211},"MapView":{"TopLeft":{"Latitude":50.1272942,"Longitude":13.4403565},"BottomRight":{"Latitude":50.1250458,"Longitude":13.4438635}},"Address":{"Label":"Petrohrad 201, 439 85 Petrohrad, Česká Republika","Country":"CZE","State":"Ústecký kraj","County":"Louny","City":"Petrohrad","District":"Petrohrad","Street":"Petrohrad","HouseNumber":"201","PostalCode":"439 85","AdditionalData":[{"value":"Česká Republika","key":"CountryName"},{"value":"Ústecký kraj","key":"StateName"},{"value":"Louny","key":"CountyName"}]},"MapReference":{"ReferenceId":"704792264","Spot":0.9,"SideOfStreet":"left","CountryId":"20427915","StateId":"20446117","CountyId":"20446724","CityId":"20446854","DistrictId":"20446855","AddressId":"767135420","RoadLinkId":"109923052"}}},{"Relevance":1.0,"Distance":37.3,"MatchLevel":"houseNumber","MatchQuality":{"Country":1.0,"State":1.0,"County":1.0,"City":1.0,"District":1.0,"Street":[1.0],"HouseNumber":1.0,"PostalCode":1.0},"MatchType":"interpolated","Location":{"LocationId":"NT_PBCblhaRBdTtb0anib.J4C_xA","LocationType":"point","DisplayPosition":{"Latitude":50.12649,"Longitude":13.44265},"MapView":{"TopLeft":{"Latitude":50.1276142,"Longitude":13.4408965},"BottomRight":{"Latitude":50.1253658,"Longitude":13.4444035}},"Address":{"Label":"Petrohrad 1, 439 85 Petrohrad, Česká Republika","Country":"CZE","State":"Ústecký kraj","County":"Louny","City":"Petrohrad","District":"Petrohrad","Street":"Petrohrad","HouseNumber":"1","PostalCode":"439 85","AdditionalData":[{"value":"Česká Republika","key":"CountryName"},{"value":"Ústecký kraj","key":"StateName"},{"value":"Louny","key":"CountyName"}]},"MapReference":{"ReferenceId":"704792260","Spot":0.54,"SideOfStreet":"right","CountryId":"20427915","StateId":"20446117","CountyId":"20446724","CityId":"20446854","DistrictId":"20446855","AddressId":"239640936","RoadLinkId":"111710140"}}},{"Relevance":1.0,"Distance":39.2,"MatchLevel":"street","MatchQuality":{"Country":1.0,"State":1.0,"County":1.0,"City":1.0,"District":1.0,"Street":[1.0],"PostalCode":1.0},"Location":{"LocationId":"NT_PBCblhaRBdTtb0anib.J4C_l_704792280_L","LocationType":"point","DisplayPosition":{"Latitude":50.12617,"Longitude":13.44279},"MapView":{"TopLeft":{"Latitude":50.12635,"Longitude":13.44279},"BottomRight":{"Latitude":50.1258,"Longitude":13.44321}},"Address":{"Label":"Petrohrad, 439 85 Petrohrad, Česká Republika","Country":"CZE","State":"Ústecký kraj","County":"Louny","City":"Petrohrad","District":"Petrohrad","Street":"Petrohrad","PostalCode":"439 85","AdditionalData":[{"value":"Česká Republika","key":"CountryName"},{"value":"Ústecký kraj","key":"StateName"},{"value":"Louny","key":"CountyName"}]},"MapReference":{"ReferenceId":"704792280","Spot":0.58,"SideOfStreet":"left","CountryId":"20427915","StateId":"20446117","CountyId":"20446724","CityId":"20446854","DistrictId":"20446855"}}},{"Relevance":1.0,"Distance":42.3,"MatchLevel":"street","MatchQuality":{"Country":1.0,"State":1.0,"County":1.0,"City":1.0,"District":1.0,"Street":[1.0],"PostalCode":1.0},"Location":{"LocationId":"NT_PBCblhaRBdTtb0anib.J4C_l_705576979_L","LocationType":"point","DisplayPosition":{"Latitude":50.12589,"Longitude":13.44236},"MapView":{"TopLeft":{"Latitude":50.12589,"Longitude":13.44173},"BottomRight":{"Latitude":50.12544,"Longitude":13.44236}},"Address":{"Label":"Petrohrad, 439 85 Petrohrad, Česká Republika","Country":"CZE","State":"Ústecký kraj","County":"Louny","City":"Petrohrad","District":"Petrohrad","Street":"Petrohrad","PostalCode":"439 85","AdditionalData":[{"value":"Česká Republika","key":"CountryName"},{"value":"Ústecký kraj","key":"StateName"},{"value":"Louny","key":"CountyName"}]},"MapReference":{"ReferenceId":"705576979","Spot":1.0,"SideOfStreet":"left","CountryId":"20427915","StateId":"20446117","CountyId":"20446724","CityId":"20446854","DistrictId":"20446855"}}},{"Relevance":1.0,"Distance":64.1,"MatchLevel":"street","MatchQuality":{"Country":1.0,"State":1.0,"County":1.0,"City":1.0,"District":1.0,"Street":[1.0],"PostalCode":1.0},"Location":{"LocationId":"NT_PBCblhaRBdTtb0anib.J4C_l_704792281_L","LocationType":"point","DisplayPosition":{"Latitude":50.12635,"Longitude":13.44315},"MapView":{"TopLeft":{"Latitude":50.12635,"Longitude":13.44315},"BottomRight":{"Latitude":50.12598,"Longitude":13.44358}},"Address":{"Label":"Petrohrad, 439 85 Petrohrad, Česká Republika","Country":"CZE","State":"Ústecký kraj","County":"Louny","City":"Petrohrad","District":"Petrohrad","Street":"Petrohrad","PostalCode":"439 85","AdditionalData":[{"value":"Česká Republika","key":"CountryName"},{"value":"Ústecký kraj","key":"StateName"},{"value":"Louny","key":"CountyName"}]},"MapReference":{"ReferenceId":"704792281","Spot":1.0,"SideOfStreet":"left","CountryId":"20427915","StateId":"20446117","CountyId":"20446724","CityId":"20446854","DistrictId":"20446855"}}},{"Relevance":1.0,"Distance":79.1,"MatchLevel":"street","MatchQuality":{"Country":1.0,"State":1.0,"County":1.0,"City":1.0,"District":1.0,"Street":[1.0],"PostalCode":1.0},"Location":{"LocationId":"NT_PBCblhaRBdTtb0anib.J4C_l_704792269_L","LocationType":"point","DisplayPosition":{"Latitude":50.12673,"Longitude":13.4431},"MapView":{"TopLeft":{"Latitude":50.12675,"Longitude":13.4431},"BottomRight":{"Latitude":50.12672,"Longitude":13.44384}},"Address":{"Label":"Petrohrad, 439 85 Petrohrad, Česká Republika","Country":"CZE","State":"Ústecký kraj","County":"Louny","City":"Petrohrad","District":"Petrohrad","Street":"Petrohrad","PostalCode":"439 85","AdditionalData":[{"value":"Česká Republika","key":"CountryName"},{"value":"Ústecký kraj","key":"StateName"},{"value":"Louny","key":"CountyName"}]},"MapReference":{"ReferenceId":"704792269","Spot":1.0,"SideOfStreet":"left","CountryId":"20427915","StateId":"20446117","CountyId":"20446724","CityId":"20446854","DistrictId":"20446855"}}},{"Relevance":1.0,"Distance":85.2,"MatchLevel":"street","MatchQuality":{"Country":1.0,"State":1.0,"County":1.0,"City":1.0,"District":1.0,"Street":[1.0],"PostalCode":1.0},"Location":{"LocationId":"NT_PBCblhaRBdTtb0anib.J4C_l_704792265_L","LocationType":"point","DisplayPosition":{"Latitude":50.1258,"Longitude":13.44321},"MapView":{"TopLeft":{"Latitude":50.12598,"Longitude":13.44321},"BottomRight":{"Latitude":50.1258,"Longitude":13.44358}},"Address":{"Label":"Petrohrad, 439 85 Petrohrad, Česká Republika","Country":"CZE","State":"Ústecký kraj","County":"Louny","City":"Petrohrad","District":"Petrohrad","Street":"Petrohrad","PostalCode":"439 85","AdditionalData":[{"value":"Česká Republika","key":"CountryName"},{"value":"Ústecký kraj","key":"StateName"},{"value":"Louny","key":"CountyName"}]},"MapReference":{"ReferenceId":"704792265","Spot":0.0,"SideOfStreet":"left","CountryId":"20427915","StateId":"20446117","CountyId":"20446724","CityId":"20446854","DistrictId":"20446855"}}},{"Relevance":1.0,"Distance":89.1,"MatchLevel":"houseNumber","MatchQuality":{"Country":1.0,"State":1.0,"County":1.0,"City":1.0,"District":1.0,"Street":[1.0],"HouseNumber":1.0,"PostalCode":1.0},"MatchType":"interpolated","Location":{"LocationId":"NT_PBCblhaRBdTtb0anib.J4C_xYDM","LocationType":"point","DisplayPosition":{"Latitude":50.1255,"Longitude":13.44263},"MapView":{"TopLeft":{"Latitude":50.1266242,"Longitude":13.4408765},"BottomRight":{"Latitude":50.1243758,"Longitude":13.4443835}},"Address":{"Label":"Petrohrad 160, 439 85 Petrohrad, Česká Republika","Country":"CZE","State":"Ústecký kraj","County":"Louny","City":"Petrohrad","District":"Petrohrad","Street":"Petrohrad","HouseNumber":"160","PostalCode":"439 85","AdditionalData":[{"value":"Česká Republika","key":"CountryName"},{"value":"Ústecký kraj","key":"StateName"},{"value":"Louny","key":"CountyName"}]},"MapReference":{"ReferenceId":"704792266","Spot":0.58,"SideOfStreet":"left","CountryId":"20427915","StateId":"20446117","CountyId":"20446724","CityId":"20446854","DistrictId":"20446855","AddressId":"240989266","RoadLinkId":"109923054"}}},{"Relevance":1.0,"Distance":99.3,"MatchLevel":"street","MatchQuality":{"Country":1.0,"State":1.0,"County":1.0,"City":1.0,"District":1.0,"Street":[1.0],"PostalCode":1.0},"Location":{"LocationId":"NT_PBCblhaRBdTtb0anib.J4C_l_705576978_L","LocationType":"point","DisplayPosition":{"Latitude":50.12544,"Longitude":13.44173},"MapView":{"TopLeft":{"Latitude":50.12544,"Longitude":13.44107},"BottomRight":{"Latitude":50.12516,"Longitude":13.44173}},"Address":{"Label":"Petrohrad, 439 85 Petrohrad, Česká Republika","Country":"CZE","State":"Ústecký kraj","County":"Louny","City":"Petrohrad","District":"Petrohrad","Street":"Petrohrad","PostalCode":"439 85","AdditionalData":[{"value":"Česká Republika","key":"CountryName"},{"value":"Ústecký kraj","key":"StateName"},{"value":"Louny","key":"CountyName"}]},"MapReference":{"ReferenceId":"705576978","Spot":1.0,"SideOfStreet":"left","CountryId":"20427915","StateId":"20446117","CountyId":"20446724","CityId":"20446854","DistrictId":"20446855"}}}]}]}}