{"Response":{"MetaInfo":{"Timestamp":"2020-03-28T10:46:51.154+0000","NextPageInformation":"2"},"View":[{"_type":"SearchResultsViewType","ViewId":0,"Result":[{"Relevance":1.0,"Distance":0.0,"Direction":0.0,"MatchLevel":"district","MatchQuality":{"Country":1.0,"State":1.0,"County":1.0,"City":1.0,"District":1.0,"PostalCode":1.0},"Location":{"LocationId":"NT_EOjO3O0hn0yqa8mLVnj.8A","LocationType":"point","DisplayPosition":{"Latitude":50.1609513,"Longitude":23.1357328},"MapView":{"TopLeft":{"Latitude":50.17996,"Longitude":23.09651},"BottomRight":{"Latitude":50.13712,"Longitude":23.1526}},"Address":{"Label":"Lubaczów, Woj. Podkarpackie, Polska","Country":"POL","State":"Woj. Podkarpackie","County":"Powiat Lubaczowski","City":"Lubaczów","District":"Lubaczów","PostalCode":"37-600","AdditionalData":[{"value":"Polska","key":"CountryName"},{"value":"Woj. Podkarpackie","key":"StateName"},{"value":"Powiat Lubaczowski","key":"CountyName"}]},"MapReference":{"ReferenceId":"807606020","SideOfStreet":"neither","CountryId":"20624059","StateId":"20628101","CountyId":"20628263","CityId":"20691310","DistrictId":"20691311"}}},{"Relevance":1.0,"Distance":35.4,"MatchLevel":"street","MatchQuality":{"Country":1.0,"State":1.0,"County":1.0,"City":1.0,"District":1.0,"PostalCode":1.0},"Location":{"LocationId":"NT_HdvMq3oDHu0EoX2JyI8o1D_l_778584610_R","LocationType":"point","DisplayPosition":{"Latitude":50.1608625,"Longitude":23.1352563},"MapView":{"TopLeft":{"Latitude":50.16095,"Longitude":23.13524},"BottomRight":{"Latitude":50.16036,"Longitude":23.13535}},"Address":{"Label":"37-600 Lubaczów, Polska","Country":"POL","State":"Woj. Podkarpackie","County":"Powiat Lubaczowski","City":"Lubaczów","District":"Lubaczów","PostalCode":"37-600","AdditionalData":[{"value":"Polska","key":"CountryName"},{"value":"Woj. Podkarpackie","key":"StateName"},{"value":"Powiat Lubaczowski","key":"CountyName"}]},"MapReference":{"ReferenceId":"778584610","Spot":0.85,"SideOfStreet":"right","CountryId":"20624059","StateId":"20628101","CountyId":"20628263","CityId":"20691310","DistrictId":"20691311"}}},{"Relevance":1.0,"Distance":61.2,"MatchLevel":"houseNumber","MatchQuality":{"Country":1.0,"State":1.0,"County":1.0,"City":1.0,"District":1.0,"Street":[1.0],"HouseNumber":1.0,"PostalCode":1.0},"MatchType":"interpolated","Location":{"LocationId":"NT_elOKjXJRiFcWWxIFMPyvlC_xQTMBB","LocationType":"point","DisplayPosition":{"Latitude":50.15989,"Longitude":23.13609},"MapView":{"TopLeft":{"Latitude":50.1610142,"Longitude":23.1343353},"BottomRight":{"Latitude":50.1587658,"Longitude":23.1378447}},"Address":{"Label":"ulica Tadeusza Kościuszki 141A, 37-600 Lubaczów, Polska","Country":"POL","State":"Woj. Podkarpackie","County":"Powiat Lubaczowski","City":"Lubaczów","District":"Lubaczów","Street":"ulica Tadeusza Kościuszki","HouseNumber":"141A","PostalCode":"37-600","AdditionalData":[{"value":"Polska","key":"CountryName"},{"value":"Woj. Podkarpackie","key":"StateName"},{"value":"Powiat Lubaczowski","key":"CountyName"}]},"MapReference":{"ReferenceId":"979175601","Spot":0.06,"SideOfStreet":"left","CountryId":"20624059","StateId":"20628101","CountyId":"20628263","CityId":"20691310","DistrictId":"20691311","AddressId":"210110881","RoadLinkId":"312261547"}}},{"Relevance":1.0,"Distance":71.2,"MatchLevel":"street","MatchQuality":{"Country":1.0,"State":1.0,"County":1.0,"City":1.0,"District":1.0,"Street":[1.0],"PostalCode":1.0},"Location":{"LocationId":"NT_6qThz3jLxF9Le4IX1ZEy5A_l_716188319_R","LocationType":"point","DisplayPosition":{"Latitude":50.16036,"Longitude":23.13535},"MapView":{"TopLeft":{"Latitude":50.16036,"Longitude":23.13535},"BottomRight":{"Latitude":50.15981,"Longitude":23.13559}},"Address":{"Label":"ulica Myśliwska, 37-600 Lubaczów, Polska","Country":"POL","State":"Woj. Podkarpackie","County":"Powiat Lubaczowski","City":"Lubaczów","District":"Lubaczów","Street":"ulica Myśliwska","PostalCode":"37-600","AdditionalData":[{"value":"Polska","key":"CountryName"},{"value":"Woj. Podkarpackie","key":"StateName"},{"value":"Powiat Lubaczowski","key":"CountyName"}]},"MapReference":{"ReferenceId":"716188319","Spot":1.0,"SideOfStreet":"right","CountryId":"20624059","StateId":"20628101","CountyId":"20628263","CityId":"20691310","DistrictId":"20691311"}}},{"Relevance":1.0,"Distance":71.2,"MatchLevel":"street","MatchQuality":{"Country":1.0,"State":1.0,"County":1.0,"City":1.0,"District":1.0,"Street":[1.0],"PostalCode":1.0},"Location":{"LocationId":"NT_6qThz3jLxF9Le4IX1ZEy5A_l_716188320_L","LocationType":"point","DisplayPosition":{"Latitude":50.16036,"Longitude":23.13535},"MapView":{"TopLeft":{"Latitude":50.16047,"Longitude":23.13377},"BottomRight":{"Latitude":50.16035,"Longitude":23.13535}},"Address":{"Label":"ulica Myśliwska, 37-600 Lubaczów, Polska","Country":"POL","State":"Woj. Podkarpackie","County":"Powiat Lubaczowski","City":"Lubaczów","District":"Lubaczów","Street":"ulica Myśliwska","PostalCode":"37-600","AdditionalData":[{"value":"Polska","key":"CountryName"},{"value":"Woj. Podkarpackie","key":"StateName"},{"value":"Powiat Lubaczowski","key":"CountyName"}]},"MapReference":{"ReferenceId":"716188320","Spot":1.0,"SideOfStreet":"left","CountryId":"20624059","StateId":"20628101","CountyId":"20628263","CityId":"20691310","DistrictId":"20691311"}}},{"Relevance":1.0,"Distance":104.6,"MatchLevel":"houseNumber","MatchQuality":{"Country":1.0,"State":1.0,"County":1.0,"City":1.0,"District":1.0,"Street":[1.0],"HouseNumber":1.0,"PostalCode":1.0},"MatchType":"interpolated","Location":{"LocationId":"NT_elOKjXJRiFcWWxIFMPyvlC_xQTM","LocationType":"point","DisplayPosition":{"Latitude":50.15978,"Longitude":23.1354},"MapView":{"TopLeft":{"Latitude":50.1609042,"Longitude":23.1336453},"BottomRight":{"Latitude":50.1586558,"Longitude":23.1371547}},"Address":{"Label":"ulica Tadeusza Kościuszki 141, 37-600 Lubaczów, Polska","Country":"POL","State":"Woj. Podkarpackie","County":"Powiat Lubaczowski","City":"Lubaczów","District":"Lubaczów","Street":"ulica Tadeusza Kościuszki","HouseNumber":"141","PostalCode":"37-600","AdditionalData":[{"value":"Polska","key":"CountryName"},{"value":"Woj. Podkarpackie","key":"StateName"},{"value":"Powiat Lubaczowski","key":"CountyName"}]},"MapReference":{"ReferenceId":"778303268","Spot":0.32,"SideOfStreet":"left","CountryId":"20624059","StateId":"20628101","CountyId":"20628263","CityId":"20691310","DistrictId":"20691311","AddressId":"211452490","RoadLinkId":"171710060"}}},{"Relevance":1.0,"Distance":104.7,"MatchLevel":"houseNumber","MatchQuality":{"Country":1.0,"State":1.0,"County":1.0,"City":1.0,"District":1.0,"Street":[1.0],"HouseNumber":1.0,"PostalCode":1.0},"MatchType":"interpolated","Location":{"LocationId":"NT_elOKjXJRiFcWWxIFMPyvlC_xMTOBB","LocationType":"point","DisplayPosition":{"Latitude":50.15984,"Longitude":23.13578},"MapView":{"TopLeft":{"Latitude":50.1609642,"Longitude":23.1340253},"BottomRight":{"Latitude":50.1587158,"Longitude":23.1375347}},"Address":{"Label":"ulica Tadeusza Kościuszki 139A, 37-600 Lubaczów, Polska","Country":"POL","State":"Woj. Podkarpackie","County":"Powiat Lubaczowski","City":"Lubaczów","District":"Lubaczów","Street":"ulica Tadeusza Kościuszki","HouseNumber":"139A","PostalCode":"37-600","AdditionalData":[{"value":"Polska","key":"CountryName"},{"value":"Woj. Podkarpackie","key":"StateName"},{"value":"Powiat Lubaczowski","key":"CountyName"}]},"MapReference":{"ReferenceId":"979143185","Spot":0.65,"SideOfStreet":"left","CountryId":"20624059","StateId":"20628101","CountyId":"20628263","CityId":"20691310","DistrictId":"20691311","AddressId":"210340891","RoadLinkId":"312225659"}}},{"Relevance":1.0,"Distance":132.1,"MatchLevel":"houseNumber","MatchQuality":{"Country":1.0,"State":1.0,"County":1.0,"City":1.0,"District":1.0,"Street":[1.0],"HouseNumber":1.0,"PostalCode":1.0},"MatchType":"interpolated","Location":{"LocationId":"NT_elOKjXJRiFcWWxIFMPyvlC_xMTO","LocationType":"point","DisplayPosition":{"Latitude":50.15971,"Longitude":23.13491},"MapView":{"TopLeft":{"Latitude":50.1608342,"Longitude":23.1331553},"BottomRight":{"Latitude":50.1585858,"Longitude":23.1366647}},"Address":{"Label":"ulica Tadeusza Kościuszki 139, 37-600 Lubaczów, Polska","Country":"POL","State":"Woj. Podkarpackie","County":"Powiat Lubaczowski","City":"Lubaczów","District":"Lubaczów","Street":"ulica Tadeusza Kościuszki","HouseNumber":"139","PostalCode":"37-600","AdditionalData":[{"value":"Polska","key":"CountryName"},{"value":"Woj. Podkarpackie","key":"StateName"},{"value":"Powiat Lubaczowski","key":"CountyName"}]},"MapReference":{"ReferenceId":"979277844","Spot":0.86,"SideOfStreet":"left","CountryId":"20624059","StateId":"20628101","CountyId":"20628263","CityId":"20691310","DistrictId":"20691311","AddressId":"210934911","RoadLinkId":"312337273"}}},{"Relevance":1.0,"Distance":132.3,"MatchLevel":"street","MatchQuality":{"Country":1.0,"State":1.0,"County":1.0,"City":1.0,"District":1.0,"Street":[1.0],"PostalCode":1.0},"Location":{"LocationId":"NT_NmQ4psf3L6nTpzyKqj0MuA_l_778303267_L","LocationType":"point","DisplayPosition":{"Latitude":50.16209,"Longitude":23.13627},"MapView":{"TopLeft":{"Latitude":50.16277,"Longitude":23.13627},"BottomRight":{"Latitude":50.16044,"Longitude":23.13948}},"Address":{"Label":"ulica Techniczna, 37-600 Lubaczów, Polska","Country":"POL","State":"Woj. Podkarpackie","County":"Powiat Lubaczowski","City":"Lubaczów","District":"Lubaczów","Street":"ulica Techniczna","PostalCode":"37-600","AdditionalData":[{"value":"Polska","key":"CountryName"},{"value":"Woj. Podkarpackie","key":"StateName"},{"value":"Powiat Lubaczowski","key":"CountyName"}]},"MapReference":{"ReferenceId":"778303267","Spot":1.0,"SideOfStreet":"left","CountryId":"20624059","StateId":"20628101","CountyId":"20628263","CityId":"20691310","DistrictId":"20691311"}}},{"Relevance":1.0,"Distance":133.6,"MatchLevel":"houseNumber","MatchQuality":{"Country":1.0,"State":1.0,"County":1.0,"City":1.0,"District":1.0,"Street":[1.0],"HouseNumber":1.0,"PostalCode":1.0},"MatchType":"interpolated","Location":{"LocationId":"NT_1BbfhuILUe6Mfo58y-HfaA_1ID","LocationType":"point","DisplayPosition":{"Latitude":50.16215,"Longitude":23.13503},"MapView":{"TopLeft":{"Latitude":50.1632742,"Longitude":23.1332752},"BottomRight":{"Latitude":50.1610258,"Longitude":23.1367848}},"Address":{"Label":"ulica Kurierów Armii Krajowej 52, 37-600 Lubaczów, Polska","Country":"POL","State":"Woj. Podkarpackie","County":"Powiat Lubaczowski","City":"Lubaczów","District":"Lubaczów","Street":"ulica Kurierów Armii Krajowej","HouseNumber":"52","PostalCode":"37-600","AdditionalData":[{"value":"Polska","key":"CountryName"},{"value":"Woj. Podkarpackie","key":"StateName"},{"value":"Powiat Lubaczowski","key":"CountyName"}]},"MapReference":{"ReferenceId":"1231240458","Spot":0.89,"SideOfStreet":"right","CountryId":"20624059","StateId":"20628101","CountyId":"20628263","CityId":"20691310","DistrictId":"20691311","AddressId":"731808608","RoadLinkId":"550764237"}}}]}]}}