{"Response":{"MetaInfo":{"Timestamp":"2020-03-28T11:01:16.722+0000","NextPageInformation":"2"},"View":[{"_type":"SearchResultsViewType","ViewId":0,"Result":[{"Relevance":1.0,"Distance":0.0,"Direction":0.0,"MatchLevel":"city","MatchQuality":{"Country":1.0,"State":1.0,"County":1.0,"City":1.0,"PostalCode":1.0},"Location":{"LocationId":"NT_G.RCawH4whE4dQ6ZPb4r6D","LocationType":"point","DisplayPosition":{"Latitude":50.190568,"Longitude":10.0823012},"MapView":{"TopLeft":{"Latitude":50.25419,"Longitude":9.9675},"BottomRight":{"Latitude":50.14346,"Longitude":10.14253}},"Address":{"Label":"Bad Kissingen, Bayern, Deutschland","Country":"DEU","State":"Bayern","County":"Bad Kissingen","City":"Bad Kissingen","PostalCode":"97688","AdditionalData":[{"value":"Deutschland","key":"CountryName"},{"value":"Bayern","key":"StateName"},{"value":"Bad Kissingen","key":"CountyName"}]},"MapReference":{"ReferenceId":"762021913","SideOfStreet":"neither","CountryId":"20147700","StateId":"20177250","CountyId":"20184092","CityId":"20184108"}}},{"Relevance":1.0,"Distance":85.3,"MatchLevel":"houseNumber","MatchQuality":{"Country":1.0,"State":1.0,"County":1.0,"City":1.0,"District":1.0,"Street":[1.0],"HouseNumber":1.0,"PostalCode":1.0},"MatchType":"interpolated","Location":{"LocationId":"NT_lfnrS4EJhQbsulHrfO4cUB_xUDM","LocationType":"point","DisplayPosition":{"Latitude":50.18989,"Longitude":10.08368},"MapView":{"TopLeft":{"Latitude":50.1910142,"Longitude":10.0819242},"BottomRight":{"Latitude":50.1887658,"Longitude":10.0854358}},"Address":{"Label":"Kissinger Straße 150, 97688 Bad Kissingen, Deutschland","Country":"DEU","State":"Bayern","County":"Bad Kissingen","City":"Bad Kissingen","District":"Bad Kissingen","Street":"Kissinger Straße","HouseNumber":"150","PostalCode":"97688","AdditionalData":[{"value":"Deutschland","key":"CountryName"},{"value":"Bayern","key":"StateName"},{"value":"Bad Kissingen","key":"CountyName"}]},"MapReference":{"ReferenceId":"586882331","Spot":0.09,"SideOfStreet":"left","CountryId":"20147700","StateId":"20177250","CountyId":"20184092","CityId":"20184108","DistrictId":"20184110","AddressId":"182959789","RoadLinkId":"239830667"}}},{"Relevance":1.0,"Distance":88.2,"MatchLevel":"houseNumber","MatchQuality":{"Country":1.0,"State":1.0,"County":1.0,"City":1.0,"District":1.0,"Street":[1.0],"HouseNumber":1.0,"PostalCode":1.0},"MatchType":"interpolated","Location":{"LocationId":"NT_lfnrS4EJhQbsulHrfO4cUB_xUzM","LocationType":"point","DisplayPosition":{"Latitude":50.19099,"Longitude":10.08335},"MapView":{"TopLeft":{"Latitude":50.1921142,"Longitude":10.0815941},"BottomRight":{"Latitude":50.1898658,"Longitude":10.0851059}},"Address":{"Label":"Kissinger Straße 153, 97688 Bad Kissingen, Deutschland","Country":"DEU","State":"Bayern","County":"Bad Kissingen","City":"Bad Kissingen","District":"Bad Kissingen","Street":"Kissinger Straße","HouseNumber":"153","PostalCode":"97688","AdditionalData":[{"value":"Deutschland","key":"CountryName"},{"value":"Bayern","key":"StateName"},{"value":"Bad Kissingen","key":"CountyName"}]},"MapReference":{"ReferenceId":"761990868","Spot":0.57,"SideOfStreet":"right","CountryId":"20147700","StateId":"20177250","CountyId":"20184092","CityId":"20184108","DistrictId":"20184110","AddressId":"255729003","RoadLinkId":"245373332"}}},{"Relevance":1.0,"Distance":91.6,"MatchLevel":"street","MatchQuality":{"Country":1.0,"State":1.0,"County":1.0,"City":1.0,"District":1.0,"Street":[1.0],"PostalCode":1.0},"Location":{"LocationId":"NT_lErd7TmdWlsU2Ij5RUox8B_l_1186411478_R","LocationType":"point","DisplayPosition":{"Latitude":50.191268,"Longitude":10.0816224},"MapView":{"TopLeft":{"Latitude":50.19145,"Longitude":10.08086},"BottomRight":{"Latitude":50.19042,"Longitude":10.08181}},"Address":{"Label":"Ostring, 97688 Bad Kissingen, Deutschland","Country":"DEU","State":"Bayern","County":"Bad Kissingen","City":"Bad Kissingen","District":"Bad Kissingen","Street":"Ostring","PostalCode":"97688","AdditionalData":[{"value":"Deutschland","key":"CountryName"},{"value":"Bayern","key":"StateName"},{"value":"Bad Kissingen","key":"CountyName"}]},"MapReference":{"ReferenceId":"1186411478","Spot":0.81,"SideOfStreet":"right","CountryId":"20147700","StateId":"20177250","CountyId":"20184092","CityId":"20184108","DistrictId":"20184110"}}},{"Relevance":1.0,"Distance":93.2,"MatchLevel":"street","MatchQuality":{"Country":1.0,"State":1.0,"County":1.0,"City":1.0,"District":1.0,"Street":[1.0],"PostalCode":1.0},"Location":{"LocationId":"NT_r66kTg7G0kaW2xxnulOtZC_l_586882332_L","LocationType":"point","DisplayPosition":{"Latitude":50.1906,"Longitude":10.08361},"MapView":{"TopLeft":{"Latitude":50.1906,"Longitude":10.08361},"BottomRight":{"Latitude":50.19047,"Longitude":10.08364}},"Address":{"Label":"Kissinger Straße, 97688 Bad Kissingen, Deutschland","Country":"DEU","State":"Bayern","County":"Bad Kissingen","City":"Bad Kissingen","District":"Bad Kissingen","Street":"Kissinger Straße","PostalCode":"97688","AdditionalData":[{"value":"Deutschland","key":"CountryName"},{"value":"Bayern","key":"StateName"},{"value":"Bad Kissingen","key":"CountyName"}]},"MapReference":{"ReferenceId":"586882332","Spot":1.0,"SideOfStreet":"left","CountryId":"20147700","StateId":"20177250","CountyId":"20184092","CityId":"20184108","DistrictId":"20184110"}}},{"Relevance":1.0,"Distance":96.4,"MatchLevel":"street","MatchQuality":{"Country":1.0,"State":1.0,"County":1.0,"City":1.0,"District":1.0,"Street":[1.0],"PostalCode":1.0},"Location":{"LocationId":"NT_RB5L27KnjJgHHHET3ClIeB_l_1171771127_L","LocationType":"point","DisplayPosition":{"Latitude":50.1913567,"Longitude":10.0828646},"MapView":{"TopLeft":{"Latitude":50.19141,"Longitude":10.08279},"BottomRight":{"Latitude":50.19121,"Longitude":10.08307}},"Address":{"Label":"KG8, 97688 Bad Kissingen, Deutschland","Country":"DEU","State":"Bayern","County":"Bad Kissingen","City":"Bad Kissingen","District":"Bad Kissingen","Street":"KG8","PostalCode":"97688","AdditionalData":[{"value":"Deutschland","key":"CountryName"},{"value":"Bayern","key":"StateName"},{"value":"Bad Kissingen","key":"CountyName"}]},"MapReference":{"ReferenceId":"1171771127","Spot":0.73,"SideOfStreet":"left","CountryId":"20147700","StateId":"20177250","CountyId":"20184092","CityId":"20184108","DistrictId":"20184110"}}},{"Relevance":1.0,"Distance":99.9,"MatchLevel":"street","MatchQuality":{"Country":1.0,"State":1.0,"County":1.0,"City":1.0,"District":1.0,"Street":[1.0],"PostalCode":1.0},"Location":{"LocationId":"NT_RB5L27KnjJgHHHET3ClIeB_l_1171771128_L","LocationType":"point","DisplayPosition":{"Latitude":50.19141,"Longitude":10.08279},"MapView":{"TopLeft":{"Latitude":50.19154,"Longitude":10.0826},"BottomRight":{"Latitude":50.19141,"Longitude":10.08279}},"Address":{"Label":"KG8, 97688 Bad Kissingen, Deutschland","Country":"DEU","State":"Bayern","County":"Bad Kissingen","City":"Bad Kissingen","District":"Bad Kissingen","Street":"KG8","PostalCode":"97688","AdditionalData":[{"value":"Deutschland","key":"CountryName"},{"value":"Bayern","key":"StateName"},{"value":"Bad Kissingen","key":"CountyName"}]},"MapReference":{"ReferenceId":"1171771128","Spot":0.0,"SideOfStreet":"left","CountryId":"20147700","StateId":"20177250","CountyId":"20184092","CityId":"20184108","DistrictId":"20184110"}}},{"Relevance":1.0,"Distance":104.1,"MatchLevel":"street","MatchQuality":{"Country":1.0,"State":1.0,"County":1.0,"City":1.0,"District":1.0,"Street":[1.0],"PostalCode":1.0},"Location":{"LocationId":"NT_lErd7TmdWlsU2Ij5RUox8B_l_1064993465_R","LocationType":"point","DisplayPosition":{"Latitude":50.19145,"Longitude":10.08181},"MapView":{"TopLeft":{"Latitude":50.19183,"Longitude":10.08181},"BottomRight":{"Latitude":50.19145,"Longitude":10.08218}},"Address":{"Label":"Ostring, 97688 Bad Kissingen, Deutschland","Country":"DEU","State":"Bayern","County":"Bad Kissingen","City":"Bad Kissingen","District":"Bad Kissingen","Street":"Ostring","PostalCode":"97688","AdditionalData":[{"value":"Deutschland","key":"CountryName"},{"value":"Bayern","key":"StateName"},{"value":"Bad Kissingen","key":"CountyName"}]},"MapReference":{"ReferenceId":"1064993465","Spot":0.0,"SideOfStreet":"right","CountryId":"20147700","StateId":"20177250","CountyId":"20184092","CityId":"20184108","DistrictId":"20184110"}}},{"Relevance":1.0,"Distance":108.6,"MatchLevel":"street","MatchQuality":{"Country":1.0,"State":1.0,"County":1.0,"City":1.0,"District":1.0,"PostalCode":1.0},"Location":{"LocationId":"NT_tO0h7kJUDVVmXz5UDXrqgA_l_586898715_L","LocationType":"point","DisplayPosition":{"Latitude":50.18983,"Longitude":10.0833},"MapView":{"TopLeft":{"Latitude":50.18983,"Longitude":10.0833},"BottomRight":{"Latitude":50.18983,"Longitude":10.08369}},"Address":{"Label":"97688 Bad Kissingen, Deutschland","Country":"DEU","State":"Bayern","County":"Bad Kissingen","City":"Bad Kissingen","District":"Bad Kissingen","PostalCode":"97688","AdditionalData":[{"value":"Deutschland","key":"CountryName"},{"value":"Bayern","key":"StateName"},{"value":"Bad Kissingen","key":"CountyName"}]},"MapReference":{"ReferenceId":"586898715","Spot":0.0,"SideOfStreet":"left","CountryId":"20147700","StateId":"20177250","CountyId":"20184092","CityId":"20184108","DistrictId":"20184110"}}},{"Relevance":1.0,"Distance":110.2,"MatchLevel":"street","MatchQuality":{"Country":1.0,"State":1.0,"County":1.0,"City":1.0,"District":1.0,"Street":[1.0],"PostalCode":1.0},"Location":{"LocationId":"NT_RB5L27KnjJgHHHET3ClIeB_l_1150173734_L","LocationType":"point","DisplayPosition":{"Latitude":50.19154,"Longitude":10.0826},"MapView":{"TopLeft":{"Latitude":50.19183,"Longitude":10.08218},"BottomRight":{"Latitude":50.19154,"Longitude":10.0826}},"Address":{"Label":"KG8, 97688 Bad Kissingen, Deutschland","Country":"DEU","State":"Bayern","County":"Bad Kissingen","City":"Bad Kissingen","District":"Bad Kissingen","Street":"KG8","PostalCode":"97688","AdditionalData":[{"value":"Deutschland","key":"CountryName"},{"value":"Bayern","key":"StateName"},{"value":"Bad Kissingen","key":"CountyName"}]},"MapReference":{"ReferenceId":"1150173734","Spot":0.0,"SideOfStreet":"left","CountryId":"20147700","StateId":"20177250","CountyId":"20184092","CityId":"20184108","DistrictId":"20184110"}}}]}]}}