{"Response":{"MetaInfo":{"Timestamp":"2020-03-28T11:31:12.017+0000","NextPageInformation":"2"},"View":[{"_type":"SearchResultsViewType","ViewId":0,"Result":[{"Relevance":1.0,"Distance":0.0,"Direction":0.0,"MatchLevel":"district","MatchQuality":{"Country":1.0,"State":1.0,"County":1.0,"City":1.0,"District":1.0,"PostalCode":1.0},"Location":{"LocationId":"NT_3O2vwFUfRTBs0hlb-p9YfD","LocationType":"point","DisplayPosition":{"Latitude":50.1527347,"Longitude":18.7727436},"MapView":{"TopLeft":{"Latitude":50.16259,"Longitude":18.72995},"BottomRight":{"Latitude":50.07785,"Longitude":18.83008}},"Address":{"Label":"Orzesze, Woj. Śląskie, Polska","Country":"POL","State":"Woj. Śląskie","County":"Powiat Mikołowski","City":"Orzesze","District":"Orzesze","PostalCode":"43-187","AdditionalData":[{"value":"Polska","key":"CountryName"},{"value":"Woj. Śląskie","key":"StateName"},{"value":"Powiat Mikołowski","key":"CountyName"}]},"MapReference":{"ReferenceId":"1064481070","SideOfStreet":"neither","CountryId":"20624059","StateId":"20629003","CountyId":"20629211","CityId":"20629218","DistrictId":"20693759"}}},{"Relevance":1.0,"Distance":21.2,"MatchLevel":"houseNumber","MatchQuality":{"Country":1.0,"State":1.0,"County":1.0,"City":1.0,"District":1.0,"Street":[1.0],"HouseNumber":1.0,"PostalCode":1.0},"MatchType":"interpolated","Location":{"LocationId":"NT_iLz13CJI1TyfcKCGQKITEB_zMTQ","LocationType":"point","DisplayPosition":{"Latitude":50.15293,"Longitude":18.7722},"MapView":{"TopLeft":{"Latitude":50.1540542,"Longitude":18.7704455},"BottomRight":{"Latitude":50.1518058,"Longitude":18.7739545}},"Address":{"Label":"ulica Pocztowa 33A, 43-180 Orzesze, Polska","Country":"POL","State":"Woj. Śląskie","County":"Powiat Mikołowski","City":"Orzesze","District":"Orzesze","Street":"ulica Pocztowa","HouseNumber":"33A","PostalCode":"43-180","AdditionalData":[{"value":"Polska","key":"CountryName"},{"value":"Woj. Śląskie","key":"StateName"},{"value":"Powiat Mikołowski","key":"CountyName"}]},"MapReference":{"ReferenceId":"1200480561","Spot":0.29,"SideOfStreet":"right","CountryId":"20624059","StateId":"20629003","CountyId":"20629211","CityId":"20629218","DistrictId":"20693759","AddressId":"701970175","RoadLinkId":"512801840"}}},{"Relevance":1.0,"Distance":57.3,"MatchLevel":"street","MatchQuality":{"Country":1.0,"State":1.0,"County":1.0,"City":1.0,"District":1.0,"Street":[1.0],"PostalCode":1.0},"Location":{"LocationId":"NT_WrfQ8xs0kVVnyiUxYfQLnC_l_594379198_R","LocationType":"point","DisplayPosition":{"Latitude":50.15225,"Longitude":18.77247},"MapView":{"TopLeft":{"Latitude":50.15249,"Longitude":18.77196},"BottomRight":{"Latitude":50.15225,"Longitude":18.77247}},"Address":{"Label":"ulica Podgórska, 43-180 Orzesze, Polska","Country":"POL","State":"Woj. Śląskie","County":"Powiat Mikołowski","City":"Orzesze","District":"Orzesze","Street":"ulica Podgórska","PostalCode":"43-180","AdditionalData":[{"value":"Polska","key":"CountryName"},{"value":"Woj. Śląskie","key":"StateName"},{"value":"Powiat Mikołowski","key":"CountyName"}]},"MapReference":{"ReferenceId":"594379198","Spot":0.0,"SideOfStreet":"right","CountryId":"20624059","StateId":"20629003","CountyId":"20629211","CityId":"20629218","DistrictId":"20693759"}}},{"Relevance":1.0,"Distance":62.1,"MatchLevel":"street","MatchQuality":{"Country":1.0,"State":1.0,"County":1.0,"City":1.0,"District":1.0,"Street":[1.0],"PostalCode":1.0},"Location":{"LocationId":"NT_WrfQ8xs0kVVnyiUxYfQLnC_l_1200444093_L","LocationType":"point","DisplayPosition":{"Latitude":50.15249,"Longitude":18.77196},"MapView":{"TopLeft":{"Latitude":50.15259,"Longitude":18.76743},"BottomRight":{"Latitude":50.15205,"Longitude":18.77196}},"Address":{"Label":"ulica Podgórska, 43-180 Orzesze, Polska","Country":"POL","State":"Woj. Śląskie","County":"Powiat Mikołowski","City":"Orzesze","District":"Orzesze","Street":"ulica Podgórska","PostalCode":"43-180","AdditionalData":[{"value":"Polska","key":"CountryName"},{"value":"Woj. Śląskie","key":"StateName"},{"value":"Powiat Mikołowski","key":"CountyName"}]},"MapReference":{"ReferenceId":"1200444093","Spot":1.0,"SideOfStreet":"left","CountryId":"20624059","StateId":"20629003","CountyId":"20629211","CityId":"20629218","DistrictId":"20693759"}}},{"Relevance":1.0,"Distance":66.2,"MatchLevel":"houseNumber","MatchQuality":{"Country":1.0,"State":1.0,"County":1.0,"City":1.0,"District":1.0,"Street":[1.0],"HouseNumber":1.0,"PostalCode":1.0},"MatchType":"interpolated","Location":{"LocationId":"NT_HKeuVflyb6tU5N0qjU4zuD_yQD","LocationType":"point","DisplayPosition":{"Latitude":50.15313,"Longitude":18.77354},"MapView":{"TopLeft":{"Latitude":50.1542542,"Longitude":18.7717855},"BottomRight":{"Latitude":50.1520058,"Longitude":18.7752945}},"Address":{"Label":"ulica Gliwicka 24, 43-180 Orzesze, Polska","Country":"POL","State":"Woj. Śląskie","County":"Powiat Mikołowski","City":"Orzesze","District":"Orzesze","Street":"ulica Gliwicka","HouseNumber":"24","PostalCode":"43-180","AdditionalData":[{"value":"Polska","key":"CountryName"},{"value":"Woj. Śląskie","key":"StateName"},{"value":"Powiat Mikołowski","key":"CountyName"}]},"MapReference":{"ReferenceId":"594379112","Spot":0.3,"SideOfStreet":"left","CountryId":"20624059","StateId":"20629003","CountyId":"20629211","CityId":"20629218","DistrictId":"20693759","AddressId":"209572309","RoadLinkId":"172757439"}}},{"Relevance":1.0,"Distance":76.7,"MatchLevel":"houseNumber","MatchQuality":{"Country":1.0,"State":1.0,"County":1.0,"City":1.0,"District":1.0,"Street":[1.0],"HouseNumber":1.0,"PostalCode":1.0},"MatchType":"interpolated","Location":{"LocationId":"NT_HKeuVflyb6tU5N0qjU4zuD_yITQ","LocationType":"point","DisplayPosition":{"Latitude":50.15279,"Longitude":18.77416},"MapView":{"TopLeft":{"Latitude":50.1539142,"Longitude":18.7724055},"BottomRight":{"Latitude":50.1516658,"Longitude":18.7759145}},"Address":{"Label":"ulica Gliwicka 22A, 43-180 Orzesze, Polska","Country":"POL","State":"Woj. Śląskie","County":"Powiat Mikołowski","City":"Orzesze","District":"Orzesze","Street":"ulica Gliwicka","HouseNumber":"22A","PostalCode":"43-180","AdditionalData":[{"value":"Polska","key":"CountryName"},{"value":"Woj. Śląskie","key":"StateName"},{"value":"Powiat Mikołowski","key":"CountyName"}]},"MapReference":{"ReferenceId":"779289210","Spot":0.13,"SideOfStreet":"left","CountryId":"20624059","StateId":"20629003","CountyId":"20629211","CityId":"20629218","DistrictId":"20693759","AddressId":"701991588","RoadLinkId":"172773104"}}},{"Relevance":1.0,"Distance":77.6,"MatchLevel":"houseNumber","MatchQuality":{"Country":1.0,"State":1.0,"County":1.0,"City":1.0,"District":1.0,"Street":[1.0],"HouseNumber":1.0,"PostalCode":1.0},"MatchType":"interpolated","Location":{"LocationId":"NT_HKeuVflyb6tU5N0qjU4zuD_yID","LocationType":"point","DisplayPosition":{"Latitude":50.15246,"Longitude":18.77408},"MapView":{"TopLeft":{"Latitude":50.1535842,"Longitude":18.7723256},"BottomRight":{"Latitude":50.1513358,"Longitude":18.7758344}},"Address":{"Label":"ulica Gliwicka 22, 43-180 Orzesze, Polska","Country":"POL","State":"Woj. Śląskie","County":"Powiat Mikołowski","City":"Orzesze","District":"Orzesze","Street":"ulica Gliwicka","HouseNumber":"22","PostalCode":"43-180","AdditionalData":[{"value":"Polska","key":"CountryName"},{"value":"Woj. Śląskie","key":"StateName"},{"value":"Powiat Mikołowski","key":"CountyName"}]},"MapReference":{"ReferenceId":"1064528090","Spot":0.77,"SideOfStreet":"left","CountryId":"20624059","StateId":"20629003","CountyId":"20629211","CityId":"20629218","DistrictId":"20693759","AddressId":"211316943","RoadLinkId":"386798941"}}},{"Relevance":1.0,"Distance":97.0,"MatchLevel":"houseNumber","MatchQuality":{"Country":1.0,"State":1.0,"County":1.0,"City":1.0,"District":1.0,"Street":[1.0],"HouseNumber":1.0,"PostalCode":1.0},"MatchType":"interpolated","Location":{"LocationId":"NT_HKeuVflyb6tU5N0qjU4zuD_yUD","LocationType":"point","DisplayPosition":{"Latitude":50.15345,"Longitude":18.77363},"MapView":{"TopLeft":{"Latitude":50.1545742,"Longitude":18.7718755},"BottomRight":{"Latitude":50.1523258,"Longitude":18.7753845}},"Address":{"Label":"ulica Gliwicka 25, 43-180 Orzesze, Polska","Country":"POL","State":"Woj. Śląskie","County":"Powiat Mikołowski","City":"Orzesze","District":"Orzesze","Street":"ulica Gliwicka","HouseNumber":"25","PostalCode":"43-180","AdditionalData":[{"value":"Polska","key":"CountryName"},{"value":"Woj. Śląskie","key":"StateName"},{"value":"Powiat Mikołowski","key":"CountyName"}]},"MapReference":{"ReferenceId":"594379033","Spot":0.0,"SideOfStreet":"left","CountryId":"20624059","StateId":"20629003","CountyId":"20629211","CityId":"20629218","DistrictId":"20693759","AddressId":"701970147","RoadLinkId":"172757448"}}},{"Relevance":1.0,"Distance":103.3,"MatchLevel":"houseNumber","MatchQuality":{"Country":1.0,"State":1.0,"County":1.0,"City":1.0,"District":1.0,"Street":[1.0],"HouseNumber":1.0,"PostalCode":1.0},"MatchType":"interpolated","Location":{"LocationId":"NT_HKeuVflyb6tU5N0qjU4zuD_ygD","LocationType":"point","DisplayPosition":{"Latitude":50.15336,"Longitude":18.77403},"MapView":{"TopLeft":{"Latitude":50.1544842,"Longitude":18.7722755},"BottomRight":{"Latitude":50.1522358,"Longitude":18.7757845}},"Address":{"Label":"ulica Gliwicka 28, 43-180 Orzesze, Polska","Country":"POL","State":"Woj. Śląskie","County":"Powiat Mikołowski","City":"Orzesze","District":"Orzesze","Street":"ulica Gliwicka","HouseNumber":"28","PostalCode":"43-180","AdditionalData":[{"value":"Polska","key":"CountryName"},{"value":"Woj. Śląskie","key":"StateName"},{"value":"Powiat Mikołowski","key":"CountyName"}]},"MapReference":{"ReferenceId":"594379057","Spot":0.42,"SideOfStreet":"left","CountryId":"20624059","StateId":"20629003","CountyId":"20629211","CityId":"20629218","DistrictId":"20693759","AddressId":"701970148","RoadLinkId":"172757449"}}},{"Relevance":1.0,"Distance":140.6,"MatchLevel":"houseNumber","MatchQuality":{"Country":1.0,"State":1.0,"County":1.0,"City":1.0,"District":1.0,"Street":[1.0],"HouseNumber":1.0,"PostalCode":1.0},"MatchType":"interpolated","Location":{"LocationId":"NT_iLz13CJI1TyfcKCGQKITEB_yYD","LocationType":"point","DisplayPosition":{"Latitude":50.15434,"Longitude":18.77324},"MapView":{"TopLeft":{"Latitude":50.1554642,"Longitude":18.7714855},"BottomRight":{"Latitude":50.1532158,"Longitude":18.7749945}},"Address":{"Label":"ulica Pocztowa 26, 43-180 Orzesze, Polska","Country":"POL","State":"Woj. Śląskie","County":"Powiat Mikołowski","City":"Orzesze","District":"Orzesze","Street":"ulica Pocztowa","HouseNumber":"26","PostalCode":"43-180","AdditionalData":[{"value":"Polska","key":"CountryName"},{"value":"Woj. Śląskie","key":"StateName"},{"value":"Powiat Mikołowski","key":"CountyName"}]},"MapReference":{"ReferenceId":"1200480562","Spot":0.95,"SideOfStreet":"right","CountryId":"20624059","StateId":"20629003","CountyId":"20629211","CityId":"20629218","DistrictId":"20693759","AddressId":"701970177","RoadLinkId":"512801841"}}}]}]}}