{"Response":{"MetaInfo":{"Timestamp":"2020-03-28T10:47:34.275+0000","NextPageInformation":"2"},"View":[{"_type":"SearchResultsViewType","ViewId":0,"Result":[{"Relevance":1.0,"Distance":0.0,"Direction":0.0,"MatchLevel":"district","MatchQuality":{"Country":1.0,"State":1.0,"County":1.0,"City":1.0,"District":1.0,"PostalCode":1.0},"Location":{"LocationId":"NT_Do1pdyZZKGmfEoR.LIjKdD","LocationType":"point","DisplayPosition":{"Latitude":50.1735621,"Longitude":18.9061296},"MapView":{"TopLeft":{"Latitude":50.2433,"Longitude":18.78087},"BottomRight":{"Latitude":50.15018,"Longitude":18.9447}},"Address":{"Label":"Mikołów, Woj. Śląskie, Polska","Country":"POL","State":"Woj. Śląskie","County":"Powiat Mikołowski","City":"Mikołów","District":"Mikołów","PostalCode":"43-190","AdditionalData":[{"value":"Polska","key":"CountryName"},{"value":"Woj. Śląskie","key":"StateName"},{"value":"Powiat Mikołowski","key":"CountyName"}]},"MapReference":{"ReferenceId":"1064510414","SideOfStreet":"neither","CountryId":"20624059","StateId":"20629003","CountyId":"20629211","CityId":"20629214","DistrictId":"20646773"}}},{"Relevance":1.0,"Distance":16.4,"MatchLevel":"houseNumber","MatchQuality":{"Country":1.0,"State":1.0,"County":1.0,"City":1.0,"District":1.0,"Street":[1.0],"HouseNumber":1.0,"PostalCode":1.0},"MatchType":"interpolated","Location":{"LocationId":"NT_JCE73l7MdRssTKOu4vB8WB_yID","LocationType":"point","DisplayPosition":{"Latitude":50.17335,"Longitude":18.90587},"MapView":{"TopLeft":{"Latitude":50.1744742,"Longitude":18.9041148},"BottomRight":{"Latitude":50.1722258,"Longitude":18.9076252}},"Address":{"Label":"ulica Katowicka 22, 43-190 Mikołów, Polska","Country":"POL","State":"Woj. Śląskie","County":"Powiat Mikołowski","City":"Mikołów","District":"Mikołów","Street":"ulica Katowicka","HouseNumber":"22","PostalCode":"43-190","AdditionalData":[{"value":"Polska","key":"CountryName"},{"value":"Woj. Śląskie","key":"StateName"},{"value":"Powiat Mikołowski","key":"CountyName"}]},"MapReference":{"ReferenceId":"946873997","Spot":0.14,"SideOfStreet":"right","CountryId":"20624059","StateId":"20629003","CountyId":"20629211","CityId":"20629214","DistrictId":"20646773","AddressId":"211337688","RoadLinkId":"294831783"}}},{"Relevance":1.0,"Distance":25.5,"MatchLevel":"street","MatchQuality":{"Country":1.0,"State":1.0,"County":1.0,"City":1.0,"District":1.0,"PostalCode":1.0},"Location":{"LocationId":"NT_6t6HN2o.0OqQu27Gv7oSAA_l_946873998_L","LocationType":"point","DisplayPosition":{"Latitude":50.173336,"Longitude":18.9061926},"MapView":{"TopLeft":{"Latitude":50.17358,"Longitude":18.90592},"BottomRight":{"Latitude":50.17326,"Longitude":18.90679}},"Address":{"Label":"43-190 Mikołów, Polska","Country":"POL","State":"Woj. Śląskie","County":"Powiat Mikołowski","City":"Mikołów","District":"Mikołów","PostalCode":"43-190","AdditionalData":[{"value":"Polska","key":"CountryName"},{"value":"Woj. Śląskie","key":"StateName"},{"value":"Powiat Mikołowski","key":"CountyName"}]},"MapReference":{"ReferenceId":"946873998","Spot":0.3,"SideOfStreet":"left","CountryId":"20624059","StateId":"20629003","CountyId":"20629211","CityId":"20629214","DistrictId":"20646773"}}},{"Relevance":1.0,"Distance":47.1,"MatchLevel":"street","MatchQuality":{"Country":1.0,"State":1.0,"County":1.0,"City":1.0,"District":1.0,"Street":[1.0],"PostalCode":1.0},"Location":{"LocationId":"NT_EDT1uXIM7qjXLLUegtHYZC_l_946874002_L","LocationType":"point","DisplayPosition":{"Latitude":50.17358,"Longitude":18.90679},"MapView":{"TopLeft":{"Latitude":50.17377,"Longitude":18.90679},"BottomRight":{"Latitude":50.17358,"Longitude":18.90718}},"Address":{"Label":"ulica św. Wojciecha, 43-190 Mikołów, Polska","Country":"POL","State":"Woj. Śląskie","County":"Powiat Mikołowski","City":"Mikołów","District":"Mikołów","Street":"ulica św. Wojciecha","PostalCode":"43-190","AdditionalData":[{"value":"Polska","key":"CountryName"},{"value":"Woj. Śląskie","key":"StateName"},{"value":"Powiat Mikołowski","key":"CountyName"}]},"MapReference":{"ReferenceId":"946874002","Spot":0.0,"SideOfStreet":"left","CountryId":"20624059","StateId":"20629003","CountyId":"20629211","CityId":"20629214","DistrictId":"20646773"}}},{"Relevance":1.0,"Distance":47.1,"MatchLevel":"street","MatchQuality":{"Country":1.0,"State":1.0,"County":1.0,"City":1.0,"District":1.0,"Street":[1.0],"PostalCode":1.0},"Location":{"LocationId":"NT_EDT1uXIM7qjXLLUegtHYZC_l_946874004_R","LocationType":"point","DisplayPosition":{"Latitude":50.17358,"Longitude":18.90679},"MapView":{"TopLeft":{"Latitude":50.17381,"Longitude":18.90679},"BottomRight":{"Latitude":50.17355,"Longitude":18.90741}},"Address":{"Label":"ulica św. Wojciecha, 43-190 Mikołów, Polska","Country":"POL","State":"Woj. Śląskie","County":"Powiat Mikołowski","City":"Mikołów","District":"Mikołów","Street":"ulica św. Wojciecha","PostalCode":"43-190","AdditionalData":[{"value":"Polska","key":"CountryName"},{"value":"Woj. Śląskie","key":"StateName"},{"value":"Powiat Mikołowski","key":"CountyName"}]},"MapReference":{"ReferenceId":"946874004","Spot":0.0,"SideOfStreet":"right","CountryId":"20624059","StateId":"20629003","CountyId":"20629211","CityId":"20629214","DistrictId":"20646773"}}},{"Relevance":1.0,"Distance":48.4,"MatchLevel":"houseNumber","MatchQuality":{"Country":1.0,"State":1.0,"County":1.0,"City":1.0,"District":1.0,"Street":[1.0],"HouseNumber":1.0,"PostalCode":1.0},"MatchType":"interpolated","Location":{"LocationId":"NT_JCE73l7MdRssTKOu4vB8WB_xED","LocationType":"point","DisplayPosition":{"Latitude":50.17313,"Longitude":18.90526},"MapView":{"TopLeft":{"Latitude":50.1742542,"Longitude":18.9035048},"BottomRight":{"Latitude":50.1720058,"Longitude":18.9070152}},"Address":{"Label":"ulica Katowicka 11, 43-190 Mikołów, Polska","Country":"POL","State":"Woj. Śląskie","County":"Powiat Mikołowski","City":"Mikołów","District":"Mikołów","Street":"ulica Katowicka","HouseNumber":"11","PostalCode":"43-190","AdditionalData":[{"value":"Polska","key":"CountryName"},{"value":"Woj. Śląskie","key":"StateName"},{"value":"Powiat Mikołowski","key":"CountyName"}]},"MapReference":{"ReferenceId":"946873995","Spot":0.0,"SideOfStreet":"right","CountryId":"20624059","StateId":"20629003","CountyId":"20629211","CityId":"20629214","DistrictId":"20646773","AddressId":"211154830","RoadLinkId":"294831780"}}},{"Relevance":1.0,"Distance":54.1,"MatchLevel":"houseNumber","MatchQuality":{"Country":1.0,"State":1.0,"County":1.0,"City":1.0,"District":1.0,"Street":[1.0],"HouseNumber":1.0,"PostalCode":1.0},"MatchType":"interpolated","Location":{"LocationId":"NT_JCE73l7MdRssTKOu4vB8WB_yATQ","LocationType":"point","DisplayPosition":{"Latitude":50.17308,"Longitude":18.90603},"MapView":{"TopLeft":{"Latitude":50.1742042,"Longitude":18.9042748},"BottomRight":{"Latitude":50.1719558,"Longitude":18.9077852}},"Address":{"Label":"ulica Katowicka 20A, 43-190 Mikołów, Polska","Country":"POL","State":"Woj. Śląskie","County":"Powiat Mikołowski","City":"Mikołów","District":"Mikołów","Street":"ulica Katowicka","HouseNumber":"20A","PostalCode":"43-190","AdditionalData":[{"value":"Polska","key":"CountryName"},{"value":"Woj. Śląskie","key":"StateName"},{"value":"Powiat Mikołowski","key":"CountyName"}]},"MapReference":{"ReferenceId":"946873996","Spot":0.86,"SideOfStreet":"right","CountryId":"20624059","StateId":"20629003","CountyId":"20629211","CityId":"20629214","DistrictId":"20646773","AddressId":"210947533","RoadLinkId":"294831782"}}},{"Relevance":1.0,"Distance":54.6,"MatchLevel":"houseNumber","MatchQuality":{"Country":1.0,"State":1.0,"County":1.0,"City":1.0,"District":1.0,"Street":[1.0],"HouseNumber":1.0,"PostalCode":1.0},"MatchType":"interpolated","Location":{"LocationId":"NT_JCE73l7MdRssTKOu4vB8WB_yQD","LocationType":"point","DisplayPosition":{"Latitude":50.1741,"Longitude":18.90576},"MapView":{"TopLeft":{"Latitude":50.1752242,"Longitude":18.9040048},"BottomRight":{"Latitude":50.1729758,"Longitude":18.9075152}},"Address":{"Label":"ulica Katowicka 24, 43-190 Mikołów, Polska","Country":"POL","State":"Woj. Śląskie","County":"Powiat Mikołowski","City":"Mikołów","District":"Mikołów","Street":"ulica Katowicka","HouseNumber":"24","PostalCode":"43-190","AdditionalData":[{"value":"Polska","key":"CountryName"},{"value":"Woj. Śląskie","key":"StateName"},{"value":"Powiat Mikołowski","key":"CountyName"}]},"MapReference":{"ReferenceId":"946879863","Spot":0.31,"SideOfStreet":"right","CountryId":"20624059","StateId":"20629003","CountyId":"20629211","CityId":"20629214","DistrictId":"20646773","AddressId":"210770791","RoadLinkId":"294836979"}}},{"Relevance":1.0,"Distance":57.1,"MatchLevel":"landmark","MatchQuality":{"Country":1.0,"State":1.0,"County":1.0,"City":1.0,"District":1.0,"Street":[1.0],"HouseNumber":1.0,"PostalCode":1.0,"Name":1.0},"Location":{"LocationId":"NT_uom79Fd1OnY5sb8CKF-buC_p_ir3GpYVE5nrRpjIjw1yjDA","LocationType":"hospital","Name":"Szpital Powiatowy w Mikołowie","DisplayPosition":{"Latitude":50.17495,"Longitude":18.90466},"MapView":{"TopLeft":{"Latitude":50.1760742,"Longitude":18.9029047},"BottomRight":{"Latitude":50.1738258,"Longitude":18.9064153}},"Address":{"Label":"ulica Ludwika Waryńskiego 4, 43-190 Mikołów, Polska","Country":"POL","State":"Woj. Śląskie","County":"Powiat Mikołowski","City":"Mikołów","District":"Mikołów","Street":"ulica Ludwika Waryńskiego","HouseNumber":"4","PostalCode":"43-190","AdditionalData":[{"value":"Polska","key":"CountryName"},{"value":"Woj. Śląskie","key":"StateName"},{"value":"Powiat Mikołowski","key":"CountyName"}]},"MapReference":{"CountryId":"20624059","StateId":"20629003","CountyId":"20629211","CityId":"20629214","DistrictId":"20646773","PlaceId":"1023986407"}}},{"Relevance":1.0,"Distance":66.2,"MatchLevel":"houseNumber","MatchQuality":{"Country":1.0,"State":1.0,"County":1.0,"City":1.0,"District":1.0,"Street":[1.0],"HouseNumber":1.0,"PostalCode":1.0},"MatchType":"interpolated","Location":{"LocationId":"NT_0Et2NH9wIhWwC2h3HeuFuB_l_946868035_L_xA","LocationType":"point","DisplayPosition":{"Latitude":50.17402,"Longitude":18.90551},"MapView":{"TopLeft":{"Latitude":50.1751442,"Longitude":18.9037548},"BottomRight":{"Latitude":50.1728959,"Longitude":18.9072652}},"Address":{"Label":"ulica Ludwika Waryńskiego 1, 43-190 Mikołów, Polska","Country":"POL","State":"Woj. Śląskie","County":"Powiat Mikołowski","City":"Mikołów","District":"Mikołów","Street":"ulica Ludwika Waryńskiego","HouseNumber":"1","PostalCode":"43-190","AdditionalData":[{"value":"Polska","key":"CountryName"},{"value":"Woj. Śląskie","key":"StateName"},{"value":"Powiat Mikołowski","key":"CountyName"}]},"MapReference":{"ReferenceId":"946868035","Spot":0.3,"SideOfStreet":"left","CountryId":"20624059","StateId":"20629003","CountyId":"20629211","CityId":"20629214","DistrictId":"20646773"}}}]}]}}