{"Response":{"MetaInfo":{"Timestamp":"2020-03-28T09:34:47.062+0000","NextPageInformation":"2"},"View":[{"_type":"SearchResultsViewType","ViewId":0,"Result":[{"Relevance":1.0,"Distance":0.0,"Direction":0.0,"MatchLevel":"district","MatchQuality":{"Country":1.0,"State":1.0,"County":1.0,"City":1.0,"District":1.0,"PostalCode":1.0},"Location":{"LocationId":"NT_5EcYKO-o1RnrvbznM.n9WD","LocationType":"point","DisplayPosition":{"Latitude":50.1599071,"Longitude":14.8254149},"MapView":{"TopLeft":{"Latitude":50.1681,"Longitude":14.81595},"BottomRight":{"Latitude":50.15435,"Longitude":14.84347}},"Address":{"Label":"Přerov nad Labem, Středočeský kraj, Česká Republika","Country":"CZE","State":"Středočeský kraj","County":"Nymburk","City":"Přerov nad Labem","District":"Přerov nad Labem","PostalCode":"289 16","AdditionalData":[{"value":"Česká Republika","key":"CountryName"},{"value":"Středočeský kraj","key":"StateName"},{"value":"Nymburk","key":"CountyName"}]},"MapReference":{"ReferenceId":"998864428","SideOfStreet":"neither","CountryId":"20427915","StateId":"20442660","CountyId":"20444714","CityId":"20444901","DistrictId":"20444902"}}},{"Relevance":1.0,"Distance":12.1,"MatchLevel":"houseNumber","MatchQuality":{"Country":1.0,"State":1.0,"County":1.0,"City":1.0,"District":1.0,"Street":[1.0],"HouseNumber":1.0,"PostalCode":1.0},"MatchType":"interpolated","Location":{"LocationId":"NT_nHspijoex5iYwaHxbWWq3A_3ID","LocationType":"point","DisplayPosition":{"Latitude":50.16003,"Longitude":14.82565},"MapView":{"TopLeft":{"Latitude":50.1611542,"Longitude":14.8238953},"BottomRight":{"Latitude":50.1589058,"Longitude":14.8274047}},"Address":{"Label":"Městečko 72, 289 16 Přerov nad Labem, Česká Republika","Country":"CZE","State":"Středočeský kraj","County":"Nymburk","City":"Přerov nad Labem","District":"Přerov nad Labem","Street":"Městečko","HouseNumber":"72","PostalCode":"289 16","AdditionalData":[{"value":"Česká Republika","key":"CountryName"},{"value":"Středočeský kraj","key":"StateName"},{"value":"Nymburk","key":"CountyName"}]},"MapReference":{"ReferenceId":"703748860","Spot":0.22,"SideOfStreet":"left","CountryId":"20427915","StateId":"20442660","CountyId":"20444714","CityId":"20444901","DistrictId":"20444902","AddressId":"239586764","RoadLinkId":"76609896"}}},{"Relevance":1.0,"Distance":12.2,"MatchLevel":"street","MatchQuality":{"Country":1.0,"State":1.0,"County":1.0,"City":1.0,"District":1.0,"PostalCode":1.0},"Location":{"LocationId":"NT_Th76uwviP7PK6IR3GgvXcB_l_998645304_L","LocationType":"point","DisplayPosition":{"Latitude":50.1598,"Longitude":14.82545},"MapView":{"TopLeft":{"Latitude":50.15983,"Longitude":14.82545},"BottomRight":{"Latitude":50.1598,"Longitude":14.82593}},"Address":{"Label":"289 16 Přerov nad Labem, Česká Republika","Country":"CZE","State":"Středočeský kraj","County":"Nymburk","City":"Přerov nad Labem","District":"Přerov nad Labem","PostalCode":"289 16","AdditionalData":[{"value":"Česká Republika","key":"CountryName"},{"value":"Středočeský kraj","key":"StateName"},{"value":"Nymburk","key":"CountyName"}]},"MapReference":{"ReferenceId":"998645304","Spot":0.0,"SideOfStreet":"left","CountryId":"20427915","StateId":"20442660","CountyId":"20444714","CityId":"20444901","DistrictId":"20444902"}}},{"Relevance":1.0,"Distance":21.5,"MatchLevel":"houseNumber","MatchQuality":{"Country":1.0,"State":1.0,"County":1.0,"City":1.0,"District":1.0,"Street":[1.0],"HouseNumber":1.0,"PostalCode":1.0},"MatchType":"interpolated","Location":{"LocationId":"NT_nHspijoex5iYwaHxbWWq3A_1ED","LocationType":"point","DisplayPosition":{"Latitude":50.15985,"Longitude":14.82592},"MapView":{"TopLeft":{"Latitude":50.1609742,"Longitude":14.8241653},"BottomRight":{"Latitude":50.1587258,"Longitude":14.8276747}},"Address":{"Label":"Městečko 51, 289 16 Přerov nad Labem, Česká Republika","Country":"CZE","State":"Středočeský kraj","County":"Nymburk","City":"Přerov nad Labem","District":"Přerov nad Labem","Street":"Městečko","HouseNumber":"51","PostalCode":"289 16","AdditionalData":[{"value":"Česká Republika","key":"CountryName"},{"value":"Středočeský kraj","key":"StateName"},{"value":"Nymburk","key":"CountyName"}]},"MapReference":{"ReferenceId":"998645303","Spot":0.13,"SideOfStreet":"left","CountryId":"20427915","StateId":"20442660","CountyId":"20444714","CityId":"20444901","DistrictId":"20444902","AddressId":"241403278","RoadLinkId":"324986818"}}},{"Relevance":1.0,"Distance":31.8,"MatchLevel":"houseNumber","MatchQuality":{"Country":1.0,"State":1.0,"County":1.0,"City":1.0,"District":1.0,"Street":[1.0],"HouseNumber":1.0,"PostalCode":1.0},"MatchType":"interpolated","Location":{"LocationId":"NT_nHspijoex5iYwaHxbWWq3A_0IzM","LocationType":"point","DisplayPosition":{"Latitude":50.15988,"Longitude":14.82473},"MapView":{"TopLeft":{"Latitude":50.1610042,"Longitude":14.8229753},"BottomRight":{"Latitude":50.1587558,"Longitude":14.8264847}},"Address":{"Label":"Staropřerovská 423, 289 16 Přerov nad Labem, Česká Republika","Country":"CZE","State":"Středočeský kraj","County":"Nymburk","City":"Přerov nad Labem","District":"Přerov nad Labem","Street":"Staropřerovská","HouseNumber":"423","PostalCode":"289 16","AdditionalData":[{"value":"Česká Republika","key":"CountryName"},{"value":"Středočeský kraj","key":"StateName"},{"value":"Nymburk","key":"CountyName"}]},"MapReference":{"ReferenceId":"703748859","Spot":0.77,"SideOfStreet":"right","CountryId":"20427915","StateId":"20442660","CountyId":"20444714","CityId":"20444901","DistrictId":"20444902","AddressId":"676965339","RoadLinkId":"71641850"}}},{"Relevance":1.0,"Distance":41.9,"MatchLevel":"houseNumber","MatchQuality":{"Country":1.0,"State":1.0,"County":1.0,"City":1.0,"District":1.0,"Street":[1.0],"HouseNumber":1.0,"PostalCode":1.0},"MatchType":"interpolated","Location":{"LocationId":"NT_nHspijoex5iYwaHxbWWq3A_xAzM","LocationType":"point","DisplayPosition":{"Latitude":50.15969,"Longitude":14.82602},"MapView":{"TopLeft":{"Latitude":50.1608142,"Longitude":14.8242653},"BottomRight":{"Latitude":50.1585658,"Longitude":14.8277747}},"Address":{"Label":"Městečko 103, 289 16 Přerov nad Labem, Česká Republika","Country":"CZE","State":"Středočeský kraj","County":"Nymburk","City":"Přerov nad Labem","District":"Přerov nad Labem","Street":"Městečko","HouseNumber":"103","PostalCode":"289 16","AdditionalData":[{"value":"Česká Republika","key":"CountryName"},{"value":"Středočeský kraj","key":"StateName"},{"value":"Nymburk","key":"CountyName"}]},"MapReference":{"ReferenceId":"998645302","Spot":0.64,"SideOfStreet":"left","CountryId":"20427915","StateId":"20442660","CountyId":"20444714","CityId":"20444901","DistrictId":"20444902","AddressId":"239872310","RoadLinkId":"324986817"}}},{"Relevance":1.0,"Distance":48.5,"MatchLevel":"street","MatchQuality":{"Country":1.0,"State":1.0,"County":1.0,"City":1.0,"District":1.0,"Street":[1.0],"PostalCode":1.0},"Location":{"LocationId":"NT_d4Sm7W9yjJSnnI7uUU7aLA_l_703748861_R","LocationType":"point","DisplayPosition":{"Latitude":50.16015,"Longitude":14.82485},"MapView":{"TopLeft":{"Latitude":50.16023,"Longitude":14.82485},"BottomRight":{"Latitude":50.16015,"Longitude":14.82488}},"Address":{"Label":"Staropřerovská, 289 16 Přerov nad Labem, Česká Republika","Country":"CZE","State":"Středočeský kraj","County":"Nymburk","City":"Přerov nad Labem","District":"Přerov nad Labem","Street":"Staropřerovská","PostalCode":"289 16","AdditionalData":[{"value":"Česká Republika","key":"CountryName"},{"value":"Středočeský kraj","key":"StateName"},{"value":"Nymburk","key":"CountyName"}]},"MapReference":{"ReferenceId":"703748861","Spot":0.0,"SideOfStreet":"right","CountryId":"20427915","StateId":"20442660","CountyId":"20444714","CityId":"20444901","DistrictId":"20444902"}}},{"Relevance":1.0,"Distance":49.7,"MatchLevel":"houseNumber","MatchQuality":{"Country":1.0,"State":1.0,"County":1.0,"City":1.0,"District":1.0,"Street":[1.0],"HouseNumber":1.0,"PostalCode":1.0},"MatchType":"interpolated","Location":{"LocationId":"NT_nHspijoex5iYwaHxbWWq3A_2UD","LocationType":"point","DisplayPosition":{"Latitude":50.15996,"Longitude":14.82607},"MapView":{"TopLeft":{"Latitude":50.1610842,"Longitude":14.8243153},"BottomRight":{"Latitude":50.1588358,"Longitude":14.8278247}},"Address":{"Label":"Městečko 65, 289 16 Přerov nad Labem, Česká Republika","Country":"CZE","State":"Středočeský kraj","County":"Nymburk","City":"Přerov nad Labem","District":"Přerov nad Labem","Street":"Městečko","HouseNumber":"65","PostalCode":"289 16","AdditionalData":[{"value":"Česká Republika","key":"CountryName"},{"value":"Středočeský kraj","key":"StateName"},{"value":"Nymburk","key":"CountyName"}]},"MapReference":{"ReferenceId":"1000239962","Spot":0.79,"SideOfStreet":"right","CountryId":"20427915","StateId":"20442660","CountyId":"20444714","CityId":"20444901","DistrictId":"20444902","AddressId":"240530057","RoadLinkId":"326574300"}}},{"Relevance":1.0,"Distance":50.8,"MatchLevel":"houseNumber","MatchQuality":{"Country":1.0,"State":1.0,"County":1.0,"City":1.0,"District":1.0,"Street":[1.0],"HouseNumber":1.0,"PostalCode":1.0},"MatchType":"interpolated","Location":{"LocationId":"NT_Fu-CP16SNgjoQW.9QoXAyB_1AD","LocationType":"point","DisplayPosition":{"Latitude":50.15927,"Longitude":14.82596},"MapView":{"TopLeft":{"Latitude":50.1603942,"Longitude":14.8242053},"BottomRight":{"Latitude":50.1581458,"Longitude":14.8277147}},"Address":{"Label":"Přerov nad Labem 50, 289 16 Přerov nad Labem, Česká Republika","Country":"CZE","State":"Středočeský kraj","County":"Nymburk","City":"Přerov nad Labem","District":"Přerov nad Labem","Street":"Přerov nad Labem","HouseNumber":"50","PostalCode":"289 16","AdditionalData":[{"value":"Česká Republika","key":"CountryName"},{"value":"Středočeský kraj","key":"StateName"},{"value":"Nymburk","key":"CountyName"}]},"MapReference":{"ReferenceId":"998670434","Spot":0.89,"SideOfStreet":"left","CountryId":"20427915","StateId":"20442660","CountyId":"20444714","CityId":"20444901","DistrictId":"20444902","AddressId":"240370372","RoadLinkId":"324998878"}}},{"Relevance":1.0,"Distance":52.4,"MatchLevel":"street","MatchQuality":{"Country":1.0,"State":1.0,"County":1.0,"City":1.0,"District":1.0,"Street":[1.0],"PostalCode":1.0},"Location":{"LocationId":"NT_d4Sm7W9yjJSnnI7uUU7aLA_l_998643153_R","LocationType":"point","DisplayPosition":{"Latitude":50.16023,"Longitude":14.82488},"MapView":{"TopLeft":{"Latitude":50.16047,"Longitude":14.82466},"BottomRight":{"Latitude":50.16023,"Longitude":14.82488}},"Address":{"Label":"Staropřerovská, 289 16 Přerov nad Labem, Česká Republika","Country":"CZE","State":"Středočeský kraj","County":"Nymburk","City":"Přerov nad Labem","District":"Přerov nad Labem","Street":"Staropřerovská","PostalCode":"289 16","AdditionalData":[{"value":"Česká Republika","key":"CountryName"},{"value":"Středočeský kraj","key":"StateName"},{"value":"Nymburk","key":"CountyName"}]},"MapReference":{"ReferenceId":"998643153","Spot":0.0,"SideOfStreet":"right","CountryId":"20427915","StateId":"20442660","CountyId":"20444714","CityId":"20444901","DistrictId":"20444902"}}}]}]}}