{"Response":{"MetaInfo":{"Timestamp":"2020-03-28T12:04:57.017+0000","NextPageInformation":"2"},"View":[{"_type":"SearchResultsViewType","ViewId":0,"Result":[{"Relevance":1.0,"Distance":0.0,"Direction":0.0,"MatchLevel":"district","MatchQuality":{"Country":1.0,"State":1.0,"County":1.0,"City":1.0,"District":1.0,"PostalCode":1.0},"Location":{"LocationId":"NT_jA5TlgkUgeZeJrhuuAexVC","LocationType":"point","DisplayPosition":{"Latitude":50.1173987,"Longitude":22.050936},"MapView":{"TopLeft":{"Latitude":50.12635,"Longitude":22.04337},"BottomRight":{"Latitude":50.10952,"Longitude":22.07296}},"Address":{"Label":"Jasionka, Trzebownisko, Woj. Podkarpackie, Polska","Country":"POL","State":"Woj. Podkarpackie","County":"Powiat Rzeszowski","City":"Trzebownisko","District":"Jasionka","PostalCode":"36-002","AdditionalData":[{"value":"Polska","key":"CountryName"},{"value":"Woj. Podkarpackie","key":"StateName"},{"value":"Powiat Rzeszowski","key":"CountyName"}]},"MapReference":{"ReferenceId":"1236245760","SideOfStreet":"neither","CountryId":"20624059","StateId":"20628101","CountyId":"20628372","CityId":"20628397","DistrictId":"20691764"}}},{"Relevance":1.0,"Distance":4.3,"MatchLevel":"houseNumber","MatchQuality":{"Country":1.0,"State":1.0,"County":1.0,"City":1.0,"District":1.0,"Street":[1.0],"HouseNumber":1.0,"PostalCode":1.0},"MatchType":"interpolated","Location":{"LocationId":"NT_fXA1AeW8qZyh9dclrj2wgB_yMzMBB","LocationType":"point","DisplayPosition":{"Latitude":50.1175,"Longitude":22.05103},"MapView":{"TopLeft":{"Latitude":50.1186242,"Longitude":22.0492768},"BottomRight":{"Latitude":50.1163758,"Longitude":22.0527832}},"Address":{"Label":"Jasionka 233A, 36-002 Jasionka, Polska","Country":"POL","State":"Woj. Podkarpackie","County":"Powiat Rzeszowski","City":"Trzebownisko","District":"Jasionka","Street":"Jasionka","HouseNumber":"233A","PostalCode":"36-002","AdditionalData":[{"value":"Polska","key":"CountryName"},{"value":"Woj. Podkarpackie","key":"StateName"},{"value":"Powiat Rzeszowski","key":"CountyName"}]},"MapReference":{"ReferenceId":"997126805","Spot":0.21,"SideOfStreet":"left","CountryId":"20624059","StateId":"20628101","CountyId":"20628372","CityId":"20628397","DistrictId":"20691764","AddressId":"732228441","RoadLinkId":"324797975"}}},{"Relevance":1.0,"Distance":52.5,"MatchLevel":"houseNumber","MatchQuality":{"Country":1.0,"State":1.0,"County":1.0,"City":1.0,"District":1.0,"Street":[1.0],"HouseNumber":1.0,"PostalCode":1.0},"MatchType":"interpolated","Location":{"LocationId":"NT_fXA1AeW8qZyh9dclrj2wgB_yMDM","LocationType":"point","DisplayPosition":{"Latitude":50.11739,"Longitude":22.05147},"MapView":{"TopLeft":{"Latitude":50.1185142,"Longitude":22.0497168},"BottomRight":{"Latitude":50.1162658,"Longitude":22.0532232}},"Address":{"Label":"Jasionka 230, 36-002 Jasionka, Polska","Country":"POL","State":"Woj. Podkarpackie","County":"Powiat Rzeszowski","City":"Trzebownisko","District":"Jasionka","Street":"Jasionka","HouseNumber":"230","PostalCode":"36-002","AdditionalData":[{"value":"Polska","key":"CountryName"},{"value":"Woj. Podkarpackie","key":"StateName"},{"value":"Powiat Rzeszowski","key":"CountyName"}]},"MapReference":{"ReferenceId":"997126817","Spot":1.0,"SideOfStreet":"left","CountryId":"20624059","StateId":"20628101","CountyId":"20628372","CityId":"20628397","DistrictId":"20691764","AddressId":"267064454","RoadLinkId":"324797985"}}},{"Relevance":1.0,"Distance":75.4,"MatchLevel":"houseNumber","MatchQuality":{"Country":1.0,"State":1.0,"County":1.0,"City":1.0,"District":1.0,"Street":[1.0],"HouseNumber":1.0,"PostalCode":1.0},"MatchType":"interpolated","Location":{"LocationId":"NT_fXA1AeW8qZyh9dclrj2wgB_yMDN","LocationType":"point","DisplayPosition":{"Latitude":50.11689,"Longitude":22.05005},"MapView":{"TopLeft":{"Latitude":50.1180142,"Longitude":22.0482969},"BottomRight":{"Latitude":50.1157658,"Longitude":22.0518031}},"Address":{"Label":"Jasionka 234, 36-002 Jasionka, Polska","Country":"POL","State":"Woj. Podkarpackie","County":"Powiat Rzeszowski","City":"Trzebownisko","District":"Jasionka","Street":"Jasionka","HouseNumber":"234","PostalCode":"36-002","AdditionalData":[{"value":"Polska","key":"CountryName"},{"value":"Woj. Podkarpackie","key":"StateName"},{"value":"Powiat Rzeszowski","key":"CountyName"}]},"MapReference":{"ReferenceId":"997126820","Spot":1.0,"SideOfStreet":"right","CountryId":"20624059","StateId":"20628101","CountyId":"20628372","CityId":"20628397","DistrictId":"20691764","AddressId":"267033830","RoadLinkId":"324797989"}}},{"Relevance":1.0,"Distance":102.3,"MatchLevel":"houseNumber","MatchQuality":{"Country":1.0,"State":1.0,"County":1.0,"City":1.0,"District":1.0,"Street":[1.0],"HouseNumber":1.0,"PostalCode":1.0},"MatchType":"interpolated","Location":{"LocationId":"NT_fXA1AeW8qZyh9dclrj2wgB_yITM","LocationType":"point","DisplayPosition":{"Latitude":50.11651,"Longitude":22.05163},"MapView":{"TopLeft":{"Latitude":50.1176342,"Longitude":22.0498769},"BottomRight":{"Latitude":50.1153858,"Longitude":22.0533831}},"Address":{"Label":"Jasionka 221, 36-002 Jasionka, Polska","Country":"POL","State":"Woj. Podkarpackie","County":"Powiat Rzeszowski","City":"Trzebownisko","District":"Jasionka","Street":"Jasionka","HouseNumber":"221","PostalCode":"36-002","AdditionalData":[{"value":"Polska","key":"CountryName"},{"value":"Woj. Podkarpackie","key":"StateName"},{"value":"Powiat Rzeszowski","key":"CountyName"}]},"MapReference":{"ReferenceId":"997214591","Spot":0.36,"SideOfStreet":"left","CountryId":"20624059","StateId":"20628101","CountyId":"20628372","CityId":"20628397","DistrictId":"20691764","AddressId":"267064458","RoadLinkId":"324876484"}}},{"Relevance":1.0,"Distance":108.7,"MatchLevel":"houseNumber","MatchQuality":{"Country":1.0,"State":1.0,"County":1.0,"City":1.0,"District":1.0,"Street":[1.0],"HouseNumber":1.0,"PostalCode":1.0},"MatchType":"interpolated","Location":{"LocationId":"NT_fXA1AeW8qZyh9dclrj2wgB_yITNKB","LocationType":"point","DisplayPosition":{"Latitude":50.11786,"Longitude":22.05228},"MapView":{"TopLeft":{"Latitude":50.1189842,"Longitude":22.0505268},"BottomRight":{"Latitude":50.1167358,"Longitude":22.0540332}},"Address":{"Label":"Jasionka 225J, 36-002 Jasionka, Polska","Country":"POL","State":"Woj. Podkarpackie","County":"Powiat Rzeszowski","City":"Trzebownisko","District":"Jasionka","Street":"Jasionka","HouseNumber":"225J","PostalCode":"36-002","AdditionalData":[{"value":"Polska","key":"CountryName"},{"value":"Woj. Podkarpackie","key":"StateName"},{"value":"Powiat Rzeszowski","key":"CountyName"}]},"MapReference":{"ReferenceId":"997126812","Spot":1.0,"SideOfStreet":"right","CountryId":"20624059","StateId":"20628101","CountyId":"20628372","CityId":"20628397","DistrictId":"20691764","AddressId":"772217691","RoadLinkId":"324876492"}}},{"Relevance":1.0,"Distance":114.8,"MatchLevel":"street","MatchQuality":{"Country":1.0,"State":1.0,"County":1.0,"City":1.0,"PostalCode":1.0},"Location":{"LocationId":"NT_gauT2-0klQpVAokJqznZGD_l_997126813_L","LocationType":"point","DisplayPosition":{"Latitude":50.1180595,"Longitude":22.0521735},"MapView":{"TopLeft":{"Latitude":50.11889,"Longitude":22.05173},"BottomRight":{"Latitude":50.11786,"Longitude":22.05228}},"Address":{"Label":"36-002, Polska","Country":"POL","State":"Woj. Podkarpackie","County":"Powiat Rzeszowski","City":"Trzebownisko","PostalCode":"36-002","AdditionalData":[{"value":"Polska","key":"CountryName"},{"value":"Woj. Podkarpackie","key":"StateName"},{"value":"Powiat Rzeszowski","key":"CountyName"}]},"MapReference":{"ReferenceId":"997126813","Spot":0.19,"SideOfStreet":"left","CountryId":"20624059","StateId":"20628101","CountyId":"20628372","CityId":"20628397"}}},{"Relevance":1.0,"Distance":124.7,"MatchLevel":"houseNumber","MatchQuality":{"Country":1.0,"State":1.0,"County":1.0,"City":1.0,"District":1.0,"Street":[1.0],"HouseNumber":1.0,"PostalCode":1.0},"MatchType":"interpolated","Location":{"LocationId":"NT_fXA1AeW8qZyh9dclrj2wgB_xYDO","LocationType":"point","DisplayPosition":{"Latitude":50.11621,"Longitude":22.05118},"MapView":{"TopLeft":{"Latitude":50.1173342,"Longitude":22.0494269},"BottomRight":{"Latitude":50.1150858,"Longitude":22.0529331}},"Address":{"Label":"Jasionka 168, 36-002 Jasionka, Polska","Country":"POL","State":"Woj. Podkarpackie","County":"Powiat Rzeszowski","City":"Trzebownisko","District":"Jasionka","Street":"Jasionka","HouseNumber":"168","PostalCode":"36-002","AdditionalData":[{"value":"Polska","key":"CountryName"},{"value":"Woj. Podkarpackie","key":"StateName"},{"value":"Powiat Rzeszowski","key":"CountyName"}]},"MapReference":{"ReferenceId":"997214590","Spot":0.92,"SideOfStreet":"left","CountryId":"20624059","StateId":"20628101","CountyId":"20628372","CityId":"20628397","DistrictId":"20691764","AddressId":"267533660","RoadLinkId":"324876483"}}},{"Relevance":1.0,"Distance":126.4,"MatchLevel":"houseNumber","MatchQuality":{"Country":1.0,"State":1.0,"County":1.0,"City":1.0,"District":1.0,"Street":[1.0],"HouseNumber":1.0,"PostalCode":1.0},"MatchType":"interpolated","Location":{"LocationId":"NT_fXA1AeW8qZyh9dclrj2wgB_yETO","LocationType":"point","DisplayPosition":{"Latitude":50.11684,"Longitude":22.0525},"MapView":{"TopLeft":{"Latitude":50.1179642,"Longitude":22.0507469},"BottomRight":{"Latitude":50.1157158,"Longitude":22.0542531}},"Address":{"Label":"Jasionka 219, 36-002 Jasionka, Polska","Country":"POL","State":"Woj. Podkarpackie","County":"Powiat Rzeszowski","City":"Trzebownisko","District":"Jasionka","Street":"Jasionka","HouseNumber":"219","PostalCode":"36-002","AdditionalData":[{"value":"Polska","key":"CountryName"},{"value":"Woj. Podkarpackie","key":"StateName"},{"value":"Powiat Rzeszowski","key":"CountyName"}]},"MapReference":{"ReferenceId":"997126816","Spot":0.8,"SideOfStreet":"left","CountryId":"20624059","StateId":"20628101","CountyId":"20628372","CityId":"20628397","DistrictId":"20691764","AddressId":"267064463","RoadLinkId":"324797984"}}},{"Relevance":1.0,"Distance":133.6,"MatchLevel":"houseNumber","MatchQuality":{"Country":1.0,"State":1.0,"County":1.0,"City":1.0,"District":1.0,"Street":[1.0],"HouseNumber":1.0,"PostalCode":1.0},"MatchType":"interpolated","Location":{"LocationId":"NT_fXA1AeW8qZyh9dclrj2wgB_xcjM","LocationType":"point","DisplayPosition":{"Latitude":50.11595,"Longitude":22.05193},"MapView":{"TopLeft":{"Latitude":50.1170742,"Longitude":22.0501769},"BottomRight":{"Latitude":50.1148258,"Longitude":22.0536831}},"Address":{"Label":"Jasionka 172, 36-002 Jasionka, Polska","Country":"POL","State":"Woj. Podkarpackie","County":"Powiat Rzeszowski","City":"Trzebownisko","District":"Jasionka","Street":"Jasionka","HouseNumber":"172","PostalCode":"36-002","AdditionalData":[{"value":"Polska","key":"CountryName"},{"value":"Woj. Podkarpackie","key":"StateName"},{"value":"Powiat Rzeszowski","key":"CountyName"}]},"MapReference":{"ReferenceId":"594008592","Spot":0.47,"SideOfStreet":"left","CountryId":"20624059","StateId":"20628101","CountyId":"20628372","CityId":"20628397","DistrictId":"20691764","AddressId":"267533655","RoadLinkId":"96430760"}}}]}]}}