{"Response":{"MetaInfo":{"Timestamp":"2020-03-28T10:05:52.143+0000","NextPageInformation":"2"},"View":[{"_type":"SearchResultsViewType","ViewId":0,"Result":[{"Relevance":1.0,"Distance":0.0,"Direction":0.0,"MatchLevel":"district","MatchQuality":{"Country":1.0,"State":1.0,"County":1.0,"City":1.0,"District":1.0,"PostalCode":1.0},"Location":{"LocationId":"NT_xlyik2XsjLY1WgxuXjWlpB","LocationType":"point","DisplayPosition":{"Latitude":50.1997479,"Longitude":7.8581605},"MapView":{"TopLeft":{"Latitude":50.2059,"Longitude":7.84186},"BottomRight":{"Latitude":50.19161,"Longitude":7.87405}},"Address":{"Label":"Nastätten, Rheinland-Pfalz, Deutschland","Country":"DEU","State":"Rheinland-Pfalz","County":"Rhein-Lahn-Kreis","City":"Nastätten","District":"Nastätten","PostalCode":"56355","AdditionalData":[{"value":"Deutschland","key":"CountryName"},{"value":"Rheinland-Pfalz","key":"StateName"},{"value":"Rhein-Lahn-Kreis","key":"CountyName"}]},"MapReference":{"ReferenceId":"52636167","SideOfStreet":"neither","CountryId":"20147700","StateId":"20164001","CountyId":"20166538","CityId":"20166804","DistrictId":"20166806"}}},{"Relevance":1.0,"Distance":18.7,"MatchLevel":"houseNumber","MatchQuality":{"Country":1.0,"State":1.0,"County":1.0,"City":1.0,"District":1.0,"Street":[1.0],"HouseNumber":1.0,"PostalCode":1.0},"MatchType":"interpolated","Location":{"LocationId":"NT_HcvXUW.WgTP7qud4IVzViC_xAD","LocationType":"point","DisplayPosition":{"Latitude":50.19958,"Longitude":7.85876},"MapView":{"TopLeft":{"Latitude":50.2007042,"Longitude":7.8570038},"BottomRight":{"Latitude":50.1984558,"Longitude":7.8605162}},"Address":{"Label":"Poststraße 10, 56355 Nastätten, Deutschland","Country":"DEU","State":"Rheinland-Pfalz","County":"Rhein-Lahn-Kreis","City":"Nastätten","District":"Nastätten","Street":"Poststraße","HouseNumber":"10","PostalCode":"56355","AdditionalData":[{"value":"Deutschland","key":"CountryName"},{"value":"Rheinland-Pfalz","key":"StateName"},{"value":"Rhein-Lahn-Kreis","key":"CountyName"}]},"MapReference":{"ReferenceId":"835402943","Spot":0.47,"SideOfStreet":"left","CountryId":"20147700","StateId":"20164001","CountyId":"20166538","CityId":"20166804","DistrictId":"20166806","AddressId":"622279696","RoadLinkId":"218765356"}}},{"Relevance":1.0,"Distance":44.3,"MatchLevel":"houseNumber","MatchQuality":{"Country":1.0,"State":1.0,"County":1.0,"City":1.0,"District":1.0,"Street":[1.0],"HouseNumber":1.0,"PostalCode":1.0},"MatchType":"interpolated","Location":{"LocationId":"NT_HcvXUW.WgTP7qud4IVzViC_4A","LocationType":"point","DisplayPosition":{"Latitude":50.19926,"Longitude":7.85856},"MapView":{"TopLeft":{"Latitude":50.2003842,"Longitude":7.8568038},"BottomRight":{"Latitude":50.1981358,"Longitude":7.8603162}},"Address":{"Label":"Poststraße 8, 56355 Nastätten, Deutschland","Country":"DEU","State":"Rheinland-Pfalz","County":"Rhein-Lahn-Kreis","City":"Nastätten","District":"Nastätten","Street":"Poststraße","HouseNumber":"8","PostalCode":"56355","AdditionalData":[{"value":"Deutschland","key":"CountryName"},{"value":"Rheinland-Pfalz","key":"StateName"},{"value":"Rhein-Lahn-Kreis","key":"CountyName"}]},"MapReference":{"ReferenceId":"52636167","Spot":0.58,"SideOfStreet":"left","CountryId":"20147700","StateId":"20164001","CountyId":"20166538","CityId":"20166804","DistrictId":"20166806","AddressId":"188641725","RoadLinkId":"34741689"}}},{"Relevance":1.0,"Distance":48.2,"MatchLevel":"houseNumber","MatchQuality":{"Country":1.0,"State":1.0,"County":1.0,"City":1.0,"District":1.0,"Street":[1.0],"HouseNumber":1.0,"PostalCode":1.0},"MatchType":"interpolated","Location":{"LocationId":"NT_EGT2BjdjRMdyKeEY4CkqIB_yMD","LocationType":"point","DisplayPosition":{"Latitude":50.19943,"Longitude":7.85756},"MapView":{"TopLeft":{"Latitude":50.2005542,"Longitude":7.8558038},"BottomRight":{"Latitude":50.1983058,"Longitude":7.8593162}},"Address":{"Label":"Römerstraße 23, 56355 Nastätten, Deutschland","Country":"DEU","State":"Rheinland-Pfalz","County":"Rhein-Lahn-Kreis","City":"Nastätten","District":"Nastätten","Street":"Römerstraße","HouseNumber":"23","PostalCode":"56355","AdditionalData":[{"value":"Deutschland","key":"CountryName"},{"value":"Rheinland-Pfalz","key":"StateName"},{"value":"Rhein-Lahn-Kreis","key":"CountyName"}]},"MapReference":{"ReferenceId":"897550103","Spot":0.61,"SideOfStreet":"right","CountryId":"20147700","StateId":"20164001","CountyId":"20166538","CityId":"20166804","DistrictId":"20166806","AddressId":"188145304","RoadLinkId":"259659896"}}},{"Relevance":1.0,"Distance":50.6,"MatchLevel":"houseNumber","MatchQuality":{"Country":1.0,"State":1.0,"County":1.0,"City":1.0,"District":1.0,"Street":[1.0],"HouseNumber":1.0,"PostalCode":1.0},"MatchType":"interpolated","Location":{"LocationId":"NT_EGT2BjdjRMdyKeEY4CkqIB_yUD","LocationType":"point","DisplayPosition":{"Latitude":50.19949,"Longitude":7.85742},"MapView":{"TopLeft":{"Latitude":50.2006142,"Longitude":7.8556638},"BottomRight":{"Latitude":50.1983658,"Longitude":7.8591762}},"Address":{"Label":"Römerstraße 25, 56355 Nastätten, Deutschland","Country":"DEU","State":"Rheinland-Pfalz","County":"Rhein-Lahn-Kreis","City":"Nastätten","District":"Nastätten","Street":"Römerstraße","HouseNumber":"25","PostalCode":"56355","AdditionalData":[{"value":"Deutschland","key":"CountryName"},{"value":"Rheinland-Pfalz","key":"StateName"},{"value":"Rhein-Lahn-Kreis","key":"CountyName"}]},"MapReference":{"ReferenceId":"548440875","Spot":0.08,"SideOfStreet":"right","CountryId":"20147700","StateId":"20164001","CountyId":"20166538","CityId":"20166804","DistrictId":"20166806","AddressId":"188420214","RoadLinkId":"34540982"}}},{"Relevance":1.0,"Distance":52.0,"MatchLevel":"houseNumber","MatchQuality":{"Country":1.0,"State":1.0,"County":1.0,"City":1.0,"District":1.0,"Street":[1.0],"HouseNumber":1.0,"PostalCode":1.0},"MatchType":"interpolated","Location":{"LocationId":"NT_EGT2BjdjRMdyKeEY4CkqIB_xMD","LocationType":"point","DisplayPosition":{"Latitude":50.19926,"Longitude":7.85797},"MapView":{"TopLeft":{"Latitude":50.2003842,"Longitude":7.8562138},"BottomRight":{"Latitude":50.1981358,"Longitude":7.8597262}},"Address":{"Label":"Römerstraße 13, 56355 Nastätten, Deutschland","Country":"DEU","State":"Rheinland-Pfalz","County":"Rhein-Lahn-Kreis","City":"Nastätten","District":"Nastätten","Street":"Römerstraße","HouseNumber":"13","PostalCode":"56355","AdditionalData":[{"value":"Deutschland","key":"CountryName"},{"value":"Rheinland-Pfalz","key":"StateName"},{"value":"Rhein-Lahn-Kreis","key":"CountyName"}]},"MapReference":{"ReferenceId":"897550102","Spot":0.5,"SideOfStreet":"right","CountryId":"20147700","StateId":"20164001","CountyId":"20166538","CityId":"20166804","DistrictId":"20166806","AddressId":"188145305","RoadLinkId":"259659895"}}},{"Relevance":1.0,"Distance":52.8,"MatchLevel":"houseNumber","MatchQuality":{"Country":1.0,"State":1.0,"County":1.0,"City":1.0,"District":1.0,"Street":[1.0],"HouseNumber":1.0,"PostalCode":1.0},"MatchType":"interpolated","Location":{"LocationId":"NT_HcvXUW.WgTP7qud4IVzViC_xYD","LocationType":"point","DisplayPosition":{"Latitude":50.19975,"Longitude":7.85894},"MapView":{"TopLeft":{"Latitude":50.2008742,"Longitude":7.8571838},"BottomRight":{"Latitude":50.1986258,"Longitude":7.8606962}},"Address":{"Label":"Poststraße 16, 56355 Nastätten, Deutschland","Country":"DEU","State":"Rheinland-Pfalz","County":"Rhein-Lahn-Kreis","City":"Nastätten","District":"Nastätten","Street":"Poststraße","HouseNumber":"16","PostalCode":"56355","AdditionalData":[{"value":"Deutschland","key":"CountryName"},{"value":"Rheinland-Pfalz","key":"StateName"},{"value":"Rhein-Lahn-Kreis","key":"CountyName"}]},"MapReference":{"ReferenceId":"835402944","Spot":0.05,"SideOfStreet":"left","CountryId":"20147700","StateId":"20164001","CountyId":"20166538","CityId":"20166804","DistrictId":"20166806","AddressId":"188213261","RoadLinkId":"218765357"}}},{"Relevance":1.0,"Distance":58.6,"MatchLevel":"street","MatchQuality":{"Country":1.0,"State":1.0,"County":1.0,"City":1.0,"District":1.0,"Street":[1.0],"PostalCode":1.0},"Location":{"LocationId":"NT_FQFwaxNHVKJdbEwURSfOHB_l_835964342_L","LocationType":"point","DisplayPosition":{"Latitude":50.19938,"Longitude":7.85875},"MapView":{"TopLeft":{"Latitude":50.19945,"Longitude":7.85875},"BottomRight":{"Latitude":50.19933,"Longitude":7.86017}},"Address":{"Label":"Lohbachstraße, 56355 Nastätten, Deutschland","Country":"DEU","State":"Rheinland-Pfalz","County":"Rhein-Lahn-Kreis","City":"Nastätten","District":"Nastätten","Street":"Lohbachstraße","PostalCode":"56355","AdditionalData":[{"value":"Deutschland","key":"CountryName"},{"value":"Rheinland-Pfalz","key":"StateName"},{"value":"Rhein-Lahn-Kreis","key":"CountyName"}]},"MapReference":{"ReferenceId":"835964342","Spot":0.0,"SideOfStreet":"left","CountryId":"20147700","StateId":"20164001","CountyId":"20166538","CityId":"20166804","DistrictId":"20166806"}}},{"Relevance":1.0,"Distance":59.7,"MatchLevel":"houseNumber","MatchQuality":{"Country":1.0,"State":1.0,"County":1.0,"City":1.0,"District":1.0,"Street":[1.0],"HouseNumber":1.0,"PostalCode":1.0},"MatchType":"interpolated","Location":{"LocationId":"NT_UQf.-KlcWZdRiQ7nhwzjDB_0EE","LocationType":"point","DisplayPosition":{"Latitude":50.20056,"Longitude":7.8588},"MapView":{"TopLeft":{"Latitude":50.2016842,"Longitude":7.8570438},"BottomRight":{"Latitude":50.1994358,"Longitude":7.8605562}},"Address":{"Label":"Hochstraße 4A, 56355 Nastätten, Deutschland","Country":"DEU","State":"Rheinland-Pfalz","County":"Rhein-Lahn-Kreis","City":"Nastätten","District":"Nastätten","Street":"Hochstraße","HouseNumber":"4A","PostalCode":"56355","AdditionalData":[{"value":"Deutschland","key":"CountryName"},{"value":"Rheinland-Pfalz","key":"StateName"},{"value":"Rhein-Lahn-Kreis","key":"CountyName"}]},"MapReference":{"ReferenceId":"548440751","Spot":0.41,"SideOfStreet":"left","CountryId":"20147700","StateId":"20164001","CountyId":"20166538","CityId":"20166804","DistrictId":"20166806","AddressId":"622223164","RoadLinkId":"34894056"}}},{"Relevance":1.0,"Distance":74.5,"MatchLevel":"houseNumber","MatchQuality":{"Country":1.0,"State":1.0,"County":1.0,"City":1.0,"District":1.0,"Street":[1.0],"HouseNumber":1.0,"PostalCode":1.0},"MatchType":"interpolated","Location":{"LocationId":"NT_HcvXUW.WgTP7qud4IVzViC_xgD","LocationType":"point","DisplayPosition":{"Latitude":50.20021,"Longitude":7.85919},"MapView":{"TopLeft":{"Latitude":50.2013342,"Longitude":7.8574338},"BottomRight":{"Latitude":50.1990858,"Longitude":7.8609462}},"Address":{"Label":"Poststraße 18, 56355 Nastätten, Deutschland","Country":"DEU","State":"Rheinland-Pfalz","County":"Rhein-Lahn-Kreis","City":"Nastätten","District":"Nastätten","Street":"Poststraße","HouseNumber":"18","PostalCode":"56355","AdditionalData":[{"value":"Deutschland","key":"CountryName"},{"value":"Rheinland-Pfalz","key":"StateName"},{"value":"Rhein-Lahn-Kreis","key":"CountyName"}]},"MapReference":{"ReferenceId":"548513098","Spot":0.0,"SideOfStreet":"left","CountryId":"20147700","StateId":"20164001","CountyId":"20166538","CityId":"20166804","DistrictId":"20166806","AddressId":"188839546","RoadLinkId":"34431898"}}}]}]}}