{"Response":{"MetaInfo":{"Timestamp":"2020-03-28T10:25:12.829+0000","NextPageInformation":"2"},"View":[{"_type":"SearchResultsViewType","ViewId":0,"Result":[{"Relevance":1.0,"Distance":0.0,"Direction":0.0,"MatchLevel":"district","MatchQuality":{"Country":1.0,"State":1.0,"County":1.0,"City":1.0,"District":1.0,"PostalCode":1.0},"Location":{"LocationId":"NT_QF.rCwV5ZMp8lS4uhRTDxA","LocationType":"point","DisplayPosition":{"Latitude":50.1049015,"Longitude":8.7640914},"MapView":{"TopLeft":{"Latitude":50.11507,"Longitude":8.72952},"BottomRight":{"Latitude":50.08097,"Longitude":8.80935}},"Address":{"Label":"Offenbach am Main, Hessen, Deutschland","Country":"DEU","State":"Hessen","County":"Offenbach am Main","City":"Offenbach am Main","District":"Offenbach am Main","PostalCode":"63065","AdditionalData":[{"value":"Deutschland","key":"CountryName"},{"value":"Hessen","key":"StateName"},{"value":"Offenbach am Main","key":"CountyName"}]},"MapReference":{"ReferenceId":"1221326384","SideOfStreet":"neither","CountryId":"20147700","StateId":"20160993","CountyId":"20161019","CityId":"20161020","DistrictId":"20161030"}}},{"Relevance":1.0,"Distance":3.1,"MatchLevel":"houseNumber","MatchQuality":{"Country":1.0,"State":1.0,"County":1.0,"City":1.0,"District":1.0,"Street":[1.0],"HouseNumber":1.0,"PostalCode":1.0},"MatchType":"interpolated","Location":{"LocationId":"NT_1NzkNku-oSYMDnj8J0t5YB_zA","LocationType":"point","DisplayPosition":{"Latitude":50.10481,"Longitude":8.76404},"MapView":{"TopLeft":{"Latitude":50.1059342,"Longitude":8.7622873},"BottomRight":{"Latitude":50.1036858,"Longitude":8.7657927}},"Address":{"Label":"Frankfurter Straße 3, 63065 Offenbach am Main, Deutschland","Country":"DEU","State":"Hessen","County":"Offenbach am Main","City":"Offenbach am Main","District":"Offenbach am Main","Street":"Frankfurter Straße","HouseNumber":"3","PostalCode":"63065","AdditionalData":[{"value":"Deutschland","key":"CountryName"},{"value":"Hessen","key":"StateName"},{"value":"Offenbach am Main","key":"CountyName"}]},"MapReference":{"ReferenceId":"52319898","Spot":0.23,"SideOfStreet":"right","CountryId":"20147700","StateId":"20160993","CountyId":"20161019","CityId":"20161020","DistrictId":"20161030","AddressId":"186586080","RoadLinkId":"34401154"}}},{"Relevance":1.0,"Distance":31.3,"MatchLevel":"street","MatchQuality":{"Country":1.0,"State":1.0,"County":1.0,"City":1.0,"District":1.0,"Street":[1.0],"PostalCode":1.0},"Location":{"LocationId":"NT_PkgrzZk-A9NYs.0xitxDvC_l_832498748_L","LocationType":"point","DisplayPosition":{"Latitude":50.1049015,"Longitude":8.76453},"MapView":{"TopLeft":{"Latitude":50.10494,"Longitude":8.76453},"BottomRight":{"Latitude":50.1048,"Longitude":8.76453}},"Address":{"Label":"Marktplatz, 63065 Offenbach am Main, Deutschland","Country":"DEU","State":"Hessen","County":"Offenbach am Main","City":"Offenbach am Main","District":"Offenbach am Main","Street":"Marktplatz","PostalCode":"63065","AdditionalData":[{"value":"Deutschland","key":"CountryName"},{"value":"Hessen","key":"StateName"},{"value":"Offenbach am Main","key":"CountyName"}]},"MapReference":{"ReferenceId":"832498748","Spot":0.72,"SideOfStreet":"left","CountryId":"20147700","StateId":"20160993","CountyId":"20161019","CityId":"20161020","DistrictId":"20161030"}}},{"Relevance":1.0,"Distance":33.8,"MatchLevel":"houseNumber","MatchQuality":{"Country":1.0,"State":1.0,"County":1.0,"City":1.0,"District":1.0,"Street":[1.0],"HouseNumber":1.0,"PostalCode":1.0},"MatchType":"interpolated","Location":{"LocationId":"NT_PkgrzZk-A9NYs.0xitxDvC_5A","LocationType":"point","DisplayPosition":{"Latitude":50.10518,"Longitude":8.76453},"MapView":{"TopLeft":{"Latitude":50.1063042,"Longitude":8.7627773},"BottomRight":{"Latitude":50.1040558,"Longitude":8.7662827}},"Address":{"Label":"Marktplatz 9, 63065 Offenbach am Main, Deutschland","Country":"DEU","State":"Hessen","County":"Offenbach am Main","City":"Offenbach am Main","District":"Offenbach am Main","Street":"Marktplatz","HouseNumber":"9","PostalCode":"63065","AdditionalData":[{"value":"Deutschland","key":"CountryName"},{"value":"Hessen","key":"StateName"},{"value":"Offenbach am Main","key":"CountyName"}]},"MapReference":{"ReferenceId":"832498749","Spot":0.92,"SideOfStreet":"left","CountryId":"20147700","StateId":"20160993","CountyId":"20161019","CityId":"20161020","DistrictId":"20161030","AddressId":"621892184","RoadLinkId":"215667061"}}},{"Relevance":1.0,"Distance":36.7,"MatchLevel":"houseNumber","MatchQuality":{"Country":1.0,"State":1.0,"County":1.0,"City":1.0,"District":1.0,"Street":[1.0],"HouseNumber":1.0,"PostalCode":1.0},"MatchType":"interpolated","Location":{"LocationId":"NT_PkgrzZk-A9NYs.0xitxDvC_4A","LocationType":"point","DisplayPosition":{"Latitude":50.10458,"Longitude":8.76452},"MapView":{"TopLeft":{"Latitude":50.1057042,"Longitude":8.7627673},"BottomRight":{"Latitude":50.1034558,"Longitude":8.7662727}},"Address":{"Label":"Marktplatz 8, 63065 Offenbach am Main, Deutschland","Country":"DEU","State":"Hessen","County":"Offenbach am Main","City":"Offenbach am Main","District":"Offenbach am Main","Street":"Marktplatz","HouseNumber":"8","PostalCode":"63065","AdditionalData":[{"value":"Deutschland","key":"CountryName"},{"value":"Hessen","key":"StateName"},{"value":"Offenbach am Main","key":"CountyName"}]},"MapReference":{"ReferenceId":"52319928","Spot":0.44,"SideOfStreet":"left","CountryId":"20147700","StateId":"20160993","CountyId":"20161019","CityId":"20161020","DistrictId":"20161030","AddressId":"187149479","RoadLinkId":"34400634"}}},{"Relevance":1.0,"Distance":38.8,"MatchLevel":"street","MatchQuality":{"Country":1.0,"State":1.0,"County":1.0,"City":1.0,"District":1.0,"Street":[1.0],"PostalCode":1.0},"Location":{"LocationId":"NT_W9MLiQV499S-S9TQhHirwB_l_52427733_L","LocationType":"point","DisplayPosition":{"Latitude":50.1052489,"Longitude":8.7641344},"MapView":{"TopLeft":{"Latitude":50.10532,"Longitude":8.76356},"BottomRight":{"Latitude":50.1052,"Longitude":8.76453}},"Address":{"Label":"Hugenottenplatz, 63065 Offenbach am Main, Deutschland","Country":"DEU","State":"Hessen","County":"Offenbach am Main","City":"Offenbach am Main","District":"Offenbach am Main","Street":"Hugenottenplatz","PostalCode":"63065","AdditionalData":[{"value":"Deutschland","key":"CountryName"},{"value":"Hessen","key":"StateName"},{"value":"Offenbach am Main","key":"CountyName"}]},"MapReference":{"ReferenceId":"52427733","Spot":0.41,"SideOfStreet":"left","CountryId":"20147700","StateId":"20160993","CountyId":"20161019","CityId":"20161020","DistrictId":"20161030"}}},{"Relevance":1.0,"Distance":45.6,"MatchLevel":"street","MatchQuality":{"Country":1.0,"State":1.0,"County":1.0,"City":1.0,"District":1.0,"Street":[1.0],"PostalCode":1.0},"Location":{"LocationId":"NT_PkgrzZk-A9NYs.0xitxDvC_l_1089562413_L","LocationType":"point","DisplayPosition":{"Latitude":50.1052,"Longitude":8.76453},"MapView":{"TopLeft":{"Latitude":50.10567,"Longitude":8.76452},"BottomRight":{"Latitude":50.1052,"Longitude":8.76453}},"Address":{"Label":"Marktplatz, 63065 Offenbach am Main, Deutschland","Country":"DEU","State":"Hessen","County":"Offenbach am Main","City":"Offenbach am Main","District":"Offenbach am Main","Street":"Marktplatz","PostalCode":"63065","AdditionalData":[{"value":"Deutschland","key":"CountryName"},{"value":"Hessen","key":"StateName"},{"value":"Offenbach am Main","key":"CountyName"}]},"MapReference":{"ReferenceId":"1089562413","Spot":0.0,"SideOfStreet":"left","CountryId":"20147700","StateId":"20160993","CountyId":"20161019","CityId":"20161020","DistrictId":"20161030"}}},{"Relevance":1.0,"Distance":60.0,"MatchLevel":"street","MatchQuality":{"Country":1.0,"State":1.0,"County":1.0,"City":1.0,"District":1.0,"Street":[1.0],"PostalCode":1.0},"Location":{"LocationId":"NT_W9MLiQV499S-S9TQhHirwB_l_52427732_R","LocationType":"point","DisplayPosition":{"Latitude":50.10532,"Longitude":8.76356},"MapView":{"TopLeft":{"Latitude":50.10574,"Longitude":8.76356},"BottomRight":{"Latitude":50.10532,"Longitude":8.76359}},"Address":{"Label":"Hugenottenplatz, 63065 Offenbach am Main, Deutschland","Country":"DEU","State":"Hessen","County":"Offenbach am Main","City":"Offenbach am Main","District":"Offenbach am Main","Street":"Hugenottenplatz","PostalCode":"63065","AdditionalData":[{"value":"Deutschland","key":"CountryName"},{"value":"Hessen","key":"StateName"},{"value":"Offenbach am Main","key":"CountyName"}]},"MapReference":{"ReferenceId":"52427732","Spot":0.0,"SideOfStreet":"right","CountryId":"20147700","StateId":"20160993","CountyId":"20161019","CityId":"20161020","DistrictId":"20161030"}}},{"Relevance":1.0,"Distance":60.2,"MatchLevel":"houseNumber","MatchQuality":{"Country":1.0,"State":1.0,"County":1.0,"City":1.0,"District":1.0,"Street":[1.0],"HouseNumber":1.0,"PostalCode":1.0},"MatchType":"interpolated","Location":{"LocationId":"NT_z23oROCcF4bPeQFQcQUa1A_xA","LocationType":"point","DisplayPosition":{"Latitude":50.10434,"Longitude":8.76413},"MapView":{"TopLeft":{"Latitude":50.1054642,"Longitude":8.7623773},"BottomRight":{"Latitude":50.1032158,"Longitude":8.7658827}},"Address":{"Label":"Große Marktstraße 1, 63065 Offenbach am Main, Deutschland","Country":"DEU","State":"Hessen","County":"Offenbach am Main","City":"Offenbach am Main","District":"Offenbach am Main","Street":"Große Marktstraße","HouseNumber":"1","PostalCode":"63065","AdditionalData":[{"value":"Deutschland","key":"CountryName"},{"value":"Hessen","key":"StateName"},{"value":"Offenbach am Main","key":"CountyName"}]},"MapReference":{"ReferenceId":"52319951","Spot":0.57,"SideOfStreet":"left","CountryId":"20147700","StateId":"20160993","CountyId":"20161019","CityId":"20161020","DistrictId":"20161030","AddressId":"187539636","RoadLinkId":"34811426"}}},{"Relevance":1.0,"Distance":72.9,"MatchLevel":"houseNumber","MatchQuality":{"Country":1.0,"State":1.0,"County":1.0,"City":1.0,"District":1.0,"Street":[1.0],"HouseNumber":1.0,"PostalCode":1.0},"MatchType":"interpolated","Location":{"LocationId":"NT_PkgrzZk-A9NYs.0xitxDvC_0A","LocationType":"point","DisplayPosition":{"Latitude":50.10426,"Longitude":8.76451},"MapView":{"TopLeft":{"Latitude":50.1053842,"Longitude":8.7627573},"BottomRight":{"Latitude":50.1031358,"Longitude":8.7662627}},"Address":{"Label":"Marktplatz 4, 63065 Offenbach am Main, Deutschland","Country":"DEU","State":"Hessen","County":"Offenbach am Main","City":"Offenbach am Main","District":"Offenbach am Main","Street":"Marktplatz","HouseNumber":"4","PostalCode":"63065","AdditionalData":[{"value":"Deutschland","key":"CountryName"},{"value":"Hessen","key":"StateName"},{"value":"Offenbach am Main","key":"CountyName"}]},"MapReference":{"ReferenceId":"52319973","Spot":0.64,"SideOfStreet":"left","CountryId":"20147700","StateId":"20160993","CountyId":"20161019","CityId":"20161020","DistrictId":"20161030","AddressId":"186793360","RoadLinkId":"34161866"}}}]}]}}