{"Response":{"MetaInfo":{"Timestamp":"2020-03-28T10:54:20.232+0000","NextPageInformation":"2"},"View":[{"_type":"SearchResultsViewType","ViewId":0,"Result":[{"Relevance":1.0,"Distance":-7.3,"MatchLevel":"landmark","MatchQuality":{"Country":1.0,"State":1.0,"County":1.0,"City":1.0,"District":1.0,"PostalCode":1.0,"Name":1.0},"Location":{"LocationId":"NT_fZ0mJUmVtjARadgOaxk2-A","LocationType":"hospital","Name":"Psychiatrická nemocnice Bohnice","DisplayPosition":{"Latitude":50.13604,"Longitude":14.42252},"MapView":{"TopLeft":{"Latitude":50.13936,"Longitude":14.41366},"BottomRight":{"Latitude":50.13271,"Longitude":14.43009}},"Address":{"Label":"182 00 Praha, Česká Republika","Country":"CZE","State":"Hlavní město Praha","County":"Hlavní město Praha","City":"Praha","District":"Praha 8","PostalCode":"182 00","AdditionalData":[{"value":"Česká Republika","key":"CountryName"},{"value":"Hlavní město Praha","key":"StateName"},{"value":"Hlavní město Praha","key":"CountyName"}]},"MapReference":{"CountryId":"20427915","StateId":"20442647","CountyId":"20442648","CityId":"20442649","DistrictId":"20442658","PlaceId":"551125219"}}},{"Relevance":1.0,"Distance":0.0,"Direction":0.0,"MatchLevel":"district","MatchQuality":{"Country":1.0,"State":1.0,"County":1.0,"City":1.0,"District":1.0,"PostalCode":1.0},"Location":{"LocationId":"NT_dLbbOJ.06.5hb5MVn38CkB","LocationType":"point","DisplayPosition":{"Latitude":50.1355084,"Longitude":14.4160612},"MapView":{"TopLeft":{"Latitude":50.17238,"Longitude":14.39378},"BottomRight":{"Latitude":50.08635,"Longitude":14.50668}},"Address":{"Label":"Praha 8, Praha, Hlavní město Praha, Česká Republika","Country":"CZE","State":"Hlavní město Praha","County":"Hlavní město Praha","City":"Praha","District":"Praha 8","PostalCode":"182 00","AdditionalData":[{"value":"Česká Republika","key":"CountryName"},{"value":"Hlavní město Praha","key":"StateName"},{"value":"Hlavní město Praha","key":"CountyName"}]},"MapReference":{"ReferenceId":"565774819","SideOfStreet":"neither","CountryId":"20427915","StateId":"20442647","CountyId":"20442648","CityId":"20442649","DistrictId":"20442658"}}},{"Relevance":1.0,"Distance":0.6,"MatchLevel":"street","MatchQuality":{"Country":1.0,"State":1.0,"County":1.0,"City":1.0,"District":1.0,"Street":[1.0],"PostalCode":1.0},"Location":{"LocationId":"NT_YtDAQAFpj7PiAq2ueNNBtA_l_970123125_L","LocationType":"point","DisplayPosition":{"Latitude":50.135514,"Longitude":14.4160597},"MapView":{"TopLeft":{"Latitude":50.13564,"Longitude":14.41597},"BottomRight":{"Latitude":50.13549,"Longitude":14.41653}},"Address":{"Label":"Ústavní, 181 00 Praha, Česká Republika","Country":"CZE","State":"Hlavní město Praha","County":"Hlavní město Praha","City":"Praha","District":"Praha 8","Street":"Ústavní","PostalCode":"181 00","AdditionalData":[{"value":"Česká Republika","key":"CountryName"},{"value":"Hlavní město Praha","key":"StateName"},{"value":"Hlavní město Praha","key":"CountyName"}]},"MapReference":{"ReferenceId":"970123125","Spot":0.16,"SideOfStreet":"neither","CountryId":"20427915","StateId":"20442647","CountyId":"20442648","CityId":"20442649","DistrictId":"20442658"}}},{"Relevance":1.0,"Distance":6.8,"MatchLevel":"street","MatchQuality":{"Country":1.0,"State":1.0,"County":1.0,"City":1.0,"District":1.0,"Street":[1.0],"PostalCode":1.0},"Location":{"LocationId":"NT_BaXwXQ56GpS-jP5FqFosdC_l_1156044735_R","LocationType":"point","DisplayPosition":{"Latitude":50.13549,"Longitude":14.41597},"MapView":{"TopLeft":{"Latitude":50.13559,"Longitude":14.41593},"BottomRight":{"Latitude":50.13549,"Longitude":14.41597}},"Address":{"Label":"U Drahaně, 181 00 Praha, Česká Republika","Country":"CZE","State":"Hlavní město Praha","County":"Hlavní město Praha","City":"Praha","District":"Praha 8","Street":"U Drahaně","PostalCode":"181 00","AdditionalData":[{"value":"Česká Republika","key":"CountryName"},{"value":"Hlavní město Praha","key":"StateName"},{"value":"Hlavní město Praha","key":"CountyName"}]},"MapReference":{"ReferenceId":"1156044735","Spot":0.0,"SideOfStreet":"right","CountryId":"20427915","StateId":"20442647","CountyId":"20442648","CityId":"20442649","DistrictId":"20442658"}}},{"Relevance":1.0,"Distance":13.0,"MatchLevel":"street","MatchQuality":{"Country":1.0,"State":1.0,"County":1.0,"City":1.0,"District":1.0,"Street":[1.0],"PostalCode":1.0},"Location":{"LocationId":"NT_BaXwXQ56GpS-jP5FqFosdC_l_1156044736_R","LocationType":"point","DisplayPosition":{"Latitude":50.13559,"Longitude":14.41593},"MapView":{"TopLeft":{"Latitude":50.1359,"Longitude":14.41579},"BottomRight":{"Latitude":50.13559,"Longitude":14.41593}},"Address":{"Label":"U Drahaně, 181 00 Praha, Česká Republika","Country":"CZE","State":"Hlavní město Praha","County":"Hlavní město Praha","City":"Praha","District":"Praha 8","Street":"U Drahaně","PostalCode":"181 00","AdditionalData":[{"value":"Česká Republika","key":"CountryName"},{"value":"Hlavní město Praha","key":"StateName"},{"value":"Hlavní město Praha","key":"CountyName"}]},"MapReference":{"ReferenceId":"1156044736","Spot":0.0,"SideOfStreet":"right","CountryId":"20427915","StateId":"20442647","CountyId":"20442648","CityId":"20442649","DistrictId":"20442658"}}},{"Relevance":1.0,"Distance":18.8,"MatchLevel":"houseNumber","MatchQuality":{"Country":1.0,"State":1.0,"County":1.0,"City":1.0,"District":1.0,"Street":[1.0],"HouseNumber":1.0,"PostalCode":1.0},"MatchType":"interpolated","Location":{"LocationId":"NT_qfflxVWj.m6dKIvHpH5KSA_xIzL1cD","LocationType":"point","DisplayPosition":{"Latitude":50.13534,"Longitude":14.41608},"MapView":{"TopLeft":{"Latitude":50.1364642,"Longitude":14.4143262},"BottomRight":{"Latitude":50.1342158,"Longitude":14.4178338}},"Address":{"Label":"Bohnická 12/57, 181 00 Praha, Česká Republika","Country":"CZE","State":"Hlavní město Praha","County":"Hlavní město Praha","City":"Praha","District":"Praha 8","Street":"Bohnická","HouseNumber":"12/57","PostalCode":"181 00","AdditionalData":[{"value":"Česká Republika","key":"CountryName"},{"value":"Hlavní město Praha","key":"StateName"},{"value":"Hlavní město Praha","key":"CountyName"}]},"MapReference":{"ReferenceId":"918214166","Spot":0.75,"SideOfStreet":"right","CountryId":"20427915","StateId":"20442647","CountyId":"20442648","CityId":"20442649","DistrictId":"20442658","AddressId":"239412913","RoadLinkId":"275846154"}}},{"Relevance":1.0,"Distance":31.9,"MatchLevel":"houseNumber","MatchQuality":{"Country":1.0,"State":1.0,"County":1.0,"City":1.0,"District":1.0,"Street":[1.0],"HouseNumber":1.0,"PostalCode":1.0},"MatchType":"interpolated","Location":{"LocationId":"NT_qfflxVWj.m6dKIvHpH5KSA_1YD","LocationType":"point","DisplayPosition":{"Latitude":50.13543,"Longitude":14.41563},"MapView":{"TopLeft":{"Latitude":50.1365542,"Longitude":14.4138762},"BottomRight":{"Latitude":50.1343058,"Longitude":14.4173838}},"Address":{"Label":"Bohnická 56, 181 00 Praha, Česká Republika","Country":"CZE","State":"Hlavní město Praha","County":"Hlavní město Praha","City":"Praha","District":"Praha 8","Street":"Bohnická","HouseNumber":"56","PostalCode":"181 00","AdditionalData":[{"value":"Česká Republika","key":"CountryName"},{"value":"Hlavní město Praha","key":"StateName"},{"value":"Hlavní město Praha","key":"CountyName"}]},"MapReference":{"ReferenceId":"565773703","Spot":0.29,"SideOfStreet":"left","CountryId":"20427915","StateId":"20442647","CountyId":"20442648","CityId":"20442649","DistrictId":"20442658","AddressId":"589411533","RoadLinkId":"40332358"}}},{"Relevance":1.0,"Distance":33.1,"MatchLevel":"houseNumber","MatchQuality":{"Country":1.0,"State":1.0,"County":1.0,"City":1.0,"District":1.0,"Street":[1.0],"HouseNumber":1.0,"PostalCode":1.0},"MatchType":"interpolated","Location":{"LocationId":"NT_LZqGlPVLkAkaVH43dGT-BC_zkzL2A","LocationType":"point","DisplayPosition":{"Latitude":50.13527,"Longitude":14.41553},"MapView":{"TopLeft":{"Latitude":50.1363942,"Longitude":14.4137762},"BottomRight":{"Latitude":50.1341458,"Longitude":14.4172838}},"Address":{"Label":"Ve Vrších 39/6, 181 00 Praha, Česká Republika","Country":"CZE","State":"Hlavní město Praha","County":"Hlavní město Praha","City":"Praha","District":"Praha 8","Street":"Ve Vrších","HouseNumber":"39/6","PostalCode":"181 00","AdditionalData":[{"value":"Česká Republika","key":"CountryName"},{"value":"Hlavní město Praha","key":"StateName"},{"value":"Hlavní město Praha","key":"CountyName"}]},"MapReference":{"ReferenceId":"1155953388","Spot":0.18,"SideOfStreet":"right","CountryId":"20427915","StateId":"20442647","CountyId":"20442648","CityId":"20442649","DistrictId":"20442658","AddressId":"239412905","RoadLinkId":"462180166"}}},{"Relevance":1.0,"Distance":36.5,"MatchLevel":"street","MatchQuality":{"Country":1.0,"State":1.0,"County":1.0,"City":1.0,"District":1.0,"Street":[1.0],"PostalCode":1.0},"Location":{"LocationId":"NT_YtDAQAFpj7PiAq2ueNNBtA_l_970123126_R","LocationType":"point","DisplayPosition":{"Latitude":50.13564,"Longitude":14.41653},"MapView":{"TopLeft":{"Latitude":50.13574,"Longitude":14.41653},"BottomRight":{"Latitude":50.13564,"Longitude":14.41703}},"Address":{"Label":"Ústavní, 181 00 Praha, Česká Republika","Country":"CZE","State":"Hlavní město Praha","County":"Hlavní město Praha","City":"Praha","District":"Praha 8","Street":"Ústavní","PostalCode":"181 00","AdditionalData":[{"value":"Česká Republika","key":"CountryName"},{"value":"Hlavní město Praha","key":"StateName"},{"value":"Hlavní město Praha","key":"CountyName"}]},"MapReference":{"ReferenceId":"970123126","Spot":0.0,"SideOfStreet":"right","CountryId":"20427915","StateId":"20442647","CountyId":"20442648","CityId":"20442649","DistrictId":"20442658"}}},{"Relevance":1.0,"Distance":50.9,"MatchLevel":"houseNumber","MatchQuality":{"Country":1.0,"State":1.0,"County":1.0,"City":1.0,"District":1.0,"Street":[1.0],"HouseNumber":1.0,"PostalCode":1.0},"MatchType":"interpolated","Location":{"LocationId":"NT_qfflxVWj.m6dKIvHpH5KSA_zIzLyID","LocationType":"point","DisplayPosition":{"Latitude":50.13489,"Longitude":14.41565},"MapView":{"TopLeft":{"Latitude":50.1360142,"Longitude":14.4138962},"BottomRight":{"Latitude":50.1337658,"Longitude":14.4174038}},"Address":{"Label":"Bohnická 32/22, 181 00 Praha, Česká Republika","Country":"CZE","State":"Hlavní město Praha","County":"Hlavní město Praha","City":"Praha","District":"Praha 8","Street":"Bohnická","HouseNumber":"32/22","PostalCode":"181 00","AdditionalData":[{"value":"Česká Republika","key":"CountryName"},{"value":"Hlavní město Praha","key":"StateName"},{"value":"Hlavní město Praha","key":"CountyName"}]},"MapReference":{"ReferenceId":"1080669649","Spot":1.0,"SideOfStreet":"right","CountryId":"20427915","StateId":"20442647","CountyId":"20442648","CityId":"20442649","DistrictId":"20442658","AddressId":"677038439","RoadLinkId":"398250622"}}}]}]}}