{"Response":{"MetaInfo":{"Timestamp":"2020-03-28T10:20:36.155+0000","NextPageInformation":"2"},"View":[{"_type":"SearchResultsViewType","ViewId":0,"Result":[{"Relevance":1.0,"Distance":0.0,"Direction":0.0,"MatchLevel":"district","MatchQuality":{"Country":1.0,"State":1.0,"County":1.0,"City":1.0,"District":1.0,"PostalCode":1.0},"Location":{"LocationId":"NT_HBfQipfuQFVng6kOvakPLA","LocationType":"point","DisplayPosition":{"Latitude":50.1787708,"Longitude":8.4747901},"MapView":{"TopLeft":{"Latitude":50.19486,"Longitude":8.44926},"BottomRight":{"Latitude":50.16553,"Longitude":8.48161}},"Address":{"Label":"Königstein im Taunus, Hessen, Deutschland","Country":"DEU","State":"Hessen","County":"Hochtaunuskreis","City":"Königstein im Taunus","District":"Königstein im Taunus","PostalCode":"61462","AdditionalData":[{"value":"Deutschland","key":"CountryName"},{"value":"Hessen","key":"StateName"},{"value":"Hochtaunuskreis","key":"CountyName"}]},"MapReference":{"ReferenceId":"52372853","SideOfStreet":"neither","CountryId":"20147700","StateId":"20160993","CountyId":"20161339","CityId":"20161361","DistrictId":"20161363"}}},{"Relevance":1.0,"Distance":25.0,"MatchLevel":"houseNumber","MatchQuality":{"Country":1.0,"State":1.0,"County":1.0,"City":1.0,"District":1.0,"Street":[1.0],"HouseNumber":1.0,"PostalCode":1.0},"MatchType":"interpolated","Location":{"LocationId":"NT_c7uUSMNJzzhO26jEawSJlB_xEE","LocationType":"point","DisplayPosition":{"Latitude":50.17847,"Longitude":8.47438},"MapView":{"TopLeft":{"Latitude":50.1795942,"Longitude":8.4726246},"BottomRight":{"Latitude":50.1773458,"Longitude":8.4761354}},"Address":{"Label":"Bischof-Kaller-Straße 1A, 61462 Königstein im Taunus, Deutschland","Country":"DEU","State":"Hessen","County":"Hochtaunuskreis","City":"Königstein im Taunus","District":"Königstein im Taunus","Street":"Bischof-Kaller-Straße","HouseNumber":"1A","PostalCode":"61462","AdditionalData":[{"value":"Deutschland","key":"CountryName"},{"value":"Hessen","key":"StateName"},{"value":"Hochtaunuskreis","key":"CountyName"}]},"MapReference":{"ReferenceId":"1215997409","Spot":0.41,"SideOfStreet":"right","CountryId":"20147700","StateId":"20160993","CountyId":"20161339","CityId":"20161361","DistrictId":"20161363","AddressId":"187061948","RoadLinkId":"532246493"}}},{"Relevance":1.0,"Distance":31.8,"MatchLevel":"street","MatchQuality":{"Country":1.0,"State":1.0,"County":1.0,"City":1.0,"District":1.0,"PostalCode":1.0},"Location":{"LocationId":"NT_4qly.qOB3tO9SZzT9JxN4B_l_1215999887_L","LocationType":"point","DisplayPosition":{"Latitude":50.1787201,"Longitude":8.4752296},"MapView":{"TopLeft":{"Latitude":50.1796,"Longitude":8.47388},"BottomRight":{"Latitude":50.17413,"Longitude":8.47524}},"Address":{"Label":"61462 Königstein im Taunus, Deutschland","Country":"DEU","State":"Hessen","County":"Hochtaunuskreis","City":"Königstein im Taunus","District":"Königstein im Taunus","PostalCode":"61462","AdditionalData":[{"value":"Deutschland","key":"CountryName"},{"value":"Hessen","key":"StateName"},{"value":"Hochtaunuskreis","key":"CountyName"}]},"MapReference":{"ReferenceId":"1215999887","Spot":0.7,"SideOfStreet":"left","CountryId":"20147700","StateId":"20160993","CountyId":"20161339","CityId":"20161361","DistrictId":"20161363"}}},{"Relevance":1.0,"Distance":40.7,"MatchLevel":"street","MatchQuality":{"Country":1.0,"State":1.0,"County":1.0,"City":1.0,"District":1.0,"Street":[1.0],"PostalCode":1.0},"Location":{"LocationId":"NT_-rb478CxbfVKex-qr8MZbB_l_705800096_L","LocationType":"point","DisplayPosition":{"Latitude":50.17874,"Longitude":8.47536},"MapView":{"TopLeft":{"Latitude":50.17902,"Longitude":8.47534},"BottomRight":{"Latitude":50.17874,"Longitude":8.47537}},"Address":{"Label":"Sodener Straße, 61462 Königstein im Taunus, Deutschland","Country":"DEU","State":"Hessen","County":"Hochtaunuskreis","City":"Königstein im Taunus","District":"Königstein im Taunus","Street":"Sodener Straße","PostalCode":"61462","AdditionalData":[{"value":"Deutschland","key":"CountryName"},{"value":"Hessen","key":"StateName"},{"value":"Hochtaunuskreis","key":"CountyName"}]},"MapReference":{"ReferenceId":"705800096","Spot":0.0,"SideOfStreet":"left","CountryId":"20147700","StateId":"20160993","CountyId":"20161339","CityId":"20161361","DistrictId":"20161363"}}},{"Relevance":1.0,"Distance":48.0,"MatchLevel":"street","MatchQuality":{"Country":1.0,"State":1.0,"County":1.0,"City":1.0,"District":1.0,"Street":[1.0],"PostalCode":1.0},"Location":{"LocationId":"NT_-rb478CxbfVKex-qr8MZbB_l_52372836_L","LocationType":"point","DisplayPosition":{"Latitude":50.17902,"Longitude":8.47534},"MapView":{"TopLeft":{"Latitude":50.17925,"Longitude":8.47527},"BottomRight":{"Latitude":50.17902,"Longitude":8.47534}},"Address":{"Label":"Sodener Straße, 61462 Königstein im Taunus, Deutschland","Country":"DEU","State":"Hessen","County":"Hochtaunuskreis","City":"Königstein im Taunus","District":"Königstein im Taunus","Street":"Sodener Straße","PostalCode":"61462","AdditionalData":[{"value":"Deutschland","key":"CountryName"},{"value":"Hessen","key":"StateName"},{"value":"Hochtaunuskreis","key":"CountyName"}]},"MapReference":{"ReferenceId":"52372836","Spot":0.0,"SideOfStreet":"left","CountryId":"20147700","StateId":"20160993","CountyId":"20161339","CityId":"20161361","DistrictId":"20161363"}}},{"Relevance":1.0,"Distance":60.9,"MatchLevel":"houseNumber","MatchQuality":{"Country":1.0,"State":1.0,"County":1.0,"City":1.0,"District":1.0,"Street":[1.0],"HouseNumber":1.0,"PostalCode":1.0},"MatchType":"interpolated","Location":{"LocationId":"NT_BRIsEc80eedM1OjwUowoPC_yA","LocationType":"point","DisplayPosition":{"Latitude":50.17824,"Longitude":8.47526},"MapView":{"TopLeft":{"Latitude":50.1793642,"Longitude":8.4735046},"BottomRight":{"Latitude":50.1771158,"Longitude":8.4770154}},"Address":{"Label":"Sodener Straße 2, 61462 Königstein im Taunus, Deutschland","Country":"DEU","State":"Hessen","County":"Hochtaunuskreis","City":"Königstein im Taunus","District":"Königstein im Taunus","Street":"Sodener Straße","HouseNumber":"2","PostalCode":"61462","AdditionalData":[{"value":"Deutschland","key":"CountryName"},{"value":"Hessen","key":"StateName"},{"value":"Hochtaunuskreis","key":"CountyName"}]},"MapReference":{"ReferenceId":"1037116174","Spot":0.4,"SideOfStreet":"left","CountryId":"20147700","StateId":"20160993","CountyId":"20161339","CityId":"20161361","DistrictId":"20161363","AddressId":"187095606","RoadLinkId":"358993564"}}},{"Relevance":1.0,"Distance":63.3,"MatchLevel":"street","MatchQuality":{"Country":1.0,"State":1.0,"County":1.0,"City":1.0,"District":1.0,"Street":[1.0],"PostalCode":1.0},"Location":{"LocationId":"NT_-rb478CxbfVKex-qr8MZbB_l_841208962_L","LocationType":"point","DisplayPosition":{"Latitude":50.17925,"Longitude":8.47527},"MapView":{"TopLeft":{"Latitude":50.17956,"Longitude":8.47506},"BottomRight":{"Latitude":50.17925,"Longitude":8.47527}},"Address":{"Label":"Sodener Straße, 61462 Königstein im Taunus, Deutschland","Country":"DEU","State":"Hessen","County":"Hochtaunuskreis","City":"Königstein im Taunus","District":"Königstein im Taunus","Street":"Sodener Straße","PostalCode":"61462","AdditionalData":[{"value":"Deutschland","key":"CountryName"},{"value":"Hessen","key":"StateName"},{"value":"Hochtaunuskreis","key":"CountyName"}]},"MapReference":{"ReferenceId":"841208962","Spot":0.0,"SideOfStreet":"left","CountryId":"20147700","StateId":"20160993","CountyId":"20161339","CityId":"20161361","DistrictId":"20161363"}}},{"Relevance":1.0,"Distance":63.3,"MatchLevel":"street","MatchQuality":{"Country":1.0,"State":1.0,"County":1.0,"City":1.0,"District":1.0,"Street":[1.0],"PostalCode":1.0},"Location":{"LocationId":"NT_-rb478CxbfVKex-qr8MZbB_l_841208952_L","LocationType":"point","DisplayPosition":{"Latitude":50.17925,"Longitude":8.47527},"MapView":{"TopLeft":{"Latitude":50.17949,"Longitude":8.47527},"BottomRight":{"Latitude":50.17925,"Longitude":8.47529}},"Address":{"Label":"Sodener Straße, 61462 Königstein im Taunus, Deutschland","Country":"DEU","State":"Hessen","County":"Hochtaunuskreis","City":"Königstein im Taunus","District":"Königstein im Taunus","Street":"Sodener Straße","PostalCode":"61462","AdditionalData":[{"value":"Deutschland","key":"CountryName"},{"value":"Hessen","key":"StateName"},{"value":"Hochtaunuskreis","key":"CountyName"}]},"MapReference":{"ReferenceId":"841208952","Spot":0.0,"SideOfStreet":"left","CountryId":"20147700","StateId":"20160993","CountyId":"20161339","CityId":"20161361","DistrictId":"20161363"}}},{"Relevance":1.0,"Distance":68.0,"MatchLevel":"houseNumber","MatchQuality":{"Country":1.0,"State":1.0,"County":1.0,"City":1.0,"District":1.0,"Street":[1.0],"HouseNumber":1.0,"PostalCode":1.0},"MatchType":"interpolated","Location":{"LocationId":"NT_zvgeM8CdjeAA7gnuiRYYwD_xA","LocationType":"point","DisplayPosition":{"Latitude":50.17905,"Longitude":8.47564},"MapView":{"TopLeft":{"Latitude":50.1801742,"Longitude":8.4738846},"BottomRight":{"Latitude":50.1779258,"Longitude":8.4773954}},"Address":{"Label":"Mammolshainer Weg 1, 61462 Königstein im Taunus, Deutschland","Country":"DEU","State":"Hessen","County":"Hochtaunuskreis","City":"Königstein im Taunus","District":"Königstein im Taunus","Street":"Mammolshainer Weg","HouseNumber":"1","PostalCode":"61462","AdditionalData":[{"value":"Deutschland","key":"CountryName"},{"value":"Hessen","key":"StateName"},{"value":"Hochtaunuskreis","key":"CountyName"}]},"MapReference":{"ReferenceId":"1092053860","Spot":0.91,"SideOfStreet":"left","CountryId":"20147700","StateId":"20160993","CountyId":"20161339","CityId":"20161361","DistrictId":"20161363","AddressId":"187225229","RoadLinkId":"406982532"}}},{"Relevance":1.0,"Distance":69.9,"MatchLevel":"street","MatchQuality":{"Country":1.0,"State":1.0,"County":1.0,"City":1.0,"District":1.0,"Street":[1.0],"PostalCode":1.0},"Location":{"LocationId":"NT_NTyv-7WQ-xH0bSwC9GIuvC_l_590223148_L","LocationType":"point","DisplayPosition":{"Latitude":50.17905,"Longitude":8.47567},"MapView":{"TopLeft":{"Latitude":50.17905,"Longitude":8.47567},"BottomRight":{"Latitude":50.17886,"Longitude":8.47606}},"Address":{"Label":"Mammolshainer Weg, 61462 Königstein im Taunus, Deutschland","Country":"DEU","State":"Hessen","County":"Hochtaunuskreis","City":"Königstein im Taunus","District":"Königstein im Taunus","Street":"Mammolshainer Weg","PostalCode":"61462","AdditionalData":[{"value":"Deutschland","key":"CountryName"},{"value":"Hessen","key":"StateName"},{"value":"Hochtaunuskreis","key":"CountyName"}]},"MapReference":{"ReferenceId":"590223148","Spot":1.0,"SideOfStreet":"left","CountryId":"20147700","StateId":"20160993","CountyId":"20161339","CityId":"20161361","DistrictId":"20161363"}}}]}]}}