{"Response":{"MetaInfo":{"Timestamp":"2020-03-28T10:46:01.071+0000","NextPageInformation":"2"},"View":[{"_type":"SearchResultsViewType","ViewId":0,"Result":[{"Relevance":1.0,"Distance":0.0,"Direction":0.0,"MatchLevel":"district","MatchQuality":{"Country":1.0,"State":1.0,"County":1.0,"City":1.0,"District":1.0,"PostalCode":1.0},"Location":{"LocationId":"NT_J21KNmZ9qRproYVeZuuLxC","LocationType":"point","DisplayPosition":{"Latitude":50.1783,"Longitude":20.9818655},"MapView":{"TopLeft":{"Latitude":50.19355,"Longitude":20.94988},"BottomRight":{"Latitude":50.14944,"Longitude":21.04072}},"Address":{"Label":"Dąbrowa Tarnowska, Woj. Małopolskie, Polska","Country":"POL","State":"Woj. Małopolskie","County":"Powiat Dąbrowski","City":"Dąbrowa Tarnowska","District":"Dąbrowa Tarnowska","PostalCode":"33-200","AdditionalData":[{"value":"Polska","key":"CountryName"},{"value":"Woj. Małopolskie","key":"StateName"},{"value":"Powiat Dąbrowski","key":"CountyName"}]},"MapReference":{"ReferenceId":"897444063","SideOfStreet":"neither","CountryId":"20624059","StateId":"20626775","CountyId":"20626831","CityId":"20626834","DistrictId":"20685783"}}},{"Relevance":1.0,"Distance":11.7,"MatchLevel":"street","MatchQuality":{"Country":1.0,"State":1.0,"County":1.0,"City":1.0,"District":1.0,"Street":[1.0],"PostalCode":1.0},"Location":{"LocationId":"NT_JPslPng0wCW8Y8A1019o9B_l_1242042688_L","LocationType":"point","DisplayPosition":{"Latitude":50.1783702,"Longitude":20.9819884},"MapView":{"TopLeft":{"Latitude":50.17949,"Longitude":20.98182},"BottomRight":{"Latitude":50.17813,"Longitude":20.98222}},"Address":{"Label":"ulica mjr. Henryka Sucharskiego, 33-200 Dąbrowa Tarnowska, Polska","Country":"POL","State":"Woj. Małopolskie","County":"Powiat Dąbrowski","City":"Dąbrowa Tarnowska","District":"Dąbrowa Tarnowska","Street":"ulica mjr. Henryka Sucharskiego","PostalCode":"33-200","AdditionalData":[{"value":"Polska","key":"CountryName"},{"value":"Woj. Małopolskie","key":"StateName"},{"value":"Powiat Dąbrowski","key":"CountyName"}]},"MapReference":{"ReferenceId":"1242042688","Spot":0.23,"SideOfStreet":"left","CountryId":"20624059","StateId":"20626775","CountyId":"20626831","CityId":"20626834","DistrictId":"20685783"}}},{"Relevance":1.0,"Distance":18.1,"MatchLevel":"houseNumber","MatchQuality":{"Country":1.0,"State":1.0,"County":1.0,"City":1.0,"District":1.0,"Street":[1.0],"HouseNumber":1.0,"PostalCode":1.0},"MatchType":"interpolated","Location":{"LocationId":"NT_JPslPng0wCW8Y8A1019o9B_1A","LocationType":"point","DisplayPosition":{"Latitude":50.17794,"Longitude":20.9819},"MapView":{"TopLeft":{"Latitude":50.1790642,"Longitude":20.9801446},"BottomRight":{"Latitude":50.1768158,"Longitude":20.9836554}},"Address":{"Label":"ulica mjr. Henryka Sucharskiego 5, 33-200 Dąbrowa Tarnowska, Polska","Country":"POL","State":"Woj. Małopolskie","County":"Powiat Dąbrowski","City":"Dąbrowa Tarnowska","District":"Dąbrowa Tarnowska","Street":"ulica mjr. Henryka Sucharskiego","HouseNumber":"5","PostalCode":"33-200","AdditionalData":[{"value":"Polska","key":"CountryName"},{"value":"Woj. Małopolskie","key":"StateName"},{"value":"Powiat Dąbrowski","key":"CountyName"}]},"MapReference":{"ReferenceId":"1241862685","Spot":0.41,"SideOfStreet":"left","CountryId":"20624059","StateId":"20626775","CountyId":"20626831","CityId":"20626834","DistrictId":"20685783","AddressId":"742991970","RoadLinkId":"562886704"}}},{"Relevance":1.0,"Distance":31.5,"MatchLevel":"street","MatchQuality":{"Country":1.0,"State":1.0,"County":1.0,"City":1.0,"District":1.0,"Street":[1.0],"PostalCode":1.0},"Location":{"LocationId":"NT_JPslPng0wCW8Y8A1019o9B_l_1242042687_L","LocationType":"point","DisplayPosition":{"Latitude":50.17813,"Longitude":20.98222},"MapView":{"TopLeft":{"Latitude":50.17813,"Longitude":20.98222},"BottomRight":{"Latitude":50.17801,"Longitude":20.98229}},"Address":{"Label":"ulica mjr. Henryka Sucharskiego, 33-200 Dąbrowa Tarnowska, Polska","Country":"POL","State":"Woj. Małopolskie","County":"Powiat Dąbrowski","City":"Dąbrowa Tarnowska","District":"Dąbrowa Tarnowska","Street":"ulica mjr. Henryka Sucharskiego","PostalCode":"33-200","AdditionalData":[{"value":"Polska","key":"CountryName"},{"value":"Woj. Małopolskie","key":"StateName"},{"value":"Powiat Dąbrowski","key":"CountyName"}]},"MapReference":{"ReferenceId":"1242042687","Spot":1.0,"SideOfStreet":"left","CountryId":"20624059","StateId":"20626775","CountyId":"20626831","CityId":"20626834","DistrictId":"20685783"}}},{"Relevance":1.0,"Distance":48.6,"MatchLevel":"street","MatchQuality":{"Country":1.0,"State":1.0,"County":1.0,"City":1.0,"District":1.0,"Street":[1.0],"PostalCode":1.0},"Location":{"LocationId":"NT_JPslPng0wCW8Y8A1019o9B_l_1242042669_L","LocationType":"point","DisplayPosition":{"Latitude":50.17789,"Longitude":20.98163},"MapView":{"TopLeft":{"Latitude":50.17789,"Longitude":20.98108},"BottomRight":{"Latitude":50.17771,"Longitude":20.98163}},"Address":{"Label":"ulica mjr. Henryka Sucharskiego, 33-200 Dąbrowa Tarnowska, Polska","Country":"POL","State":"Woj. Małopolskie","County":"Powiat Dąbrowski","City":"Dąbrowa Tarnowska","District":"Dąbrowa Tarnowska","Street":"ulica mjr. Henryka Sucharskiego","PostalCode":"33-200","AdditionalData":[{"value":"Polska","key":"CountryName"},{"value":"Woj. Małopolskie","key":"StateName"},{"value":"Powiat Dąbrowski","key":"CountyName"}]},"MapReference":{"ReferenceId":"1242042669","Spot":1.0,"SideOfStreet":"left","CountryId":"20624059","StateId":"20626775","CountyId":"20626831","CityId":"20626834","DistrictId":"20685783"}}},{"Relevance":1.0,"Distance":77.7,"MatchLevel":"street","MatchQuality":{"Country":1.0,"State":1.0,"County":1.0,"City":1.0,"District":1.0,"Street":[1.0],"PostalCode":1.0},"Location":{"LocationId":"NT_9.9PJo-RKPb4D9PK.-67rC_l_1242210496_L","LocationType":"point","DisplayPosition":{"Latitude":50.17848,"Longitude":20.98292},"MapView":{"TopLeft":{"Latitude":50.1793,"Longitude":20.98292},"BottomRight":{"Latitude":50.17831,"Longitude":20.98548}},"Address":{"Label":"ulica kard. Stefana Wyszyńskiego, 33-200 Dąbrowa Tarnowska, Polska","Country":"POL","State":"Woj. Małopolskie","County":"Powiat Dąbrowski","City":"Dąbrowa Tarnowska","District":"Dąbrowa Tarnowska","Street":"ulica kard. Stefana Wyszyńskiego","PostalCode":"33-200","AdditionalData":[{"value":"Polska","key":"CountryName"},{"value":"Woj. Małopolskie","key":"StateName"},{"value":"Powiat Dąbrowski","key":"CountyName"}]},"MapReference":{"ReferenceId":"1242210496","Spot":0.06,"SideOfStreet":"left","CountryId":"20624059","StateId":"20626775","CountyId":"20626831","CityId":"20626834","DistrictId":"20685783"}}},{"Relevance":1.0,"Distance":80.8,"MatchLevel":"street","MatchQuality":{"Country":1.0,"State":1.0,"County":1.0,"City":1.0,"District":1.0,"Street":[1.0],"PostalCode":1.0},"Location":{"LocationId":"NT_9.9PJo-RKPb4D9PK.-67rC_l_1242210495_L","LocationType":"point","DisplayPosition":{"Latitude":50.17831,"Longitude":20.983},"MapView":{"TopLeft":{"Latitude":50.17831,"Longitude":20.983},"BottomRight":{"Latitude":50.17825,"Longitude":20.98305}},"Address":{"Label":"ulica kard. Stefana Wyszyńskiego, 33-200 Dąbrowa Tarnowska, Polska","Country":"POL","State":"Woj. Małopolskie","County":"Powiat Dąbrowski","City":"Dąbrowa Tarnowska","District":"Dąbrowa Tarnowska","Street":"ulica kard. Stefana Wyszyńskiego","PostalCode":"33-200","AdditionalData":[{"value":"Polska","key":"CountryName"},{"value":"Woj. Małopolskie","key":"StateName"},{"value":"Powiat Dąbrowski","key":"CountyName"}]},"MapReference":{"ReferenceId":"1242210495","Spot":1.0,"SideOfStreet":"left","CountryId":"20624059","StateId":"20626775","CountyId":"20626831","CityId":"20626834","DistrictId":"20685783"}}},{"Relevance":1.0,"Distance":84.5,"MatchLevel":"street","MatchQuality":{"Country":1.0,"State":1.0,"County":1.0,"City":1.0,"District":1.0,"Street":[1.0],"PostalCode":1.0},"Location":{"LocationId":"NT_9.9PJo-RKPb4D9PK.-67rC_l_1242193910_L","LocationType":"point","DisplayPosition":{"Latitude":50.17825,"Longitude":20.98305},"MapView":{"TopLeft":{"Latitude":50.17825,"Longitude":20.98305},"BottomRight":{"Latitude":50.17816,"Longitude":20.98316}},"Address":{"Label":"ulica kard. Stefana Wyszyńskiego, 33-200 Dąbrowa Tarnowska, Polska","Country":"POL","State":"Woj. Małopolskie","County":"Powiat Dąbrowski","City":"Dąbrowa Tarnowska","District":"Dąbrowa Tarnowska","Street":"ulica kard. Stefana Wyszyńskiego","PostalCode":"33-200","AdditionalData":[{"value":"Polska","key":"CountryName"},{"value":"Woj. Małopolskie","key":"StateName"},{"value":"Powiat Dąbrowski","key":"CountyName"}]},"MapReference":{"ReferenceId":"1242193910","Spot":1.0,"SideOfStreet":"left","CountryId":"20624059","StateId":"20626775","CountyId":"20626831","CityId":"20626834","DistrictId":"20685783"}}},{"Relevance":1.0,"Distance":84.8,"MatchLevel":"houseNumber","MatchQuality":{"Country":1.0,"State":1.0,"County":1.0,"City":1.0,"District":1.0,"Street":[1.0],"HouseNumber":1.0,"PostalCode":1.0},"MatchType":"interpolated","Location":{"LocationId":"NT_JPslPng0wCW8Y8A1019o9B_4A","LocationType":"point","DisplayPosition":{"Latitude":50.17814,"Longitude":20.98303},"MapView":{"TopLeft":{"Latitude":50.1792642,"Longitude":20.9812746},"BottomRight":{"Latitude":50.1770158,"Longitude":20.9847854}},"Address":{"Label":"ulica mjr. Henryka Sucharskiego 8, 33-200 Dąbrowa Tarnowska, Polska","Country":"POL","State":"Woj. Małopolskie","County":"Powiat Dąbrowski","City":"Dąbrowa Tarnowska","District":"Dąbrowa Tarnowska","Street":"ulica mjr. Henryka Sucharskiego","HouseNumber":"8","PostalCode":"33-200","AdditionalData":[{"value":"Polska","key":"CountryName"},{"value":"Woj. Małopolskie","key":"StateName"},{"value":"Powiat Dąbrowski","key":"CountyName"}]},"MapReference":{"ReferenceId":"1241862686","Spot":0.85,"SideOfStreet":"right","CountryId":"20624059","StateId":"20626775","CountyId":"20626831","CityId":"20626834","DistrictId":"20685783","AddressId":"742984588","RoadLinkId":"563051556"}}},{"Relevance":1.0,"Distance":86.2,"MatchLevel":"street","MatchQuality":{"Country":1.0,"State":1.0,"County":1.0,"City":1.0,"District":1.0,"Street":[1.0],"PostalCode":1.0},"Location":{"LocationId":"NT_JPslPng0wCW8Y8A1019o9B_l_1242042671_L","LocationType":"point","DisplayPosition":{"Latitude":50.17771,"Longitude":20.98108},"MapView":{"TopLeft":{"Latitude":50.17771,"Longitude":20.98098},"BottomRight":{"Latitude":50.17766,"Longitude":20.98108}},"Address":{"Label":"ulica mjr. Henryka Sucharskiego, 33-200 Dąbrowa Tarnowska, Polska","Country":"POL","State":"Woj. Małopolskie","County":"Powiat Dąbrowski","City":"Dąbrowa Tarnowska","District":"Dąbrowa Tarnowska","Street":"ulica mjr. Henryka Sucharskiego","PostalCode":"33-200","AdditionalData":[{"value":"Polska","key":"CountryName"},{"value":"Woj. Małopolskie","key":"StateName"},{"value":"Powiat Dąbrowski","key":"CountyName"}]},"MapReference":{"ReferenceId":"1242042671","Spot":1.0,"SideOfStreet":"left","CountryId":"20624059","StateId":"20626775","CountyId":"20626831","CityId":"20626834","DistrictId":"20685783"}}}]}]}}