{"Response":{"MetaInfo":{"Timestamp":"2020-03-28T11:40:51.700+0000","NextPageInformation":"2"},"View":[{"_type":"SearchResultsViewType","ViewId":0,"Result":[{"Relevance":1.0,"Distance":0.0,"Direction":0.0,"MatchLevel":"district","MatchQuality":{"Country":1.0,"State":1.0,"County":1.0,"City":1.0,"District":1.0,"PostalCode":1.0},"Location":{"LocationId":"NT_hwKgQSWbhNnILnY68OeFSA","LocationType":"point","DisplayPosition":{"Latitude":50.1075221,"Longitude":8.6640852},"MapView":{"TopLeft":{"Latitude":50.1133,"Longitude":8.65996},"BottomRight":{"Latitude":50.1022,"Longitude":8.67574}},"Address":{"Label":"Bahnhofsviertel, Frankfurt am Main, Hessen, Deutschland","Country":"DEU","State":"Hessen","County":"Frankfurt am Main","City":"Frankfurt am Main","District":"Bahnhofsviertel","PostalCode":"60329","AdditionalData":[{"value":"Deutschland","key":"CountryName"},{"value":"Hessen","key":"StateName"},{"value":"Frankfurt am Main","key":"CountyName"}]},"MapReference":{"ReferenceId":"52309489","SideOfStreet":"neither","CountryId":"20147700","StateId":"20160993","CountyId":"20161002","CityId":"20161003","DistrictId":"20315178"}}},{"Relevance":1.0,"Distance":12.9,"MatchLevel":"street","MatchQuality":{"Country":1.0,"State":1.0,"County":1.0,"City":1.0,"District":1.0,"Street":[1.0],"PostalCode":1.0},"Location":{"LocationId":"NT_SqU8VW5TbO45HgnDC3ndzD_l_778974479_R","LocationType":"point","DisplayPosition":{"Latitude":50.10742,"Longitude":8.664},"MapView":{"TopLeft":{"Latitude":50.10752,"Longitude":8.66365},"BottomRight":{"Latitude":50.10727,"Longitude":8.66415}},"Address":{"Label":"Am Hauptbahnhof, 60329 Frankfurt am Main, Deutschland","Country":"DEU","State":"Hessen","County":"Frankfurt am Main","City":"Frankfurt am Main","District":"Bahnhofsviertel","Street":"Am Hauptbahnhof","PostalCode":"60329","AdditionalData":[{"value":"Deutschland","key":"CountryName"},{"value":"Hessen","key":"StateName"},{"value":"Frankfurt am Main","key":"CountyName"}]},"MapReference":{"ReferenceId":"778974479","Spot":0.35,"SideOfStreet":"right","CountryId":"20147700","StateId":"20160993","CountyId":"20161002","CityId":"20161003","DistrictId":"20315178"}}},{"Relevance":1.0,"Distance":16.4,"MatchLevel":"street","MatchQuality":{"Country":1.0,"State":1.0,"County":1.0,"City":1.0,"District":1.0,"Street":[1.0],"PostalCode":1.0},"Location":{"LocationId":"NT_SqU8VW5TbO45HgnDC3ndzD_l_743455902_L","LocationType":"point","DisplayPosition":{"Latitude":50.107668,"Longitude":8.6640539},"MapView":{"TopLeft":{"Latitude":50.10769,"Longitude":8.66397},"BottomRight":{"Latitude":50.10764,"Longitude":8.66438}},"Address":{"Label":"Am Hauptbahnhof, 60329 Frankfurt am Main, Deutschland","Country":"DEU","State":"Hessen","County":"Frankfurt am Main","City":"Frankfurt am Main","District":"Bahnhofsviertel","Street":"Am Hauptbahnhof","PostalCode":"60329","AdditionalData":[{"value":"Deutschland","key":"CountryName"},{"value":"Hessen","key":"StateName"},{"value":"Frankfurt am Main","key":"CountyName"}]},"MapReference":{"ReferenceId":"743455902","Spot":0.8,"SideOfStreet":"left","CountryId":"20147700","StateId":"20160993","CountyId":"20161002","CityId":"20161003","DistrictId":"20315178"}}},{"Relevance":1.0,"Distance":16.4,"MatchLevel":"street","MatchQuality":{"Country":1.0,"State":1.0,"County":1.0,"City":1.0,"District":1.0,"Street":[1.0],"PostalCode":1.0},"Location":{"LocationId":"NT_SqU8VW5TbO45HgnDC3ndzD_l_780237523_R","LocationType":"point","DisplayPosition":{"Latitude":50.10765,"Longitude":8.66397},"MapView":{"TopLeft":{"Latitude":50.10765,"Longitude":8.66385},"BottomRight":{"Latitude":50.10759,"Longitude":8.66397}},"Address":{"Label":"Am Hauptbahnhof, 60329 Frankfurt am Main, Deutschland","Country":"DEU","State":"Hessen","County":"Frankfurt am Main","City":"Frankfurt am Main","District":"Bahnhofsviertel","Street":"Am Hauptbahnhof","PostalCode":"60329","AdditionalData":[{"value":"Deutschland","key":"CountryName"},{"value":"Hessen","key":"StateName"},{"value":"Frankfurt am Main","key":"CountyName"}]},"MapReference":{"ReferenceId":"780237523","Spot":1.0,"SideOfStreet":"right","CountryId":"20147700","StateId":"20160993","CountyId":"20161002","CityId":"20161003","DistrictId":"20315178"}}},{"Relevance":1.0,"Distance":17.1,"MatchLevel":"street","MatchQuality":{"Country":1.0,"State":1.0,"County":1.0,"City":1.0,"District":1.0,"PostalCode":1.0},"Location":{"LocationId":"NT_pEi1aj-6GQg4jwO-Lwee7C_l_743455906_R","LocationType":"point","DisplayPosition":{"Latitude":50.1076621,"Longitude":8.6639872},"MapView":{"TopLeft":{"Latitude":50.10772,"Longitude":8.66397},"BottomRight":{"Latitude":50.10765,"Longitude":8.66407}},"Address":{"Label":"60329 Frankfurt am Main, Deutschland","Country":"DEU","State":"Hessen","County":"Frankfurt am Main","City":"Frankfurt am Main","District":"Bahnhofsviertel","PostalCode":"60329","AdditionalData":[{"value":"Deutschland","key":"CountryName"},{"value":"Hessen","key":"StateName"},{"value":"Frankfurt am Main","key":"CountyName"}]},"MapReference":{"ReferenceId":"743455906","Spot":0.17,"SideOfStreet":"right","CountryId":"20147700","StateId":"20160993","CountyId":"20161002","CityId":"20161003","DistrictId":"20315178"}}},{"Relevance":1.0,"Distance":18.4,"MatchLevel":"street","MatchQuality":{"Country":1.0,"State":1.0,"County":1.0,"City":1.0,"District":1.0,"Street":[1.0],"PostalCode":1.0},"Location":{"LocationId":"NT_SqU8VW5TbO45HgnDC3ndzD_l_780237522_R","LocationType":"point","DisplayPosition":{"Latitude":50.10759,"Longitude":8.66385},"MapView":{"TopLeft":{"Latitude":50.10759,"Longitude":8.66365},"BottomRight":{"Latitude":50.10749,"Longitude":8.66385}},"Address":{"Label":"Am Hauptbahnhof, 60329 Frankfurt am Main, Deutschland","Country":"DEU","State":"Hessen","County":"Frankfurt am Main","City":"Frankfurt am Main","District":"Bahnhofsviertel","Street":"Am Hauptbahnhof","PostalCode":"60329","AdditionalData":[{"value":"Deutschland","key":"CountryName"},{"value":"Hessen","key":"StateName"},{"value":"Frankfurt am Main","key":"CountyName"}]},"MapReference":{"ReferenceId":"780237522","Spot":1.0,"SideOfStreet":"right","CountryId":"20147700","StateId":"20160993","CountyId":"20161002","CityId":"20161003","DistrictId":"20315178"}}},{"Relevance":1.0,"Distance":18.4,"MatchLevel":"street","MatchQuality":{"Country":1.0,"State":1.0,"County":1.0,"City":1.0,"District":1.0,"PostalCode":1.0},"Location":{"LocationId":"NT_pEi1aj-6GQg4jwO-Lwee7C_l_780237526_R","LocationType":"point","DisplayPosition":{"Latitude":50.10759,"Longitude":8.66385},"MapView":{"TopLeft":{"Latitude":50.10797,"Longitude":8.66356},"BottomRight":{"Latitude":50.10759,"Longitude":8.66385}},"Address":{"Label":"60329 Frankfurt am Main, Deutschland","Country":"DEU","State":"Hessen","County":"Frankfurt am Main","City":"Frankfurt am Main","District":"Bahnhofsviertel","PostalCode":"60329","AdditionalData":[{"value":"Deutschland","key":"CountryName"},{"value":"Hessen","key":"StateName"},{"value":"Frankfurt am Main","key":"CountyName"}]},"MapReference":{"ReferenceId":"780237526","Spot":0.0,"SideOfStreet":"right","CountryId":"20147700","StateId":"20160993","CountyId":"20161002","CityId":"20161003","DistrictId":"20315178"}}},{"Relevance":1.0,"Distance":22.0,"MatchLevel":"street","MatchQuality":{"Country":1.0,"State":1.0,"County":1.0,"City":1.0,"District":1.0,"PostalCode":1.0},"Location":{"LocationId":"NT_pEi1aj-6GQg4jwO-Lwee7C_l_743455904_R","LocationType":"point","DisplayPosition":{"Latitude":50.10772,"Longitude":8.66407},"MapView":{"TopLeft":{"Latitude":50.10778,"Longitude":8.66407},"BottomRight":{"Latitude":50.10772,"Longitude":8.66418}},"Address":{"Label":"60329 Frankfurt am Main, Deutschland","Country":"DEU","State":"Hessen","County":"Frankfurt am Main","City":"Frankfurt am Main","District":"Bahnhofsviertel","PostalCode":"60329","AdditionalData":[{"value":"Deutschland","key":"CountryName"},{"value":"Hessen","key":"StateName"},{"value":"Frankfurt am Main","key":"CountyName"}]},"MapReference":{"ReferenceId":"743455904","Spot":0.0,"SideOfStreet":"right","CountryId":"20147700","StateId":"20160993","CountyId":"20161002","CityId":"20161003","DistrictId":"20315178"}}},{"Relevance":1.0,"Distance":22.0,"MatchLevel":"street","MatchQuality":{"Country":1.0,"State":1.0,"County":1.0,"City":1.0,"District":1.0,"PostalCode":1.0},"Location":{"LocationId":"NT_pEi1aj-6GQg4jwO-Lwee7C_l_743455905_L","LocationType":"point","DisplayPosition":{"Latitude":50.10772,"Longitude":8.66407},"MapView":{"TopLeft":{"Latitude":50.10788,"Longitude":8.66382},"BottomRight":{"Latitude":50.10772,"Longitude":8.66407}},"Address":{"Label":"60329 Frankfurt am Main, Deutschland","Country":"DEU","State":"Hessen","County":"Frankfurt am Main","City":"Frankfurt am Main","District":"Bahnhofsviertel","PostalCode":"60329","AdditionalData":[{"value":"Deutschland","key":"CountryName"},{"value":"Hessen","key":"StateName"},{"value":"Frankfurt am Main","key":"CountyName"}]},"MapReference":{"ReferenceId":"743455905","Spot":0.0,"SideOfStreet":"left","CountryId":"20147700","StateId":"20160993","CountyId":"20161002","CityId":"20161003","DistrictId":"20315178"}}},{"Relevance":1.0,"Distance":26.5,"MatchLevel":"street","MatchQuality":{"Country":1.0,"State":1.0,"County":1.0,"City":1.0,"District":1.0,"Street":[1.0],"PostalCode":1.0},"Location":{"LocationId":"NT_SqU8VW5TbO45HgnDC3ndzD_l_743455895_L","LocationType":"point","DisplayPosition":{"Latitude":50.1077397,"Longitude":8.6642375},"MapView":{"TopLeft":{"Latitude":50.10778,"Longitude":8.66418},"BottomRight":{"Latitude":50.10764,"Longitude":8.66438}},"Address":{"Label":"Am Hauptbahnhof, 60329 Frankfurt am Main, Deutschland","Country":"DEU","State":"Hessen","County":"Frankfurt am Main","City":"Frankfurt am Main","District":"Bahnhofsviertel","Street":"Am Hauptbahnhof","PostalCode":"60329","AdditionalData":[{"value":"Deutschland","key":"CountryName"},{"value":"Hessen","key":"StateName"},{"value":"Frankfurt am Main","key":"CountyName"}]},"MapReference":{"ReferenceId":"743455895","Spot":0.71,"SideOfStreet":"left","CountryId":"20147700","StateId":"20160993","CountyId":"20161002","CityId":"20161003","DistrictId":"20315178"}}}]}]}}