{"Response":{"MetaInfo":{"Timestamp":"2020-03-28T11:01:27.682+0000","NextPageInformation":"2"},"View":[{"_type":"SearchResultsViewType","ViewId":0,"Result":[{"Relevance":1.0,"Distance":0.0,"Direction":0.0,"MatchLevel":"city","MatchQuality":{"Country":1.0,"State":1.0,"County":1.0,"City":1.0,"PostalCode":1.0},"Location":{"LocationId":"NT_rXn.zxUlK0wpTRIitzeojB","LocationType":"point","DisplayPosition":{"Latitude":50.1114488,"Longitude":10.9930548},"MapView":{"TopLeft":{"Latitude":50.17444,"Longitude":10.91607},"BottomRight":{"Latitude":50.03492,"Longitude":11.12603}},"Address":{"Label":"Bad Staffelstein, Bayern, Deutschland","Country":"DEU","State":"Bayern","County":"Lichtenfels","City":"Bad Staffelstein","PostalCode":"96231","AdditionalData":[{"value":"Deutschland","key":"CountryName"},{"value":"Bayern","key":"StateName"},{"value":"Lichtenfels","key":"CountyName"}]},"MapReference":{"ReferenceId":"547323516","SideOfStreet":"neither","CountryId":"20147700","StateId":"20177250","CountyId":"20182791","CityId":"20182845"}}},{"Relevance":1.0,"Distance":59.6,"MatchLevel":"houseNumber","MatchQuality":{"Country":1.0,"State":1.0,"County":1.0,"City":1.0,"Street":[1.0],"HouseNumber":1.0,"PostalCode":1.0},"MatchType":"interpolated","Location":{"LocationId":"NT_X9ru8hHjGWv-B7iTodNL.A_xED","LocationType":"point","DisplayPosition":{"Latitude":50.11168,"Longitude":10.9923},"MapView":{"TopLeft":{"Latitude":50.1128042,"Longitude":10.9905471},"BottomRight":{"Latitude":50.1105558,"Longitude":10.9940529}},"Address":{"Label":"Am Kurpark 11, 96231 Bad Staffelstein, Deutschland","Country":"DEU","State":"Bayern","County":"Lichtenfels","City":"Bad Staffelstein","Street":"Am Kurpark","HouseNumber":"11","PostalCode":"96231","AdditionalData":[{"value":"Deutschland","key":"CountryName"},{"value":"Bayern","key":"StateName"},{"value":"Lichtenfels","key":"CountyName"}]},"MapReference":{"ReferenceId":"547321860","Spot":1.0,"SideOfStreet":"left","CountryId":"20147700","StateId":"20177250","CountyId":"20182791","CityId":"20182845","AddressId":"183863592","RoadLinkId":"33364434"}}},{"Relevance":1.0,"Distance":79.5,"MatchLevel":"street","MatchQuality":{"Country":1.0,"State":1.0,"County":1.0,"City":1.0,"Street":[1.0],"PostalCode":1.0},"Location":{"LocationId":"NT_c31hyxBTDUtgWh2scZIvaD_l_1192853494_L","LocationType":"point","DisplayPosition":{"Latitude":50.1121251,"Longitude":10.9934165},"MapView":{"TopLeft":{"Latitude":50.11215,"Longitude":10.99337},"BottomRight":{"Latitude":50.11126,"Longitude":10.99619}},"Address":{"Label":"St2204, 96231 Bad Staffelstein, Deutschland","Country":"DEU","State":"Bayern","County":"Lichtenfels","City":"Bad Staffelstein","Street":"St2204","PostalCode":"96231","AdditionalData":[{"value":"Deutschland","key":"CountryName"},{"value":"Bayern","key":"StateName"},{"value":"Lichtenfels","key":"CountyName"}]},"MapReference":{"ReferenceId":"1192853494","Spot":0.98,"SideOfStreet":"left","CountryId":"20147700","StateId":"20177250","CountyId":"20182791","CityId":"20182845"}}},{"Relevance":1.0,"Distance":81.1,"MatchLevel":"street","MatchQuality":{"Country":1.0,"State":1.0,"County":1.0,"City":1.0,"Street":[1.0],"PostalCode":1.0},"Location":{"LocationId":"NT_c31hyxBTDUtgWh2scZIvaD_l_547321731_L","LocationType":"point","DisplayPosition":{"Latitude":50.11215,"Longitude":10.99337},"MapView":{"TopLeft":{"Latitude":50.11482,"Longitude":10.99116},"BottomRight":{"Latitude":50.11215,"Longitude":10.99337}},"Address":{"Label":"St2204, 96231 Bad Staffelstein, Deutschland","Country":"DEU","State":"Bayern","County":"Lichtenfels","City":"Bad Staffelstein","Street":"St2204","PostalCode":"96231","AdditionalData":[{"value":"Deutschland","key":"CountryName"},{"value":"Bayern","key":"StateName"},{"value":"Lichtenfels","key":"CountyName"}]},"MapReference":{"ReferenceId":"547321731","Spot":0.0,"SideOfStreet":"left","CountryId":"20147700","StateId":"20177250","CountyId":"20182791","CityId":"20182845"}}},{"Relevance":1.0,"Distance":204.7,"MatchLevel":"houseNumber","MatchQuality":{"Country":1.0,"State":1.0,"County":1.0,"City":1.0,"Street":[1.0],"HouseNumber":1.0,"PostalCode":1.0},"MatchType":"interpolated","Location":{"LocationId":"NT_X9ru8hHjGWv-B7iTodNL.A_3A","LocationType":"point","DisplayPosition":{"Latitude":50.10951,"Longitude":10.99385},"MapView":{"TopLeft":{"Latitude":50.1106342,"Longitude":10.9920971},"BottomRight":{"Latitude":50.1083858,"Longitude":10.9956029}},"Address":{"Label":"Am Kurpark 7, 96231 Bad Staffelstein, Deutschland","Country":"DEU","State":"Bayern","County":"Lichtenfels","City":"Bad Staffelstein","Street":"Am Kurpark","HouseNumber":"7","PostalCode":"96231","AdditionalData":[{"value":"Deutschland","key":"CountryName"},{"value":"Bayern","key":"StateName"},{"value":"Lichtenfels","key":"CountyName"}]},"MapReference":{"ReferenceId":"547321838","Spot":0.88,"SideOfStreet":"left","CountryId":"20147700","StateId":"20177250","CountyId":"20182791","CityId":"20182845","AddressId":"208644533","RoadLinkId":"32451648"}}},{"Relevance":1.0,"Distance":224.6,"MatchLevel":"street","MatchQuality":{"Country":1.0,"State":1.0,"County":1.0,"City":1.0,"Street":[1.0],"PostalCode":1.0},"Location":{"LocationId":"NT_c31hyxBTDUtgWh2scZIvaD_l_1192853493_L","LocationType":"point","DisplayPosition":{"Latitude":50.11126,"Longitude":10.99619},"MapView":{"TopLeft":{"Latitude":50.11126,"Longitude":10.99619},"BottomRight":{"Latitude":50.11117,"Longitude":10.9967}},"Address":{"Label":"St2204, 96231 Bad Staffelstein, Deutschland","Country":"DEU","State":"Bayern","County":"Lichtenfels","City":"Bad Staffelstein","Street":"St2204","PostalCode":"96231","AdditionalData":[{"value":"Deutschland","key":"CountryName"},{"value":"Bayern","key":"StateName"},{"value":"Lichtenfels","key":"CountyName"}]},"MapReference":{"ReferenceId":"1192853493","Spot":1.0,"SideOfStreet":"left","CountryId":"20147700","StateId":"20177250","CountyId":"20182791","CityId":"20182845"}}},{"Relevance":1.0,"Distance":225.7,"MatchLevel":"houseNumber","MatchQuality":{"Country":1.0,"State":1.0,"County":1.0,"City":1.0,"Street":[1.0],"HouseNumber":1.0,"PostalCode":1.0},"MatchType":"interpolated","Location":{"LocationId":"NT_X9ru8hHjGWv-B7iTodNL.A_xA","LocationType":"point","DisplayPosition":{"Latitude":50.10973,"Longitude":10.99137},"MapView":{"TopLeft":{"Latitude":50.1108542,"Longitude":10.9896171},"BottomRight":{"Latitude":50.1086058,"Longitude":10.9931229}},"Address":{"Label":"Am Kurpark 1, 96231 Bad Staffelstein, Deutschland","Country":"DEU","State":"Bayern","County":"Lichtenfels","City":"Bad Staffelstein","Street":"Am Kurpark","HouseNumber":"1","PostalCode":"96231","AdditionalData":[{"value":"Deutschland","key":"CountryName"},{"value":"Bayern","key":"StateName"},{"value":"Lichtenfels","key":"CountyName"}]},"MapReference":{"ReferenceId":"541872718","Spot":0.85,"SideOfStreet":"left","CountryId":"20147700","StateId":"20177250","CountyId":"20182791","CityId":"20182845","AddressId":"185332702","RoadLinkId":"553443983"}}},{"Relevance":1.0,"Distance":243.3,"MatchLevel":"street","MatchQuality":{"Country":1.0,"State":1.0,"County":1.0,"City":1.0,"District":1.0,"Street":[1.0],"PostalCode":1.0},"Location":{"LocationId":"NT_NmT5-bXZxVw.wzhMKYUWtD_l_841505065_R","LocationType":"point","DisplayPosition":{"Latitude":50.10958,"Longitude":10.99483},"MapView":{"TopLeft":{"Latitude":50.10958,"Longitude":10.99483},"BottomRight":{"Latitude":50.10955,"Longitude":10.99498}},"Address":{"Label":"Am Kurpark, 96231 Bad Staffelstein, Deutschland","Country":"DEU","State":"Bayern","County":"Lichtenfels","City":"Bad Staffelstein","District":"Bad Staffelstein","Street":"Am Kurpark","PostalCode":"96231","AdditionalData":[{"value":"Deutschland","key":"CountryName"},{"value":"Bayern","key":"StateName"},{"value":"Lichtenfels","key":"CountyName"}]},"MapReference":{"ReferenceId":"841505065","Spot":1.0,"SideOfStreet":"right","CountryId":"20147700","StateId":"20177250","CountyId":"20182791","CityId":"20182845","DistrictId":"20182847"}}},{"Relevance":1.0,"Distance":243.8,"MatchLevel":"street","MatchQuality":{"Country":1.0,"State":1.0,"County":1.0,"City":1.0,"District":1.0,"Street":[1.0],"PostalCode":1.0},"Location":{"LocationId":"NT_NmT5-bXZxVw.wzhMKYUWtD_l_762788157_L","LocationType":"point","DisplayPosition":{"Latitude":50.10949,"Longitude":10.99459},"MapView":{"TopLeft":{"Latitude":50.10958,"Longitude":10.99443},"BottomRight":{"Latitude":50.10936,"Longitude":10.99483}},"Address":{"Label":"Am Kurpark, 96231 Bad Staffelstein, Deutschland","Country":"DEU","State":"Bayern","County":"Lichtenfels","City":"Bad Staffelstein","District":"Bad Staffelstein","Street":"Am Kurpark","PostalCode":"96231","AdditionalData":[{"value":"Deutschland","key":"CountryName"},{"value":"Bayern","key":"StateName"},{"value":"Lichtenfels","key":"CountyName"}]},"MapReference":{"ReferenceId":"762788157","Spot":0.44,"SideOfStreet":"left","CountryId":"20147700","StateId":"20177250","CountyId":"20182791","CityId":"20182845","DistrictId":"20182847"}}},{"Relevance":1.0,"Distance":251.8,"MatchLevel":"street","MatchQuality":{"Country":1.0,"State":1.0,"County":1.0,"City":1.0,"District":1.0,"Street":[1.0],"PostalCode":1.0},"Location":{"LocationId":"NT_NmT5-bXZxVw.wzhMKYUWtD_l_841505064_R","LocationType":"point","DisplayPosition":{"Latitude":50.10955,"Longitude":10.99498},"MapView":{"TopLeft":{"Latitude":50.10955,"Longitude":10.99498},"BottomRight":{"Latitude":50.10941,"Longitude":10.99546}},"Address":{"Label":"Am Kurpark, 96231 Bad Staffelstein, Deutschland","Country":"DEU","State":"Bayern","County":"Lichtenfels","City":"Bad Staffelstein","District":"Bad Staffelstein","Street":"Am Kurpark","PostalCode":"96231","AdditionalData":[{"value":"Deutschland","key":"CountryName"},{"value":"Bayern","key":"StateName"},{"value":"Lichtenfels","key":"CountyName"}]},"MapReference":{"ReferenceId":"841505064","Spot":1.0,"SideOfStreet":"right","CountryId":"20147700","StateId":"20177250","CountyId":"20182791","CityId":"20182845","DistrictId":"20182847"}}}]}]}}