{"Response":{"MetaInfo":{"Timestamp":"2020-03-28T10:21:03.881+0000","NextPageInformation":"2"},"View":[{"_type":"SearchResultsViewType","ViewId":0,"Result":[{"Relevance":1.0,"Distance":0.0,"Direction":0.0,"MatchLevel":"district","MatchQuality":{"Country":1.0,"State":1.0,"County":1.0,"City":1.0,"District":1.0,"PostalCode":1.0},"Location":{"LocationId":"NT_f6LEeoUnQLyCYVu6oOI0fC","LocationType":"point","DisplayPosition":{"Latitude":50.1289392,"Longitude":7.0095477},"MapView":{"TopLeft":{"Latitude":50.13153,"Longitude":7.00013},"BottomRight":{"Latitude":50.1196,"Longitude":7.01696}},"Address":{"Label":"Lutzerath, Rheinland-Pfalz, Deutschland","Country":"DEU","State":"Rheinland-Pfalz","County":"Cochem-Zell","City":"Lutzerath","District":"Lutzerath","PostalCode":"56826","AdditionalData":[{"value":"Deutschland","key":"CountryName"},{"value":"Rheinland-Pfalz","key":"StateName"},{"value":"Cochem-Zell","key":"CountyName"}]},"MapReference":{"ReferenceId":"548471020","SideOfStreet":"neither","CountryId":"20147700","StateId":"20164001","CountyId":"20165316","CityId":"20165482","DistrictId":"20165485"}}},{"Relevance":1.0,"Distance":15.5,"MatchLevel":"houseNumber","MatchQuality":{"Country":1.0,"State":1.0,"County":1.0,"City":1.0,"District":1.0,"Street":[1.0],"HouseNumber":1.0,"PostalCode":1.0},"MatchType":"interpolated","Location":{"LocationId":"NT_Z8F8kl67fWneh4.8XxySOA_zEE","LocationType":"point","DisplayPosition":{"Latitude":50.1294,"Longitude":7.00932},"MapView":{"TopLeft":{"Latitude":50.1305242,"Longitude":7.0075664},"BottomRight":{"Latitude":50.1282758,"Longitude":7.0110736}},"Address":{"Label":"Trierer Straße 3A, 56826 Lutzerath, Deutschland","Country":"DEU","State":"Rheinland-Pfalz","County":"Cochem-Zell","City":"Lutzerath","District":"Lutzerath","Street":"Trierer Straße","HouseNumber":"3A","PostalCode":"56826","AdditionalData":[{"value":"Deutschland","key":"CountryName"},{"value":"Rheinland-Pfalz","key":"StateName"},{"value":"Cochem-Zell","key":"CountyName"}]},"MapReference":{"ReferenceId":"839440400","Spot":0.53,"SideOfStreet":"right","CountryId":"20147700","StateId":"20164001","CountyId":"20165316","CityId":"20165482","DistrictId":"20165485","AddressId":"187862111","RoadLinkId":"221690889"}}},{"Relevance":1.0,"Distance":35.8,"MatchLevel":"houseNumber","MatchQuality":{"Country":1.0,"State":1.0,"County":1.0,"City":1.0,"District":1.0,"Street":[1.0],"HouseNumber":1.0,"PostalCode":1.0},"MatchType":"interpolated","Location":{"LocationId":"NT_kXEzWSJxDTiMTj1NlztksB_yA","LocationType":"point","DisplayPosition":{"Latitude":50.12898,"Longitude":7.00905},"MapView":{"TopLeft":{"Latitude":50.1301042,"Longitude":7.0072964},"BottomRight":{"Latitude":50.1278558,"Longitude":7.0108036}},"Address":{"Label":"Wenzelstraße 2, 56826 Lutzerath, Deutschland","Country":"DEU","State":"Rheinland-Pfalz","County":"Cochem-Zell","City":"Lutzerath","District":"Lutzerath","Street":"Wenzelstraße","HouseNumber":"2","PostalCode":"56826","AdditionalData":[{"value":"Deutschland","key":"CountryName"},{"value":"Rheinland-Pfalz","key":"StateName"},{"value":"Cochem-Zell","key":"CountyName"}]},"MapReference":{"ReferenceId":"548471661","Spot":0.46,"SideOfStreet":"left","CountryId":"20147700","StateId":"20164001","CountyId":"20165316","CityId":"20165482","DistrictId":"20165485","AddressId":"188398515","RoadLinkId":"33896525"}}},{"Relevance":1.0,"Distance":36.9,"MatchLevel":"street","MatchQuality":{"Country":1.0,"State":1.0,"County":1.0,"City":1.0,"District":1.0,"Street":[1.0],"PostalCode":1.0},"Location":{"LocationId":"NT_kXEzWSJxDTiMTj1NlztksB_l_548471659_R","LocationType":"point","DisplayPosition":{"Latitude":50.1286339,"Longitude":7.0093442},"MapView":{"TopLeft":{"Latitude":50.12875,"Longitude":7.00917},"BottomRight":{"Latitude":50.12847,"Longitude":7.00959}},"Address":{"Label":"Wenzelstraße, 56826 Lutzerath, Deutschland","Country":"DEU","State":"Rheinland-Pfalz","County":"Cochem-Zell","City":"Lutzerath","District":"Lutzerath","Street":"Wenzelstraße","PostalCode":"56826","AdditionalData":[{"value":"Deutschland","key":"CountryName"},{"value":"Rheinland-Pfalz","key":"StateName"},{"value":"Cochem-Zell","key":"CountyName"}]},"MapReference":{"ReferenceId":"548471659","Spot":0.59,"SideOfStreet":"right","CountryId":"20147700","StateId":"20164001","CountyId":"20165316","CityId":"20165482","DistrictId":"20165485"}}},{"Relevance":1.0,"Distance":49.8,"MatchLevel":"houseNumber","MatchQuality":{"Country":1.0,"State":1.0,"County":1.0,"City":1.0,"District":1.0,"Street":[1.0],"HouseNumber":1.0,"PostalCode":1.0},"MatchType":"interpolated","Location":{"LocationId":"NT_kqkkhkNX3z8yUSDc5BuO7C_yA","LocationType":"point","DisplayPosition":{"Latitude":50.12867,"Longitude":7.00899},"MapView":{"TopLeft":{"Latitude":50.1297942,"Longitude":7.0072364},"BottomRight":{"Latitude":50.1275458,"Longitude":7.0107436}},"Address":{"Label":"Adolf-Göschel-Straße 2, 56826 Lutzerath, Deutschland","Country":"DEU","State":"Rheinland-Pfalz","County":"Cochem-Zell","City":"Lutzerath","District":"Lutzerath","Street":"Adolf-Göschel-Straße","HouseNumber":"2","PostalCode":"56826","AdditionalData":[{"value":"Deutschland","key":"CountryName"},{"value":"Rheinland-Pfalz","key":"StateName"},{"value":"Cochem-Zell","key":"CountyName"}]},"MapReference":{"ReferenceId":"548471658","Spot":0.87,"SideOfStreet":"left","CountryId":"20147700","StateId":"20164001","CountyId":"20165316","CityId":"20165482","DistrictId":"20165485","AddressId":"188115279","RoadLinkId":"34590180"}}},{"Relevance":1.0,"Distance":60.6,"MatchLevel":"houseNumber","MatchQuality":{"Country":1.0,"State":1.0,"County":1.0,"City":1.0,"District":1.0,"Street":[1.0],"HouseNumber":1.0,"PostalCode":1.0},"MatchType":"interpolated","Location":{"LocationId":"NT_qEQJR2nLnBEcDVCui.1u-A_yA","LocationType":"point","DisplayPosition":{"Latitude":50.12836,"Longitude":7.00937},"MapView":{"TopLeft":{"Latitude":50.1294842,"Longitude":7.0076164},"BottomRight":{"Latitude":50.1272358,"Longitude":7.0111236}},"Address":{"Label":"Ringstraße 2, 56826 Lutzerath, Deutschland","Country":"DEU","State":"Rheinland-Pfalz","County":"Cochem-Zell","City":"Lutzerath","District":"Lutzerath","Street":"Ringstraße","HouseNumber":"2","PostalCode":"56826","AdditionalData":[{"value":"Deutschland","key":"CountryName"},{"value":"Rheinland-Pfalz","key":"StateName"},{"value":"Cochem-Zell","key":"CountyName"}]},"MapReference":{"ReferenceId":"548471014","Spot":0.85,"SideOfStreet":"left","CountryId":"20147700","StateId":"20164001","CountyId":"20165316","CityId":"20165482","DistrictId":"20165485","AddressId":"187786429","RoadLinkId":"34654385"}}},{"Relevance":1.0,"Distance":62.4,"MatchLevel":"houseNumber","MatchQuality":{"Country":1.0,"State":1.0,"County":1.0,"City":1.0,"District":1.0,"Street":[1.0],"HouseNumber":1.0,"PostalCode":1.0},"MatchType":"interpolated","Location":{"LocationId":"NT_Z8F8kl67fWneh4.8XxySOA_1A","LocationType":"point","DisplayPosition":{"Latitude":50.12921,"Longitude":7.00869},"MapView":{"TopLeft":{"Latitude":50.1303342,"Longitude":7.0069364},"BottomRight":{"Latitude":50.1280858,"Longitude":7.0104436}},"Address":{"Label":"Trierer Straße 5, 56826 Lutzerath, Deutschland","Country":"DEU","State":"Rheinland-Pfalz","County":"Cochem-Zell","City":"Lutzerath","District":"Lutzerath","Street":"Trierer Straße","HouseNumber":"5","PostalCode":"56826","AdditionalData":[{"value":"Deutschland","key":"CountryName"},{"value":"Rheinland-Pfalz","key":"StateName"},{"value":"Cochem-Zell","key":"CountyName"}]},"MapReference":{"ReferenceId":"548471660","Spot":0.87,"SideOfStreet":"right","CountryId":"20147700","StateId":"20164001","CountyId":"20165316","CityId":"20165482","DistrictId":"20165485","AddressId":"188534736","RoadLinkId":"34076292"}}},{"Relevance":1.0,"Distance":70.5,"MatchLevel":"street","MatchQuality":{"Country":1.0,"State":1.0,"County":1.0,"City":1.0,"District":1.0,"Street":[1.0],"PostalCode":1.0},"Location":{"LocationId":"NT_hafCeNI6BDx5VXbSB0.UtD_l_839440401_R","LocationType":"point","DisplayPosition":{"Latitude":50.12957,"Longitude":7.00965},"MapView":{"TopLeft":{"Latitude":50.12973,"Longitude":7.00965},"BottomRight":{"Latitude":50.12957,"Longitude":7.00994}},"Address":{"Label":"Trierer Straße, 56826 Lutzerath, Deutschland","Country":"DEU","State":"Rheinland-Pfalz","County":"Cochem-Zell","City":"Lutzerath","District":"Lutzerath","Street":"Trierer Straße","PostalCode":"56826","AdditionalData":[{"value":"Deutschland","key":"CountryName"},{"value":"Rheinland-Pfalz","key":"StateName"},{"value":"Cochem-Zell","key":"CountyName"}]},"MapReference":{"ReferenceId":"839440401","Spot":0.0,"SideOfStreet":"right","CountryId":"20147700","StateId":"20164001","CountyId":"20165316","CityId":"20165482","DistrictId":"20165485"}}},{"Relevance":1.0,"Distance":80.9,"MatchLevel":"houseNumber","MatchQuality":{"Country":1.0,"State":1.0,"County":1.0,"City":1.0,"District":1.0,"Street":[1.0],"HouseNumber":1.0,"PostalCode":1.0},"MatchType":"interpolated","Location":{"LocationId":"NT_kXEzWSJxDTiMTj1NlztksB_0A","LocationType":"point","DisplayPosition":{"Latitude":50.12825,"Longitude":7.00991},"MapView":{"TopLeft":{"Latitude":50.1293742,"Longitude":7.0081564},"BottomRight":{"Latitude":50.1271258,"Longitude":7.0116636}},"Address":{"Label":"Wenzelstraße 4, 56826 Lutzerath, Deutschland","Country":"DEU","State":"Rheinland-Pfalz","County":"Cochem-Zell","City":"Lutzerath","District":"Lutzerath","Street":"Wenzelstraße","HouseNumber":"4","PostalCode":"56826","AdditionalData":[{"value":"Deutschland","key":"CountryName"},{"value":"Rheinland-Pfalz","key":"StateName"},{"value":"Cochem-Zell","key":"CountyName"}]},"MapReference":{"ReferenceId":"548471016","Spot":0.35,"SideOfStreet":"left","CountryId":"20147700","StateId":"20164001","CountyId":"20165316","CityId":"20165482","DistrictId":"20165485","AddressId":"188832161","RoadLinkId":"34461282"}}},{"Relevance":1.0,"Distance":86.2,"MatchLevel":"street","MatchQuality":{"Country":1.0,"State":1.0,"County":1.0,"City":1.0,"District":1.0,"PostalCode":1.0},"Location":{"LocationId":"NT_MiIjdd.mX-4DM6GEsAPBFB_l_548471634_L","LocationType":"point","DisplayPosition":{"Latitude":50.1296405,"Longitude":7.010062},"MapView":{"TopLeft":{"Latitude":50.12973,"Longitude":7.00994},"BottomRight":{"Latitude":50.12875,"Longitude":7.01126}},"Address":{"Label":"56826 Lutzerath, Deutschland","Country":"DEU","State":"Rheinland-Pfalz","County":"Cochem-Zell","City":"Lutzerath","District":"Lutzerath","PostalCode":"56826","AdditionalData":[{"value":"Deutschland","key":"CountryName"},{"value":"Rheinland-Pfalz","key":"StateName"},{"value":"Cochem-Zell","key":"CountyName"}]},"MapReference":{"ReferenceId":"548471634","Spot":0.91,"SideOfStreet":"left","CountryId":"20147700","StateId":"20164001","CountyId":"20165316","CityId":"20165482","DistrictId":"20165485"}}}]}]}}