{"Response":{"MetaInfo":{"Timestamp":"2020-03-28T09:57:59.782+0000","NextPageInformation":"2"},"View":[{"_type":"SearchResultsViewType","ViewId":0,"Result":[{"Relevance":1.0,"Distance":0.0,"Direction":0.0,"MatchLevel":"district","MatchQuality":{"Country":1.0,"State":1.0,"County":1.0,"City":1.0,"District":1.0,"PostalCode":1.0},"Location":{"LocationId":"NT_bu3F1J4fHxp.UMu6Fbs.TB","LocationType":"point","DisplayPosition":{"Latitude":50.1183377,"Longitude":22.2328388},"MapView":{"TopLeft":{"Latitude":50.12543,"Longitude":22.21688},"BottomRight":{"Latitude":50.10887,"Longitude":22.26209}},"Address":{"Label":"Dąbrówki, Czarna, Woj. Podkarpackie, Polska","Country":"POL","State":"Woj. Podkarpackie","County":"Powiat Łańcucki","City":"Czarna","District":"Dąbrówki","PostalCode":"37-100","AdditionalData":[{"value":"Polska","key":"CountryName"},{"value":"Woj. Podkarpackie","key":"StateName"},{"value":"Powiat Łańcucki","key":"CountyName"}]},"MapReference":{"ReferenceId":"594008022","SideOfStreet":"neither","CountryId":"20624059","StateId":"20628101","CountyId":"20628224","CityId":"20628227","DistrictId":"20691166"}}},{"Relevance":1.0,"Distance":14.2,"MatchLevel":"houseNumber","MatchQuality":{"Country":1.0,"State":1.0,"County":1.0,"City":1.0,"District":1.0,"Street":[1.0],"HouseNumber":1.0,"PostalCode":1.0},"MatchType":"interpolated","Location":{"LocationId":"NT_ovUUN4KqsPmYK89a5c-ItB_yEDM","LocationType":"point","DisplayPosition":{"Latitude":50.11826,"Longitude":22.23244},"MapView":{"TopLeft":{"Latitude":50.1193842,"Longitude":22.2306868},"BottomRight":{"Latitude":50.1171358,"Longitude":22.2341932}},"Address":{"Label":"877 210, 37-100 Dąbrówki, Polska","Country":"POL","State":"Woj. Podkarpackie","County":"Powiat Łańcucki","City":"Czarna","District":"Dąbrówki","Street":"877","HouseNumber":"210","PostalCode":"37-100","AdditionalData":[{"value":"Polska","key":"CountryName"},{"value":"Woj. Podkarpackie","key":"StateName"},{"value":"Powiat Łańcucki","key":"CountyName"}]},"MapReference":{"ReferenceId":"977299037","Spot":0.36,"SideOfStreet":"right","CountryId":"20624059","StateId":"20628101","CountyId":"20628224","CityId":"20628227","DistrictId":"20691166","AddressId":"731717068","RoadLinkId":"311734446"}}},{"Relevance":1.0,"Distance":54.5,"MatchLevel":"houseNumber","MatchQuality":{"Country":1.0,"State":1.0,"County":1.0,"City":1.0,"District":1.0,"Street":[1.0],"HouseNumber":1.0,"PostalCode":1.0},"MatchType":"interpolated","Location":{"LocationId":"NT_ovUUN4KqsPmYK89a5c-ItB_yETM","LocationType":"point","DisplayPosition":{"Latitude":50.11792,"Longitude":22.23244},"MapView":{"TopLeft":{"Latitude":50.1190442,"Longitude":22.2306868},"BottomRight":{"Latitude":50.1167958,"Longitude":22.2341932}},"Address":{"Label":"877 211, 37-100 Dąbrówki, Polska","Country":"POL","State":"Woj. Podkarpackie","County":"Powiat Łańcucki","City":"Czarna","District":"Dąbrówki","Street":"877","HouseNumber":"211","PostalCode":"37-100","AdditionalData":[{"value":"Polska","key":"CountryName"},{"value":"Woj. Podkarpackie","key":"StateName"},{"value":"Powiat Łańcucki","key":"CountyName"}]},"MapReference":{"ReferenceId":"977299036","Spot":0.98,"SideOfStreet":"right","CountryId":"20624059","StateId":"20628101","CountyId":"20628224","CityId":"20628227","DistrictId":"20691166","AddressId":"582335312","RoadLinkId":"311734445"}}},{"Relevance":1.0,"Distance":97.6,"MatchLevel":"houseNumber","MatchQuality":{"Country":1.0,"State":1.0,"County":1.0,"City":1.0,"District":1.0,"Street":[1.0],"HouseNumber":1.0,"PostalCode":1.0},"MatchType":"interpolated","Location":{"LocationId":"NT_Wm8PaVSh88NKSsLyZDMVjB_yAzN","LocationType":"point","DisplayPosition":{"Latitude":50.11867,"Longitude":22.23494},"MapView":{"TopLeft":{"Latitude":50.1197942,"Longitude":22.2331868},"BottomRight":{"Latitude":50.1175458,"Longitude":22.2366932}},"Address":{"Label":"Dąbrówki 207, 37-100 Dąbrówki, Polska","Country":"POL","State":"Woj. Podkarpackie","County":"Powiat Łańcucki","City":"Czarna","District":"Dąbrówki","Street":"Dąbrówki","HouseNumber":"207","PostalCode":"37-100","AdditionalData":[{"value":"Polska","key":"CountryName"},{"value":"Woj. Podkarpackie","key":"StateName"},{"value":"Powiat Łańcucki","key":"CountyName"}]},"MapReference":{"ReferenceId":"1155037305","Spot":1.0,"SideOfStreet":"left","CountryId":"20624059","StateId":"20628101","CountyId":"20628224","CityId":"20628227","DistrictId":"20691166","AddressId":"741672764","RoadLinkId":"461216955"}}},{"Relevance":1.0,"Distance":111.3,"MatchLevel":"houseNumber","MatchQuality":{"Country":1.0,"State":1.0,"County":1.0,"City":1.0,"District":1.0,"Street":[1.0],"HouseNumber":1.0,"PostalCode":1.0},"MatchType":"interpolated","Location":{"LocationId":"NT_aVJArwC5h5VMajiUg98RUB_xgTN","LocationType":"point","DisplayPosition":{"Latitude":50.11923,"Longitude":22.23136},"MapView":{"TopLeft":{"Latitude":50.1203542,"Longitude":22.2296068},"BottomRight":{"Latitude":50.1181058,"Longitude":22.2331132}},"Address":{"Label":"Dąbrówki 185, 37-100 Dąbrówki, Polska","Country":"POL","State":"Woj. Podkarpackie","County":"Powiat Łańcucki","City":"Czarna","District":"Dąbrówki","Street":"Dąbrówki","HouseNumber":"185","PostalCode":"37-100","AdditionalData":[{"value":"Polska","key":"CountryName"},{"value":"Woj. Podkarpackie","key":"StateName"},{"value":"Powiat Łańcucki","key":"CountyName"}]},"MapReference":{"ReferenceId":"1047516228","Spot":0.97,"SideOfStreet":"right","CountryId":"20624059","StateId":"20628101","CountyId":"20628224","CityId":"20628227","AddressId":"582448570","RoadLinkId":"371030485"}}},{"Relevance":1.0,"Distance":111.5,"MatchLevel":"houseNumber","MatchQuality":{"Country":1.0,"State":1.0,"County":1.0,"City":1.0,"District":1.0,"Street":[1.0],"HouseNumber":1.0,"PostalCode":1.0},"MatchType":"interpolated","Location":{"LocationId":"NT_ovUUN4KqsPmYK89a5c-ItB_yAjMBB","LocationType":"point","DisplayPosition":{"Latitude":50.11932,"Longitude":22.2324},"MapView":{"TopLeft":{"Latitude":50.1204442,"Longitude":22.2306468},"BottomRight":{"Latitude":50.1181958,"Longitude":22.2341532}},"Address":{"Label":"877 202A, 37-100 Dąbrówki, Polska","Country":"POL","State":"Woj. Podkarpackie","County":"Powiat Łańcucki","City":"Czarna","District":"Dąbrówki","Street":"877","HouseNumber":"202A","PostalCode":"37-100","AdditionalData":[{"value":"Polska","key":"CountryName"},{"value":"Woj. Podkarpackie","key":"StateName"},{"value":"Powiat Łańcucki","key":"CountyName"}]},"MapReference":{"ReferenceId":"1046588171","Spot":0.78,"SideOfStreet":"right","CountryId":"20624059","StateId":"20628101","CountyId":"20628224","CityId":"20628227","DistrictId":"20691166","AddressId":"582448579","RoadLinkId":"366647900"}}},{"Relevance":1.0,"Distance":128.8,"MatchLevel":"street","MatchQuality":{"Country":1.0,"State":1.0,"County":1.0,"City":1.0,"District":1.0,"Street":[1.0],"PostalCode":1.0},"Location":{"LocationId":"NT_Wm8PaVSh88NKSsLyZDMVjB_l_1046588173_R","LocationType":"point","DisplayPosition":{"Latitude":50.11946,"Longitude":22.23239},"MapView":{"TopLeft":{"Latitude":50.11946,"Longitude":22.23184},"BottomRight":{"Latitude":50.11939,"Longitude":22.23239}},"Address":{"Label":"Dąbrówki, 37-100 Dąbrówki, Polska","Country":"POL","State":"Woj. Podkarpackie","County":"Powiat Łańcucki","City":"Czarna","District":"Dąbrówki","Street":"Dąbrówki","PostalCode":"37-100","AdditionalData":[{"value":"Polska","key":"CountryName"},{"value":"Woj. Podkarpackie","key":"StateName"},{"value":"Powiat Łańcucki","key":"CountyName"}]},"MapReference":{"ReferenceId":"1046588173","Spot":1.0,"SideOfStreet":"right","CountryId":"20624059","StateId":"20628101","CountyId":"20628224","CityId":"20628227","DistrictId":"20691166"}}},{"Relevance":1.0,"Distance":137.0,"MatchLevel":"street","MatchQuality":{"Country":1.0,"State":1.0,"County":1.0,"City":1.0,"District":1.0,"Street":[1.0],"PostalCode":1.0},"Location":{"LocationId":"NT_Wm8PaVSh88NKSsLyZDMVjB_l_1046588179_R","LocationType":"point","DisplayPosition":{"Latitude":50.11939,"Longitude":22.23184},"MapView":{"TopLeft":{"Latitude":50.11939,"Longitude":22.23146},"BottomRight":{"Latitude":50.11926,"Longitude":22.23184}},"Address":{"Label":"Dąbrówki, 37-100 Dąbrówki, Polska","Country":"POL","State":"Woj. Podkarpackie","County":"Powiat Łańcucki","City":"Czarna","District":"Dąbrówki","Street":"Dąbrówki","PostalCode":"37-100","AdditionalData":[{"value":"Polska","key":"CountryName"},{"value":"Woj. Podkarpackie","key":"StateName"},{"value":"Powiat Łańcucki","key":"CountyName"}]},"MapReference":{"ReferenceId":"1046588179","Spot":1.0,"SideOfStreet":"right","CountryId":"20624059","StateId":"20628101","CountyId":"20628224","CityId":"20628227","DistrictId":"20691166"}}},{"Relevance":1.0,"Distance":137.0,"MatchLevel":"street","MatchQuality":{"Country":1.0,"State":1.0,"County":1.0,"City":1.0,"District":1.0,"PostalCode":1.0},"Location":{"LocationId":"NT_AiGxG1PqCHv8jcUUgh-TkA_l_1044654814_R","LocationType":"point","DisplayPosition":{"Latitude":50.11939,"Longitude":22.23184},"MapView":{"TopLeft":{"Latitude":50.12005,"Longitude":22.23152},"BottomRight":{"Latitude":50.11939,"Longitude":22.23184}},"Address":{"Label":"37-100 Dąbrówki, Polska","Country":"POL","State":"Woj. Podkarpackie","County":"Powiat Łańcucki","City":"Czarna","District":"Dąbrówki","PostalCode":"37-100","AdditionalData":[{"value":"Polska","key":"CountryName"},{"value":"Woj. Podkarpackie","key":"StateName"},{"value":"Powiat Łańcucki","key":"CountyName"}]},"MapReference":{"ReferenceId":"1044654814","Spot":0.0,"SideOfStreet":"right","CountryId":"20624059","StateId":"20628101","CountyId":"20628224","CityId":"20628227","DistrictId":"20691166"}}},{"Relevance":1.0,"Distance":142.0,"MatchLevel":"houseNumber","MatchQuality":{"Country":1.0,"State":1.0,"County":1.0,"City":1.0,"District":1.0,"Street":[1.0],"HouseNumber":1.0,"PostalCode":1.0},"MatchType":"interpolated","Location":{"LocationId":"NT_Z0WFdzxWu7xToMgsZRryrC_l_1046588172_R_yATM","LocationType":"point","DisplayPosition":{"Latitude":50.11959,"Longitude":22.23238},"MapView":{"TopLeft":{"Latitude":50.1207142,"Longitude":22.2306268},"BottomRight":{"Latitude":50.1184659,"Longitude":22.2341332}},"Address":{"Label":"877 201, 37-100 Dąbrówki, Polska","Country":"POL","State":"Woj. Podkarpackie","County":"Powiat Łańcucki","City":"Czarna","District":"Dąbrówki","Street":"877","HouseNumber":"201","PostalCode":"37-100","AdditionalData":[{"value":"Polska","key":"CountryName"},{"value":"Woj. Podkarpackie","key":"StateName"},{"value":"Powiat Łańcucki","key":"CountyName"}]},"MapReference":{"ReferenceId":"1046588172","Spot":0.15,"SideOfStreet":"right","CountryId":"20624059","StateId":"20628101","CountyId":"20628224","CityId":"20628227","DistrictId":"20691166"}}}]}]}}