{"Response":{"MetaInfo":{"Timestamp":"2020-03-28T10:06:06.551+0000","NextPageInformation":"2"},"View":[{"_type":"SearchResultsViewType","ViewId":0,"Result":[{"Relevance":1.0,"Distance":0.0,"Direction":0.0,"MatchLevel":"district","MatchQuality":{"Country":1.0,"State":1.0,"County":1.0,"City":1.0,"District":1.0,"PostalCode":1.0},"Location":{"LocationId":"NT_mQe98.cGeR6v3CwPqlAouD","LocationType":"point","DisplayPosition":{"Latitude":50.1793453,"Longitude":9.0288094},"MapView":{"TopLeft":{"Latitude":50.1879,"Longitude":9.0152},"BottomRight":{"Latitude":50.17146,"Longitude":9.06021}},"Address":{"Label":"Langenselbold, Hessen, Deutschland","Country":"DEU","State":"Hessen","County":"Main-Kinzig-Kreis","City":"Langenselbold","District":"Langenselbold","PostalCode":"63505","AdditionalData":[{"value":"Deutschland","key":"CountryName"},{"value":"Hessen","key":"StateName"},{"value":"Main-Kinzig-Kreis","key":"CountyName"}]},"MapReference":{"ReferenceId":"52417062","SideOfStreet":"neither","CountryId":"20147700","StateId":"20160993","CountyId":"20161417","CityId":"20161516","DistrictId":"20423273"}}},{"Relevance":1.0,"Distance":6.2,"MatchLevel":"houseNumber","MatchQuality":{"Country":1.0,"State":1.0,"County":1.0,"City":1.0,"District":1.0,"Street":[1.0],"HouseNumber":1.0,"PostalCode":1.0},"MatchType":"interpolated","Location":{"LocationId":"NT_vNiriImT.YuLyESQXvaMyA_xQD","LocationType":"point","DisplayPosition":{"Latitude":50.17943,"Longitude":9.02902},"MapView":{"TopLeft":{"Latitude":50.1805542,"Longitude":9.0272646},"BottomRight":{"Latitude":50.1783058,"Longitude":9.0307754}},"Address":{"Label":"Im Stockborn 14, 63505 Langenselbold, Deutschland","Country":"DEU","State":"Hessen","County":"Main-Kinzig-Kreis","City":"Langenselbold","District":"Langenselbold","Street":"Im Stockborn","HouseNumber":"14","PostalCode":"63505","AdditionalData":[{"value":"Deutschland","key":"CountryName"},{"value":"Hessen","key":"StateName"},{"value":"Main-Kinzig-Kreis","key":"CountyName"}]},"MapReference":{"ReferenceId":"981945353","Spot":0.78,"SideOfStreet":"left","CountryId":"20147700","StateId":"20160993","CountyId":"20161417","CityId":"20161516","DistrictId":"20423273","AddressId":"187314473","RoadLinkId":"313820533"}}},{"Relevance":1.0,"Distance":29.8,"MatchLevel":"street","MatchQuality":{"Country":1.0,"State":1.0,"County":1.0,"City":1.0,"District":1.0,"PostalCode":1.0},"Location":{"LocationId":"NT_Nh8DAJJYUpBniGLkB5HciC_l_1175216809_R","LocationType":"point","DisplayPosition":{"Latitude":50.1790875,"Longitude":9.0286945},"MapView":{"TopLeft":{"Latitude":50.1793,"Longitude":9.0283},"BottomRight":{"Latitude":50.17843,"Longitude":9.03017}},"Address":{"Label":"63505 Langenselbold, Deutschland","Country":"DEU","State":"Hessen","County":"Main-Kinzig-Kreis","City":"Langenselbold","District":"Langenselbold","PostalCode":"63505","AdditionalData":[{"value":"Deutschland","key":"CountryName"},{"value":"Hessen","key":"StateName"},{"value":"Main-Kinzig-Kreis","key":"CountyName"}]},"MapReference":{"ReferenceId":"1175216809","Spot":0.78,"SideOfStreet":"right","CountryId":"20147700","StateId":"20160993","CountyId":"20161417","CityId":"20161516","DistrictId":"20423273"}}},{"Relevance":1.0,"Distance":36.6,"MatchLevel":"street","MatchQuality":{"Country":1.0,"State":1.0,"County":1.0,"City":1.0,"District":1.0,"PostalCode":1.0},"Location":{"LocationId":"NT_Nh8DAJJYUpBniGLkB5HciC_l_1175216747_R","LocationType":"point","DisplayPosition":{"Latitude":50.1793,"Longitude":9.0283},"MapView":{"TopLeft":{"Latitude":50.17941,"Longitude":9.02816},"BottomRight":{"Latitude":50.1793,"Longitude":9.0283}},"Address":{"Label":"63505 Langenselbold, Deutschland","Country":"DEU","State":"Hessen","County":"Main-Kinzig-Kreis","City":"Langenselbold","District":"Langenselbold","PostalCode":"63505","AdditionalData":[{"value":"Deutschland","key":"CountryName"},{"value":"Hessen","key":"StateName"},{"value":"Main-Kinzig-Kreis","key":"CountyName"}]},"MapReference":{"ReferenceId":"1175216747","Spot":0.0,"SideOfStreet":"right","CountryId":"20147700","StateId":"20160993","CountyId":"20161417","CityId":"20161516","DistrictId":"20423273"}}},{"Relevance":1.0,"Distance":42.8,"MatchLevel":"street","MatchQuality":{"Country":1.0,"State":1.0,"County":1.0,"City":1.0,"District":1.0,"Street":[1.0],"PostalCode":1.0},"Location":{"LocationId":"NT_kwllHUlhS8K5TLzHh1BM2B_l_705916974_R","LocationType":"point","DisplayPosition":{"Latitude":50.1789708,"Longitude":9.0286695},"MapView":{"TopLeft":{"Latitude":50.17915,"Longitude":9.02819},"BottomRight":{"Latitude":50.17881,"Longitude":9.0291}},"Address":{"Label":"Ravolzhäuser Straße, 63505 Langenselbold, Deutschland","Country":"DEU","State":"Hessen","County":"Main-Kinzig-Kreis","City":"Langenselbold","District":"Langenselbold","Street":"Ravolzhäuser Straße","PostalCode":"63505","AdditionalData":[{"value":"Deutschland","key":"CountryName"},{"value":"Hessen","key":"StateName"},{"value":"Main-Kinzig-Kreis","key":"CountyName"}]},"MapReference":{"ReferenceId":"705916974","Spot":0.47,"SideOfStreet":"right","CountryId":"20147700","StateId":"20160993","CountyId":"20161417","CityId":"20161516","DistrictId":"20423273"}}},{"Relevance":1.0,"Distance":43.5,"MatchLevel":"landmark","MatchQuality":{"Country":1.0,"State":1.0,"County":1.0,"City":1.0,"District":1.0,"PostalCode":1.0,"Name":1.0},"Location":{"LocationId":"NT_X48pjyM7bjI1e2AoFfCOkC","LocationType":"industrialComplex","Name":"Gewerbegebiet Am Nesselbusch","DisplayPosition":{"Latitude":50.17878,"Longitude":9.02161},"MapView":{"TopLeft":{"Latitude":50.18092,"Longitude":9.0152},"BottomRight":{"Latitude":50.17663,"Longitude":9.02823}},"Address":{"Label":"63505 Langenselbold, Deutschland","Country":"DEU","State":"Hessen","County":"Main-Kinzig-Kreis","City":"Langenselbold","District":"Langenselbold","PostalCode":"63505","AdditionalData":[{"value":"Deutschland","key":"CountryName"},{"value":"Hessen","key":"StateName"},{"value":"Main-Kinzig-Kreis","key":"CountyName"}]},"MapReference":{"CountryId":"20147700","StateId":"20160993","CountyId":"20161417","CityId":"20161516","DistrictId":"20423273","PlaceId":"1410274639"}}},{"Relevance":1.0,"Distance":43.5,"MatchLevel":"street","MatchQuality":{"Country":1.0,"State":1.0,"County":1.0,"City":1.0,"District":1.0,"PostalCode":1.0},"Location":{"LocationId":"NT_Nh8DAJJYUpBniGLkB5HciC_l_705916975_R","LocationType":"point","DisplayPosition":{"Latitude":50.1792287,"Longitude":9.0282263},"MapView":{"TopLeft":{"Latitude":50.17936,"Longitude":9.02812},"BottomRight":{"Latitude":50.17915,"Longitude":9.02823}},"Address":{"Label":"63505 Langenselbold, Deutschland","Country":"DEU","State":"Hessen","County":"Main-Kinzig-Kreis","City":"Langenselbold","District":"Langenselbold","PostalCode":"63505","AdditionalData":[{"value":"Deutschland","key":"CountryName"},{"value":"Hessen","key":"StateName"},{"value":"Main-Kinzig-Kreis","key":"CountyName"}]},"MapReference":{"ReferenceId":"705916975","Spot":0.34,"SideOfStreet":"right","CountryId":"20147700","StateId":"20160993","CountyId":"20161417","CityId":"20161516","DistrictId":"20423273"}}},{"Relevance":1.0,"Distance":46.0,"MatchLevel":"street","MatchQuality":{"Country":1.0,"State":1.0,"County":1.0,"City":1.0,"District":1.0,"Street":[1.0],"PostalCode":1.0},"Location":{"LocationId":"NT_a0MJT.H4DnPtHYwBSMCdCC_l_1221489497_R","LocationType":"point","DisplayPosition":{"Latitude":50.17967,"Longitude":9.02841},"MapView":{"TopLeft":{"Latitude":50.17967,"Longitude":9.02816},"BottomRight":{"Latitude":50.17941,"Longitude":9.02841}},"Address":{"Label":"Ringstraße, 63505 Langenselbold, Deutschland","Country":"DEU","State":"Hessen","County":"Main-Kinzig-Kreis","City":"Langenselbold","District":"Langenselbold","Street":"Ringstraße","PostalCode":"63505","AdditionalData":[{"value":"Deutschland","key":"CountryName"},{"value":"Hessen","key":"StateName"},{"value":"Main-Kinzig-Kreis","key":"CountyName"}]},"MapReference":{"ReferenceId":"1221489497","Spot":1.0,"SideOfStreet":"right","CountryId":"20147700","StateId":"20160993","CountyId":"20161417","CityId":"20161516","DistrictId":"20423273"}}},{"Relevance":1.0,"Distance":46.8,"MatchLevel":"street","MatchQuality":{"Country":1.0,"State":1.0,"County":1.0,"City":1.0,"District":1.0,"Street":[1.0],"PostalCode":1.0},"Location":{"LocationId":"NT_a0MJT.H4DnPtHYwBSMCdCC_l_1175216745_R","LocationType":"point","DisplayPosition":{"Latitude":50.17941,"Longitude":9.02816},"MapView":{"TopLeft":{"Latitude":50.17941,"Longitude":9.02812},"BottomRight":{"Latitude":50.17936,"Longitude":9.02816}},"Address":{"Label":"Ringstraße, 63505 Langenselbold, Deutschland","Country":"DEU","State":"Hessen","County":"Main-Kinzig-Kreis","City":"Langenselbold","District":"Langenselbold","Street":"Ringstraße","PostalCode":"63505","AdditionalData":[{"value":"Deutschland","key":"CountryName"},{"value":"Hessen","key":"StateName"},{"value":"Main-Kinzig-Kreis","key":"CountyName"}]},"MapReference":{"ReferenceId":"1175216745","Spot":1.0,"SideOfStreet":"right","CountryId":"20147700","StateId":"20160993","CountyId":"20161417","CityId":"20161516","DistrictId":"20423273"}}},{"Relevance":1.0,"Distance":46.8,"MatchLevel":"street","MatchQuality":{"Country":1.0,"State":1.0,"County":1.0,"City":1.0,"District":1.0,"PostalCode":1.0},"Location":{"LocationId":"NT_Nh8DAJJYUpBniGLkB5HciC_l_1060364331_R","LocationType":"point","DisplayPosition":{"Latitude":50.17941,"Longitude":9.02816},"MapView":{"TopLeft":{"Latitude":50.18014,"Longitude":9.02647},"BottomRight":{"Latitude":50.17941,"Longitude":9.02816}},"Address":{"Label":"63505 Langenselbold, Deutschland","Country":"DEU","State":"Hessen","County":"Main-Kinzig-Kreis","City":"Langenselbold","District":"Langenselbold","PostalCode":"63505","AdditionalData":[{"value":"Deutschland","key":"CountryName"},{"value":"Hessen","key":"StateName"},{"value":"Main-Kinzig-Kreis","key":"CountyName"}]},"MapReference":{"ReferenceId":"1060364331","Spot":0.0,"SideOfStreet":"right","CountryId":"20147700","StateId":"20160993","CountyId":"20161417","CityId":"20161516","DistrictId":"20423273"}}}]}]}}