{"Response":{"MetaInfo":{"Timestamp":"2020-03-28T10:55:27.622+0000","NextPageInformation":"2"},"View":[{"_type":"SearchResultsViewType","ViewId":0,"Result":[{"Relevance":1.0,"Distance":0.0,"Direction":0.0,"MatchLevel":"district","MatchQuality":{"Country":1.0,"State":1.0,"County":1.0,"City":1.0,"District":1.0,"PostalCode":1.0},"Location":{"LocationId":"NT_RPjj.iBQ-PlklIQ1DOOnCB","LocationType":"point","DisplayPosition":{"Latitude":50.1143798,"Longitude":8.6979707},"MapView":{"TopLeft":{"Latitude":50.12593,"Longitude":8.69415},"BottomRight":{"Latitude":50.10575,"Longitude":8.74723}},"Address":{"Label":"Ostend, Frankfurt am Main, Hessen, Deutschland","Country":"DEU","State":"Hessen","County":"Frankfurt am Main","City":"Frankfurt am Main","District":"Ostend","PostalCode":"60316","AdditionalData":[{"value":"Deutschland","key":"CountryName"},{"value":"Hessen","key":"StateName"},{"value":"Frankfurt am Main","key":"CountyName"}]},"MapReference":{"ReferenceId":"1221518126","SideOfStreet":"neither","CountryId":"20147700","StateId":"20160993","CountyId":"20161002","CityId":"20161003","DistrictId":"20300013"}}},{"Relevance":1.0,"Distance":4.8,"MatchLevel":"street","MatchQuality":{"Country":1.0,"State":1.0,"County":1.0,"City":1.0,"District":1.0,"PostalCode":1.0},"Location":{"LocationId":"NT_vBiwyWqM8H6eSDocXOEV.C_l_590224433_R","LocationType":"point","DisplayPosition":{"Latitude":50.1143363,"Longitude":8.6979686},"MapView":{"TopLeft":{"Latitude":50.11434,"Longitude":8.69789},"BottomRight":{"Latitude":50.11432,"Longitude":8.69831}},"Address":{"Label":"60316 Frankfurt am Main, Deutschland","Country":"DEU","State":"Hessen","County":"Frankfurt am Main","City":"Frankfurt am Main","District":"Ostend","PostalCode":"60316","AdditionalData":[{"value":"Deutschland","key":"CountryName"},{"value":"Hessen","key":"StateName"},{"value":"Frankfurt am Main","key":"CountyName"}]},"MapReference":{"ReferenceId":"590224433","Spot":0.81,"SideOfStreet":"right","CountryId":"20147700","StateId":"20160993","CountyId":"20161002","CityId":"20161003","DistrictId":"20300013"}}},{"Relevance":1.0,"Distance":12.3,"MatchLevel":"houseNumber","MatchQuality":{"Country":1.0,"State":1.0,"County":1.0,"City":1.0,"District":1.0,"Street":[1.0],"HouseNumber":1.0,"PostalCode":1.0},"MatchType":"interpolated","Location":{"LocationId":"NT_9PbW-047AnPV1rwyoKwltC_xYD","LocationType":"point","DisplayPosition":{"Latitude":50.1145,"Longitude":8.69792},"MapView":{"TopLeft":{"Latitude":50.1156242,"Longitude":8.696167},"BottomRight":{"Latitude":50.1133758,"Longitude":8.699673}},"Address":{"Label":"Theobald-Christ-Straße 16, 60316 Frankfurt am Main, Deutschland","Country":"DEU","State":"Hessen","County":"Frankfurt am Main","City":"Frankfurt am Main","District":"Ostend","Street":"Theobald-Christ-Straße","HouseNumber":"16","PostalCode":"60316","AdditionalData":[{"value":"Deutschland","key":"CountryName"},{"value":"Hessen","key":"StateName"},{"value":"Frankfurt am Main","key":"CountyName"}]},"MapReference":{"ReferenceId":"590224434","Spot":0.15,"SideOfStreet":"right","CountryId":"20147700","StateId":"20160993","CountyId":"20161002","CityId":"20161003","DistrictId":"20300013","AddressId":"169468250","RoadLinkId":"34572104"}}},{"Relevance":1.0,"Distance":34.6,"MatchLevel":"houseNumber","MatchQuality":{"Country":1.0,"State":1.0,"County":1.0,"City":1.0,"District":1.0,"Street":[1.0],"HouseNumber":1.0,"PostalCode":1.0},"MatchType":"interpolated","Location":{"LocationId":"NT_9PbW-047AnPV1rwyoKwltC_xAD","LocationType":"point","DisplayPosition":{"Latitude":50.11408,"Longitude":8.69784},"MapView":{"TopLeft":{"Latitude":50.1152042,"Longitude":8.696087},"BottomRight":{"Latitude":50.1129558,"Longitude":8.699593}},"Address":{"Label":"Theobald-Christ-Straße 10, 60316 Frankfurt am Main, Deutschland","Country":"DEU","State":"Hessen","County":"Frankfurt am Main","City":"Frankfurt am Main","District":"Ostend","Street":"Theobald-Christ-Straße","HouseNumber":"10","PostalCode":"60316","AdditionalData":[{"value":"Deutschland","key":"CountryName"},{"value":"Hessen","key":"StateName"},{"value":"Frankfurt am Main","key":"CountyName"}]},"MapReference":{"ReferenceId":"590224432","Spot":0.75,"SideOfStreet":"right","CountryId":"20147700","StateId":"20160993","CountyId":"20161002","CityId":"20161003","DistrictId":"20300013","AddressId":"169865497","RoadLinkId":"34104739"}}},{"Relevance":1.0,"Distance":64.2,"MatchLevel":"houseNumber","MatchQuality":{"Country":1.0,"State":1.0,"County":1.0,"City":1.0,"District":1.0,"Street":[1.0],"HouseNumber":1.0,"PostalCode":1.0},"MatchType":"interpolated","Location":{"LocationId":"NT_NU6bHI52I0WNaWBtp732tB_xED","LocationType":"point","DisplayPosition":{"Latitude":50.11406,"Longitude":8.69882},"MapView":{"TopLeft":{"Latitude":50.1151842,"Longitude":8.697067},"BottomRight":{"Latitude":50.1129358,"Longitude":8.700573}},"Address":{"Label":"Hölderlinstraße 11, 60316 Frankfurt am Main, Deutschland","Country":"DEU","State":"Hessen","County":"Frankfurt am Main","City":"Frankfurt am Main","District":"Ostend","Street":"Hölderlinstraße","HouseNumber":"11","PostalCode":"60316","AdditionalData":[{"value":"Deutschland","key":"CountryName"},{"value":"Hessen","key":"StateName"},{"value":"Frankfurt am Main","key":"CountyName"}]},"MapReference":{"ReferenceId":"756448388","Spot":0.8,"SideOfStreet":"left","CountryId":"20147700","StateId":"20160993","CountyId":"20161002","CityId":"20161003","DistrictId":"20300013","AddressId":"169475698","RoadLinkId":"151590999"}}},{"Relevance":1.0,"Distance":79.9,"MatchLevel":"houseNumber","MatchQuality":{"Country":1.0,"State":1.0,"County":1.0,"City":1.0,"District":1.0,"Street":[1.0],"HouseNumber":1.0,"PostalCode":1.0},"MatchType":"interpolated","Location":{"LocationId":"NT_NU6bHI52I0WNaWBtp732tB_yUD","LocationType":"point","DisplayPosition":{"Latitude":50.11497,"Longitude":8.69871},"MapView":{"TopLeft":{"Latitude":50.1160942,"Longitude":8.6969569},"BottomRight":{"Latitude":50.1138458,"Longitude":8.7004631}},"Address":{"Label":"Hölderlinstraße 25, 60316 Frankfurt am Main, Deutschland","Country":"DEU","State":"Hessen","County":"Frankfurt am Main","City":"Frankfurt am Main","District":"Ostend","Street":"Hölderlinstraße","HouseNumber":"25","PostalCode":"60316","AdditionalData":[{"value":"Deutschland","key":"CountryName"},{"value":"Hessen","key":"StateName"},{"value":"Frankfurt am Main","key":"CountyName"}]},"MapReference":{"ReferenceId":"756448389","Spot":0.61,"SideOfStreet":"left","CountryId":"20147700","StateId":"20160993","CountyId":"20161002","CityId":"20161003","DistrictId":"20300013","AddressId":"168010437","RoadLinkId":"151591000"}}},{"Relevance":1.0,"Distance":89.6,"MatchLevel":"houseNumber","MatchQuality":{"Country":1.0,"State":1.0,"County":1.0,"City":1.0,"District":1.0,"Street":[1.0],"HouseNumber":1.0,"PostalCode":1.0},"MatchType":"interpolated","Location":{"LocationId":"NT_zgWdstrG.Sn-GVgORySmOA_yYD","LocationType":"point","DisplayPosition":{"Latitude":50.11485,"Longitude":8.69644},"MapView":{"TopLeft":{"Latitude":50.1159742,"Longitude":8.6946869},"BottomRight":{"Latitude":50.1137258,"Longitude":8.6981931}},"Address":{"Label":"Grüne Straße 26, 60316 Frankfurt am Main, Deutschland","Country":"DEU","State":"Hessen","County":"Frankfurt am Main","City":"Frankfurt am Main","District":"Ostend","Street":"Grüne Straße","HouseNumber":"26","PostalCode":"60316","AdditionalData":[{"value":"Deutschland","key":"CountryName"},{"value":"Hessen","key":"StateName"},{"value":"Frankfurt am Main","key":"CountyName"}]},"MapReference":{"ReferenceId":"52424211","Spot":0.33,"SideOfStreet":"right","CountryId":"20147700","StateId":"20160993","CountyId":"20161002","CityId":"20161003","DistrictId":"20300013","AddressId":"168361539","RoadLinkId":"34346545"}}},{"Relevance":1.0,"Distance":94.7,"MatchLevel":"houseNumber","MatchQuality":{"Country":1.0,"State":1.0,"County":1.0,"City":1.0,"District":1.0,"Street":[1.0],"HouseNumber":1.0,"PostalCode":1.0},"MatchType":"interpolated","Location":{"LocationId":"NT_aaO24sA-uMGlqyfBgmzZkD_xAD","LocationType":"point","DisplayPosition":{"Latitude":50.11542,"Longitude":8.69807},"MapView":{"TopLeft":{"Latitude":50.1165442,"Longitude":8.6963169},"BottomRight":{"Latitude":50.1142958,"Longitude":8.6998231}},"Address":{"Label":"Alfred-Brehm-Platz 10, 60316 Frankfurt am Main, Deutschland","Country":"DEU","State":"Hessen","County":"Frankfurt am Main","City":"Frankfurt am Main","District":"Ostend","Street":"Alfred-Brehm-Platz","HouseNumber":"10","PostalCode":"60316","AdditionalData":[{"value":"Deutschland","key":"CountryName"},{"value":"Hessen","key":"StateName"},{"value":"Frankfurt am Main","key":"CountyName"}]},"MapReference":{"ReferenceId":"756564188","Spot":0.0,"SideOfStreet":"left","CountryId":"20147700","StateId":"20160993","CountyId":"20161002","CityId":"20161003","DistrictId":"20300013","AddressId":"249950545","RoadLinkId":"151681016"}}},{"Relevance":1.0,"Distance":97.7,"MatchLevel":"houseNumber","MatchQuality":{"Country":1.0,"State":1.0,"County":1.0,"City":1.0,"District":1.0,"Street":[1.0],"HouseNumber":1.0,"PostalCode":1.0},"MatchType":"interpolated","Location":{"LocationId":"NT_zgWdstrG.Sn-GVgORySmOA_xYD","LocationType":"point","DisplayPosition":{"Latitude":50.11437,"Longitude":8.69643},"MapView":{"TopLeft":{"Latitude":50.1154942,"Longitude":8.694677},"BottomRight":{"Latitude":50.1132458,"Longitude":8.698183}},"Address":{"Label":"Grüne Straße 16, 60316 Frankfurt am Main, Deutschland","Country":"DEU","State":"Hessen","County":"Frankfurt am Main","City":"Frankfurt am Main","District":"Ostend","Street":"Grüne Straße","HouseNumber":"16","PostalCode":"60316","AdditionalData":[{"value":"Deutschland","key":"CountryName"},{"value":"Hessen","key":"StateName"},{"value":"Frankfurt am Main","key":"CountyName"}]},"MapReference":{"ReferenceId":"52424208","Spot":1.0,"SideOfStreet":"right","CountryId":"20147700","StateId":"20160993","CountyId":"20161002","CityId":"20161003","DistrictId":"20300013","AddressId":"249987218","RoadLinkId":"34169177"}}},{"Relevance":1.0,"Distance":99.5,"MatchLevel":"houseNumber","MatchQuality":{"Country":1.0,"State":1.0,"County":1.0,"City":1.0,"District":1.0,"Street":[1.0],"HouseNumber":1.0,"PostalCode":1.0},"MatchType":"interpolated","Location":{"LocationId":"NT_aaO24sA-uMGlqyfBgmzZkD_xID","LocationType":"point","DisplayPosition":{"Latitude":50.11542,"Longitude":8.69823},"MapView":{"TopLeft":{"Latitude":50.1165442,"Longitude":8.6964769},"BottomRight":{"Latitude":50.1142958,"Longitude":8.6999831}},"Address":{"Label":"Alfred-Brehm-Platz 12, 60316 Frankfurt am Main, Deutschland","Country":"DEU","State":"Hessen","County":"Frankfurt am Main","City":"Frankfurt am Main","District":"Ostend","Street":"Alfred-Brehm-Platz","HouseNumber":"12","PostalCode":"60316","AdditionalData":[{"value":"Deutschland","key":"CountryName"},{"value":"Hessen","key":"StateName"},{"value":"Frankfurt am Main","key":"CountyName"}]},"MapReference":{"ReferenceId":"756446950","Spot":0.6,"SideOfStreet":"left","CountryId":"20147700","StateId":"20160993","CountyId":"20161002","CityId":"20161003","DistrictId":"20300013","AddressId":"169438306","RoadLinkId":"151590601"}}}]}]}}