{"Response":{"MetaInfo":{"Timestamp":"2020-03-28T11:32:33.704+0000","NextPageInformation":"2"},"View":[{"_type":"SearchResultsViewType","ViewId":0,"Result":[{"Relevance":1.0,"Distance":0.0,"Direction":0.0,"MatchLevel":"district","MatchQuality":{"Country":1.0,"State":1.0,"County":1.0,"City":1.0,"District":1.0,"PostalCode":1.0},"Location":{"LocationId":"NT_oJMsgus8ukglCPdzHkkHUD","LocationType":"point","DisplayPosition":{"Latitude":50.2911204,"Longitude":16.8785177},"MapView":{"TopLeft":{"Latitude":50.31409,"Longitude":16.85446},"BottomRight":{"Latitude":50.28119,"Longitude":16.89265}},"Address":{"Label":"Stronie Śląskie, Woj. Dolnośląskie, Polska","Country":"POL","State":"Woj. Dolnośląskie","County":"Powiat Kłodzki","City":"Stronie Śląskie","District":"Stronie Śląskie","PostalCode":"57-550","AdditionalData":[{"value":"Polska","key":"CountryName"},{"value":"Woj. Dolnośląskie","key":"StateName"},{"value":"Powiat Kłodzki","key":"CountyName"}]},"MapReference":{"ReferenceId":"779694033","SideOfStreet":"neither","CountryId":"20624059","StateId":"20625002","CountyId":"20625106","CityId":"20625129","DistrictId":"20680351"}}},{"Relevance":1.0,"Distance":79.5,"MatchLevel":"houseNumber","MatchQuality":{"Country":1.0,"State":1.0,"County":1.0,"City":1.0,"District":1.0,"Street":[1.0],"HouseNumber":1.0,"PostalCode":1.0},"MatchType":"interpolated","Location":{"LocationId":"NT_z4FJdWZr9sdf7MQgCD915A_zEE","LocationType":"point","DisplayPosition":{"Latitude":50.29177,"Longitude":16.87805},"MapView":{"TopLeft":{"Latitude":50.2928942,"Longitude":16.8762904},"BottomRight":{"Latitude":50.2906458,"Longitude":16.8798096}},"Address":{"Label":"ulica Stefana Żeromskiego 3A, 57-550 Stronie Śląskie, Polska","Country":"POL","State":"Woj. Dolnośląskie","County":"Powiat Kłodzki","City":"Stronie Śląskie","District":"Stronie Śląskie","Street":"ulica Stefana Żeromskiego","HouseNumber":"3A","PostalCode":"57-550","AdditionalData":[{"value":"Polska","key":"CountryName"},{"value":"Woj. Dolnośląskie","key":"StateName"},{"value":"Powiat Kłodzki","key":"CountyName"}]},"MapReference":{"ReferenceId":"766112910","Spot":0.61,"SideOfStreet":"left","CountryId":"20624059","StateId":"20625002","CountyId":"20625106","CityId":"20625129","DistrictId":"20680351","AddressId":"688895570","RoadLinkId":"160049329"}}},{"Relevance":1.0,"Distance":88.4,"MatchLevel":"houseNumber","MatchQuality":{"Country":1.0,"State":1.0,"County":1.0,"City":1.0,"District":1.0,"Street":[1.0],"HouseNumber":1.0,"PostalCode":1.0},"MatchType":"interpolated","Location":{"LocationId":"NT_YxeD9tTT8cpQbvNKlkq1VB_yQE","LocationType":"point","DisplayPosition":{"Latitude":50.29089,"Longitude":16.87696},"MapView":{"TopLeft":{"Latitude":50.2920142,"Longitude":16.8752005},"BottomRight":{"Latitude":50.2897658,"Longitude":16.8787195}},"Address":{"Label":"ulica Krótka 2D, 57-550 Stronie Śląskie, Polska","Country":"POL","State":"Woj. Dolnośląskie","County":"Powiat Kłodzki","City":"Stronie Śląskie","District":"Stronie Śląskie","Street":"ulica Krótka","HouseNumber":"2D","PostalCode":"57-550","AdditionalData":[{"value":"Polska","key":"CountryName"},{"value":"Woj. Dolnośląskie","key":"StateName"},{"value":"Powiat Kłodzki","key":"CountyName"}]},"MapReference":{"ReferenceId":"594346903","Spot":0.9,"SideOfStreet":"right","CountryId":"20624059","StateId":"20625002","CountyId":"20625106","CityId":"20625129","DistrictId":"20680351","AddressId":"688933296","RoadLinkId":"160353272"}}},{"Relevance":1.0,"Distance":104.1,"MatchLevel":"houseNumber","MatchQuality":{"Country":1.0,"State":1.0,"County":1.0,"City":1.0,"District":1.0,"Street":[1.0],"HouseNumber":1.0,"PostalCode":1.0},"MatchType":"interpolated","Location":{"LocationId":"NT_YxeD9tTT8cpQbvNKlkq1VB_1EE","LocationType":"point","DisplayPosition":{"Latitude":50.29142,"Longitude":16.87713},"MapView":{"TopLeft":{"Latitude":50.2925442,"Longitude":16.8753704},"BottomRight":{"Latitude":50.2902958,"Longitude":16.8788896}},"Address":{"Label":"ulica Krótka 5A, 57-550 Stronie Śląskie, Polska","Country":"POL","State":"Woj. Dolnośląskie","County":"Powiat Kłodzki","City":"Stronie Śląskie","District":"Stronie Śląskie","Street":"ulica Krótka","HouseNumber":"5A","PostalCode":"57-550","AdditionalData":[{"value":"Polska","key":"CountryName"},{"value":"Woj. Dolnośląskie","key":"StateName"},{"value":"Powiat Kłodzki","key":"CountyName"}]},"MapReference":{"ReferenceId":"594346753","Spot":0.76,"SideOfStreet":"left","CountryId":"20624059","StateId":"20625002","CountyId":"20625106","CityId":"20625129","DistrictId":"20680351","AddressId":"689260507","RoadLinkId":"160353270"}}},{"Relevance":1.0,"Distance":142.6,"MatchLevel":"houseNumber","MatchQuality":{"Country":1.0,"State":1.0,"County":1.0,"City":1.0,"District":1.0,"Street":[1.0],"HouseNumber":1.0,"PostalCode":1.0},"MatchType":"interpolated","Location":{"LocationId":"NT_YxeD9tTT8cpQbvNKlkq1VB_xQE","LocationType":"point","DisplayPosition":{"Latitude":50.2909,"Longitude":16.87654},"MapView":{"TopLeft":{"Latitude":50.2920242,"Longitude":16.8747805},"BottomRight":{"Latitude":50.2897758,"Longitude":16.8782995}},"Address":{"Label":"ulica Krótka 1D, 57-550 Stronie Śląskie, Polska","Country":"POL","State":"Woj. Dolnośląskie","County":"Powiat Kłodzki","City":"Stronie Śląskie","District":"Stronie Śląskie","Street":"ulica Krótka","HouseNumber":"1D","PostalCode":"57-550","AdditionalData":[{"value":"Polska","key":"CountryName"},{"value":"Woj. Dolnośląskie","key":"StateName"},{"value":"Powiat Kłodzki","key":"CountyName"}]},"MapReference":{"ReferenceId":"594346782","Spot":0.72,"SideOfStreet":"left","CountryId":"20624059","StateId":"20625002","CountyId":"20625106","CityId":"20625129","DistrictId":"20680351","AddressId":"689111313","RoadLinkId":"96470718"}}},{"Relevance":1.0,"Distance":149.8,"MatchLevel":"houseNumber","MatchQuality":{"Country":1.0,"State":1.0,"County":1.0,"City":1.0,"District":1.0,"Street":[1.0],"HouseNumber":1.0,"PostalCode":1.0},"MatchType":"interpolated","Location":{"LocationId":"NT_z4FJdWZr9sdf7MQgCD915A_yID","LocationType":"point","DisplayPosition":{"Latitude":50.29244,"Longitude":16.87809},"MapView":{"TopLeft":{"Latitude":50.2935642,"Longitude":16.8763304},"BottomRight":{"Latitude":50.2913158,"Longitude":16.8798496}},"Address":{"Label":"ulica Stefana Żeromskiego 22, 57-550 Stronie Śląskie, Polska","Country":"POL","State":"Woj. Dolnośląskie","County":"Powiat Kłodzki","City":"Stronie Śląskie","District":"Stronie Śląskie","Street":"ulica Stefana Żeromskiego","HouseNumber":"22","PostalCode":"57-550","AdditionalData":[{"value":"Polska","key":"CountryName"},{"value":"Woj. Dolnośląskie","key":"StateName"},{"value":"Powiat Kłodzki","key":"CountyName"}]},"MapReference":{"ReferenceId":"779690839","Spot":0.0,"SideOfStreet":"left","CountryId":"20624059","StateId":"20625002","CountyId":"20625106","CityId":"20625129","DistrictId":"20680351","AddressId":"768806183","RoadLinkId":"173506205"}}},{"Relevance":1.0,"Distance":153.4,"MatchLevel":"street","MatchQuality":{"Country":1.0,"State":1.0,"County":1.0,"City":1.0,"District":1.0,"Street":[1.0],"PostalCode":1.0},"Location":{"LocationId":"NT_GhQBJSOrIByemt6PhfwgVB_l_594346993_R","LocationType":"point","DisplayPosition":{"Latitude":50.28994,"Longitude":16.8774},"MapView":{"TopLeft":{"Latitude":50.2903,"Longitude":16.87666},"BottomRight":{"Latitude":50.28994,"Longitude":16.8774}},"Address":{"Label":"ulica Sudecka, 57-550 Stronie Śląskie, Polska","Country":"POL","State":"Woj. Dolnośląskie","County":"Powiat Kłodzki","City":"Stronie Śląskie","District":"Stronie Śląskie","Street":"ulica Sudecka","PostalCode":"57-550","AdditionalData":[{"value":"Polska","key":"CountryName"},{"value":"Woj. Dolnośląskie","key":"StateName"},{"value":"Powiat Kłodzki","key":"CountyName"}]},"MapReference":{"ReferenceId":"594346993","Spot":0.0,"SideOfStreet":"right","CountryId":"20624059","StateId":"20625002","CountyId":"20625106","CityId":"20625129","DistrictId":"20680351"}}},{"Relevance":1.0,"Distance":155.1,"MatchLevel":"houseNumber","MatchQuality":{"Country":1.0,"State":1.0,"County":1.0,"City":1.0,"District":1.0,"Street":[1.0],"HouseNumber":1.0,"PostalCode":1.0},"MatchType":"interpolated","Location":{"LocationId":"NT_RQMDEXfFJLKaAM0K-CbUoB_zA","LocationType":"point","DisplayPosition":{"Latitude":50.29265,"Longitude":16.87887},"MapView":{"TopLeft":{"Latitude":50.2937742,"Longitude":16.8771104},"BottomRight":{"Latitude":50.2915258,"Longitude":16.8806296}},"Address":{"Label":"ulica Stanisława Żeromskiego 3, 57-550 Stronie Śląskie, Polska","Country":"POL","State":"Woj. Dolnośląskie","County":"Powiat Kłodzki","City":"Stronie Śląskie","District":"Stronie Śląskie","Street":"ulica Stanisława Żeromskiego","HouseNumber":"3","PostalCode":"57-550","AdditionalData":[{"value":"Polska","key":"CountryName"},{"value":"Woj. Dolnośląskie","key":"StateName"},{"value":"Powiat Kłodzki","key":"CountyName"}]},"MapReference":{"ReferenceId":"779690837","Spot":0.41,"SideOfStreet":"left","CountryId":"20624059","StateId":"20625002","CountyId":"20625106","CityId":"20625129","DistrictId":"20680351","AddressId":"688895600","RoadLinkId":"173506185"}}},{"Relevance":1.0,"Distance":159.2,"MatchLevel":"houseNumber","MatchQuality":{"Country":1.0,"State":1.0,"County":1.0,"City":1.0,"District":1.0,"Street":[1.0],"HouseNumber":1.0,"PostalCode":1.0},"MatchType":"interpolated","Location":{"LocationId":"NT_q7OE16QUG.Uj3l0ksKpglC_2A","LocationType":"point","DisplayPosition":{"Latitude":50.29289,"Longitude":16.87835},"MapView":{"TopLeft":{"Latitude":50.2940142,"Longitude":16.8765904},"BottomRight":{"Latitude":50.2917658,"Longitude":16.8801096}},"Address":{"Label":"ulica Stanisława Żeromskiego 6, 57-550 Stronie Śląskie, Polska","Country":"POL","State":"Woj. Dolnośląskie","County":"Powiat Kłodzki","City":"Stronie Śląskie","District":"Stronie Śląskie","Street":"ulica Stanisława Żeromskiego","HouseNumber":"6","PostalCode":"57-550","AdditionalData":[{"value":"Polska","key":"CountryName"},{"value":"Woj. Dolnośląskie","key":"StateName"},{"value":"Powiat Kłodzki","key":"CountyName"}]},"MapReference":{"ReferenceId":"779690838","Spot":0.13,"SideOfStreet":"left","CountryId":"20624059","StateId":"20625002","CountyId":"20625106","CityId":"20625129","DistrictId":"20680351","AddressId":"689089832","RoadLinkId":"172983602"}}},{"Relevance":1.0,"Distance":162.2,"MatchLevel":"street","MatchQuality":{"Country":1.0,"State":1.0,"County":1.0,"City":1.0,"District":1.0,"Street":[1.0],"PostalCode":1.0},"Location":{"LocationId":"NT_GhQBJSOrIByemt6PhfwgVB_l_594347075_R","LocationType":"point","DisplayPosition":{"Latitude":50.2897241,"Longitude":16.877855},"MapView":{"TopLeft":{"Latitude":50.28994,"Longitude":16.8774},"BottomRight":{"Latitude":50.28966,"Longitude":16.87799}},"Address":{"Label":"ulica Sudecka, 57-550 Stronie Śląskie, Polska","Country":"POL","State":"Woj. Dolnośląskie","County":"Powiat Kłodzki","City":"Stronie Śląskie","District":"Stronie Śląskie","Street":"ulica Sudecka","PostalCode":"57-550","AdditionalData":[{"value":"Polska","key":"CountryName"},{"value":"Woj. Dolnośląskie","key":"StateName"},{"value":"Powiat Kłodzki","key":"CountyName"}]},"MapReference":{"ReferenceId":"594347075","Spot":0.23,"SideOfStreet":"right","CountryId":"20624059","StateId":"20625002","CountyId":"20625106","CityId":"20625129","DistrictId":"20680351"}}}]}]}}