{"Response":{"MetaInfo":{"Timestamp":"2020-03-28T11:52:41.653+0000","NextPageInformation":"2"},"View":[{"_type":"SearchResultsViewType","ViewId":0,"Result":[{"Relevance":1.0,"Distance":0.0,"Direction":0.0,"MatchLevel":"city","MatchQuality":{"Country":1.0,"State":1.0,"County":1.0,"City":1.0,"PostalCode":1.0},"Location":{"LocationId":"NT_xPymzn9dmvTyGaLJPTz2DD","LocationType":"point","DisplayPosition":{"Latitude":50.2881622,"Longitude":2.7784628},"MapView":{"TopLeft":{"Latitude":50.31036,"Longitude":2.72554},"BottomRight":{"Latitude":50.26778,"Longitude":2.81099}},"Address":{"Label":"Arras, Hauts-de-France, France","Country":"FRA","State":"Hauts-de-France","County":"Pas-de-Calais","City":"Arras","PostalCode":"62000","AdditionalData":[{"value":"France","key":"CountryName"},{"value":"Hauts-de-France","key":"StateName"},{"value":"Pas-de-Calais","key":"CountyName"}]},"MapReference":{"ReferenceId":"548865607","SideOfStreet":"neither","CountryId":"20000001","StateId":"20000002","CountyId":"20030132","CityId":"20030256"}}},{"Relevance":1.0,"Distance":0.9,"MatchLevel":"houseNumber","MatchQuality":{"Country":1.0,"State":1.0,"County":1.0,"City":1.0,"Street":[1.0],"HouseNumber":1.0,"PostalCode":1.0},"MatchType":"interpolated","Location":{"LocationId":"NT_rqjlPc7GgomQtRT8RH5pRC_zkjQ","LocationType":"point","DisplayPosition":{"Latitude":50.28818,"Longitude":2.77843},"MapView":{"TopLeft":{"Latitude":50.2893042,"Longitude":2.7766706},"BottomRight":{"Latitude":50.2870558,"Longitude":2.7801894}},"Address":{"Label":"39B Rue Ronville, 62000 Arras, France","Country":"FRA","State":"Hauts-de-France","County":"Pas-de-Calais","City":"Arras","Street":"Rue Ronville","HouseNumber":"39B","PostalCode":"62000","AdditionalData":[{"value":"France","key":"CountryName"},{"value":"Hauts-de-France","key":"StateName"},{"value":"Pas-de-Calais","key":"CountyName"}]},"MapReference":{"ReferenceId":"548864806","Spot":0.11,"SideOfStreet":"right","CountryId":"20000001","StateId":"20000002","CountyId":"20030132","CityId":"20030256","AddressId":"345200616","RoadLinkId":"45021808"}}},{"Relevance":1.0,"Distance":9.7,"MatchLevel":"houseNumber","MatchQuality":{"Country":1.0,"State":1.0,"County":1.0,"City":1.0,"Street":[1.0],"HouseNumber":1.0,"PostalCode":1.0},"MatchType":"interpolated","Location":{"LocationId":"NT_mvIlfblsbgZafUyU9V07VC_yID","LocationType":"point","DisplayPosition":{"Latitude":50.28801,"Longitude":2.77851},"MapView":{"TopLeft":{"Latitude":50.2891342,"Longitude":2.7767506},"BottomRight":{"Latitude":50.2868858,"Longitude":2.7802694}},"Address":{"Label":"22 Rue Léon Gambetta, 62000 Arras, France","Country":"FRA","State":"Hauts-de-France","County":"Pas-de-Calais","City":"Arras","Street":"Rue Léon Gambetta","HouseNumber":"22","PostalCode":"62000","AdditionalData":[{"value":"France","key":"CountryName"},{"value":"Hauts-de-France","key":"StateName"},{"value":"Pas-de-Calais","key":"CountyName"}]},"MapReference":{"ReferenceId":"591225814","Spot":0.72,"SideOfStreet":"right","CountryId":"20000001","StateId":"20000002","CountyId":"20030132","CityId":"20030256","AddressId":"322807779","RoadLinkId":"44281978"}}},{"Relevance":1.0,"Distance":14.0,"MatchLevel":"houseNumber","MatchQuality":{"Country":1.0,"State":1.0,"County":1.0,"City":1.0,"Street":[1.0],"HouseNumber":1.0,"PostalCode":1.0},"MatchType":"interpolated","Location":{"LocationId":"NT_mvIlfblsbgZafUyU9V07VC_yQD","LocationType":"point","DisplayPosition":{"Latitude":50.28811,"Longitude":2.77824},"MapView":{"TopLeft":{"Latitude":50.2892342,"Longitude":2.7764806},"BottomRight":{"Latitude":50.2869858,"Longitude":2.7799994}},"Address":{"Label":"24 Rue Léon Gambetta, 62000 Arras, France","Country":"FRA","State":"Hauts-de-France","County":"Pas-de-Calais","City":"Arras","Street":"Rue Léon Gambetta","HouseNumber":"24","PostalCode":"62000","AdditionalData":[{"value":"France","key":"CountryName"},{"value":"Hauts-de-France","key":"StateName"},{"value":"Pas-de-Calais","key":"CountyName"}]},"MapReference":{"ReferenceId":"881281313","Spot":0.18,"SideOfStreet":"right","CountryId":"20000001","StateId":"20000002","CountyId":"20030132","CityId":"20030256","AddressId":"323299181","RoadLinkId":"249916475"}}},{"Relevance":1.0,"Distance":49.1,"MatchLevel":"houseNumber","MatchQuality":{"Country":1.0,"State":1.0,"County":1.0,"City":1.0,"Street":[1.0],"HouseNumber":1.0,"PostalCode":1.0},"MatchType":"interpolated","Location":{"LocationId":"NT_mvIlfblsbgZafUyU9V07VC_zAD","LocationType":"point","DisplayPosition":{"Latitude":50.28826,"Longitude":2.7778},"MapView":{"TopLeft":{"Latitude":50.2893842,"Longitude":2.7760406},"BottomRight":{"Latitude":50.2871358,"Longitude":2.7795594}},"Address":{"Label":"30 Rue Léon Gambetta, 62000 Arras, France","Country":"FRA","State":"Hauts-de-France","County":"Pas-de-Calais","City":"Arras","Street":"Rue Léon Gambetta","HouseNumber":"30","PostalCode":"62000","AdditionalData":[{"value":"France","key":"CountryName"},{"value":"Hauts-de-France","key":"StateName"},{"value":"Pas-de-Calais","key":"CountyName"}]},"MapReference":{"ReferenceId":"881281314","Spot":0.41,"SideOfStreet":"right","CountryId":"20000001","StateId":"20000002","CountyId":"20030132","CityId":"20030256","AddressId":"572516855","RoadLinkId":"249916476"}}},{"Relevance":1.0,"Distance":55.3,"MatchLevel":"houseNumber","MatchQuality":{"Country":1.0,"State":1.0,"County":1.0,"City":1.0,"Street":[1.0],"HouseNumber":1.0,"PostalCode":1.0},"MatchType":"interpolated","Location":{"LocationId":"NT_rVJ-VSYOs0glIvo6ZuOjXC_zIjQ","LocationType":"point","DisplayPosition":{"Latitude":50.28768,"Longitude":2.77876},"MapView":{"TopLeft":{"Latitude":50.2888042,"Longitude":2.7770006},"BottomRight":{"Latitude":50.2865558,"Longitude":2.7805194}},"Address":{"Label":"32B Boulevard de Strasbourg, 62000 Arras, France","Country":"FRA","State":"Hauts-de-France","County":"Pas-de-Calais","City":"Arras","Street":"Boulevard de Strasbourg","HouseNumber":"32B","PostalCode":"62000","AdditionalData":[{"value":"France","key":"CountryName"},{"value":"Hauts-de-France","key":"StateName"},{"value":"Pas-de-Calais","key":"CountyName"}]},"MapReference":{"ReferenceId":"1214887378","Spot":0.35,"SideOfStreet":"left","CountryId":"20000001","StateId":"20000002","CountyId":"20030132","CityId":"20030256","AddressId":"572565206","RoadLinkId":"530890839"}}},{"Relevance":1.0,"Distance":57.0,"MatchLevel":"street","MatchQuality":{"Country":1.0,"State":1.0,"County":1.0,"City":1.0,"Street":[1.0],"PostalCode":1.0},"Location":{"LocationId":"NT_mvIlfblsbgZafUyU9V07VC_l_548864841_R","LocationType":"point","DisplayPosition":{"Latitude":50.28782,"Longitude":2.77906},"MapView":{"TopLeft":{"Latitude":50.28782,"Longitude":2.77906},"BottomRight":{"Latitude":50.28774,"Longitude":2.77926}},"Address":{"Label":"Rue Léon Gambetta, 62000 Arras, France","Country":"FRA","State":"Hauts-de-France","County":"Pas-de-Calais","City":"Arras","Street":"Rue Léon Gambetta","PostalCode":"62000","AdditionalData":[{"value":"France","key":"CountryName"},{"value":"Hauts-de-France","key":"StateName"},{"value":"Pas-de-Calais","key":"CountyName"}]},"MapReference":{"ReferenceId":"548864841","Spot":1.0,"SideOfStreet":"right","CountryId":"20000001","StateId":"20000002","CountyId":"20030132","CityId":"20030256"}}},{"Relevance":1.0,"Distance":58.1,"MatchLevel":"houseNumber","MatchQuality":{"Country":1.0,"State":1.0,"County":1.0,"City":1.0,"Street":[1.0],"HouseNumber":1.0,"PostalCode":1.0},"MatchType":"interpolated","Location":{"LocationId":"NT_rVJ-VSYOs0glIvo6ZuOjXC_ygD","LocationType":"point","DisplayPosition":{"Latitude":50.28791,"Longitude":2.77926},"MapView":{"TopLeft":{"Latitude":50.2890342,"Longitude":2.7775006},"BottomRight":{"Latitude":50.2867858,"Longitude":2.7810194}},"Address":{"Label":"28 Boulevard de Strasbourg, 62000 Arras, France","Country":"FRA","State":"Hauts-de-France","County":"Pas-de-Calais","City":"Arras","Street":"Boulevard de Strasbourg","HouseNumber":"28","PostalCode":"62000","AdditionalData":[{"value":"France","key":"CountryName"},{"value":"Hauts-de-France","key":"StateName"},{"value":"Pas-de-Calais","key":"CountyName"}]},"MapReference":{"ReferenceId":"548864832","Spot":0.13,"SideOfStreet":"left","CountryId":"20000001","StateId":"20000002","CountyId":"20030132","CityId":"20030256","AddressId":"322689801","RoadLinkId":"44621411"}}},{"Relevance":1.0,"Distance":63.7,"MatchLevel":"houseNumber","MatchQuality":{"Country":1.0,"State":1.0,"County":1.0,"City":1.0,"Street":[1.0],"HouseNumber":1.0,"PostalCode":1.0},"MatchType":"interpolated","Location":{"LocationId":"NT_rVJ-VSYOs0glIvo6ZuOjXC_zID","LocationType":"point","DisplayPosition":{"Latitude":50.28754,"Longitude":2.77848},"MapView":{"TopLeft":{"Latitude":50.2886642,"Longitude":2.7767206},"BottomRight":{"Latitude":50.2864158,"Longitude":2.7802394}},"Address":{"Label":"32 Boulevard de Strasbourg, 62000 Arras, France","Country":"FRA","State":"Hauts-de-France","County":"Pas-de-Calais","City":"Arras","Street":"Boulevard de Strasbourg","HouseNumber":"32","PostalCode":"62000","AdditionalData":[{"value":"France","key":"CountryName"},{"value":"Hauts-de-France","key":"StateName"},{"value":"Pas-de-Calais","key":"CountyName"}]},"MapReference":{"ReferenceId":"1214887428","Spot":0.73,"SideOfStreet":"left","CountryId":"20000001","StateId":"20000002","CountyId":"20030132","CityId":"20030256","AddressId":"322985286","RoadLinkId":"530890926"}}},{"Relevance":1.0,"Distance":69.6,"MatchLevel":"houseNumber","MatchQuality":{"Country":1.0,"State":1.0,"County":1.0,"City":1.0,"Street":[1.0],"HouseNumber":1.0,"PostalCode":1.0},"MatchType":"interpolated","Location":{"LocationId":"NT_0e7BWBlxFO6.dBt6cTZ6VB_xID","LocationType":"point","DisplayPosition":{"Latitude":50.28867,"Longitude":2.77789},"MapView":{"TopLeft":{"Latitude":50.2897942,"Longitude":2.7761305},"BottomRight":{"Latitude":50.2875458,"Longitude":2.7796495}},"Address":{"Label":"12 Rue Briquet-Taillandier, 62000 Arras, France","Country":"FRA","State":"Hauts-de-France","County":"Pas-de-Calais","City":"Arras","Street":"Rue Briquet-Taillandier","HouseNumber":"12","PostalCode":"62000","AdditionalData":[{"value":"France","key":"CountryName"},{"value":"Hauts-de-France","key":"StateName"},{"value":"Pas-de-Calais","key":"CountyName"}]},"MapReference":{"ReferenceId":"548864788","Spot":0.62,"SideOfStreet":"left","CountryId":"20000001","StateId":"20000002","CountyId":"20030132","CityId":"20030256","AddressId":"322942854","RoadLinkId":"44332719"}}}]}]}}