{"Response":{"MetaInfo":{"Timestamp":"2020-03-28T12:05:33.915+0000","NextPageInformation":"2"},"View":[{"_type":"SearchResultsViewType","ViewId":0,"Result":[{"Relevance":1.0,"Distance":0.0,"Direction":0.0,"MatchLevel":"district","MatchQuality":{"Country":1.0,"State":1.0,"County":1.0,"City":1.0,"District":1.0,"PostalCode":1.0},"Location":{"LocationId":"NT_UzrtNmq3iEdjzDSi-71rUD","LocationType":"point","DisplayPosition":{"Latitude":50.2734116,"Longitude":19.5659333},"MapView":{"TopLeft":{"Latitude":50.31433,"Longitude":19.52785},"BottomRight":{"Latitude":50.25801,"Longitude":19.60253}},"Address":{"Label":"Olkusz, Woj. Małopolskie, Polska","Country":"POL","State":"Woj. Małopolskie","County":"Powiat Olkuski","City":"Olkusz","District":"Olkusz","PostalCode":"32-300","AdditionalData":[{"value":"Polska","key":"CountryName"},{"value":"Woj. Małopolskie","key":"StateName"},{"value":"Powiat Olkuski","key":"CountyName"}]},"MapReference":{"ReferenceId":"957772995","SideOfStreet":"neither","CountryId":"20624059","StateId":"20626775","CountyId":"20627029","CityId":"20627036","DistrictId":"20646781"}}},{"Relevance":1.0,"Distance":13.7,"MatchLevel":"houseNumber","MatchQuality":{"Country":1.0,"State":1.0,"County":1.0,"City":1.0,"District":1.0,"Street":[1.0],"HouseNumber":1.0,"PostalCode":1.0},"MatchType":"interpolated","Location":{"LocationId":"NT_BhLKSaSPwHtGv6875E18xB_yQD","LocationType":"point","DisplayPosition":{"Latitude":50.27347,"Longitude":19.56615},"MapView":{"TopLeft":{"Latitude":50.2745942,"Longitude":19.5643911},"BottomRight":{"Latitude":50.2723458,"Longitude":19.5679089}},"Address":{"Label":"ulica marsz. Józefa Piłsudskiego 24, 32-300 Olkusz, Polska","Country":"POL","State":"Woj. Małopolskie","County":"Powiat Olkuski","City":"Olkusz","District":"Olkusz","Street":"ulica marsz. Józefa Piłsudskiego","HouseNumber":"24","PostalCode":"32-300","AdditionalData":[{"value":"Polska","key":"CountryName"},{"value":"Woj. Małopolskie","key":"StateName"},{"value":"Powiat Olkuski","key":"CountyName"}]},"MapReference":{"ReferenceId":"593978505","Spot":0.19,"SideOfStreet":"left","CountryId":"20624059","StateId":"20626775","CountyId":"20627029","CityId":"20627036","DistrictId":"20646781","AddressId":"242368643","RoadLinkId":"96548543"}}},{"Relevance":1.0,"Distance":33.2,"MatchLevel":"street","MatchQuality":{"Country":1.0,"State":1.0,"County":1.0,"City":1.0,"District":1.0,"Street":[1.0],"PostalCode":1.0},"Location":{"LocationId":"NT_crmY.OXIjMiRFvtOkFbdaC_l_593978534_L","LocationType":"point","DisplayPosition":{"Latitude":50.2732979,"Longitude":19.5663652},"MapView":{"TopLeft":{"Latitude":50.27343,"Longitude":19.56635},"BottomRight":{"Latitude":50.27324,"Longitude":19.5664}},"Address":{"Label":"ulica Krótka, 32-300 Olkusz, Polska","Country":"POL","State":"Woj. Małopolskie","County":"Powiat Olkuski","City":"Olkusz","District":"Olkusz","Street":"ulica Krótka","PostalCode":"32-300","AdditionalData":[{"value":"Polska","key":"CountryName"},{"value":"Woj. Małopolskie","key":"StateName"},{"value":"Powiat Olkuski","key":"CountyName"}]},"MapReference":{"ReferenceId":"593978534","Spot":0.3,"SideOfStreet":"left","CountryId":"20624059","StateId":"20626775","CountyId":"20627029","CityId":"20627036","DistrictId":"20646781"}}},{"Relevance":1.0,"Distance":35.9,"MatchLevel":"houseNumber","MatchQuality":{"Country":1.0,"State":1.0,"County":1.0,"City":1.0,"District":1.0,"Street":[1.0],"HouseNumber":1.0,"PostalCode":1.0},"MatchType":"interpolated","Location":{"LocationId":"NT_crmY.OXIjMiRFvtOkFbdaC_0A","LocationType":"point","DisplayPosition":{"Latitude":50.27303,"Longitude":19.56627},"MapView":{"TopLeft":{"Latitude":50.2741542,"Longitude":19.5645111},"BottomRight":{"Latitude":50.2719058,"Longitude":19.5680289}},"Address":{"Label":"ulica Krótka 4, 32-300 Olkusz, Polska","Country":"POL","State":"Woj. Małopolskie","County":"Powiat Olkuski","City":"Olkusz","District":"Olkusz","Street":"ulica Krótka","HouseNumber":"4","PostalCode":"32-300","AdditionalData":[{"value":"Polska","key":"CountryName"},{"value":"Woj. Małopolskie","key":"StateName"},{"value":"Powiat Olkuski","key":"CountyName"}]},"MapReference":{"ReferenceId":"593978618","Spot":0.62,"SideOfStreet":"left","CountryId":"20624059","StateId":"20626775","CountyId":"20627029","CityId":"20627036","DistrictId":"20646781","AddressId":"209924620","RoadLinkId":"96380873"}}},{"Relevance":1.0,"Distance":41.8,"MatchLevel":"houseNumber","MatchQuality":{"Country":1.0,"State":1.0,"County":1.0,"City":1.0,"District":1.0,"Street":[1.0],"HouseNumber":1.0,"PostalCode":1.0},"MatchType":"interpolated","Location":{"LocationId":"NT_crmY.OXIjMiRFvtOkFbdaC_xAD","LocationType":"point","DisplayPosition":{"Latitude":50.27367,"Longitude":19.56649},"MapView":{"TopLeft":{"Latitude":50.2747942,"Longitude":19.5647311},"BottomRight":{"Latitude":50.2725458,"Longitude":19.5682489}},"Address":{"Label":"ulica Krótka 10, 32-300 Olkusz, Polska","Country":"POL","State":"Woj. Małopolskie","County":"Powiat Olkuski","City":"Olkusz","District":"Olkusz","Street":"ulica Krótka","HouseNumber":"10","PostalCode":"32-300","AdditionalData":[{"value":"Polska","key":"CountryName"},{"value":"Woj. Małopolskie","key":"StateName"},{"value":"Powiat Olkuski","key":"CountyName"}]},"MapReference":{"ReferenceId":"593978504","Spot":0.39,"SideOfStreet":"left","CountryId":"20624059","StateId":"20626775","CountyId":"20627029","CityId":"20627036","DistrictId":"20646781","AddressId":"209895591","RoadLinkId":"96183915"}}},{"Relevance":1.0,"Distance":58.5,"MatchLevel":"houseNumber","MatchQuality":{"Country":1.0,"State":1.0,"County":1.0,"City":1.0,"District":1.0,"Street":[1.0],"HouseNumber":1.0,"PostalCode":1.0},"MatchType":"interpolated","Location":{"LocationId":"NT_pipqjdy6cxQsU9BJH0bJ8C_xkD","LocationType":"point","DisplayPosition":{"Latitude":50.2727,"Longitude":19.56599},"MapView":{"TopLeft":{"Latitude":50.2738242,"Longitude":19.5642311},"BottomRight":{"Latitude":50.2715758,"Longitude":19.5677489}},"Address":{"Label":"ulica Dworska 19, 32-300 Olkusz, Polska","Country":"POL","State":"Woj. Małopolskie","County":"Powiat Olkuski","City":"Olkusz","District":"Olkusz","Street":"ulica Dworska","HouseNumber":"19","PostalCode":"32-300","AdditionalData":[{"value":"Polska","key":"CountryName"},{"value":"Woj. Małopolskie","key":"StateName"},{"value":"Powiat Olkuski","key":"CountyName"}]},"MapReference":{"ReferenceId":"593978619","Spot":0.06,"SideOfStreet":"right","CountryId":"20624059","StateId":"20626775","CountyId":"20627029","CityId":"20627036","DistrictId":"20646781","AddressId":"211561637","RoadLinkId":"96090761"}}},{"Relevance":1.0,"Distance":64.6,"MatchLevel":"street","MatchQuality":{"Country":1.0,"State":1.0,"County":1.0,"City":1.0,"District":1.0,"Street":[1.0],"PostalCode":1.0},"Location":{"LocationId":"NT_8OA8P0l5pTNfWQOrD.ilsC_l_593978470_R","LocationType":"point","DisplayPosition":{"Latitude":50.2736804,"Longitude":19.5651268},"MapView":{"TopLeft":{"Latitude":50.27411,"Longitude":19.56511},"BottomRight":{"Latitude":50.27363,"Longitude":19.56527}},"Address":{"Label":"ulica Boczna, 32-300 Olkusz, Polska","Country":"POL","State":"Woj. Małopolskie","County":"Powiat Olkuski","City":"Olkusz","District":"Olkusz","Street":"ulica Boczna","PostalCode":"32-300","AdditionalData":[{"value":"Polska","key":"CountryName"},{"value":"Woj. Małopolskie","key":"StateName"},{"value":"Powiat Olkuski","key":"CountyName"}]},"MapReference":{"ReferenceId":"593978470","Spot":0.11,"SideOfStreet":"right","CountryId":"20624059","StateId":"20626775","CountyId":"20627029","CityId":"20627036","DistrictId":"20646781"}}},{"Relevance":1.0,"Distance":82.2,"MatchLevel":"houseNumber","MatchQuality":{"Country":1.0,"State":1.0,"County":1.0,"City":1.0,"District":1.0,"Street":[1.0],"HouseNumber":1.0,"PostalCode":1.0},"MatchType":"interpolated","Location":{"LocationId":"NT_BhLKSaSPwHtGv6875E18xB_yAD","LocationType":"point","DisplayPosition":{"Latitude":50.27367,"Longitude":19.56485},"MapView":{"TopLeft":{"Latitude":50.2747942,"Longitude":19.5630911},"BottomRight":{"Latitude":50.2725458,"Longitude":19.5666089}},"Address":{"Label":"ulica marsz. Józefa Piłsudskiego 20, 32-300 Olkusz, Polska","Country":"POL","State":"Woj. Małopolskie","County":"Powiat Olkuski","City":"Olkusz","District":"Olkusz","Street":"ulica marsz. Józefa Piłsudskiego","HouseNumber":"20","PostalCode":"32-300","AdditionalData":[{"value":"Polska","key":"CountryName"},{"value":"Woj. Małopolskie","key":"StateName"},{"value":"Powiat Olkuski","key":"CountyName"}]},"MapReference":{"ReferenceId":"593978471","Spot":0.2,"SideOfStreet":"left","CountryId":"20624059","StateId":"20626775","CountyId":"20627029","CityId":"20627036","DistrictId":"20646781","AddressId":"242349120","RoadLinkId":"96151845"}}},{"Relevance":1.0,"Distance":83.1,"MatchLevel":"houseNumber","MatchQuality":{"Country":1.0,"State":1.0,"County":1.0,"City":1.0,"District":1.0,"Street":[1.0],"HouseNumber":1.0,"PostalCode":1.0},"MatchType":"interpolated","Location":{"LocationId":"NT_pipqjdy6cxQsU9BJH0bJ8C_yQD","LocationType":"point","DisplayPosition":{"Latitude":50.27268,"Longitude":19.56617},"MapView":{"TopLeft":{"Latitude":50.2738042,"Longitude":19.5644111},"BottomRight":{"Latitude":50.2715558,"Longitude":19.5679289}},"Address":{"Label":"ulica Dworska 24, 32-300 Olkusz, Polska","Country":"POL","State":"Woj. Małopolskie","County":"Powiat Olkuski","City":"Olkusz","District":"Olkusz","Street":"ulica Dworska","HouseNumber":"24","PostalCode":"32-300","AdditionalData":[{"value":"Polska","key":"CountryName"},{"value":"Woj. Małopolskie","key":"StateName"},{"value":"Powiat Olkuski","key":"CountyName"}]},"MapReference":{"ReferenceId":"593978636","Spot":0.97,"SideOfStreet":"left","CountryId":"20624059","StateId":"20626775","CountyId":"20627029","CityId":"20627036","DistrictId":"20646781","AddressId":"209537115","RoadLinkId":"96351177"}}},{"Relevance":1.0,"Distance":83.6,"MatchLevel":"houseNumber","MatchQuality":{"Country":1.0,"State":1.0,"County":1.0,"City":1.0,"District":1.0,"Street":[1.0],"HouseNumber":1.0,"PostalCode":1.0},"MatchType":"interpolated","Location":{"LocationId":"NT_Pcgwyl2ipaKDJHHNlzqJOC_yA","LocationType":"point","DisplayPosition":{"Latitude":50.27314,"Longitude":19.56703},"MapView":{"TopLeft":{"Latitude":50.2742642,"Longitude":19.5652711},"BottomRight":{"Latitude":50.2720158,"Longitude":19.5687889}},"Address":{"Label":"skwer Janka Krasickiego 2, 32-300 Olkusz, Polska","Country":"POL","State":"Woj. Małopolskie","County":"Powiat Olkuski","City":"Olkusz","District":"Olkusz","Street":"skwer Janka Krasickiego","HouseNumber":"2","PostalCode":"32-300","AdditionalData":[{"value":"Polska","key":"CountryName"},{"value":"Woj. Małopolskie","key":"StateName"},{"value":"Powiat Olkuski","key":"CountyName"}]},"MapReference":{"ReferenceId":"593978555","Spot":0.24,"SideOfStreet":"left","CountryId":"20624059","StateId":"20626775","CountyId":"20627029","CityId":"20627036","DistrictId":"20646781","AddressId":"222300115","RoadLinkId":"157177681"}}}]}]}}