{"Response":{"MetaInfo":{"Timestamp":"2020-03-28T10:04:53.536+0000","NextPageInformation":"2"},"View":[{"_type":"SearchResultsViewType","ViewId":0,"Result":[{"Relevance":1.0,"Distance":0.0,"Direction":0.0,"MatchLevel":"district","MatchQuality":{"Country":1.0,"State":1.0,"County":1.0,"City":1.0,"District":1.0,"PostalCode":1.0},"Location":{"LocationId":"NT_jRwKR6DRLVTlfTG1kKIv7A","LocationType":"point","DisplayPosition":{"Latitude":50.2224703,"Longitude":12.3032132},"MapView":{"TopLeft":{"Latitude":50.22747,"Longitude":12.29679},"BottomRight":{"Latitude":50.21718,"Longitude":12.31615}},"Address":{"Label":"Bad Brambach, Sachsen, Deutschland","Country":"DEU","State":"Sachsen","County":"Vogtlandkreis","City":"Bad Brambach","District":"Bad Brambach","PostalCode":"08648","AdditionalData":[{"value":"Deutschland","key":"CountryName"},{"value":"Sachsen","key":"StateName"},{"value":"Vogtlandkreis","key":"CountyName"}]},"MapReference":{"ReferenceId":"540708726","SideOfStreet":"neither","CountryId":"20147700","StateId":"20191185","CountyId":"20210203","CityId":"20191286","DistrictId":"20191288"}}},{"Relevance":1.0,"Distance":16.1,"MatchLevel":"houseNumber","MatchQuality":{"Country":1.0,"State":1.0,"County":1.0,"City":1.0,"District":1.0,"Street":[1.0],"HouseNumber":1.0,"PostalCode":1.0},"MatchType":"interpolated","Location":{"LocationId":"NT_QMp9HHSEo3Rg.rvOzGfw4D_0ED","LocationType":"point","DisplayPosition":{"Latitude":50.22209,"Longitude":12.30321},"MapView":{"TopLeft":{"Latitude":50.2232142,"Longitude":12.301453},"BottomRight":{"Latitude":50.2209658,"Longitude":12.304967}},"Address":{"Label":"Badstraße 41, 08648 Bad Brambach, Deutschland","Country":"DEU","State":"Sachsen","County":"Vogtlandkreis","City":"Bad Brambach","District":"Bad Brambach","Street":"Badstraße","HouseNumber":"41","PostalCode":"08648","AdditionalData":[{"value":"Deutschland","key":"CountryName"},{"value":"Sachsen","key":"StateName"},{"value":"Vogtlandkreis","key":"CountyName"}]},"MapReference":{"ReferenceId":"536928097","Spot":0.0,"SideOfStreet":"left","CountryId":"20147700","StateId":"20191185","CountyId":"20210203","CityId":"20191286","DistrictId":"20191288","AddressId":"190161425","RoadLinkId":"39983821"}}},{"Relevance":1.0,"Distance":21.0,"MatchLevel":"houseNumber","MatchQuality":{"Country":1.0,"State":1.0,"County":1.0,"City":1.0,"District":1.0,"Street":[1.0],"HouseNumber":1.0,"PostalCode":1.0},"MatchType":"interpolated","Location":{"LocationId":"NT_psoeU1TpBoKF5Z9dmvkvtB_xAD","LocationType":"point","DisplayPosition":{"Latitude":50.22249,"Longitude":12.30292},"MapView":{"TopLeft":{"Latitude":50.2236142,"Longitude":12.301163},"BottomRight":{"Latitude":50.2213658,"Longitude":12.304677}},"Address":{"Label":"Talstraße 10, 08648 Bad Brambach, Deutschland","Country":"DEU","State":"Sachsen","County":"Vogtlandkreis","City":"Bad Brambach","District":"Bad Brambach","Street":"Talstraße","HouseNumber":"10","PostalCode":"08648","AdditionalData":[{"value":"Deutschland","key":"CountryName"},{"value":"Sachsen","key":"StateName"},{"value":"Vogtlandkreis","key":"CountyName"}]},"MapReference":{"ReferenceId":"548108495","Spot":0.31,"SideOfStreet":"left","CountryId":"20147700","StateId":"20191185","CountyId":"20210203","CityId":"20191286","DistrictId":"20191288","AddressId":"190350055","RoadLinkId":"39635640"}}},{"Relevance":1.0,"Distance":42.2,"MatchLevel":"street","MatchQuality":{"Country":1.0,"State":1.0,"County":1.0,"City":1.0,"District":1.0,"Street":[1.0],"PostalCode":1.0},"Location":{"LocationId":"NT_9RU4id19OAStNwU4zi.6eC_l_536928098_R","LocationType":"point","DisplayPosition":{"Latitude":50.2220906,"Longitude":12.3031967},"MapView":{"TopLeft":{"Latitude":50.22224,"Longitude":12.3027},"BottomRight":{"Latitude":50.22209,"Longitude":12.30321}},"Address":{"Label":"Oberreuther Straße, 08648 Bad Brambach, Deutschland","Country":"DEU","State":"Sachsen","County":"Vogtlandkreis","City":"Bad Brambach","District":"Bad Brambach","Street":"Oberreuther Straße","PostalCode":"08648","AdditionalData":[{"value":"Deutschland","key":"CountryName"},{"value":"Sachsen","key":"StateName"},{"value":"Vogtlandkreis","key":"CountyName"}]},"MapReference":{"ReferenceId":"536928098","Spot":0.02,"SideOfStreet":"right","CountryId":"20147700","StateId":"20191185","CountyId":"20210203","CityId":"20191286","DistrictId":"20191288"}}},{"Relevance":1.0,"Distance":42.3,"MatchLevel":"street","MatchQuality":{"Country":1.0,"State":1.0,"County":1.0,"City":1.0,"District":1.0,"Street":[1.0],"PostalCode":1.0},"Location":{"LocationId":"NT_QMp9HHSEo3Rg.rvOzGfw4D_l_536928099_L","LocationType":"point","DisplayPosition":{"Latitude":50.22209,"Longitude":12.30321},"MapView":{"TopLeft":{"Latitude":50.22209,"Longitude":12.30245},"BottomRight":{"Latitude":50.22186,"Longitude":12.30321}},"Address":{"Label":"Badstraße, 08648 Bad Brambach, Deutschland","Country":"DEU","State":"Sachsen","County":"Vogtlandkreis","City":"Bad Brambach","District":"Bad Brambach","Street":"Badstraße","PostalCode":"08648","AdditionalData":[{"value":"Deutschland","key":"CountryName"},{"value":"Sachsen","key":"StateName"},{"value":"Vogtlandkreis","key":"CountyName"}]},"MapReference":{"ReferenceId":"536928099","Spot":1.0,"SideOfStreet":"left","CountryId":"20147700","StateId":"20191185","CountyId":"20210203","CityId":"20191286","DistrictId":"20191288"}}},{"Relevance":1.0,"Distance":51.1,"MatchLevel":"houseNumber","MatchQuality":{"Country":1.0,"State":1.0,"County":1.0,"City":1.0,"District":1.0,"Street":[1.0],"HouseNumber":1.0,"PostalCode":1.0},"MatchType":"interpolated","Location":{"LocationId":"NT_9RU4id19OAStNwU4zi.6eC_xA","LocationType":"point","DisplayPosition":{"Latitude":50.22229,"Longitude":12.30249},"MapView":{"TopLeft":{"Latitude":50.2234142,"Longitude":12.300733},"BottomRight":{"Latitude":50.2211658,"Longitude":12.304247}},"Address":{"Label":"Oberreuther Straße 1, 08648 Bad Brambach, Deutschland","Country":"DEU","State":"Sachsen","County":"Vogtlandkreis","City":"Bad Brambach","District":"Bad Brambach","Street":"Oberreuther Straße","HouseNumber":"1","PostalCode":"08648","AdditionalData":[{"value":"Deutschland","key":"CountryName"},{"value":"Sachsen","key":"StateName"},{"value":"Vogtlandkreis","key":"CountyName"}]},"MapReference":{"ReferenceId":"536928109","Spot":0.59,"SideOfStreet":"right","CountryId":"20147700","StateId":"20191185","CountyId":"20210203","CityId":"20191286","DistrictId":"20191288","AddressId":"189893836","RoadLinkId":"39628393"}}},{"Relevance":1.0,"Distance":63.0,"MatchLevel":"street","MatchQuality":{"Country":1.0,"State":1.0,"County":1.0,"City":1.0,"District":1.0,"PostalCode":1.0},"Location":{"LocationId":"NT_nuLPO0QMw4ac95u6tTFecD_l_536928112_L","LocationType":"point","DisplayPosition":{"Latitude":50.22212,"Longitude":12.30391},"MapView":{"TopLeft":{"Latitude":50.22212,"Longitude":12.30391},"BottomRight":{"Latitude":50.22154,"Longitude":12.30404}},"Address":{"Label":"08648 Bad Brambach, Deutschland","Country":"DEU","State":"Sachsen","County":"Vogtlandkreis","City":"Bad Brambach","District":"Bad Brambach","PostalCode":"08648","AdditionalData":[{"value":"Deutschland","key":"CountryName"},{"value":"Sachsen","key":"StateName"},{"value":"Vogtlandkreis","key":"CountyName"}]},"MapReference":{"ReferenceId":"536928112","Spot":1.0,"SideOfStreet":"left","CountryId":"20147700","StateId":"20191185","CountyId":"20210203","CityId":"20191286","DistrictId":"20191288"}}},{"Relevance":1.0,"Distance":72.8,"MatchLevel":"houseNumber","MatchQuality":{"Country":1.0,"State":1.0,"County":1.0,"City":1.0,"District":1.0,"Street":[1.0],"HouseNumber":1.0,"PostalCode":1.0},"MatchType":"interpolated","Location":{"LocationId":"NT_TGt3ZsIiQpdnU1z6wfqn.A_yEE","LocationType":"point","DisplayPosition":{"Latitude":50.22292,"Longitude":12.3023},"MapView":{"TopLeft":{"Latitude":50.2240442,"Longitude":12.300543},"BottomRight":{"Latitude":50.2217958,"Longitude":12.304057}},"Address":{"Label":"Christian-Schüller-Straße 2A, 08648 Bad Brambach, Deutschland","Country":"DEU","State":"Sachsen","County":"Vogtlandkreis","City":"Bad Brambach","District":"Bad Brambach","Street":"Christian-Schüller-Straße","HouseNumber":"2A","PostalCode":"08648","AdditionalData":[{"value":"Deutschland","key":"CountryName"},{"value":"Sachsen","key":"StateName"},{"value":"Vogtlandkreis","key":"CountyName"}]},"MapReference":{"ReferenceId":"1148834836","Spot":0.36,"SideOfStreet":"right","CountryId":"20147700","StateId":"20191185","CountyId":"20210203","CityId":"20191286","DistrictId":"20191288","AddressId":"190033417","RoadLinkId":"454121800"}}},{"Relevance":1.0,"Distance":75.8,"MatchLevel":"houseNumber","MatchQuality":{"Country":1.0,"State":1.0,"County":1.0,"City":1.0,"District":1.0,"Street":[1.0],"HouseNumber":1.0,"PostalCode":1.0},"MatchType":"interpolated","Location":{"LocationId":"NT_9RU4id19OAStNwU4zi.6eC_zA","LocationType":"point","DisplayPosition":{"Latitude":50.22228,"Longitude":12.30219},"MapView":{"TopLeft":{"Latitude":50.2234042,"Longitude":12.300433},"BottomRight":{"Latitude":50.2211558,"Longitude":12.303947}},"Address":{"Label":"Oberreuther Straße 3, 08648 Bad Brambach, Deutschland","Country":"DEU","State":"Sachsen","County":"Vogtlandkreis","City":"Bad Brambach","District":"Bad Brambach","Street":"Oberreuther Straße","HouseNumber":"3","PostalCode":"08648","AdditionalData":[{"value":"Deutschland","key":"CountryName"},{"value":"Sachsen","key":"StateName"},{"value":"Vogtlandkreis","key":"CountyName"}]},"MapReference":{"ReferenceId":"1147439166","Spot":0.04,"SideOfStreet":"right","CountryId":"20147700","StateId":"20191185","CountyId":"20210203","CityId":"20191286","DistrictId":"20191288","AddressId":"189813690","RoadLinkId":"452622927"}}},{"Relevance":1.0,"Distance":87.8,"MatchLevel":"houseNumber","MatchQuality":{"Country":1.0,"State":1.0,"County":1.0,"City":1.0,"District":1.0,"Street":[1.0],"HouseNumber":1.0,"PostalCode":1.0},"MatchType":"interpolated","Location":{"LocationId":"NT_QMp9HHSEo3Rg.rvOzGfw4D_zQD","LocationType":"point","DisplayPosition":{"Latitude":50.22186,"Longitude":12.30243},"MapView":{"TopLeft":{"Latitude":50.2229842,"Longitude":12.300673},"BottomRight":{"Latitude":50.2207358,"Longitude":12.304187}},"Address":{"Label":"Badstraße 34, 08648 Bad Brambach, Deutschland","Country":"DEU","State":"Sachsen","County":"Vogtlandkreis","City":"Bad Brambach","District":"Bad Brambach","Street":"Badstraße","HouseNumber":"34","PostalCode":"08648","AdditionalData":[{"value":"Deutschland","key":"CountryName"},{"value":"Sachsen","key":"StateName"},{"value":"Vogtlandkreis","key":"CountyName"}]},"MapReference":{"ReferenceId":"536928102","Spot":0.96,"SideOfStreet":"right","CountryId":"20147700","StateId":"20191185","CountyId":"20210203","CityId":"20191286","DistrictId":"20191288","AddressId":"249706605","RoadLinkId":"40114113"}}}]}]}}