{"Response":{"MetaInfo":{"Timestamp":"2020-03-28T10:48:49.570+0000","NextPageInformation":"2"},"View":[{"_type":"SearchResultsViewType","ViewId":0,"Result":[{"Relevance":1.0,"Distance":0.0,"Direction":0.0,"MatchLevel":"district","MatchQuality":{"Country":1.0,"State":1.0,"County":1.0,"City":1.0,"District":1.0,"PostalCode":1.0},"Location":{"LocationId":"NT_MBbhPpRBrUC7worir7B79A","LocationType":"point","DisplayPosition":{"Latitude":50.2671782,"Longitude":18.8992496},"MapView":{"TopLeft":{"Latitude":50.33159,"Longitude":18.79623},"BottomRight":{"Latitude":50.23258,"Longitude":18.93565}},"Address":{"Label":"Ruda Śląska, Woj. Śląskie, Polska","Country":"POL","State":"Woj. Śląskie","County":"Ruda Śląska","City":"Ruda Śląska","District":"Ruda Śląska","PostalCode":"41-710","AdditionalData":[{"value":"Polska","key":"CountryName"},{"value":"Woj. Śląskie","key":"StateName"},{"value":"Ruda Śląska","key":"CountyName"}]},"MapReference":{"ReferenceId":"1042072310","SideOfStreet":"neither","CountryId":"20624059","StateId":"20629003","CountyId":"20629382","CityId":"20629383","DistrictId":"20646805"}}},{"Relevance":1.0,"Distance":48.6,"MatchLevel":"houseNumber","MatchQuality":{"Country":1.0,"State":1.0,"County":1.0,"City":1.0,"District":1.0,"Street":[1.0],"HouseNumber":1.0,"PostalCode":1.0},"MatchType":"interpolated","Location":{"LocationId":"NT_kwLvdfqzVFCxLcW2cB2lCC_3A","LocationType":"point","DisplayPosition":{"Latitude":50.26743,"Longitude":18.90004},"MapView":{"TopLeft":{"Latitude":50.2685542,"Longitude":18.8982813},"BottomRight":{"Latitude":50.2663058,"Longitude":18.9017987}},"Address":{"Label":"ulica Brygadzistów 7, 41-717 Ruda Śląska, Polska","Country":"POL","State":"Woj. Śląskie","County":"Ruda Śląska","City":"Ruda Śląska","District":"Ruda Śląska","Street":"ulica Brygadzistów","HouseNumber":"7","PostalCode":"41-717","AdditionalData":[{"value":"Polska","key":"CountryName"},{"value":"Woj. Śląskie","key":"StateName"},{"value":"Ruda Śląska","key":"CountyName"}]},"MapReference":{"ReferenceId":"594365318","Spot":0.99,"SideOfStreet":"left","CountryId":"20624059","StateId":"20629003","CountyId":"20629382","CityId":"20629383","DistrictId":"20646805","AddressId":"210830975","RoadLinkId":"95977043"}}},{"Relevance":1.0,"Distance":52.1,"MatchLevel":"houseNumber","MatchQuality":{"Country":1.0,"State":1.0,"County":1.0,"City":1.0,"District":1.0,"Street":[1.0],"HouseNumber":1.0,"PostalCode":1.0},"MatchType":"interpolated","Location":{"LocationId":"NT_HHCl8kkzJReQ4Bq42d5p1A_yEE","LocationType":"point","DisplayPosition":{"Latitude":50.2667,"Longitude":18.8986},"MapView":{"TopLeft":{"Latitude":50.2678242,"Longitude":18.8968414},"BottomRight":{"Latitude":50.2655758,"Longitude":18.9003586}},"Address":{"Label":"ulica Sztolniowa 2A, 41-717 Ruda Śląska, Polska","Country":"POL","State":"Woj. Śląskie","County":"Ruda Śląska","City":"Ruda Śląska","District":"Ruda Śląska","Street":"ulica Sztolniowa","HouseNumber":"2A","PostalCode":"41-717","AdditionalData":[{"value":"Polska","key":"CountryName"},{"value":"Woj. Śląskie","key":"StateName"},{"value":"Ruda Śląska","key":"CountyName"}]},"MapReference":{"ReferenceId":"594587688","Spot":0.54,"SideOfStreet":"right","CountryId":"20624059","StateId":"20629003","CountyId":"20629382","CityId":"20629383","DistrictId":"20646805","AddressId":"210098115","RoadLinkId":"96472024"}}},{"Relevance":1.0,"Distance":70.0,"MatchLevel":"houseNumber","MatchQuality":{"Country":1.0,"State":1.0,"County":1.0,"City":1.0,"District":1.0,"Street":[1.0],"HouseNumber":1.0,"PostalCode":1.0},"MatchType":"interpolated","Location":{"LocationId":"NT_YPe4Sa1NZOZzhUfN5WLJlB_0IE","LocationType":"point","DisplayPosition":{"Latitude":50.26739,"Longitude":18.89742},"MapView":{"TopLeft":{"Latitude":50.2685142,"Longitude":18.8956613},"BottomRight":{"Latitude":50.2662658,"Longitude":18.8991787}},"Address":{"Label":"ulica Kombajnistów 4B, 41-717 Ruda Śląska, Polska","Country":"POL","State":"Woj. Śląskie","County":"Ruda Śląska","City":"Ruda Śląska","District":"Ruda Śląska","Street":"ulica Kombajnistów","HouseNumber":"4B","PostalCode":"41-717","AdditionalData":[{"value":"Polska","key":"CountryName"},{"value":"Woj. Śląskie","key":"StateName"},{"value":"Ruda Śląska","key":"CountyName"}]},"MapReference":{"ReferenceId":"594365224","Spot":1.0,"SideOfStreet":"right","CountryId":"20624059","StateId":"20629003","CountyId":"20629382","CityId":"20629383","DistrictId":"20646805","AddressId":"210545649","RoadLinkId":"96317664"}}},{"Relevance":1.0,"Distance":89.5,"MatchLevel":"houseNumber","MatchQuality":{"Country":1.0,"State":1.0,"County":1.0,"City":1.0,"District":1.0,"Street":[1.0],"HouseNumber":1.0,"PostalCode":1.0},"MatchType":"interpolated","Location":{"LocationId":"NT_9ntswpoWtxAHRwxwn9H4WC_5A","LocationType":"point","DisplayPosition":{"Latitude":50.26818,"Longitude":18.89973},"MapView":{"TopLeft":{"Latitude":50.2693042,"Longitude":18.8979713},"BottomRight":{"Latitude":50.2670558,"Longitude":18.9014887}},"Address":{"Label":"ulica Sztygarska 9, 41-717 Ruda Śląska, Polska","Country":"POL","State":"Woj. Śląskie","County":"Ruda Śląska","City":"Ruda Śląska","District":"Ruda Śląska","Street":"ulica Sztygarska","HouseNumber":"9","PostalCode":"41-717","AdditionalData":[{"value":"Polska","key":"CountryName"},{"value":"Woj. Śląskie","key":"StateName"},{"value":"Ruda Śląska","key":"CountyName"}]},"MapReference":{"ReferenceId":"594365105","Spot":0.09,"SideOfStreet":"right","CountryId":"20624059","StateId":"20629003","CountyId":"20629382","CityId":"20629383","DistrictId":"20646805","AddressId":"210515309","RoadLinkId":"96439050"}}},{"Relevance":1.0,"Distance":118.9,"MatchLevel":"houseNumber","MatchQuality":{"Country":1.0,"State":1.0,"County":1.0,"City":1.0,"District":1.0,"Street":[1.0],"HouseNumber":1.0,"PostalCode":1.0},"MatchType":"interpolated","Location":{"LocationId":"NT_GSg5HDBn-Ru-mDyPFLfdmB_yYD","LocationType":"point","DisplayPosition":{"Latitude":50.26602,"Longitude":18.89836},"MapView":{"TopLeft":{"Latitude":50.2671442,"Longitude":18.8966014},"BottomRight":{"Latitude":50.2648958,"Longitude":18.9001186}},"Address":{"Label":"ulica Wojciecha Korfantego 26, 41-717 Ruda Śląska, Polska","Country":"POL","State":"Woj. Śląskie","County":"Ruda Śląska","City":"Ruda Śląska","District":"Ruda Śląska","Street":"ulica Wojciecha Korfantego","HouseNumber":"26","PostalCode":"41-717","AdditionalData":[{"value":"Polska","key":"CountryName"},{"value":"Woj. Śląskie","key":"StateName"},{"value":"Ruda Śląska","key":"CountyName"}]},"MapReference":{"ReferenceId":"1227012197","Spot":0.5,"SideOfStreet":"right","CountryId":"20624059","StateId":"20629003","CountyId":"20629382","CityId":"20629383","DistrictId":"20646805","AddressId":"210490834","RoadLinkId":"545570400"}}},{"Relevance":1.0,"Distance":124.6,"MatchLevel":"houseNumber","MatchQuality":{"Country":1.0,"State":1.0,"County":1.0,"City":1.0,"District":1.0,"Street":[1.0],"HouseNumber":1.0,"PostalCode":1.0},"MatchType":"interpolated","Location":{"LocationId":"NT_GSg5HDBn-Ru-mDyPFLfdmB_l_1227070577_R_yQD","LocationType":"point","DisplayPosition":{"Latitude":50.2659808,"Longitude":18.8986789},"MapView":{"TopLeft":{"Latitude":50.267105,"Longitude":18.8969202},"BottomRight":{"Latitude":50.2648567,"Longitude":18.9004375}},"Address":{"Label":"ulica Wojciecha Korfantego 24, 41-717 Ruda Śląska, Polska","Country":"POL","State":"Woj. Śląskie","County":"Ruda Śląska","City":"Ruda Śląska","District":"Ruda Śląska","Street":"ulica Wojciecha Korfantego","HouseNumber":"24","PostalCode":"41-717","AdditionalData":[{"value":"Polska","key":"CountryName"},{"value":"Woj. Śląskie","key":"StateName"},{"value":"Ruda Śląska","key":"CountyName"}]},"MapReference":{"ReferenceId":"1227070577","Spot":0.54,"SideOfStreet":"right","CountryId":"20624059","StateId":"20629003","CountyId":"20629382","CityId":"20629383","DistrictId":"20646805"}}},{"Relevance":1.0,"Distance":138.6,"MatchLevel":"street","MatchQuality":{"Country":1.0,"State":1.0,"County":1.0,"City":1.0,"District":1.0,"Street":[1.0],"PostalCode":1.0},"Location":{"LocationId":"NT_GSg5HDBn-Ru-mDyPFLfdmB_l_1227070576_R","LocationType":"point","DisplayPosition":{"Latitude":50.26596,"Longitude":18.89884},"MapView":{"TopLeft":{"Latitude":50.26597,"Longitude":18.89876},"BottomRight":{"Latitude":50.26596,"Longitude":18.89884}},"Address":{"Label":"ulica Wojciecha Korfantego, 41-717 Ruda Śląska, Polska","Country":"POL","State":"Woj. Śląskie","County":"Ruda Śląska","City":"Ruda Śląska","District":"Ruda Śląska","Street":"ulica Wojciecha Korfantego","PostalCode":"41-717","AdditionalData":[{"value":"Polska","key":"CountryName"},{"value":"Woj. Śląskie","key":"StateName"},{"value":"Ruda Śląska","key":"CountyName"}]},"MapReference":{"ReferenceId":"1227070576","Spot":0.0,"SideOfStreet":"right","CountryId":"20624059","StateId":"20629003","CountyId":"20629382","CityId":"20629383","DistrictId":"20646805"}}},{"Relevance":1.0,"Distance":138.8,"MatchLevel":"street","MatchQuality":{"Country":1.0,"State":1.0,"County":1.0,"City":1.0,"District":1.0,"Street":[1.0],"PostalCode":1.0},"Location":{"LocationId":"NT_wPGOROePqueuGPSJZiWZrC_l_774518170_R","LocationType":"point","DisplayPosition":{"Latitude":50.26597,"Longitude":18.89876},"MapView":{"TopLeft":{"Latitude":50.26597,"Longitude":18.89876},"BottomRight":{"Latitude":50.26585,"Longitude":18.89878}},"Address":{"Label":"ulica ks. Emila Szramka, 41-717 Ruda Śląska, Polska","Country":"POL","State":"Woj. Śląskie","County":"Ruda Śląska","City":"Ruda Śląska","District":"Ruda Śląska","Street":"ulica ks. Emila Szramka","PostalCode":"41-717","AdditionalData":[{"value":"Polska","key":"CountryName"},{"value":"Woj. Śląskie","key":"StateName"},{"value":"Ruda Śląska","key":"CountyName"}]},"MapReference":{"ReferenceId":"774518170","Spot":1.0,"SideOfStreet":"right","CountryId":"20624059","StateId":"20629003","CountyId":"20629382","CityId":"20629383","DistrictId":"20646805"}}},{"Relevance":1.0,"Distance":139.1,"MatchLevel":"houseNumber","MatchQuality":{"Country":1.0,"State":1.0,"County":1.0,"City":1.0,"District":1.0,"Street":[1.0],"HouseNumber":1.0,"PostalCode":1.0},"MatchType":"interpolated","Location":{"LocationId":"NT_HHCl8kkzJReQ4Bq42d5p1A_l_594587689_L_2A","LocationType":"point","DisplayPosition":{"Latitude":50.2669151,"Longitude":18.8973076},"MapView":{"TopLeft":{"Latitude":50.2680392,"Longitude":18.895549},"BottomRight":{"Latitude":50.2657909,"Longitude":18.8990663}},"Address":{"Label":"ulica Sztolniowa 6, 41-717 Ruda Śląska, Polska","Country":"POL","State":"Woj. Śląskie","County":"Ruda Śląska","City":"Ruda Śląska","District":"Ruda Śląska","Street":"ulica Sztolniowa","HouseNumber":"6","PostalCode":"41-717","AdditionalData":[{"value":"Polska","key":"CountryName"},{"value":"Woj. Śląskie","key":"StateName"},{"value":"Ruda Śląska","key":"CountyName"}]},"MapReference":{"ReferenceId":"594587689","Spot":0.5,"SideOfStreet":"left","CountryId":"20624059","StateId":"20629003","CountyId":"20629382","CityId":"20629383","DistrictId":"20646805"}}}]}]}}