{"Response":{"MetaInfo":{"Timestamp":"2020-03-28T10:06:02.528+0000","NextPageInformation":"2"},"View":[{"_type":"SearchResultsViewType","ViewId":0,"Result":[{"Relevance":1.0,"Distance":0.0,"Direction":0.0,"MatchLevel":"district","MatchQuality":{"Country":1.0,"State":1.0,"County":1.0,"City":1.0,"District":1.0,"PostalCode":1.0},"Location":{"LocationId":"NT_II5v0cx3o2Jxw2fhwdqs6D","LocationType":"point","DisplayPosition":{"Latitude":50.22296,"Longitude":9.3490895},"MapView":{"TopLeft":{"Latitude":50.23906,"Longitude":9.32802},"BottomRight":{"Latitude":50.2146,"Longitude":9.36886}},"Address":{"Label":"Bad Orb, Hessen, Deutschland","Country":"DEU","State":"Hessen","County":"Main-Kinzig-Kreis","City":"Bad Orb","District":"Bad Orb","PostalCode":"63619","AdditionalData":[{"value":"Deutschland","key":"CountryName"},{"value":"Hessen","key":"StateName"},{"value":"Main-Kinzig-Kreis","key":"CountyName"}]},"MapReference":{"ReferenceId":"822722506","SideOfStreet":"neither","CountryId":"20147700","StateId":"20160993","CountyId":"20161417","CityId":"20161418","DistrictId":"20161420"}}},{"Relevance":1.0,"Distance":17.5,"MatchLevel":"houseNumber","MatchQuality":{"Country":1.0,"State":1.0,"County":1.0,"City":1.0,"District":1.0,"Street":[1.0],"HouseNumber":1.0,"PostalCode":1.0},"MatchType":"interpolated","Location":{"LocationId":"NT_8lIpfDU1oMTLaMPezRhSqD_xcD","LocationType":"point","DisplayPosition":{"Latitude":50.22279,"Longitude":9.34881},"MapView":{"TopLeft":{"Latitude":50.2239142,"Longitude":9.347053},"BottomRight":{"Latitude":50.2216658,"Longitude":9.350567}},"Address":{"Label":"Sauerbornstraße 17, 63619 Bad Orb, Deutschland","Country":"DEU","State":"Hessen","County":"Main-Kinzig-Kreis","City":"Bad Orb","District":"Bad Orb","Street":"Sauerbornstraße","HouseNumber":"17","PostalCode":"63619","AdditionalData":[{"value":"Deutschland","key":"CountryName"},{"value":"Hessen","key":"StateName"},{"value":"Main-Kinzig-Kreis","key":"CountyName"}]},"MapReference":{"ReferenceId":"78667557","Spot":0.32,"SideOfStreet":"right","CountryId":"20147700","StateId":"20160993","CountyId":"20161417","CityId":"20161418","DistrictId":"20161420","AddressId":"187423068","RoadLinkId":"34743378"}}},{"Relevance":1.0,"Distance":44.8,"MatchLevel":"houseNumber","MatchQuality":{"Country":1.0,"State":1.0,"County":1.0,"City":1.0,"District":1.0,"Street":[1.0],"HouseNumber":1.0,"PostalCode":1.0},"MatchType":"interpolated","Location":{"LocationId":"NT_wjKivGaC2WChmJJkvJb2jD_2A","LocationType":"point","DisplayPosition":{"Latitude":50.22332,"Longitude":9.34959},"MapView":{"TopLeft":{"Latitude":50.2244442,"Longitude":9.347833},"BottomRight":{"Latitude":50.2221958,"Longitude":9.351347}},"Address":{"Label":"Salinenstraße 6, 63619 Bad Orb, Deutschland","Country":"DEU","State":"Hessen","County":"Main-Kinzig-Kreis","City":"Bad Orb","District":"Bad Orb","Street":"Salinenstraße","HouseNumber":"6","PostalCode":"63619","AdditionalData":[{"value":"Deutschland","key":"CountryName"},{"value":"Hessen","key":"StateName"},{"value":"Main-Kinzig-Kreis","key":"CountyName"}]},"MapReference":{"ReferenceId":"567303320","Spot":0.45,"SideOfStreet":"left","CountryId":"20147700","StateId":"20160993","CountyId":"20161417","CityId":"20161418","DistrictId":"20161420","AddressId":"186733197","RoadLinkId":"34652582"}}},{"Relevance":1.0,"Distance":58.0,"MatchLevel":"landmark","MatchQuality":{"Country":1.0,"State":1.0,"County":1.0,"City":1.0,"District":1.0,"Street":[1.0],"PostalCode":1.0,"Name":1.0},"Location":{"LocationId":"NT_8C9kHObbofvsSAXnr5V.CC_p_wm2fodFD3M8wJWkrSaxhHD","LocationType":"park","Name":"Kurpark","DisplayPosition":{"Latitude":50.22277,"Longitude":9.35047},"MapView":{"TopLeft":{"Latitude":50.22291,"Longitude":9.34912},"BottomRight":{"Latitude":50.2173,"Longitude":9.35556}},"Address":{"Label":"Kurparkstraße, 63619 Bad Orb, Deutschland","Country":"DEU","State":"Hessen","County":"Main-Kinzig-Kreis","City":"Bad Orb","District":"Bad Orb","Street":"Kurparkstraße","PostalCode":"63619","AdditionalData":[{"value":"Deutschland","key":"CountryName"},{"value":"Hessen","key":"StateName"},{"value":"Main-Kinzig-Kreis","key":"CountyName"}]},"MapReference":{"CountryId":"20147700","StateId":"20160993","CountyId":"20161417","CityId":"20161418","DistrictId":"20161420","PlaceId":"50481520"}}},{"Relevance":1.0,"Distance":58.0,"MatchLevel":"street","MatchQuality":{"Country":1.0,"State":1.0,"County":1.0,"City":1.0,"District":1.0,"Street":[1.0],"PostalCode":1.0},"Location":{"LocationId":"NT_GjhdbLBreSyT5ydLPXg.bC_l_63609408_L","LocationType":"point","DisplayPosition":{"Latitude":50.222451,"Longitude":9.3492666},"MapView":{"TopLeft":{"Latitude":50.22265,"Longitude":9.34912},"BottomRight":{"Latitude":50.2224,"Longitude":9.34989}},"Address":{"Label":"Kurparkstraße, 63619 Bad Orb, Deutschland","Country":"DEU","State":"Hessen","County":"Main-Kinzig-Kreis","City":"Bad Orb","District":"Bad Orb","Street":"Kurparkstraße","PostalCode":"63619","AdditionalData":[{"value":"Deutschland","key":"CountryName"},{"value":"Hessen","key":"StateName"},{"value":"Main-Kinzig-Kreis","key":"CountyName"}]},"MapReference":{"ReferenceId":"63609408","Spot":0.19,"SideOfStreet":"left","CountryId":"20147700","StateId":"20160993","CountyId":"20161417","CityId":"20161418","DistrictId":"20161420"}}},{"Relevance":1.0,"Distance":66.6,"MatchLevel":"street","MatchQuality":{"Country":1.0,"State":1.0,"County":1.0,"City":1.0,"District":1.0,"Street":[1.0],"PostalCode":1.0},"Location":{"LocationId":"NT_GjhdbLBreSyT5ydLPXg.bC_l_63609424_L","LocationType":"point","DisplayPosition":{"Latitude":50.22265,"Longitude":9.34989},"MapView":{"TopLeft":{"Latitude":50.22291,"Longitude":9.34989},"BottomRight":{"Latitude":50.22265,"Longitude":9.35104}},"Address":{"Label":"Kurparkstraße, 63619 Bad Orb, Deutschland","Country":"DEU","State":"Hessen","County":"Main-Kinzig-Kreis","City":"Bad Orb","District":"Bad Orb","Street":"Kurparkstraße","PostalCode":"63619","AdditionalData":[{"value":"Deutschland","key":"CountryName"},{"value":"Hessen","key":"StateName"},{"value":"Main-Kinzig-Kreis","key":"CountyName"}]},"MapReference":{"ReferenceId":"63609424","Spot":0.0,"SideOfStreet":"left","CountryId":"20147700","StateId":"20160993","CountyId":"20161417","CityId":"20161418","DistrictId":"20161420"}}},{"Relevance":1.0,"Distance":66.6,"MatchLevel":"street","MatchQuality":{"Country":1.0,"State":1.0,"County":1.0,"City":1.0,"District":1.0,"Street":[1.0],"PostalCode":1.0},"Location":{"LocationId":"NT_ER.0kqome9xUqbuU28l6dC_l_576430365_L","LocationType":"point","DisplayPosition":{"Latitude":50.22265,"Longitude":9.34989},"MapView":{"TopLeft":{"Latitude":50.22265,"Longitude":9.34989},"BottomRight":{"Latitude":50.22143,"Longitude":9.35064}},"Address":{"Label":"Im Kurpark, 63619 Bad Orb, Deutschland","Country":"DEU","State":"Hessen","County":"Main-Kinzig-Kreis","City":"Bad Orb","District":"Bad Orb","Street":"Im Kurpark","PostalCode":"63619","AdditionalData":[{"value":"Deutschland","key":"CountryName"},{"value":"Hessen","key":"StateName"},{"value":"Main-Kinzig-Kreis","key":"CountyName"}]},"MapReference":{"ReferenceId":"576430365","Spot":1.0,"SideOfStreet":"left","CountryId":"20147700","StateId":"20160993","CountyId":"20161417","CityId":"20161418","DistrictId":"20161420"}}},{"Relevance":1.0,"Distance":70.2,"MatchLevel":"houseNumber","MatchQuality":{"Country":1.0,"State":1.0,"County":1.0,"City":1.0,"District":1.0,"Street":[1.0],"HouseNumber":1.0,"PostalCode":1.0},"MatchType":"interpolated","Location":{"LocationId":"NT_8lIpfDU1oMTLaMPezRhSqD_xYD","LocationType":"point","DisplayPosition":{"Latitude":50.22233,"Longitude":9.34916},"MapView":{"TopLeft":{"Latitude":50.2234542,"Longitude":9.347403},"BottomRight":{"Latitude":50.2212058,"Longitude":9.350917}},"Address":{"Label":"Sauerbornstraße 16, 63619 Bad Orb, Deutschland","Country":"DEU","State":"Hessen","County":"Main-Kinzig-Kreis","City":"Bad Orb","District":"Bad Orb","Street":"Sauerbornstraße","HouseNumber":"16","PostalCode":"63619","AdditionalData":[{"value":"Deutschland","key":"CountryName"},{"value":"Hessen","key":"StateName"},{"value":"Main-Kinzig-Kreis","key":"CountyName"}]},"MapReference":{"ReferenceId":"63612573","Spot":0.9,"SideOfStreet":"left","CountryId":"20147700","StateId":"20160993","CountyId":"20161417","CityId":"20161418","DistrictId":"20161420","AddressId":"187171818","RoadLinkId":"34389834"}}},{"Relevance":1.0,"Distance":96.0,"MatchLevel":"houseNumber","MatchQuality":{"Country":1.0,"State":1.0,"County":1.0,"City":1.0,"District":1.0,"Street":[1.0],"HouseNumber":1.0,"PostalCode":1.0},"MatchType":"interpolated","Location":{"LocationId":"NT_8lIpfDU1oMTLaMPezRhSqD_3A","LocationType":"point","DisplayPosition":{"Latitude":50.2238,"Longitude":9.34853},"MapView":{"TopLeft":{"Latitude":50.2249242,"Longitude":9.3467729},"BottomRight":{"Latitude":50.2226758,"Longitude":9.3502871}},"Address":{"Label":"Sauerbornstraße 7, 63619 Bad Orb, Deutschland","Country":"DEU","State":"Hessen","County":"Main-Kinzig-Kreis","City":"Bad Orb","District":"Bad Orb","Street":"Sauerbornstraße","HouseNumber":"7","PostalCode":"63619","AdditionalData":[{"value":"Deutschland","key":"CountryName"},{"value":"Hessen","key":"StateName"},{"value":"Main-Kinzig-Kreis","key":"CountyName"}]},"MapReference":{"ReferenceId":"78667558","Spot":0.25,"SideOfStreet":"right","CountryId":"20147700","StateId":"20160993","CountyId":"20161417","CityId":"20161418","DistrictId":"20161420","AddressId":"250001616","RoadLinkId":"33963561"}}},{"Relevance":1.0,"Distance":129.3,"MatchLevel":"street","MatchQuality":{"Country":1.0,"State":1.0,"County":1.0,"City":1.0,"District":1.0,"Street":[1.0],"PostalCode":1.0},"Location":{"LocationId":"NT_hGoC2vZLImDZbnmOs6kvdA_l_567303321_L","LocationType":"point","DisplayPosition":{"Latitude":50.22412,"Longitude":9.34922},"MapView":{"TopLeft":{"Latitude":50.22426,"Longitude":9.34916},"BottomRight":{"Latitude":50.22412,"Longitude":9.34922}},"Address":{"Label":"Salinenplatz, 63619 Bad Orb, Deutschland","Country":"DEU","State":"Hessen","County":"Main-Kinzig-Kreis","City":"Bad Orb","District":"Bad Orb","Street":"Salinenplatz","PostalCode":"63619","AdditionalData":[{"value":"Deutschland","key":"CountryName"},{"value":"Hessen","key":"StateName"},{"value":"Main-Kinzig-Kreis","key":"CountyName"}]},"MapReference":{"ReferenceId":"567303321","Spot":0.0,"SideOfStreet":"left","CountryId":"20147700","StateId":"20160993","CountyId":"20161417","CityId":"20161418","DistrictId":"20161420"}}}]}]}}