{"Response":{"MetaInfo":{"Timestamp":"2020-03-28T11:50:21.020+0000","NextPageInformation":"2"},"View":[{"_type":"SearchResultsViewType","ViewId":0,"Result":[{"Relevance":1.0,"Distance":0.0,"Direction":0.0,"MatchLevel":"city","MatchQuality":{"Country":1.0,"State":1.0,"County":1.0,"City":1.0,"PostalCode":1.0},"Location":{"LocationId":"NT_PzxswgUExhRfD72gkC6vPD","LocationType":"point","DisplayPosition":{"Latitude":50.248652,"Longitude":2.93881},"MapView":{"TopLeft":{"Latitude":50.26575,"Longitude":2.91324},"BottomRight":{"Latitude":50.22596,"Longitude":2.95504}},"Address":{"Label":"Vis-en-Artois, Hauts-de-France, France","Country":"FRA","State":"Hauts-de-France","County":"Pas-de-Calais","City":"Vis-en-Artois","PostalCode":"62156","AdditionalData":[{"value":"France","key":"CountryName"},{"value":"Hauts-de-France","key":"StateName"},{"value":"Pas-de-Calais","key":"CountyName"}]},"MapReference":{"ReferenceId":"780569187","SideOfStreet":"neither","CountryId":"20000001","StateId":"20000002","CountyId":"20030132","CityId":"20032684"}}},{"Relevance":1.0,"Distance":7.7,"MatchLevel":"street","MatchQuality":{"Country":1.0,"State":1.0,"County":1.0,"City":1.0,"Street":[1.0],"PostalCode":1.0},"Location":{"LocationId":"NT_uy6u7HOSLDZN5xMILL-oSB_l_826393422_R","LocationType":"point","DisplayPosition":{"Latitude":50.2485864,"Longitude":2.9387772},"MapView":{"TopLeft":{"Latitude":50.24863,"Longitude":2.93869},"BottomRight":{"Latitude":50.24852,"Longitude":2.93891}},"Address":{"Label":"Rue André Mercier, 62156 Vis-en-Artois, France","Country":"FRA","State":"Hauts-de-France","County":"Pas-de-Calais","City":"Vis-en-Artois","Street":"Rue André Mercier","PostalCode":"62156","AdditionalData":[{"value":"France","key":"CountryName"},{"value":"Hauts-de-France","key":"StateName"},{"value":"Pas-de-Calais","key":"CountyName"}]},"MapReference":{"ReferenceId":"826393422","Spot":0.6,"SideOfStreet":"right","CountryId":"20000001","StateId":"20000002","CountyId":"20030132","CityId":"20032684"}}},{"Relevance":1.0,"Distance":13.0,"MatchLevel":"houseNumber","MatchQuality":{"Country":1.0,"State":1.0,"County":1.0,"City":1.0,"Street":[1.0],"HouseNumber":1.0,"PostalCode":1.0},"MatchType":"interpolated","Location":{"LocationId":"NT_IdEDJNfus4Yys7HJwHqbND_0ED","LocationType":"point","DisplayPosition":{"Latitude":50.2485,"Longitude":2.93895},"MapView":{"TopLeft":{"Latitude":50.2496242,"Longitude":2.937192},"BottomRight":{"Latitude":50.2473758,"Longitude":2.940708}},"Address":{"Label":"41 Rue André Mercier, 62156 Vis-en-Artois, France","Country":"FRA","State":"Hauts-de-France","County":"Pas-de-Calais","City":"Vis-en-Artois","Street":"Rue André Mercier","HouseNumber":"41","PostalCode":"62156","AdditionalData":[{"value":"France","key":"CountryName"},{"value":"Hauts-de-France","key":"StateName"},{"value":"Pas-de-Calais","key":"CountyName"}]},"MapReference":{"ReferenceId":"545439629","Spot":0.9,"SideOfStreet":"right","CountryId":"20000001","StateId":"20000002","CountyId":"20030132","CityId":"20032684","AddressId":"322551330","RoadLinkId":"43935702"}}},{"Relevance":1.0,"Distance":19.1,"MatchLevel":"houseNumber","MatchQuality":{"Country":1.0,"State":1.0,"County":1.0,"City":1.0,"Street":[1.0],"HouseNumber":1.0,"PostalCode":1.0},"MatchType":"interpolated","Location":{"LocationId":"NT_IdEDJNfus4Yys7HJwHqbND_zkD","LocationType":"point","DisplayPosition":{"Latitude":50.24879,"Longitude":2.93897},"MapView":{"TopLeft":{"Latitude":50.2499142,"Longitude":2.937212},"BottomRight":{"Latitude":50.2476658,"Longitude":2.940728}},"Address":{"Label":"39 Rue André Mercier, 62156 Vis-en-Artois, France","Country":"FRA","State":"Hauts-de-France","County":"Pas-de-Calais","City":"Vis-en-Artois","Street":"Rue André Mercier","HouseNumber":"39","PostalCode":"62156","AdditionalData":[{"value":"France","key":"CountryName"},{"value":"Hauts-de-France","key":"StateName"},{"value":"Pas-de-Calais","key":"CountyName"}]},"MapReference":{"ReferenceId":"989909249","Spot":0.42,"SideOfStreet":"right","CountryId":"20000001","StateId":"20000002","CountyId":"20030132","CityId":"20032684","AddressId":"323156669","RoadLinkId":"318565821"}}},{"Relevance":1.0,"Distance":22.7,"MatchLevel":"houseNumber","MatchQuality":{"Country":1.0,"State":1.0,"County":1.0,"City":1.0,"Street":[1.0],"HouseNumber":1.0,"PostalCode":1.0},"MatchType":"interpolated","Location":{"LocationId":"NT_IdEDJNfus4Yys7HJwHqbND_zcD","LocationType":"point","DisplayPosition":{"Latitude":50.24873,"Longitude":2.9385},"MapView":{"TopLeft":{"Latitude":50.2498542,"Longitude":2.936742},"BottomRight":{"Latitude":50.2476058,"Longitude":2.940258}},"Address":{"Label":"37 Rue André Mercier, 62156 Vis-en-Artois, France","Country":"FRA","State":"Hauts-de-France","County":"Pas-de-Calais","City":"Vis-en-Artois","Street":"Rue André Mercier","HouseNumber":"37","PostalCode":"62156","AdditionalData":[{"value":"France","key":"CountryName"},{"value":"Hauts-de-France","key":"StateName"},{"value":"Pas-de-Calais","key":"CountyName"}]},"MapReference":{"ReferenceId":"826393423","Spot":0.37,"SideOfStreet":"right","CountryId":"20000001","StateId":"20000002","CountyId":"20030132","CityId":"20032684","AddressId":"322655808","RoadLinkId":"211858084"}}},{"Relevance":1.0,"Distance":48.9,"MatchLevel":"houseNumber","MatchQuality":{"Country":1.0,"State":1.0,"County":1.0,"City":1.0,"Street":[1.0],"HouseNumber":1.0,"PostalCode":1.0},"MatchType":"interpolated","Location":{"LocationId":"NT_IdEDJNfus4Yys7HJwHqbND_0cD","LocationType":"point","DisplayPosition":{"Latitude":50.24834,"Longitude":2.93935},"MapView":{"TopLeft":{"Latitude":50.2494642,"Longitude":2.937592},"BottomRight":{"Latitude":50.2472158,"Longitude":2.941108}},"Address":{"Label":"47 Rue André Mercier, 62156 Vis-en-Artois, France","Country":"FRA","State":"Hauts-de-France","County":"Pas-de-Calais","City":"Vis-en-Artois","Street":"Rue André Mercier","HouseNumber":"47","PostalCode":"62156","AdditionalData":[{"value":"France","key":"CountryName"},{"value":"Hauts-de-France","key":"StateName"},{"value":"Pas-de-Calais","key":"CountyName"}]},"MapReference":{"ReferenceId":"1183114424","Spot":0.68,"SideOfStreet":"right","CountryId":"20000001","StateId":"20000002","CountyId":"20030132","CityId":"20032684","AddressId":"322410723","RoadLinkId":"491442738"}}},{"Relevance":1.0,"Distance":52.2,"MatchLevel":"street","MatchQuality":{"Country":1.0,"State":1.0,"County":1.0,"City":1.0,"Street":[1.0],"PostalCode":1.0},"Location":{"LocationId":"NT_9H7yXj0FL1zRkRUOgeI81D_l_780569188_R","LocationType":"point","DisplayPosition":{"Latitude":50.24887,"Longitude":2.93816},"MapView":{"TopLeft":{"Latitude":50.24887,"Longitude":2.93713},"BottomRight":{"Latitude":50.24753,"Longitude":2.93816}},"Address":{"Label":"Place Jules Viseur, 62156 Vis-en-Artois, France","Country":"FRA","State":"Hauts-de-France","County":"Pas-de-Calais","City":"Vis-en-Artois","Street":"Place Jules Viseur","PostalCode":"62156","AdditionalData":[{"value":"France","key":"CountryName"},{"value":"Hauts-de-France","key":"StateName"},{"value":"Pas-de-Calais","key":"CountyName"}]},"MapReference":{"ReferenceId":"780569188","Spot":1.0,"SideOfStreet":"right","CountryId":"20000001","StateId":"20000002","CountyId":"20030132","CityId":"20032684"}}},{"Relevance":1.0,"Distance":52.2,"MatchLevel":"street","MatchQuality":{"Country":1.0,"State":1.0,"County":1.0,"City":1.0,"Street":[1.0],"PostalCode":1.0},"Location":{"LocationId":"NT_IdEDJNfus4Yys7HJwHqbND_l_780569187_L","LocationType":"point","DisplayPosition":{"Latitude":50.24887,"Longitude":2.93816},"MapView":{"TopLeft":{"Latitude":50.24894,"Longitude":2.9379},"BottomRight":{"Latitude":50.24887,"Longitude":2.93816}},"Address":{"Label":"Rue André Mercier, 62156 Vis-en-Artois, France","Country":"FRA","State":"Hauts-de-France","County":"Pas-de-Calais","City":"Vis-en-Artois","Street":"Rue André Mercier","PostalCode":"62156","AdditionalData":[{"value":"France","key":"CountryName"},{"value":"Hauts-de-France","key":"StateName"},{"value":"Pas-de-Calais","key":"CountyName"}]},"MapReference":{"ReferenceId":"780569187","Spot":0.0,"SideOfStreet":"left","CountryId":"20000001","StateId":"20000002","CountyId":"20030132","CityId":"20032684"}}},{"Relevance":1.0,"Distance":58.2,"MatchLevel":"houseNumber","MatchQuality":{"Country":1.0,"State":1.0,"County":1.0,"City":1.0,"Street":[1.0],"HouseNumber":1.0,"PostalCode":1.0},"MatchType":"interpolated","Location":{"LocationId":"NT_9H7yXj0FL1zRkRUOgeI81D_yA","LocationType":"point","DisplayPosition":{"Latitude":50.24816,"Longitude":2.93853},"MapView":{"TopLeft":{"Latitude":50.2492842,"Longitude":2.936772},"BottomRight":{"Latitude":50.2470358,"Longitude":2.940288}},"Address":{"Label":"2 Place Jules Viseur, 62156 Vis-en-Artois, France","Country":"FRA","State":"Hauts-de-France","County":"Pas-de-Calais","City":"Vis-en-Artois","Street":"Place Jules Viseur","HouseNumber":"2","PostalCode":"62156","AdditionalData":[{"value":"France","key":"CountryName"},{"value":"Hauts-de-France","key":"StateName"},{"value":"Pas-de-Calais","key":"CountyName"}]},"MapReference":{"ReferenceId":"545439627","Spot":0.4,"SideOfStreet":"left","CountryId":"20000001","StateId":"20000002","CountyId":"20030132","CityId":"20032684","AddressId":"572567203","RoadLinkId":"44679838"}}},{"Relevance":1.0,"Distance":59.9,"MatchLevel":"houseNumber","MatchQuality":{"Country":1.0,"State":1.0,"County":1.0,"City":1.0,"Street":[1.0],"HouseNumber":1.0,"PostalCode":1.0},"MatchType":"interpolated","Location":{"LocationId":"NT_6JgtgIx3br.9MOdGIV8ylC_xA","LocationType":"point","DisplayPosition":{"Latitude":50.24902,"Longitude":2.93813},"MapView":{"TopLeft":{"Latitude":50.2501442,"Longitude":2.936372},"BottomRight":{"Latitude":50.2478958,"Longitude":2.939888}},"Address":{"Label":"1 Rue de Boiry, 62156 Vis-en-Artois, France","Country":"FRA","State":"Hauts-de-France","County":"Pas-de-Calais","City":"Vis-en-Artois","Street":"Rue de Boiry","HouseNumber":"1","PostalCode":"62156","AdditionalData":[{"value":"France","key":"CountryName"},{"value":"Hauts-de-France","key":"StateName"},{"value":"Pas-de-Calais","key":"CountyName"}]},"MapReference":{"ReferenceId":"1202685345","Spot":0.43,"SideOfStreet":"right","CountryId":"20000001","StateId":"20000002","CountyId":"20030132","CityId":"20032684","AddressId":"323086926","RoadLinkId":"515569228"}}}]}]}}