{"Response":{"MetaInfo":{"Timestamp":"2020-03-28T10:18:43.106+0000","NextPageInformation":"2"},"View":[{"_type":"SearchResultsViewType","ViewId":0,"Result":[{"Relevance":1.0,"Distance":0.0,"Direction":0.0,"MatchLevel":"district","MatchQuality":{"Country":1.0,"State":1.0,"County":1.0,"City":1.0,"District":1.0,"PostalCode":1.0},"Location":{"LocationId":"NT_GySBWY3c10V8moc6Z3dpmC","LocationType":"point","DisplayPosition":{"Latitude":50.2785609,"Longitude":11.7412636},"MapView":{"TopLeft":{"Latitude":50.28308,"Longitude":11.73138},"BottomRight":{"Latitude":50.27377,"Longitude":11.74958}},"Address":{"Label":"Schauenstein, Bayern, Deutschland","Country":"DEU","State":"Bayern","County":"Hof (Landkreis)","City":"Schauenstein","District":"Schauenstein","PostalCode":"95197","AdditionalData":[{"value":"Deutschland","key":"CountryName"},{"value":"Bayern","key":"StateName"},{"value":"Hof (Landkreis)","key":"CountyName"}]},"MapReference":{"ReferenceId":"558296823","SideOfStreet":"neither","CountryId":"20147700","StateId":"20177250","CountyId":"20182477","CityId":"20182553","DistrictId":"20182555"}}},{"Relevance":1.0,"Distance":7.9,"MatchLevel":"houseNumber","MatchQuality":{"Country":1.0,"State":1.0,"County":1.0,"City":1.0,"District":1.0,"Street":[1.0],"HouseNumber":1.0,"PostalCode":1.0},"MatchType":"interpolated","Location":{"LocationId":"NT_0LavjWjfI1bwESvyOFHe1C_xQD","LocationType":"point","DisplayPosition":{"Latitude":50.2786,"Longitude":11.74117},"MapView":{"TopLeft":{"Latitude":50.2797242,"Longitude":11.7394109},"BottomRight":{"Latitude":50.2774758,"Longitude":11.7429291}},"Address":{"Label":"Marktplatz 14, 95197 Schauenstein, Deutschland","Country":"DEU","State":"Bayern","County":"Hof (Landkreis)","City":"Schauenstein","District":"Schauenstein","Street":"Marktplatz","HouseNumber":"14","PostalCode":"95197","AdditionalData":[{"value":"Deutschland","key":"CountryName"},{"value":"Bayern","key":"StateName"},{"value":"Hof (Landkreis)","key":"CountyName"}]},"MapReference":{"ReferenceId":"558296857","Spot":0.33,"SideOfStreet":"right","CountryId":"20147700","StateId":"20177250","CountyId":"20182477","CityId":"20182553","DistrictId":"20182555","AddressId":"183438670","RoadLinkId":"33019261"}}},{"Relevance":1.0,"Distance":12.5,"MatchLevel":"houseNumber","MatchQuality":{"Country":1.0,"State":1.0,"County":1.0,"City":1.0,"District":1.0,"Street":[1.0],"HouseNumber":1.0,"PostalCode":1.0},"MatchType":"interpolated","Location":{"LocationId":"NT_0LavjWjfI1bwESvyOFHe1C_xID","LocationType":"point","DisplayPosition":{"Latitude":50.27845,"Longitude":11.74129},"MapView":{"TopLeft":{"Latitude":50.2795742,"Longitude":11.7395309},"BottomRight":{"Latitude":50.2773258,"Longitude":11.7430491}},"Address":{"Label":"Marktplatz 12, 95197 Schauenstein, Deutschland","Country":"DEU","State":"Bayern","County":"Hof (Landkreis)","City":"Schauenstein","District":"Schauenstein","Street":"Marktplatz","HouseNumber":"12","PostalCode":"95197","AdditionalData":[{"value":"Deutschland","key":"CountryName"},{"value":"Bayern","key":"StateName"},{"value":"Hof (Landkreis)","key":"CountyName"}]},"MapReference":{"ReferenceId":"558296856","Spot":0.71,"SideOfStreet":"right","CountryId":"20147700","StateId":"20177250","CountyId":"20182477","CityId":"20182553","DistrictId":"20182555","AddressId":"183146232","RoadLinkId":"33738249"}}},{"Relevance":1.0,"Distance":26.3,"MatchLevel":"houseNumber","MatchQuality":{"Country":1.0,"State":1.0,"County":1.0,"City":1.0,"District":1.0,"Street":[1.0],"HouseNumber":1.0,"PostalCode":1.0},"MatchType":"interpolated","Location":{"LocationId":"NT_YKViopPrQT7g0tI8jRq.3B_xA","LocationType":"point","DisplayPosition":{"Latitude":50.27846,"Longitude":11.74167},"MapView":{"TopLeft":{"Latitude":50.2795842,"Longitude":11.7399109},"BottomRight":{"Latitude":50.2773358,"Longitude":11.7434291}},"Address":{"Label":"Nailaer Straße 1, 95197 Schauenstein, Deutschland","Country":"DEU","State":"Bayern","County":"Hof (Landkreis)","City":"Schauenstein","District":"Schauenstein","Street":"Nailaer Straße","HouseNumber":"1","PostalCode":"95197","AdditionalData":[{"value":"Deutschland","key":"CountryName"},{"value":"Bayern","key":"StateName"},{"value":"Hof (Landkreis)","key":"CountyName"}]},"MapReference":{"ReferenceId":"541939547","Spot":0.59,"SideOfStreet":"left","CountryId":"20147700","StateId":"20177250","CountyId":"20182477","CityId":"20182553","DistrictId":"20182555","AddressId":"255732870","RoadLinkId":"241217611"}}},{"Relevance":1.0,"Distance":26.8,"MatchLevel":"houseNumber","MatchQuality":{"Country":1.0,"State":1.0,"County":1.0,"City":1.0,"District":1.0,"Street":[1.0],"HouseNumber":1.0,"PostalCode":1.0},"MatchType":"interpolated","Location":{"LocationId":"NT_0LavjWjfI1bwESvyOFHe1C_xED","LocationType":"point","DisplayPosition":{"Latitude":50.27832,"Longitude":11.74128},"MapView":{"TopLeft":{"Latitude":50.2794442,"Longitude":11.7395209},"BottomRight":{"Latitude":50.2771958,"Longitude":11.7430391}},"Address":{"Label":"Marktplatz 11, 95197 Schauenstein, Deutschland","Country":"DEU","State":"Bayern","County":"Hof (Landkreis)","City":"Schauenstein","District":"Schauenstein","Street":"Marktplatz","HouseNumber":"11","PostalCode":"95197","AdditionalData":[{"value":"Deutschland","key":"CountryName"},{"value":"Bayern","key":"StateName"},{"value":"Hof (Landkreis)","key":"CountyName"}]},"MapReference":{"ReferenceId":"541939339","Spot":0.77,"SideOfStreet":"left","CountryId":"20147700","StateId":"20177250","CountyId":"20182477","CityId":"20182553","DistrictId":"20182555","AddressId":"255745640","RoadLinkId":"241217606"}}},{"Relevance":1.0,"Distance":33.6,"MatchLevel":"street","MatchQuality":{"Country":1.0,"State":1.0,"County":1.0,"City":1.0,"District":1.0,"PostalCode":1.0},"Location":{"LocationId":"NT_otF8LjE-edVx1Y5uA4VDaA_l_541939513_R","LocationType":"point","DisplayPosition":{"Latitude":50.27883,"Longitude":11.74105},"MapView":{"TopLeft":{"Latitude":50.27883,"Longitude":11.74047},"BottomRight":{"Latitude":50.27868,"Longitude":11.74105}},"Address":{"Label":"95197 Schauenstein, Deutschland","Country":"DEU","State":"Bayern","County":"Hof (Landkreis)","City":"Schauenstein","District":"Schauenstein","PostalCode":"95197","AdditionalData":[{"value":"Deutschland","key":"CountryName"},{"value":"Bayern","key":"StateName"},{"value":"Hof (Landkreis)","key":"CountyName"}]},"MapReference":{"ReferenceId":"541939513","Spot":1.0,"SideOfStreet":"right","CountryId":"20147700","StateId":"20177250","CountyId":"20182477","CityId":"20182553","DistrictId":"20182555"}}},{"Relevance":1.0,"Distance":33.8,"MatchLevel":"houseNumber","MatchQuality":{"Country":1.0,"State":1.0,"County":1.0,"City":1.0,"District":1.0,"Street":[1.0],"HouseNumber":1.0,"PostalCode":1.0},"MatchType":"interpolated","Location":{"LocationId":"NT_0LavjWjfI1bwESvyOFHe1C_xgD","LocationType":"point","DisplayPosition":{"Latitude":50.27883,"Longitude":11.74105},"MapView":{"TopLeft":{"Latitude":50.2799542,"Longitude":11.7392909},"BottomRight":{"Latitude":50.2777058,"Longitude":11.7428091}},"Address":{"Label":"Marktplatz 18, 95197 Schauenstein, Deutschland","Country":"DEU","State":"Bayern","County":"Hof (Landkreis)","City":"Schauenstein","District":"Schauenstein","Street":"Marktplatz","HouseNumber":"18","PostalCode":"95197","AdditionalData":[{"value":"Deutschland","key":"CountryName"},{"value":"Bayern","key":"StateName"},{"value":"Hof (Landkreis)","key":"CountyName"}]},"MapReference":{"ReferenceId":"541939550","Spot":0.0,"SideOfStreet":"right","CountryId":"20147700","StateId":"20177250","CountyId":"20182477","CityId":"20182553","DistrictId":"20182555","AddressId":"184223450","RoadLinkId":"33769827"}}},{"Relevance":1.0,"Distance":34.7,"MatchLevel":"houseNumber","MatchQuality":{"Country":1.0,"State":1.0,"County":1.0,"City":1.0,"District":1.0,"Street":[1.0],"HouseNumber":1.0,"PostalCode":1.0},"MatchType":"interpolated","Location":{"LocationId":"NT_y21uUDAfc71ugRDgU8k7DA_zA","LocationType":"point","DisplayPosition":{"Latitude":50.27839,"Longitude":11.74086},"MapView":{"TopLeft":{"Latitude":50.2795142,"Longitude":11.7391009},"BottomRight":{"Latitude":50.2772658,"Longitude":11.7426191}},"Address":{"Label":"Am Hohen Stein 3, 95197 Schauenstein, Deutschland","Country":"DEU","State":"Bayern","County":"Hof (Landkreis)","City":"Schauenstein","District":"Schauenstein","Street":"Am Hohen Stein","HouseNumber":"3","PostalCode":"95197","AdditionalData":[{"value":"Deutschland","key":"CountryName"},{"value":"Bayern","key":"StateName"},{"value":"Hof (Landkreis)","key":"CountyName"}]},"MapReference":{"ReferenceId":"558296865","Spot":0.39,"SideOfStreet":"left","CountryId":"20147700","StateId":"20177250","CountyId":"20182477","CityId":"20182553","DistrictId":"20182555","AddressId":"249121659","RoadLinkId":"33814751"}}},{"Relevance":1.0,"Distance":35.4,"MatchLevel":"houseNumber","MatchQuality":{"Country":1.0,"State":1.0,"County":1.0,"City":1.0,"District":1.0,"Street":[1.0],"HouseNumber":1.0,"PostalCode":1.0},"MatchType":"interpolated","Location":{"LocationId":"NT_YKViopPrQT7g0tI8jRq.3B_zA","LocationType":"point","DisplayPosition":{"Latitude":50.27863,"Longitude":11.74175},"MapView":{"TopLeft":{"Latitude":50.2797542,"Longitude":11.7399909},"BottomRight":{"Latitude":50.2775058,"Longitude":11.7435091}},"Address":{"Label":"Nailaer Straße 3, 95197 Schauenstein, Deutschland","Country":"DEU","State":"Bayern","County":"Hof (Landkreis)","City":"Schauenstein","District":"Schauenstein","Street":"Nailaer Straße","HouseNumber":"3","PostalCode":"95197","AdditionalData":[{"value":"Deutschland","key":"CountryName"},{"value":"Bayern","key":"StateName"},{"value":"Hof (Landkreis)","key":"CountyName"}]},"MapReference":{"ReferenceId":"541939815","Spot":0.48,"SideOfStreet":"right","CountryId":"20147700","StateId":"20177250","CountyId":"20182477","CityId":"20182553","DistrictId":"20182555","AddressId":"249133903","RoadLinkId":"245922881"}}},{"Relevance":1.0,"Distance":40.0,"MatchLevel":"houseNumber","MatchQuality":{"Country":1.0,"State":1.0,"County":1.0,"City":1.0,"District":1.0,"Street":[1.0],"HouseNumber":1.0,"PostalCode":1.0},"MatchType":"interpolated","Location":{"LocationId":"NT_zydzoXqElxbcPNQzKaIvmC_yA","LocationType":"point","DisplayPosition":{"Latitude":50.27898,"Longitude":11.74127},"MapView":{"TopLeft":{"Latitude":50.2801042,"Longitude":11.7395109},"BottomRight":{"Latitude":50.2778558,"Longitude":11.7430291}},"Address":{"Label":"Kirchweg 2, 95197 Schauenstein, Deutschland","Country":"DEU","State":"Bayern","County":"Hof (Landkreis)","City":"Schauenstein","District":"Schauenstein","Street":"Kirchweg","HouseNumber":"2","PostalCode":"95197","AdditionalData":[{"value":"Deutschland","key":"CountryName"},{"value":"Bayern","key":"StateName"},{"value":"Hof (Landkreis)","key":"CountyName"}]},"MapReference":{"ReferenceId":"541939608","Spot":0.64,"SideOfStreet":"left","CountryId":"20147700","StateId":"20177250","CountyId":"20182477","CityId":"20182553","DistrictId":"20182555","AddressId":"255746545","RoadLinkId":"241217620"}}}]}]}}