{"Response":{"MetaInfo":{"Timestamp":"2020-03-28T10:48:24.663+0000","NextPageInformation":"2"},"View":[{"_type":"SearchResultsViewType","ViewId":0,"Result":[{"Relevance":1.0,"Distance":0.0,"Direction":0.0,"MatchLevel":"district","MatchQuality":{"Country":1.0,"State":1.0,"County":1.0,"City":1.0,"District":1.0,"PostalCode":1.0},"Location":{"LocationId":"NT_MBbhPpRBrUC7worir7B79A","LocationType":"point","DisplayPosition":{"Latitude":50.2851682,"Longitude":18.8844403},"MapView":{"TopLeft":{"Latitude":50.33159,"Longitude":18.79623},"BottomRight":{"Latitude":50.23258,"Longitude":18.93565}},"Address":{"Label":"Ruda Śląska, Woj. Śląskie, Polska","Country":"POL","State":"Woj. Śląskie","County":"Ruda Śląska","City":"Ruda Śląska","District":"Ruda Śląska","PostalCode":"41-710","AdditionalData":[{"value":"Polska","key":"CountryName"},{"value":"Woj. Śląskie","key":"StateName"},{"value":"Ruda Śląska","key":"CountyName"}]},"MapReference":{"ReferenceId":"1042072310","SideOfStreet":"neither","CountryId":"20624059","StateId":"20629003","CountyId":"20629382","CityId":"20629383","DistrictId":"20646805"}}},{"Relevance":1.0,"Distance":14.0,"MatchLevel":"street","MatchQuality":{"Country":1.0,"State":1.0,"County":1.0,"City":1.0,"District":1.0,"Street":[1.0],"PostalCode":1.0},"Location":{"LocationId":"NT_68MNwdSDgDj6jWdTy3tHrD_l_594593901_R","LocationType":"point","DisplayPosition":{"Latitude":50.28506,"Longitude":18.88434},"MapView":{"TopLeft":{"Latitude":50.28508,"Longitude":18.88418},"BottomRight":{"Latitude":50.28506,"Longitude":18.88434}},"Address":{"Label":"ulica Pokoju, 41-709 Ruda Śląska, Polska","Country":"POL","State":"Woj. Śląskie","County":"Ruda Śląska","City":"Ruda Śląska","District":"Ruda Śląska","Street":"ulica Pokoju","PostalCode":"41-709","AdditionalData":[{"value":"Polska","key":"CountryName"},{"value":"Woj. Śląskie","key":"StateName"},{"value":"Ruda Śląska","key":"CountyName"}]},"MapReference":{"ReferenceId":"594593901","Spot":0.0,"SideOfStreet":"right","CountryId":"20624059","StateId":"20629003","CountyId":"20629382","CityId":"20629383","DistrictId":"20646805"}}},{"Relevance":1.0,"Distance":15.9,"MatchLevel":"houseNumber","MatchQuality":{"Country":1.0,"State":1.0,"County":1.0,"City":1.0,"District":1.0,"Street":[1.0],"HouseNumber":1.0,"PostalCode":1.0},"MatchType":"interpolated","Location":{"LocationId":"NT_68MNwdSDgDj6jWdTy3tHrD_xUTQ","LocationType":"point","DisplayPosition":{"Latitude":50.28503,"Longitude":18.8845},"MapView":{"TopLeft":{"Latitude":50.2861542,"Longitude":18.8827407},"BottomRight":{"Latitude":50.2839058,"Longitude":18.8862593}},"Address":{"Label":"ulica Pokoju 15A, 41-709 Ruda Śląska, Polska","Country":"POL","State":"Woj. Śląskie","County":"Ruda Śląska","City":"Ruda Śląska","District":"Ruda Śląska","Street":"ulica Pokoju","HouseNumber":"15A","PostalCode":"41-709","AdditionalData":[{"value":"Polska","key":"CountryName"},{"value":"Woj. Śląskie","key":"StateName"},{"value":"Ruda Śląska","key":"CountyName"}]},"MapReference":{"ReferenceId":"594361906","Spot":0.92,"SideOfStreet":"right","CountryId":"20624059","StateId":"20629003","CountyId":"20629382","CityId":"20629383","DistrictId":"20646805","AddressId":"211226251","RoadLinkId":"96379706"}}},{"Relevance":1.0,"Distance":37.7,"MatchLevel":"houseNumber","MatchQuality":{"Country":1.0,"State":1.0,"County":1.0,"City":1.0,"District":1.0,"Street":[1.0],"HouseNumber":1.0,"PostalCode":1.0},"MatchType":"interpolated","Location":{"LocationId":"NT_1XAaCn3RWQImLC-MasGMHB_xA","LocationType":"point","DisplayPosition":{"Latitude":50.28483,"Longitude":18.88441},"MapView":{"TopLeft":{"Latitude":50.2859542,"Longitude":18.8826507},"BottomRight":{"Latitude":50.2837058,"Longitude":18.8861693}},"Address":{"Label":"ulica Ratowników 1, 41-709 Ruda Śląska, Polska","Country":"POL","State":"Woj. Śląskie","County":"Ruda Śląska","City":"Ruda Śląska","District":"Ruda Śląska","Street":"ulica Ratowników","HouseNumber":"1","PostalCode":"41-709","AdditionalData":[{"value":"Polska","key":"CountryName"},{"value":"Woj. Śląskie","key":"StateName"},{"value":"Ruda Śląska","key":"CountyName"}]},"MapReference":{"ReferenceId":"594361880","Spot":0.3,"SideOfStreet":"right","CountryId":"20624059","StateId":"20629003","CountyId":"20629382","CityId":"20629383","DistrictId":"20646805","AddressId":"210860157","RoadLinkId":"96211391"}}},{"Relevance":1.0,"Distance":47.4,"MatchLevel":"houseNumber","MatchQuality":{"Country":1.0,"State":1.0,"County":1.0,"City":1.0,"District":1.0,"Street":[1.0],"HouseNumber":1.0,"PostalCode":1.0},"MatchType":"interpolated","Location":{"LocationId":"NT_68MNwdSDgDj6jWdTy3tHrD_xMD","LocationType":"point","DisplayPosition":{"Latitude":50.28505,"Longitude":18.8838},"MapView":{"TopLeft":{"Latitude":50.2861742,"Longitude":18.8820407},"BottomRight":{"Latitude":50.2839258,"Longitude":18.8855593}},"Address":{"Label":"ulica Pokoju 13, 41-709 Ruda Śląska, Polska","Country":"POL","State":"Woj. Śląskie","County":"Ruda Śląska","City":"Ruda Śląska","District":"Ruda Śląska","Street":"ulica Pokoju","HouseNumber":"13","PostalCode":"41-709","AdditionalData":[{"value":"Polska","key":"CountryName"},{"value":"Woj. Śląskie","key":"StateName"},{"value":"Ruda Śląska","key":"CountyName"}]},"MapReference":{"ReferenceId":"594593900","Spot":0.84,"SideOfStreet":"left","CountryId":"20624059","StateId":"20629003","CountyId":"20629382","CityId":"20629383","DistrictId":"20646805","AddressId":"211352719","RoadLinkId":"96093422"}}},{"Relevance":1.0,"Distance":48.7,"MatchLevel":"houseNumber","MatchQuality":{"Country":1.0,"State":1.0,"County":1.0,"City":1.0,"District":1.0,"Street":[1.0],"HouseNumber":1.0,"PostalCode":1.0},"MatchType":"interpolated","Location":{"LocationId":"NT_1XAaCn3RWQImLC-MasGMHB_zA","LocationType":"point","DisplayPosition":{"Latitude":50.28473,"Longitude":18.88444},"MapView":{"TopLeft":{"Latitude":50.2858542,"Longitude":18.8826807},"BottomRight":{"Latitude":50.2836058,"Longitude":18.8861993}},"Address":{"Label":"ulica Ratowników 3, 41-709 Ruda Śląska, Polska","Country":"POL","State":"Woj. Śląskie","County":"Ruda Śląska","City":"Ruda Śląska","District":"Ruda Śląska","Street":"ulica Ratowników","HouseNumber":"3","PostalCode":"41-709","AdditionalData":[{"value":"Polska","key":"CountryName"},{"value":"Woj. Śląskie","key":"StateName"},{"value":"Ruda Śląska","key":"CountyName"}]},"MapReference":{"ReferenceId":"920148059","Spot":1.0,"SideOfStreet":"right","CountryId":"20624059","StateId":"20629003","CountyId":"20629382","CityId":"20629383","DistrictId":"20646805","AddressId":"211464220","RoadLinkId":"276971686"}}},{"Relevance":1.0,"Distance":57.8,"MatchLevel":"houseNumber","MatchQuality":{"Country":1.0,"State":1.0,"County":1.0,"City":1.0,"District":1.0,"Street":[1.0],"HouseNumber":1.0,"PostalCode":1.0},"MatchType":"interpolated","Location":{"LocationId":"NT_.iLrHBnmZ.BIGbXLv2AeqB_xA","LocationType":"point","DisplayPosition":{"Latitude":50.28469,"Longitude":18.88412},"MapView":{"TopLeft":{"Latitude":50.2858142,"Longitude":18.8823607},"BottomRight":{"Latitude":50.2835658,"Longitude":18.8858793}},"Address":{"Label":"ulica Spółdzielcza 1, 41-709 Ruda Śląska, Polska","Country":"POL","State":"Woj. Śląskie","County":"Ruda Śląska","City":"Ruda Śląska","District":"Ruda Śląska","Street":"ulica Spółdzielcza","HouseNumber":"1","PostalCode":"41-709","AdditionalData":[{"value":"Polska","key":"CountryName"},{"value":"Woj. Śląskie","key":"StateName"},{"value":"Ruda Śląska","key":"CountyName"}]},"MapReference":{"ReferenceId":"594592738","Spot":0.68,"SideOfStreet":"right","CountryId":"20624059","StateId":"20629003","CountyId":"20629382","CityId":"20629383","DistrictId":"20646805","AddressId":"222392156","RoadLinkId":"96538155"}}},{"Relevance":1.0,"Distance":82.4,"MatchLevel":"houseNumber","MatchQuality":{"Country":1.0,"State":1.0,"County":1.0,"City":1.0,"District":1.0,"Street":[1.0],"HouseNumber":1.0,"PostalCode":1.0},"MatchType":"interpolated","Location":{"LocationId":"NT_3BUo45iA4BLDL4.j5QbSIA_xUD","LocationType":"point","DisplayPosition":{"Latitude":50.28583,"Longitude":18.88392},"MapView":{"TopLeft":{"Latitude":50.2869542,"Longitude":18.8821606},"BottomRight":{"Latitude":50.2847058,"Longitude":18.8856794}},"Address":{"Label":"ulica ks. Jana Szymały 15, 41-709 Ruda Śląska, Polska","Country":"POL","State":"Woj. Śląskie","County":"Ruda Śląska","City":"Ruda Śląska","District":"Ruda Śląska","Street":"ulica ks. Jana Szymały","HouseNumber":"15","PostalCode":"41-709","AdditionalData":[{"value":"Polska","key":"CountryName"},{"value":"Woj. Śląskie","key":"StateName"},{"value":"Ruda Śląska","key":"CountyName"}]},"MapReference":{"ReferenceId":"594592739","Spot":1.0,"SideOfStreet":"right","CountryId":"20624059","StateId":"20629003","CountyId":"20629382","CityId":"20629383","DistrictId":"20646805","AddressId":"403669940","RoadLinkId":"96413232"}}},{"Relevance":1.0,"Distance":120.0,"MatchLevel":"houseNumber","MatchQuality":{"Country":1.0,"State":1.0,"County":1.0,"City":1.0,"District":1.0,"Street":[1.0],"HouseNumber":1.0,"PostalCode":1.0},"MatchType":"interpolated","Location":{"LocationId":"NT_1XAaCn3RWQImLC-MasGMHB_3EE","LocationType":"point","DisplayPosition":{"Latitude":50.2841,"Longitude":18.88468},"MapView":{"TopLeft":{"Latitude":50.2852242,"Longitude":18.8829207},"BottomRight":{"Latitude":50.2829758,"Longitude":18.8864393}},"Address":{"Label":"ulica Ratowników 7A, 41-709 Ruda Śląska, Polska","Country":"POL","State":"Woj. Śląskie","County":"Ruda Śląska","City":"Ruda Śląska","District":"Ruda Śląska","Street":"ulica Ratowników","HouseNumber":"7A","PostalCode":"41-709","AdditionalData":[{"value":"Polska","key":"CountryName"},{"value":"Woj. Śląskie","key":"StateName"},{"value":"Ruda Śląska","key":"CountyName"}]},"MapReference":{"ReferenceId":"984611230","Spot":0.96,"SideOfStreet":"right","CountryId":"20624059","StateId":"20629003","CountyId":"20629382","CityId":"20629383","DistrictId":"20646805","AddressId":"210329784","RoadLinkId":"315686835"}}},{"Relevance":1.0,"Distance":148.8,"MatchLevel":"houseNumber","MatchQuality":{"Country":1.0,"State":1.0,"County":1.0,"City":1.0,"District":1.0,"Street":[1.0],"HouseNumber":1.0,"PostalCode":1.0},"MatchType":"interpolated","Location":{"LocationId":"NT_3BUo45iA4BLDL4.j5QbSIA_1EE","LocationType":"point","DisplayPosition":{"Latitude":50.284,"Longitude":18.88612},"MapView":{"TopLeft":{"Latitude":50.2851242,"Longitude":18.8843607},"BottomRight":{"Latitude":50.2828758,"Longitude":18.8878793}},"Address":{"Label":"ulica ks. Jana Szymały 5A, 41-709 Ruda Śląska, Polska","Country":"POL","State":"Woj. Śląskie","County":"Ruda Śląska","City":"Ruda Śląska","District":"Ruda Śląska","Street":"ulica ks. Jana Szymały","HouseNumber":"5A","PostalCode":"41-709","AdditionalData":[{"value":"Polska","key":"CountryName"},{"value":"Woj. Śląskie","key":"StateName"},{"value":"Ruda Śląska","key":"CountyName"}]},"MapReference":{"ReferenceId":"594362200","Spot":0.69,"SideOfStreet":"left","CountryId":"20624059","StateId":"20629003","CountyId":"20629382","CityId":"20629383","DistrictId":"20646805","AddressId":"222389824","RoadLinkId":"96259718"}}}]}]}}