{"Response":{"MetaInfo":{"Timestamp":"2020-03-28T11:30:42.776+0000","NextPageInformation":"2"},"View":[{"_type":"SearchResultsViewType","ViewId":0,"Result":[{"Relevance":1.0,"Distance":-13.0,"MatchLevel":"landmark","MatchQuality":{"Country":1.0,"State":1.0,"County":1.0,"City":1.0,"District":1.0,"PostalCode":1.0,"Name":1.0},"Location":{"LocationId":"NT_BiXvzEaVHC5FzyhcINBozC_p_h-aIBZ.V9Qhcc-IpKosfCD","LocationType":"hospital","Name":"Centralny Szpital Kliniczny","DisplayPosition":{"Latitude":50.22447,"Longitude":18.95696},"MapView":{"TopLeft":{"Latitude":50.22607,"Longitude":18.9521},"BottomRight":{"Latitude":50.2233,"Longitude":18.95722}},"Address":{"Label":"40-752 Katowice, Polska","Country":"POL","State":"Woj. Śląskie","County":"Katowice","City":"Katowice","District":"Katowice","PostalCode":"40-752","AdditionalData":[{"value":"Polska","key":"CountryName"},{"value":"Woj. Śląskie","key":"StateName"},{"value":"Katowice","key":"CountyName"}]},"MapReference":{"CountryId":"20624059","StateId":"20629003","CountyId":"20629028","CityId":"20629029","DistrictId":"20646719","PlaceId":"559102015"}}},{"Relevance":1.0,"Distance":0.0,"Direction":0.0,"MatchLevel":"district","MatchQuality":{"Country":1.0,"State":1.0,"County":1.0,"City":1.0,"District":1.0,"PostalCode":1.0},"Location":{"LocationId":"NT_DkIwPzvNfz-RoJRBG4.JXA","LocationType":"point","DisplayPosition":{"Latitude":50.2238808,"Longitude":18.952676},"MapView":{"TopLeft":{"Latitude":50.29543,"Longitude":18.91063},"BottomRight":{"Latitude":50.16354,"Longitude":19.11784}},"Address":{"Label":"Katowice, Woj. Śląskie, Polska","Country":"POL","State":"Woj. Śląskie","County":"Katowice","City":"Katowice","District":"Katowice","PostalCode":"40-022","AdditionalData":[{"value":"Polska","key":"CountryName"},{"value":"Woj. Śląskie","key":"StateName"},{"value":"Katowice","key":"CountyName"}]},"MapReference":{"ReferenceId":"1053147953","SideOfStreet":"neither","CountryId":"20624059","StateId":"20629003","CountyId":"20629028","CityId":"20629029","DistrictId":"20646719"}}},{"Relevance":1.0,"Distance":13.1,"MatchLevel":"street","MatchQuality":{"Country":1.0,"State":1.0,"County":1.0,"City":1.0,"District":1.0,"Street":[1.0],"PostalCode":1.0},"Location":{"LocationId":"NT_JiwNxpYchL-M1jfPXjhNQD_l_590000374_R","LocationType":"point","DisplayPosition":{"Latitude":50.223801,"Longitude":18.9525397},"MapView":{"TopLeft":{"Latitude":50.22403,"Longitude":18.95235},"BottomRight":{"Latitude":50.22338,"Longitude":18.95271}},"Address":{"Label":"ulica Ludowa, 40-770 Katowice, Polska","Country":"POL","State":"Woj. Śląskie","County":"Katowice","City":"Katowice","District":"Katowice","Street":"ulica Ludowa","PostalCode":"40-770","AdditionalData":[{"value":"Polska","key":"CountryName"},{"value":"Woj. Śląskie","key":"StateName"},{"value":"Katowice","key":"CountyName"}]},"MapReference":{"ReferenceId":"590000374","Spot":0.62,"SideOfStreet":"right","CountryId":"20624059","StateId":"20629003","CountyId":"20629028","CityId":"20629029","DistrictId":"20646719"}}},{"Relevance":1.0,"Distance":28.5,"MatchLevel":"street","MatchQuality":{"Country":1.0,"State":1.0,"County":1.0,"City":1.0,"District":1.0,"Street":[1.0],"PostalCode":1.0},"Location":{"LocationId":"NT_JiwNxpYchL-M1jfPXjhNQD_l_590000375_R","LocationType":"point","DisplayPosition":{"Latitude":50.22403,"Longitude":18.95235},"MapView":{"TopLeft":{"Latitude":50.22438,"Longitude":18.9521},"BottomRight":{"Latitude":50.22403,"Longitude":18.95235}},"Address":{"Label":"ulica Ludowa, 40-770 Katowice, Polska","Country":"POL","State":"Woj. Śląskie","County":"Katowice","City":"Katowice","District":"Katowice","Street":"ulica Ludowa","PostalCode":"40-770","AdditionalData":[{"value":"Polska","key":"CountryName"},{"value":"Woj. Śląskie","key":"StateName"},{"value":"Katowice","key":"CountyName"}]},"MapReference":{"ReferenceId":"590000375","Spot":0.0,"SideOfStreet":"right","CountryId":"20624059","StateId":"20629003","CountyId":"20629028","CityId":"20629029","DistrictId":"20646719"}}},{"Relevance":1.0,"Distance":69.0,"MatchLevel":"street","MatchQuality":{"Country":1.0,"State":1.0,"County":1.0,"City":1.0,"District":1.0,"Street":[1.0],"PostalCode":1.0},"Location":{"LocationId":"NT_JiwNxpYchL-M1jfPXjhNQD_l_590000371_R","LocationType":"point","DisplayPosition":{"Latitude":50.22438,"Longitude":18.9521},"MapView":{"TopLeft":{"Latitude":50.22529,"Longitude":18.9521},"BottomRight":{"Latitude":50.22438,"Longitude":18.95262}},"Address":{"Label":"ulica Ludowa, 40-770 Katowice, Polska","Country":"POL","State":"Woj. Śląskie","County":"Katowice","City":"Katowice","District":"Katowice","Street":"ulica Ludowa","PostalCode":"40-770","AdditionalData":[{"value":"Polska","key":"CountryName"},{"value":"Woj. Śląskie","key":"StateName"},{"value":"Katowice","key":"CountyName"}]},"MapReference":{"ReferenceId":"590000371","Spot":0.0,"SideOfStreet":"right","CountryId":"20624059","StateId":"20629003","CountyId":"20629028","CityId":"20629029","DistrictId":"20646719"}}},{"Relevance":1.0,"Distance":69.0,"MatchLevel":"street","MatchQuality":{"Country":1.0,"State":1.0,"County":1.0,"City":1.0,"District":1.0,"PostalCode":1.0},"Location":{"LocationId":"NT_UenAC2NoaayV3IP64ugQpB_l_590000372_R","LocationType":"point","DisplayPosition":{"Latitude":50.22438,"Longitude":18.9521},"MapView":{"TopLeft":{"Latitude":50.22438,"Longitude":18.95165},"BottomRight":{"Latitude":50.22427,"Longitude":18.9521}},"Address":{"Label":"40-780 Katowice, Polska","Country":"POL","State":"Woj. Śląskie","County":"Katowice","City":"Katowice","District":"Katowice","PostalCode":"40-780","AdditionalData":[{"value":"Polska","key":"CountryName"},{"value":"Woj. Śląskie","key":"StateName"},{"value":"Katowice","key":"CountyName"}]},"MapReference":{"ReferenceId":"590000372","Spot":1.0,"SideOfStreet":"right","CountryId":"20624059","StateId":"20629003","CountyId":"20629028","CityId":"20629029","DistrictId":"20629029"}}},{"Relevance":1.0,"Distance":91.3,"MatchLevel":"houseNumber","MatchQuality":{"Country":1.0,"State":1.0,"County":1.0,"City":1.0,"District":1.0,"Street":[1.0],"HouseNumber":1.0,"PostalCode":1.0},"MatchType":"interpolated","Location":{"LocationId":"NT_nzAd.RSireGMqCVFZftv.C_xYD","LocationType":"point","DisplayPosition":{"Latitude":50.22421,"Longitude":18.9515},"MapView":{"TopLeft":{"Latitude":50.2253342,"Longitude":18.9497429},"BottomRight":{"Latitude":50.2230858,"Longitude":18.9532571}},"Address":{"Label":"ulica Medyków 16, 40-780 Katowice, Polska","Country":"POL","State":"Woj. Śląskie","County":"Katowice","City":"Katowice","District":"Katowice","Street":"ulica Medyków","HouseNumber":"16","PostalCode":"40-780","AdditionalData":[{"value":"Polska","key":"CountryName"},{"value":"Woj. Śląskie","key":"StateName"},{"value":"Katowice","key":"CountyName"}]},"MapReference":{"ReferenceId":"590000373","Spot":0.0,"SideOfStreet":"right","CountryId":"20624059","StateId":"20629003","CountyId":"20629028","CityId":"20629029","DistrictId":"20629029","AddressId":"403661422","RoadLinkId":"96057429"}}},{"Relevance":1.0,"Distance":156.7,"MatchLevel":"street","MatchQuality":{"Country":1.0,"State":1.0,"County":1.0,"City":1.0,"District":1.0,"Street":[1.0],"PostalCode":1.0},"Location":{"LocationId":"NT_08XMHAgl-2.d2mOO-Hqp7C_l_589979396_R","LocationType":"point","DisplayPosition":{"Latitude":50.22529,"Longitude":18.95262},"MapView":{"TopLeft":{"Latitude":50.22607,"Longitude":18.95262},"BottomRight":{"Latitude":50.22529,"Longitude":18.95492}},"Address":{"Label":"ulica Medyków, 40-752 Katowice, Polska","Country":"POL","State":"Woj. Śląskie","County":"Katowice","City":"Katowice","District":"Katowice","Street":"ulica Medyków","PostalCode":"40-752","AdditionalData":[{"value":"Polska","key":"CountryName"},{"value":"Woj. Śląskie","key":"StateName"},{"value":"Katowice","key":"CountyName"}]},"MapReference":{"ReferenceId":"589979396","Spot":0.0,"SideOfStreet":"right","CountryId":"20624059","StateId":"20629003","CountyId":"20629028","CityId":"20629029","DistrictId":"20646719"}}},{"Relevance":1.0,"Distance":156.7,"MatchLevel":"street","MatchQuality":{"Country":1.0,"State":1.0,"County":1.0,"City":1.0,"District":1.0,"Street":[1.0],"PostalCode":1.0},"Location":{"LocationId":"NT_JiwNxpYchL-M1jfPXjhNQD_l_589979397_L","LocationType":"point","DisplayPosition":{"Latitude":50.22529,"Longitude":18.95262},"MapView":{"TopLeft":{"Latitude":50.22626,"Longitude":18.95174},"BottomRight":{"Latitude":50.22529,"Longitude":18.95262}},"Address":{"Label":"ulica Ludowa, 40-770 Katowice, Polska","Country":"POL","State":"Woj. Śląskie","County":"Katowice","City":"Katowice","District":"Katowice","Street":"ulica Ludowa","PostalCode":"40-770","AdditionalData":[{"value":"Polska","key":"CountryName"},{"value":"Woj. Śląskie","key":"StateName"},{"value":"Katowice","key":"CountyName"}]},"MapReference":{"ReferenceId":"589979397","Spot":0.0,"SideOfStreet":"left","CountryId":"20624059","StateId":"20629003","CountyId":"20629028","CityId":"20629029","DistrictId":"20646719"}}},{"Relevance":1.0,"Distance":159.0,"MatchLevel":"houseNumber","MatchQuality":{"Country":1.0,"State":1.0,"County":1.0,"City":1.0,"District":1.0,"Street":[1.0],"HouseNumber":1.0,"PostalCode":1.0},"MatchType":"interpolated","Location":{"LocationId":"NT_08XMHAgl-2.d2mOO-Hqp7C_xQD","LocationType":"point","DisplayPosition":{"Latitude":50.22372,"Longitude":18.955},"MapView":{"TopLeft":{"Latitude":50.2248442,"Longitude":18.9532429},"BottomRight":{"Latitude":50.2225958,"Longitude":18.9567571}},"Address":{"Label":"ulica Medyków 14, 40-752 Katowice, Polska","Country":"POL","State":"Woj. Śląskie","County":"Katowice","City":"Katowice","District":"Katowice","Street":"ulica Medyków","HouseNumber":"14","PostalCode":"40-752","AdditionalData":[{"value":"Polska","key":"CountryName"},{"value":"Woj. Śląskie","key":"StateName"},{"value":"Katowice","key":"CountyName"}]},"MapReference":{"ReferenceId":"959743385","Spot":0.23,"SideOfStreet":"left","CountryId":"20624059","StateId":"20629003","CountyId":"20629028","CityId":"20629029","DistrictId":"20646719","AddressId":"211390414","RoadLinkId":"301883238"}}}]}]}}