{"Response":{"MetaInfo":{"Timestamp":"2020-03-28T10:16:05.506+0000","NextPageInformation":"2"},"View":[{"_type":"SearchResultsViewType","ViewId":0,"Result":[{"Relevance":1.0,"Distance":0.0,"Direction":0.0,"MatchLevel":"district","MatchQuality":{"Country":1.0,"State":1.0,"County":1.0,"City":1.0,"District":1.0,"PostalCode":1.0},"Location":{"LocationId":"NT_3oxZby.xYXsJ0MnrcrjOIC","LocationType":"point","DisplayPosition":{"Latitude":50.2517784,"Longitude":5.2015143},"MapView":{"TopLeft":{"Latitude":50.25661,"Longitude":5.16976},"BottomRight":{"Latitude":50.24528,"Longitude":5.21105}},"Address":{"Label":"Haversin, Ciney, Wallonie, Belgique","Country":"BEL","State":"Wallonie","County":"Namur","City":"Ciney","District":"Haversin","PostalCode":"5590","AdditionalData":[{"value":"Belgique","key":"CountryName"},{"value":"Wallonie","key":"StateName"},{"value":"Namur","key":"CountyName"}]},"MapReference":{"ReferenceId":"799763985","SideOfStreet":"neither","CountryId":"20128886","StateId":"20205526","CountyId":"20207338","CityId":"20207377","DistrictId":"20408890"}}},{"Relevance":1.0,"Distance":9.9,"MatchLevel":"houseNumber","MatchQuality":{"Country":1.0,"State":1.0,"County":1.0,"City":1.0,"District":1.0,"Street":[1.0],"HouseNumber":1.0,"PostalCode":1.0},"MatchType":"interpolated","Location":{"LocationId":"NT_ou6f7O1nd.usBgNhQvjZjA_4EE","LocationType":"point","DisplayPosition":{"Latitude":50.25204,"Longitude":5.20163},"MapView":{"TopLeft":{"Latitude":50.2531642,"Longitude":5.1998719},"BottomRight":{"Latitude":50.2509158,"Longitude":5.2033881}},"Address":{"Label":"Rue du Saivray 8A, 5590 Ciney, Belgique","Country":"BEL","State":"Wallonie","County":"Namur","City":"Ciney","District":"Haversin","Street":"Rue du Saivray","HouseNumber":"8A","PostalCode":"5590","AdditionalData":[{"value":"Belgique","key":"CountryName"},{"value":"Wallonie","key":"StateName"},{"value":"Namur","key":"CountyName"}]},"MapReference":{"ReferenceId":"79546147","Spot":0.45,"SideOfStreet":"right","CountryId":"20128886","StateId":"20205526","CountyId":"20207338","CityId":"20207377","DistrictId":"20408890","AddressId":"368631530","RoadLinkId":"30613466"}}},{"Relevance":1.0,"Distance":59.2,"MatchLevel":"houseNumber","MatchQuality":{"Country":1.0,"State":1.0,"County":1.0,"City":1.0,"District":1.0,"Street":[1.0],"HouseNumber":1.0,"PostalCode":1.0},"MatchType":"interpolated","Location":{"LocationId":"NT_HO7dY8eP7mG40j0cFMTofB_xczNBB","LocationType":"point","DisplayPosition":{"Latitude":50.25174,"Longitude":5.20254},"MapView":{"TopLeft":{"Latitude":50.2528642,"Longitude":5.2007819},"BottomRight":{"Latitude":50.2506158,"Longitude":5.2042981}},"Address":{"Label":"Rue de Barvaux 177A, 5590 Ciney, Belgique","Country":"BEL","State":"Wallonie","County":"Namur","City":"Ciney","District":"Haversin","Street":"Rue de Barvaux","HouseNumber":"177A","PostalCode":"5590","AdditionalData":[{"value":"Belgique","key":"CountryName"},{"value":"Wallonie","key":"StateName"},{"value":"Namur","key":"CountyName"}]},"MapReference":{"ReferenceId":"59468055","Spot":0.71,"SideOfStreet":"left","CountryId":"20128886","StateId":"20205526","CountyId":"20207338","CityId":"20207377","DistrictId":"20408890","AddressId":"368584951","RoadLinkId":"213423179"}}},{"Relevance":1.0,"Distance":73.5,"MatchLevel":"houseNumber","MatchQuality":{"Country":1.0,"State":1.0,"County":1.0,"City":1.0,"District":1.0,"Street":[1.0],"HouseNumber":1.0,"PostalCode":1.0},"MatchType":"interpolated","Location":{"LocationId":"NT_qUNmUtXM-JbB7BcdEUokGA_4QE","LocationType":"point","DisplayPosition":{"Latitude":50.25205,"Longitude":5.20051},"MapView":{"TopLeft":{"Latitude":50.2531742,"Longitude":5.1987519},"BottomRight":{"Latitude":50.2509258,"Longitude":5.2022681}},"Address":{"Label":"Rue du Saivray 8D, 5590 Ciney, Belgique","Country":"BEL","State":"Wallonie","County":"Namur","City":"Ciney","District":"Serinchamps","Street":"Rue du Saivray","HouseNumber":"8D","PostalCode":"5590","AdditionalData":[{"value":"Belgique","key":"CountryName"},{"value":"Wallonie","key":"StateName"},{"value":"Namur","key":"CountyName"}]},"MapReference":{"ReferenceId":"79546146","Spot":0.07,"SideOfStreet":"left","CountryId":"20128886","StateId":"20205526","CountyId":"20207338","CityId":"20207377","DistrictId":"20207386","AddressId":"368391078","RoadLinkId":"30252498"}}},{"Relevance":1.0,"Distance":81.3,"MatchLevel":"houseNumber","MatchQuality":{"Country":1.0,"State":1.0,"County":1.0,"City":1.0,"District":1.0,"Street":[1.0],"HouseNumber":1.0,"PostalCode":1.0},"MatchType":"interpolated","Location":{"LocationId":"NT_ou6f7O1nd.usBgNhQvjZjA_4A","LocationType":"point","DisplayPosition":{"Latitude":50.25207,"Longitude":5.20261},"MapView":{"TopLeft":{"Latitude":50.2531942,"Longitude":5.2008519},"BottomRight":{"Latitude":50.2509458,"Longitude":5.2043681}},"Address":{"Label":"Rue du Saivray 8, 5590 Ciney, Belgique","Country":"BEL","State":"Wallonie","County":"Namur","City":"Ciney","District":"Haversin","Street":"Rue du Saivray","HouseNumber":"8","PostalCode":"5590","AdditionalData":[{"value":"Belgique","key":"CountryName"},{"value":"Wallonie","key":"StateName"},{"value":"Namur","key":"CountyName"}]},"MapReference":{"ReferenceId":"59468037","Spot":0.96,"SideOfStreet":"left","CountryId":"20128886","StateId":"20205526","CountyId":"20207338","CityId":"20207377","DistrictId":"20408890","AddressId":"368451971","RoadLinkId":"30802992"}}},{"Relevance":1.0,"Distance":169.8,"MatchLevel":"houseNumber","MatchQuality":{"Country":1.0,"State":1.0,"County":1.0,"City":1.0,"District":1.0,"Street":[1.0],"HouseNumber":1.0,"PostalCode":1.0},"MatchType":"interpolated","Location":{"LocationId":"NT_HO7dY8eP7mG40j0cFMTofB_xczN","LocationType":"point","DisplayPosition":{"Latitude":50.25079,"Longitude":5.20336},"MapView":{"TopLeft":{"Latitude":50.2519142,"Longitude":5.2016019},"BottomRight":{"Latitude":50.2496658,"Longitude":5.2051181}},"Address":{"Label":"Rue de Barvaux 177, 5590 Ciney, Belgique","Country":"BEL","State":"Wallonie","County":"Namur","City":"Ciney","District":"Haversin","Street":"Rue de Barvaux","HouseNumber":"177","PostalCode":"5590","AdditionalData":[{"value":"Belgique","key":"CountryName"},{"value":"Wallonie","key":"StateName"},{"value":"Namur","key":"CountyName"}]},"MapReference":{"ReferenceId":"53793226","Spot":0.45,"SideOfStreet":"left","CountryId":"20128886","StateId":"20205526","CountyId":"20207338","CityId":"20207377","DistrictId":"20408890","AddressId":"368436768","RoadLinkId":"213423173"}}},{"Relevance":1.0,"Distance":183.8,"MatchLevel":"landmark","MatchQuality":{"Country":1.0,"State":1.0,"County":1.0,"Name":1.0},"Location":{"LocationId":"NT_cBqsy2tL6-XS-SkwKo2UYA","LocationType":"woodland","Name":"Bois de Fich√®re","DisplayPosition":{"Latitude":50.28412,"Longitude":5.19488},"MapView":{"TopLeft":{"Latitude":50.31579,"Longitude":5.17389},"BottomRight":{"Latitude":50.25244,"Longitude":5.24338}},"Address":{"Label":"Belgique","Country":"BEL","State":"Wallonie","County":"Namur","AdditionalData":[{"value":"Belgique","key":"CountryName"},{"value":"Wallonie","key":"StateName"},{"value":"Namur","key":"CountyName"}]},"MapReference":{"CountryId":"20128886","StateId":"20205526","CountyId":"20207338","PlaceId":"50755413"}}},{"Relevance":1.0,"Distance":187.7,"MatchLevel":"houseNumber","MatchQuality":{"Country":1.0,"State":1.0,"County":1.0,"City":1.0,"District":1.0,"Street":[1.0],"HouseNumber":1.0,"PostalCode":1.0},"MatchType":"interpolated","Location":{"LocationId":"NT_HO7dY8eP7mG40j0cFMTofB_xcjN","LocationType":"point","DisplayPosition":{"Latitude":50.2505,"Longitude":5.20346},"MapView":{"TopLeft":{"Latitude":50.2516242,"Longitude":5.201702},"BottomRight":{"Latitude":50.2493758,"Longitude":5.205218}},"Address":{"Label":"Rue de Barvaux 176, 5590 Ciney, Belgique","Country":"BEL","State":"Wallonie","County":"Namur","City":"Ciney","District":"Haversin","Street":"Rue de Barvaux","HouseNumber":"176","PostalCode":"5590","AdditionalData":[{"value":"Belgique","key":"CountryName"},{"value":"Wallonie","key":"StateName"},{"value":"Namur","key":"CountyName"}]},"MapReference":{"ReferenceId":"53793264","Spot":0.91,"SideOfStreet":"left","CountryId":"20128886","StateId":"20205526","CountyId":"20207338","CityId":"20207377","DistrictId":"20408890","AddressId":"368568999","RoadLinkId":"30359735"}}},{"Relevance":1.0,"Distance":188.3,"MatchLevel":"houseNumber","MatchQuality":{"Country":1.0,"State":1.0,"County":1.0,"City":1.0,"District":1.0,"Street":[1.0],"HouseNumber":1.0,"PostalCode":1.0},"MatchType":"interpolated","Location":{"LocationId":"NT_HO7dY8eP7mG40j0cFMTofB_xcTO","LocationType":"point","DisplayPosition":{"Latitude":50.25066,"Longitude":5.20392},"MapView":{"TopLeft":{"Latitude":50.2517842,"Longitude":5.2021619},"BottomRight":{"Latitude":50.2495358,"Longitude":5.2056781}},"Address":{"Label":"Rue de Barvaux 179, 5590 Ciney, Belgique","Country":"BEL","State":"Wallonie","County":"Namur","City":"Ciney","District":"Haversin","Street":"Rue de Barvaux","HouseNumber":"179","PostalCode":"5590","AdditionalData":[{"value":"Belgique","key":"CountryName"},{"value":"Wallonie","key":"StateName"},{"value":"Namur","key":"CountyName"}]},"MapReference":{"ReferenceId":"799680489","Spot":0.21,"SideOfStreet":"left","CountryId":"20128886","StateId":"20205526","CountyId":"20207338","CityId":"20207377","DistrictId":"20408890","AddressId":"368351659","RoadLinkId":"190448457"}}},{"Relevance":1.0,"Distance":216.9,"MatchLevel":"houseNumber","MatchQuality":{"Country":1.0,"State":1.0,"County":1.0,"City":1.0,"District":1.0,"Street":[1.0],"HouseNumber":1.0,"PostalCode":1.0},"MatchType":"interpolated","Location":{"LocationId":"NT_HO7dY8eP7mG40j0cFMTofB_xUzN","LocationType":"point","DisplayPosition":{"Latitude":50.24979,"Longitude":5.20032},"MapView":{"TopLeft":{"Latitude":50.2509142,"Longitude":5.198562},"BottomRight":{"Latitude":50.2486658,"Longitude":5.202078}},"Address":{"Label":"Rue de Barvaux 157, 5590 Ciney, Belgique","Country":"BEL","State":"Wallonie","County":"Namur","City":"Ciney","District":"Haversin","Street":"Rue de Barvaux","HouseNumber":"157","PostalCode":"5590","AdditionalData":[{"value":"Belgique","key":"CountryName"},{"value":"Wallonie","key":"StateName"},{"value":"Namur","key":"CountyName"}]},"MapReference":{"ReferenceId":"799680488","Spot":0.73,"SideOfStreet":"left","CountryId":"20128886","StateId":"20205526","CountyId":"20207338","CityId":"20207377","DistrictId":"20408890","AddressId":"368641023","RoadLinkId":"190448454"}}}]}]}}