{"Response":{"MetaInfo":{"Timestamp":"2020-03-28T10:49:38.333+0000","NextPageInformation":"2"},"View":[{"_type":"SearchResultsViewType","ViewId":0,"Result":[{"Relevance":1.0,"Distance":0.0,"Direction":0.0,"MatchLevel":"district","MatchQuality":{"Country":1.0,"State":1.0,"County":1.0,"City":1.0,"District":1.0,"PostalCode":1.0},"Location":{"LocationId":"NT_VNiGKcCRaQliUfLBo-uuaA","LocationType":"point","DisplayPosition":{"Latitude":50.2961386,"Longitude":19.3843093},"MapView":{"TopLeft":{"Latitude":50.30619,"Longitude":19.2801},"BottomRight":{"Latitude":50.25716,"Longitude":19.41446}},"Address":{"Label":"Sławków, Woj. Śląskie, Polska","Country":"POL","State":"Woj. Śląskie","County":"Powiat Będziński","City":"Sławków","District":"Sławków","PostalCode":"41-260","AdditionalData":[{"value":"Polska","key":"CountryName"},{"value":"Woj. Śląskie","key":"StateName"},{"value":"Powiat Będziński","key":"CountyName"}]},"MapReference":{"ReferenceId":"594359790","SideOfStreet":"neither","CountryId":"20624059","StateId":"20629003","CountyId":"20629037","CityId":"20629052","DistrictId":"20693214"}}},{"Relevance":1.0,"Distance":17.3,"MatchLevel":"houseNumber","MatchQuality":{"Country":1.0,"State":1.0,"County":1.0,"City":1.0,"District":1.0,"Street":[1.0],"HouseNumber":1.0,"PostalCode":1.0},"MatchType":"interpolated","Location":{"LocationId":"NT_rQ5w8u5a6KSeR03CO8bPPC_zEE","LocationType":"point","DisplayPosition":{"Latitude":50.29571,"Longitude":19.3841},"MapView":{"TopLeft":{"Latitude":50.2968342,"Longitude":19.3823403},"BottomRight":{"Latitude":50.2945858,"Longitude":19.3858597}},"Address":{"Label":"ulica Polskiego Czerwonego Krzyza 3A, 41-260 Sławków, Polska","Country":"POL","State":"Woj. Śląskie","County":"Powiat Będziński","City":"Sławków","District":"Sławków","Street":"ulica Polskiego Czerwonego Krzyza","HouseNumber":"3A","PostalCode":"41-260","AdditionalData":[{"value":"Polska","key":"CountryName"},{"value":"Woj. Śląskie","key":"StateName"},{"value":"Powiat Będziński","key":"CountyName"}]},"MapReference":{"ReferenceId":"784688231","Spot":0.53,"SideOfStreet":"right","CountryId":"20624059","StateId":"20629003","CountyId":"20629037","CityId":"20629052","DistrictId":"20693214","AddressId":"701990648","RoadLinkId":"381199300"}}},{"Relevance":1.0,"Distance":39.7,"MatchLevel":"houseNumber","MatchQuality":{"Country":1.0,"State":1.0,"County":1.0,"City":1.0,"District":1.0,"Street":[1.0],"HouseNumber":1.0,"PostalCode":1.0},"MatchType":"interpolated","Location":{"LocationId":"NT_rQ5w8u5a6KSeR03CO8bPPC_1A","LocationType":"point","DisplayPosition":{"Latitude":50.29664,"Longitude":19.38416},"MapView":{"TopLeft":{"Latitude":50.2977642,"Longitude":19.3824002},"BottomRight":{"Latitude":50.2955158,"Longitude":19.3859198}},"Address":{"Label":"ulica Polskiego Czerwonego Krzyza 5, 41-260 Sławków, Polska","Country":"POL","State":"Woj. Śląskie","County":"Powiat Będziński","City":"Sławków","District":"Sławków","Street":"ulica Polskiego Czerwonego Krzyza","HouseNumber":"5","PostalCode":"41-260","AdditionalData":[{"value":"Polska","key":"CountryName"},{"value":"Woj. Śląskie","key":"StateName"},{"value":"Powiat Będziński","key":"CountyName"}]},"MapReference":{"ReferenceId":"594361124","Spot":0.46,"SideOfStreet":"right","CountryId":"20624059","StateId":"20629003","CountyId":"20629037","CityId":"20629052","DistrictId":"20693214","AddressId":"222362008","RoadLinkId":"95975289"}}},{"Relevance":1.0,"Distance":73.3,"MatchLevel":"houseNumber","MatchQuality":{"Country":1.0,"State":1.0,"County":1.0,"City":1.0,"District":1.0,"Street":[1.0],"HouseNumber":1.0,"PostalCode":1.0},"MatchType":"interpolated","Location":{"LocationId":"NT_rQ5w8u5a6KSeR03CO8bPPC_5EE","LocationType":"point","DisplayPosition":{"Latitude":50.29533,"Longitude":19.38402},"MapView":{"TopLeft":{"Latitude":50.2964542,"Longitude":19.3822603},"BottomRight":{"Latitude":50.2942058,"Longitude":19.3857797}},"Address":{"Label":"ulica Polskiego Czerwonego Krzyza 9A, 41-260 Sławków, Polska","Country":"POL","State":"Woj. Śląskie","County":"Powiat Będziński","City":"Sławków","District":"Sławków","Street":"ulica Polskiego Czerwonego Krzyza","HouseNumber":"9A","PostalCode":"41-260","AdditionalData":[{"value":"Polska","key":"CountryName"},{"value":"Woj. Śląskie","key":"StateName"},{"value":"Powiat Będziński","key":"CountyName"}]},"MapReference":{"ReferenceId":"784688229","Spot":0.37,"SideOfStreet":"left","CountryId":"20624059","StateId":"20629003","CountyId":"20629037","CityId":"20629052","DistrictId":"20693214","AddressId":"701990643","RoadLinkId":"177497309"}}},{"Relevance":1.0,"Distance":73.7,"MatchLevel":"street","MatchQuality":{"Country":1.0,"State":1.0,"County":1.0,"City":1.0,"District":1.0,"Street":[1.0],"PostalCode":1.0},"Location":{"LocationId":"NT_rQ5w8u5a6KSeR03CO8bPPC_l_784688227_R","LocationType":"point","DisplayPosition":{"Latitude":50.29568,"Longitude":19.38356},"MapView":{"TopLeft":{"Latitude":50.29568,"Longitude":19.38356},"BottomRight":{"Latitude":50.29532,"Longitude":19.38366}},"Address":{"Label":"ulica Polskiego Czerwonego Krzyza, 41-260 Sławków, Polska","Country":"POL","State":"Woj. Śląskie","County":"Powiat Będziński","City":"Sławków","District":"Sławków","Street":"ulica Polskiego Czerwonego Krzyza","PostalCode":"41-260","AdditionalData":[{"value":"Polska","key":"CountryName"},{"value":"Woj. Śląskie","key":"StateName"},{"value":"Powiat Będziński","key":"CountyName"}]},"MapReference":{"ReferenceId":"784688227","Spot":1.0,"SideOfStreet":"right","CountryId":"20624059","StateId":"20629003","CountyId":"20629037","CityId":"20629052","DistrictId":"20693214"}}},{"Relevance":1.0,"Distance":75.4,"MatchLevel":"houseNumber","MatchQuality":{"Country":1.0,"State":1.0,"County":1.0,"City":1.0,"District":1.0,"Street":[1.0],"HouseNumber":1.0,"PostalCode":1.0},"MatchType":"interpolated","Location":{"LocationId":"NT_rQ5w8u5a6KSeR03CO8bPPC_xED","LocationType":"point","DisplayPosition":{"Latitude":50.29574,"Longitude":19.38345},"MapView":{"TopLeft":{"Latitude":50.2968642,"Longitude":19.3816903},"BottomRight":{"Latitude":50.2946158,"Longitude":19.3852097}},"Address":{"Label":"ulica Polskiego Czerwonego Krzyza 11, 41-260 Sławków, Polska","Country":"POL","State":"Woj. Śląskie","County":"Powiat Będziński","City":"Sławków","District":"Sławków","Street":"ulica Polskiego Czerwonego Krzyza","HouseNumber":"11","PostalCode":"41-260","AdditionalData":[{"value":"Polska","key":"CountryName"},{"value":"Woj. Śląskie","key":"StateName"},{"value":"Powiat Będziński","key":"CountyName"}]},"MapReference":{"ReferenceId":"784688228","Spot":0.24,"SideOfStreet":"left","CountryId":"20624059","StateId":"20629003","CountyId":"20629037","CityId":"20629052","DistrictId":"20693214","AddressId":"222420147","RoadLinkId":"177497308"}}},{"Relevance":1.0,"Distance":82.6,"MatchLevel":"street","MatchQuality":{"Country":1.0,"State":1.0,"County":1.0,"City":1.0,"District":1.0,"Street":[1.0],"PostalCode":1.0},"Location":{"LocationId":"NT_rQ5w8u5a6KSeR03CO8bPPC_l_784688166_L","LocationType":"point","DisplayPosition":{"Latitude":50.29574,"Longitude":19.38529},"MapView":{"TopLeft":{"Latitude":50.29574,"Longitude":19.38529},"BottomRight":{"Latitude":50.29533,"Longitude":19.38533}},"Address":{"Label":"ulica Polskiego Czerwonego Krzyza, 41-260 Sławków, Polska","Country":"POL","State":"Woj. Śląskie","County":"Powiat Będziński","City":"Sławków","District":"Sławków","Street":"ulica Polskiego Czerwonego Krzyza","PostalCode":"41-260","AdditionalData":[{"value":"Polska","key":"CountryName"},{"value":"Woj. Śląskie","key":"StateName"},{"value":"Powiat Będziński","key":"CountyName"}]},"MapReference":{"ReferenceId":"784688166","Spot":1.0,"SideOfStreet":"left","CountryId":"20624059","StateId":"20629003","CountyId":"20629037","CityId":"20629052","DistrictId":"20693214"}}},{"Relevance":1.0,"Distance":89.6,"MatchLevel":"street","MatchQuality":{"Country":1.0,"State":1.0,"County":1.0,"City":1.0,"District":1.0,"Street":[1.0],"PostalCode":1.0},"Location":{"LocationId":"NT_x2hAdMoG7MQFX7UrfJ9lAB_l_594361166_R","LocationType":"point","DisplayPosition":{"Latitude":50.29591,"Longitude":19.3831},"MapView":{"TopLeft":{"Latitude":50.29591,"Longitude":19.38281},"BottomRight":{"Latitude":50.29571,"Longitude":19.3831}},"Address":{"Label":"ulica Czerwonego Krzyża, 41-260 Sławków, Polska","Country":"POL","State":"Woj. Śląskie","County":"Powiat Będziński","City":"Sławków","District":"Sławków","Street":"ulica Czerwonego Krzyża","PostalCode":"41-260","AdditionalData":[{"value":"Polska","key":"CountryName"},{"value":"Woj. Śląskie","key":"StateName"},{"value":"Powiat Będziński","key":"CountyName"}]},"MapReference":{"ReferenceId":"594361166","Spot":1.0,"SideOfStreet":"right","CountryId":"20624059","StateId":"20629003","CountyId":"20629037","CityId":"20629052","DistrictId":"20693214"}}},{"Relevance":1.0,"Distance":102.4,"MatchLevel":"houseNumber","MatchQuality":{"Country":1.0,"State":1.0,"County":1.0,"City":1.0,"District":1.0,"Street":[1.0],"HouseNumber":1.0,"PostalCode":1.0},"MatchType":"interpolated","Location":{"LocationId":"NT_rQ5w8u5a6KSeR03CO8bPPC_xMTQ","LocationType":"point","DisplayPosition":{"Latitude":50.29533,"Longitude":19.385},"MapView":{"TopLeft":{"Latitude":50.2964542,"Longitude":19.3832403},"BottomRight":{"Latitude":50.2942058,"Longitude":19.3867597}},"Address":{"Label":"ulica Polskiego Czerwonego Krzyza 13A, 41-260 Sławków, Polska","Country":"POL","State":"Woj. Śląskie","County":"Powiat Będziński","City":"Sławków","District":"Sławków","Street":"ulica Polskiego Czerwonego Krzyza","HouseNumber":"13A","PostalCode":"41-260","AdditionalData":[{"value":"Polska","key":"CountryName"},{"value":"Woj. Śląskie","key":"StateName"},{"value":"Powiat Będziński","key":"CountyName"}]},"MapReference":{"ReferenceId":"784688230","Spot":0.48,"SideOfStreet":"left","CountryId":"20624059","StateId":"20629003","CountyId":"20629037","CityId":"20629052","DistrictId":"20693214","AddressId":"701990658","RoadLinkId":"177497310"}}},{"Relevance":1.0,"Distance":130.4,"MatchLevel":"houseNumber","MatchQuality":{"Country":1.0,"State":1.0,"County":1.0,"City":1.0,"District":1.0,"Street":[1.0],"HouseNumber":1.0,"PostalCode":1.0},"MatchType":"interpolated","Location":{"LocationId":"NT_rQ5w8u5a6KSeR03CO8bPPC_1EE","LocationType":"point","DisplayPosition":{"Latitude":50.29493,"Longitude":19.38377},"MapView":{"TopLeft":{"Latitude":50.2960542,"Longitude":19.3820103},"BottomRight":{"Latitude":50.2938058,"Longitude":19.3855297}},"Address":{"Label":"ulica Polskiego Czerwonego Krzyza 5A, 41-260 Sławków, Polska","Country":"POL","State":"Woj. Śląskie","County":"Powiat Będziński","City":"Sławków","District":"Sławków","Street":"ulica Polskiego Czerwonego Krzyza","HouseNumber":"5A","PostalCode":"41-260","AdditionalData":[{"value":"Polska","key":"CountryName"},{"value":"Woj. Śląskie","key":"StateName"},{"value":"Powiat Będziński","key":"CountyName"}]},"MapReference":{"ReferenceId":"594361457","Spot":0.69,"SideOfStreet":"right","CountryId":"20624059","StateId":"20629003","CountyId":"20629037","CityId":"20629052","DistrictId":"20693214","AddressId":"701971543","RoadLinkId":"96549725"}}}]}]}}