{"Response":{"MetaInfo":{"Timestamp":"2020-03-28T09:34:27.223+0000","NextPageInformation":"2"},"View":[{"_type":"SearchResultsViewType","ViewId":0,"Result":[{"Relevance":1.0,"Distance":0.0,"Direction":0.0,"MatchLevel":"district","MatchQuality":{"Country":1.0,"State":1.0,"County":1.0,"City":1.0,"District":1.0,"PostalCode":1.0},"Location":{"LocationId":"NT_vJEpM6V6mh6MNISOTEHTRD","LocationType":"point","DisplayPosition":{"Latitude":50.2377789,"Longitude":12.7453488},"MapView":{"TopLeft":{"Latitude":50.25077,"Longitude":12.72593},"BottomRight":{"Latitude":50.2268,"Longitude":12.76417}},"Address":{"Label":"Chodov, Karlovarský kraj, Česká Republika","Country":"CZE","State":"Karlovarský kraj","County":"Sokolov","City":"Chodov","District":"Chodov","PostalCode":"357 35","AdditionalData":[{"value":"Česká Republika","key":"CountryName"},{"value":"Karlovarský kraj","key":"StateName"},{"value":"Sokolov","key":"CountyName"}]},"MapReference":{"ReferenceId":"704340751","SideOfStreet":"neither","CountryId":"20427915","StateId":"20435257","CountyId":"20435542","CityId":"20435555","DistrictId":"20435556"}}},{"Relevance":1.0,"Distance":12.5,"MatchLevel":"houseNumber","MatchQuality":{"Country":1.0,"State":1.0,"County":1.0,"City":1.0,"District":1.0,"Street":[1.0],"HouseNumber":1.0,"PostalCode":1.0},"MatchType":"interpolated","Location":{"LocationId":"NT_xesY-uy4u73basPelBsAJC_xATN3A","LocationType":"point","DisplayPosition":{"Latitude":50.23799,"Longitude":12.74546},"MapView":{"TopLeft":{"Latitude":50.2391142,"Longitude":12.7437024},"BottomRight":{"Latitude":50.2368658,"Longitude":12.7472176}},"Address":{"Label":"Tovární 1057, 357 35 Chodov, Česká Republika","Country":"CZE","State":"Karlovarský kraj","County":"Sokolov","City":"Chodov","District":"Chodov","Street":"Tovární","HouseNumber":"1057","PostalCode":"357 35","AdditionalData":[{"value":"Česká Republika","key":"CountryName"},{"value":"Karlovarský kraj","key":"StateName"},{"value":"Sokolov","key":"CountyName"}]},"MapReference":{"ReferenceId":"704360960","Spot":0.46,"SideOfStreet":"left","CountryId":"20427915","StateId":"20435257","CountyId":"20435542","CityId":"20435555","DistrictId":"20435556","AddressId":"241418520","RoadLinkId":"101687661"}}},{"Relevance":1.0,"Distance":34.2,"MatchLevel":"street","MatchQuality":{"Country":1.0,"State":1.0,"County":1.0,"City":1.0,"District":1.0,"PostalCode":1.0},"Location":{"LocationId":"NT_fO319F9RMdEIb6QO9N.O6D_l_704360964_L","LocationType":"point","DisplayPosition":{"Latitude":50.23777,"Longitude":12.74583},"MapView":{"TopLeft":{"Latitude":50.23777,"Longitude":12.74583},"BottomRight":{"Latitude":50.23753,"Longitude":12.74625}},"Address":{"Label":"357 35 Chodov, Česká Republika","Country":"CZE","State":"Karlovarský kraj","County":"Sokolov","City":"Chodov","District":"Chodov","PostalCode":"357 35","AdditionalData":[{"value":"Česká Republika","key":"CountryName"},{"value":"Karlovarský kraj","key":"StateName"},{"value":"Sokolov","key":"CountyName"}]},"MapReference":{"ReferenceId":"704360964","Spot":1.0,"SideOfStreet":"left","CountryId":"20427915","StateId":"20435257","CountyId":"20435542","CityId":"20435555","DistrictId":"20435556"}}},{"Relevance":1.0,"Distance":34.2,"MatchLevel":"street","MatchQuality":{"Country":1.0,"State":1.0,"County":1.0,"City":1.0,"District":1.0,"PostalCode":1.0},"Location":{"LocationId":"NT_fO319F9RMdEIb6QO9N.O6D_l_704360961_R","LocationType":"point","DisplayPosition":{"Latitude":50.23777,"Longitude":12.74583},"MapView":{"TopLeft":{"Latitude":50.23779,"Longitude":12.74583},"BottomRight":{"Latitude":50.23775,"Longitude":12.74597}},"Address":{"Label":"357 35 Chodov, Česká Republika","Country":"CZE","State":"Karlovarský kraj","County":"Sokolov","City":"Chodov","District":"Chodov","PostalCode":"357 35","AdditionalData":[{"value":"Česká Republika","key":"CountryName"},{"value":"Karlovarský kraj","key":"StateName"},{"value":"Sokolov","key":"CountyName"}]},"MapReference":{"ReferenceId":"704360961","Spot":0.0,"SideOfStreet":"right","CountryId":"20427915","StateId":"20435257","CountyId":"20435542","CityId":"20435555","DistrictId":"20435556"}}},{"Relevance":1.0,"Distance":44.2,"MatchLevel":"street","MatchQuality":{"Country":1.0,"State":1.0,"County":1.0,"City":1.0,"District":1.0,"PostalCode":1.0},"Location":{"LocationId":"NT_fO319F9RMdEIb6QO9N.O6D_l_704360959_L","LocationType":"point","DisplayPosition":{"Latitude":50.23779,"Longitude":12.74597},"MapView":{"TopLeft":{"Latitude":50.23808,"Longitude":12.74597},"BottomRight":{"Latitude":50.23779,"Longitude":12.74635}},"Address":{"Label":"357 35 Chodov, Česká Republika","Country":"CZE","State":"Karlovarský kraj","County":"Sokolov","City":"Chodov","District":"Chodov","PostalCode":"357 35","AdditionalData":[{"value":"Česká Republika","key":"CountryName"},{"value":"Karlovarský kraj","key":"StateName"},{"value":"Sokolov","key":"CountyName"}]},"MapReference":{"ReferenceId":"704360959","Spot":0.0,"SideOfStreet":"left","CountryId":"20427915","StateId":"20435257","CountyId":"20435542","CityId":"20435555","DistrictId":"20435556"}}},{"Relevance":1.0,"Distance":44.2,"MatchLevel":"street","MatchQuality":{"Country":1.0,"State":1.0,"County":1.0,"City":1.0,"District":1.0,"PostalCode":1.0},"Location":{"LocationId":"NT_fO319F9RMdEIb6QO9N.O6D_l_704360963_L","LocationType":"point","DisplayPosition":{"Latitude":50.23779,"Longitude":12.74597},"MapView":{"TopLeft":{"Latitude":50.23779,"Longitude":12.74597},"BottomRight":{"Latitude":50.2376,"Longitude":12.74625}},"Address":{"Label":"357 35 Chodov, Česká Republika","Country":"CZE","State":"Karlovarský kraj","County":"Sokolov","City":"Chodov","District":"Chodov","PostalCode":"357 35","AdditionalData":[{"value":"Česká Republika","key":"CountryName"},{"value":"Karlovarský kraj","key":"StateName"},{"value":"Sokolov","key":"CountyName"}]},"MapReference":{"ReferenceId":"704360963","Spot":1.0,"SideOfStreet":"left","CountryId":"20427915","StateId":"20435257","CountyId":"20435542","CityId":"20435555","DistrictId":"20435556"}}},{"Relevance":1.0,"Distance":50.8,"MatchLevel":"street","MatchQuality":{"Country":1.0,"State":1.0,"County":1.0,"City":1.0,"District":1.0,"PostalCode":1.0},"Location":{"LocationId":"NT_fO319F9RMdEIb6QO9N.O6D_l_735342681_R","LocationType":"point","DisplayPosition":{"Latitude":50.23733,"Longitude":12.74548},"MapView":{"TopLeft":{"Latitude":50.23733,"Longitude":12.74548},"BottomRight":{"Latitude":50.23696,"Longitude":12.74632}},"Address":{"Label":"357 35 Chodov, Česká Republika","Country":"CZE","State":"Karlovarský kraj","County":"Sokolov","City":"Chodov","District":"Chodov","PostalCode":"357 35","AdditionalData":[{"value":"Česká Republika","key":"CountryName"},{"value":"Karlovarský kraj","key":"StateName"},{"value":"Sokolov","key":"CountyName"}]},"MapReference":{"ReferenceId":"735342681","Spot":1.0,"SideOfStreet":"right","CountryId":"20427915","StateId":"20435257","CountyId":"20435542","CityId":"20435555","DistrictId":"20435556"}}},{"Relevance":1.0,"Distance":52.9,"MatchLevel":"street","MatchQuality":{"Country":1.0,"State":1.0,"County":1.0,"City":1.0,"District":1.0,"Street":[1.0],"PostalCode":1.0},"Location":{"LocationId":"NT_QXaHrCzLlHx15.JnKnEKFA_l_718083169_R","LocationType":"point","DisplayPosition":{"Latitude":50.23818,"Longitude":12.74495},"MapView":{"TopLeft":{"Latitude":50.23818,"Longitude":12.74432},"BottomRight":{"Latitude":50.2376,"Longitude":12.74495}},"Address":{"Label":"Nerudova, 357 35 Chodov, Česká Republika","Country":"CZE","State":"Karlovarský kraj","County":"Sokolov","City":"Chodov","District":"Chodov","Street":"Nerudova","PostalCode":"357 35","AdditionalData":[{"value":"Česká Republika","key":"CountryName"},{"value":"Karlovarský kraj","key":"StateName"},{"value":"Sokolov","key":"CountyName"}]},"MapReference":{"ReferenceId":"718083169","Spot":1.0,"SideOfStreet":"right","CountryId":"20427915","StateId":"20435257","CountyId":"20435542","CityId":"20435555","DistrictId":"20435556"}}},{"Relevance":1.0,"Distance":52.9,"MatchLevel":"street","MatchQuality":{"Country":1.0,"State":1.0,"County":1.0,"City":1.0,"District":1.0,"Street":[1.0],"PostalCode":1.0},"Location":{"LocationId":"NT_QXaHrCzLlHx15.JnKnEKFA_l_704360931_R","LocationType":"point","DisplayPosition":{"Latitude":50.23818,"Longitude":12.74495},"MapView":{"TopLeft":{"Latitude":50.23825,"Longitude":12.74495},"BottomRight":{"Latitude":50.23818,"Longitude":12.74502}},"Address":{"Label":"Nerudova, 357 35 Chodov, Česká Republika","Country":"CZE","State":"Karlovarský kraj","County":"Sokolov","City":"Chodov","District":"Chodov","Street":"Nerudova","PostalCode":"357 35","AdditionalData":[{"value":"Česká Republika","key":"CountryName"},{"value":"Karlovarský kraj","key":"StateName"},{"value":"Sokolov","key":"CountyName"}]},"MapReference":{"ReferenceId":"704360931","Spot":0.0,"SideOfStreet":"right","CountryId":"20427915","StateId":"20435257","CountyId":"20435542","CityId":"20435555","DistrictId":"20435556"}}},{"Relevance":1.0,"Distance":52.9,"MatchLevel":"street","MatchQuality":{"Country":1.0,"State":1.0,"County":1.0,"City":1.0,"District":1.0,"PostalCode":1.0},"Location":{"LocationId":"NT_fO319F9RMdEIb6QO9N.O6D_l_704360943_L","LocationType":"point","DisplayPosition":{"Latitude":50.23818,"Longitude":12.74495},"MapView":{"TopLeft":{"Latitude":50.23823,"Longitude":12.74469},"BottomRight":{"Latitude":50.23818,"Longitude":12.74495}},"Address":{"Label":"357 35 Chodov, Česká Republika","Country":"CZE","State":"Karlovarský kraj","County":"Sokolov","City":"Chodov","District":"Chodov","PostalCode":"357 35","AdditionalData":[{"value":"Česká Republika","key":"CountryName"},{"value":"Karlovarský kraj","key":"StateName"},{"value":"Sokolov","key":"CountyName"}]},"MapReference":{"ReferenceId":"704360943","Spot":0.0,"SideOfStreet":"left","CountryId":"20427915","StateId":"20435257","CountyId":"20435542","CityId":"20435555","DistrictId":"20435556"}}}]}]}}