{"Response":{"MetaInfo":{"Timestamp":"2020-03-28T11:48:20.410+0000","NextPageInformation":"2"},"View":[{"_type":"SearchResultsViewType","ViewId":0,"Result":[{"Relevance":1.0,"Distance":0.0,"Direction":0.0,"MatchLevel":"city","MatchQuality":{"Country":1.0,"State":1.0,"County":1.0,"City":1.0,"PostalCode":1.0},"Location":{"LocationId":"NT_VCsIHOiqCCK64rShIS0xSC","LocationType":"point","DisplayPosition":{"Latitude":50.277135,"Longitude":2.527505},"MapView":{"TopLeft":{"Latitude":50.28804,"Longitude":2.50335},"BottomRight":{"Latitude":50.24918,"Longitude":2.56292}},"Address":{"Label":"Avesnes-le-Comte, Hauts-de-France, France","Country":"FRA","State":"Hauts-de-France","County":"Pas-de-Calais","City":"Avesnes-le-Comte","PostalCode":"62810","AdditionalData":[{"value":"France","key":"CountryName"},{"value":"Hauts-de-France","key":"StateName"},{"value":"Pas-de-Calais","key":"CountyName"}]},"MapReference":{"ReferenceId":"546340476","SideOfStreet":"neither","CountryId":"20000001","StateId":"20000002","CountyId":"20030132","CityId":"20030322"}}},{"Relevance":1.0,"Distance":22.8,"MatchLevel":"houseNumber","MatchQuality":{"Country":1.0,"State":1.0,"County":1.0,"City":1.0,"Street":[1.0],"HouseNumber":1.0,"PostalCode":1.0},"MatchType":"interpolated","Location":{"LocationId":"NT_wwXxQ1X3rfX4aWNE9YgGeB_4A","LocationType":"point","DisplayPosition":{"Latitude":50.27723,"Longitude":2.52723},"MapView":{"TopLeft":{"Latitude":50.2783542,"Longitude":2.525471},"BottomRight":{"Latitude":50.2761058,"Longitude":2.528989}},"Address":{"Label":"8 Rue de la Poussinière, 62810 Avesnes-le-Comte, France","Country":"FRA","State":"Hauts-de-France","County":"Pas-de-Calais","City":"Avesnes-le-Comte","Street":"Rue de la Poussinière","HouseNumber":"8","PostalCode":"62810","AdditionalData":[{"value":"France","key":"CountryName"},{"value":"Hauts-de-France","key":"StateName"},{"value":"Pas-de-Calais","key":"CountyName"}]},"MapReference":{"ReferenceId":"546340479","Spot":0.79,"SideOfStreet":"left","CountryId":"20000001","StateId":"20000002","CountyId":"20030132","CityId":"20030322","AddressId":"323106928","RoadLinkId":"44896725"}}},{"Relevance":1.0,"Distance":25.6,"MatchLevel":"houseNumber","MatchQuality":{"Country":1.0,"State":1.0,"County":1.0,"City":1.0,"Street":[1.0],"HouseNumber":1.0,"PostalCode":1.0},"MatchType":"interpolated","Location":{"LocationId":"NT_owhu.3OUChotuVLCau5vqD_3QD","LocationType":"point","DisplayPosition":{"Latitude":50.27702,"Longitude":2.5279},"MapView":{"TopLeft":{"Latitude":50.2781442,"Longitude":2.526141},"BottomRight":{"Latitude":50.2758958,"Longitude":2.529659}},"Address":{"Label":"74 Grand Rue, 62810 Avesnes-le-Comte, France","Country":"FRA","State":"Hauts-de-France","County":"Pas-de-Calais","City":"Avesnes-le-Comte","Street":"Grand Rue","HouseNumber":"74","PostalCode":"62810","AdditionalData":[{"value":"France","key":"CountryName"},{"value":"Hauts-de-France","key":"StateName"},{"value":"Pas-de-Calais","key":"CountyName"}]},"MapReference":{"ReferenceId":"546340482","Spot":0.05,"SideOfStreet":"left","CountryId":"20000001","StateId":"20000002","CountyId":"20030132","CityId":"20030322","AddressId":"322479251","RoadLinkId":"44064332"}}},{"Relevance":1.0,"Distance":27.8,"MatchLevel":"houseNumber","MatchQuality":{"Country":1.0,"State":1.0,"County":1.0,"City":1.0,"Street":[1.0],"HouseNumber":1.0,"PostalCode":1.0},"MatchType":"interpolated","Location":{"LocationId":"NT_owhu.3OUChotuVLCau5vqD_2gD","LocationType":"point","DisplayPosition":{"Latitude":50.2769,"Longitude":2.52779},"MapView":{"TopLeft":{"Latitude":50.2780242,"Longitude":2.526031},"BottomRight":{"Latitude":50.2757758,"Longitude":2.529549}},"Address":{"Label":"68 Grand Rue, 62810 Avesnes-le-Comte, France","Country":"FRA","State":"Hauts-de-France","County":"Pas-de-Calais","City":"Avesnes-le-Comte","Street":"Grand Rue","HouseNumber":"68","PostalCode":"62810","AdditionalData":[{"value":"France","key":"CountryName"},{"value":"Hauts-de-France","key":"StateName"},{"value":"Pas-de-Calais","key":"CountyName"}]},"MapReference":{"ReferenceId":"546340229","Spot":0.82,"SideOfStreet":"left","CountryId":"20000001","StateId":"20000002","CountyId":"20030132","CityId":"20030322","AddressId":"323065555","RoadLinkId":"151831123"}}},{"Relevance":1.0,"Distance":46.2,"MatchLevel":"houseNumber","MatchQuality":{"Country":1.0,"State":1.0,"County":1.0,"City":1.0,"Street":[1.0],"HouseNumber":1.0,"PostalCode":1.0},"MatchType":"interpolated","Location":{"LocationId":"NT_SPqg0mwJ9nVDx1gKW7Dt5B_xA","LocationType":"point","DisplayPosition":{"Latitude":50.27693,"Longitude":2.52807},"MapView":{"TopLeft":{"Latitude":50.2780542,"Longitude":2.526311},"BottomRight":{"Latitude":50.2758058,"Longitude":2.529829}},"Address":{"Label":"1 Rue Zéphir Bajus, 62810 Avesnes-le-Comte, France","Country":"FRA","State":"Hauts-de-France","County":"Pas-de-Calais","City":"Avesnes-le-Comte","Street":"Rue Zéphir Bajus","HouseNumber":"1","PostalCode":"62810","AdditionalData":[{"value":"France","key":"CountryName"},{"value":"Hauts-de-France","key":"StateName"},{"value":"Pas-de-Calais","key":"CountyName"}]},"MapReference":{"ReferenceId":"546340230","Spot":0.86,"SideOfStreet":"right","CountryId":"20000001","StateId":"20000002","CountyId":"20030132","CityId":"20030322","AddressId":"323163510","RoadLinkId":"43992875"}}},{"Relevance":1.0,"Distance":53.3,"MatchLevel":"houseNumber","MatchQuality":{"Country":1.0,"State":1.0,"County":1.0,"City":1.0,"Street":[1.0],"HouseNumber":1.0,"PostalCode":1.0},"MatchType":"interpolated","Location":{"LocationId":"NT_n8-yjR52VckANBoovgZxjB_zIE","LocationType":"point","DisplayPosition":{"Latitude":50.27673,"Longitude":2.52675},"MapView":{"TopLeft":{"Latitude":50.2778542,"Longitude":2.524991},"BottomRight":{"Latitude":50.2756058,"Longitude":2.528509}},"Address":{"Label":"3B Rue de Maclou, 62810 Avesnes-le-Comte, France","Country":"FRA","State":"Hauts-de-France","County":"Pas-de-Calais","City":"Avesnes-le-Comte","Street":"Rue de Maclou","HouseNumber":"3B","PostalCode":"62810","AdditionalData":[{"value":"France","key":"CountryName"},{"value":"Hauts-de-France","key":"StateName"},{"value":"Pas-de-Calais","key":"CountyName"}]},"MapReference":{"ReferenceId":"546340478","Spot":0.6,"SideOfStreet":"right","CountryId":"20000001","StateId":"20000002","CountyId":"20030132","CityId":"20030322","AddressId":"322750361","RoadLinkId":"44081551"}}},{"Relevance":1.0,"Distance":68.6,"MatchLevel":"houseNumber","MatchQuality":{"Country":1.0,"State":1.0,"County":1.0,"City":1.0,"Street":[1.0],"HouseNumber":1.0,"PostalCode":1.0},"MatchType":"interpolated","Location":{"LocationId":"NT_owhu.3OUChotuVLCau5vqD_5QD","LocationType":"point","DisplayPosition":{"Latitude":50.27749,"Longitude":2.52829},"MapView":{"TopLeft":{"Latitude":50.2786142,"Longitude":2.526531},"BottomRight":{"Latitude":50.2763658,"Longitude":2.530049}},"Address":{"Label":"94 Grand Rue, 62810 Avesnes-le-Comte, France","Country":"FRA","State":"Hauts-de-France","County":"Pas-de-Calais","City":"Avesnes-le-Comte","Street":"Grand Rue","HouseNumber":"94","PostalCode":"62810","AdditionalData":[{"value":"France","key":"CountryName"},{"value":"Hauts-de-France","key":"StateName"},{"value":"Pas-de-Calais","key":"CountyName"}]},"MapReference":{"ReferenceId":"771941920","Spot":0.34,"SideOfStreet":"left","CountryId":"20000001","StateId":"20000002","CountyId":"20030132","CityId":"20030322","AddressId":"572687729","RoadLinkId":"165531732"}}},{"Relevance":1.0,"Distance":70.7,"MatchLevel":"houseNumber","MatchQuality":{"Country":1.0,"State":1.0,"County":1.0,"City":1.0,"Street":[1.0],"HouseNumber":1.0,"PostalCode":1.0},"MatchType":"interpolated","Location":{"LocationId":"NT_XBJgehbyvlnGKlfgJEzqVD_2A","LocationType":"point","DisplayPosition":{"Latitude":50.27779,"Longitude":2.52748},"MapView":{"TopLeft":{"Latitude":50.2789142,"Longitude":2.5257209},"BottomRight":{"Latitude":50.2766658,"Longitude":2.5292391}},"Address":{"Label":"6 Rue de la Basse-Cour, 62810 Avesnes-le-Comte, France","Country":"FRA","State":"Hauts-de-France","County":"Pas-de-Calais","City":"Avesnes-le-Comte","Street":"Rue de la Basse-Cour","HouseNumber":"6","PostalCode":"62810","AdditionalData":[{"value":"France","key":"CountryName"},{"value":"Hauts-de-France","key":"StateName"},{"value":"Pas-de-Calais","key":"CountyName"}]},"MapReference":{"ReferenceId":"546340483","Spot":0.39,"SideOfStreet":"left","CountryId":"20000001","StateId":"20000002","CountyId":"20030132","CityId":"20030322","AddressId":"572589273","RoadLinkId":"44741278"}}},{"Relevance":1.0,"Distance":78.5,"MatchLevel":"houseNumber","MatchQuality":{"Country":1.0,"State":1.0,"County":1.0,"City":1.0,"Street":[1.0],"HouseNumber":1.0,"PostalCode":1.0},"MatchType":"interpolated","Location":{"LocationId":"NT_m-cIUtcXJWS4Nm30wBhElC_yA","LocationType":"point","DisplayPosition":{"Latitude":50.27639,"Longitude":2.52767},"MapView":{"TopLeft":{"Latitude":50.2775142,"Longitude":2.525911},"BottomRight":{"Latitude":50.2752658,"Longitude":2.529429}},"Address":{"Label":"2 Rue Neuve, 62810 Avesnes-le-Comte, France","Country":"FRA","State":"Hauts-de-France","County":"Pas-de-Calais","City":"Avesnes-le-Comte","Street":"Rue Neuve","HouseNumber":"2","PostalCode":"62810","AdditionalData":[{"value":"France","key":"CountryName"},{"value":"Hauts-de-France","key":"StateName"},{"value":"Pas-de-Calais","key":"CountyName"}]},"MapReference":{"ReferenceId":"546340251","Spot":0.44,"SideOfStreet":"right","CountryId":"20000001","StateId":"20000002","CountyId":"20030132","CityId":"20030322","AddressId":"322954035","RoadLinkId":"43997140"}}},{"Relevance":1.0,"Distance":78.7,"MatchLevel":"street","MatchQuality":{"Country":1.0,"State":1.0,"County":1.0,"City":1.0,"Street":[1.0],"PostalCode":1.0},"Location":{"LocationId":"NT_owhu.3OUChotuVLCau5vqD_l_546340476_L","LocationType":"point","DisplayPosition":{"Latitude":50.27643,"Longitude":2.52741},"MapView":{"TopLeft":{"Latitude":50.27643,"Longitude":2.52732},"BottomRight":{"Latitude":50.27633,"Longitude":2.52741}},"Address":{"Label":"Grand Rue, 62810 Avesnes-le-Comte, France","Country":"FRA","State":"Hauts-de-France","County":"Pas-de-Calais","City":"Avesnes-le-Comte","Street":"Grand Rue","PostalCode":"62810","AdditionalData":[{"value":"France","key":"CountryName"},{"value":"Hauts-de-France","key":"StateName"},{"value":"Pas-de-Calais","key":"CountyName"}]},"MapReference":{"ReferenceId":"546340476","Spot":1.0,"SideOfStreet":"left","CountryId":"20000001","StateId":"20000002","CountyId":"20030132","CityId":"20030322"}}}]}]}}