{"Response":{"MetaInfo":{"Timestamp":"2020-03-28T11:29:24.441+0000","NextPageInformation":"2"},"View":[{"_type":"SearchResultsViewType","ViewId":0,"Result":[{"Relevance":1.0,"Distance":0.0,"Direction":0.0,"MatchLevel":"district","MatchQuality":{"Country":1.0,"State":1.0,"County":1.0,"City":1.0,"District":1.0,"PostalCode":1.0},"Location":{"LocationId":"NT_DkIwPzvNfz-RoJRBG4.JXA","LocationType":"point","DisplayPosition":{"Latitude":50.2166537,"Longitude":18.9840343},"MapView":{"TopLeft":{"Latitude":50.29543,"Longitude":18.91063},"BottomRight":{"Latitude":50.16354,"Longitude":19.11784}},"Address":{"Label":"Katowice, Woj. Śląskie, Polska","Country":"POL","State":"Woj. Śląskie","County":"Katowice","City":"Katowice","District":"Katowice","PostalCode":"40-022","AdditionalData":[{"value":"Polska","key":"CountryName"},{"value":"Woj. Śląskie","key":"StateName"},{"value":"Katowice","key":"CountyName"}]},"MapReference":{"ReferenceId":"1053147953","SideOfStreet":"neither","CountryId":"20624059","StateId":"20629003","CountyId":"20629028","CityId":"20629029","DistrictId":"20646719"}}},{"Relevance":1.0,"Distance":84.3,"MatchLevel":"houseNumber","MatchQuality":{"Country":1.0,"State":1.0,"County":1.0,"City":1.0,"District":1.0,"Street":[1.0],"HouseNumber":1.0,"PostalCode":1.0},"MatchType":"interpolated","Location":{"LocationId":"NT_htuf1R89EAOWgM6AN7RjhD_yED","LocationType":"point","DisplayPosition":{"Latitude":50.21729,"Longitude":18.98339},"MapView":{"TopLeft":{"Latitude":50.2184142,"Longitude":18.9816332},"BottomRight":{"Latitude":50.2161658,"Longitude":18.9851468}},"Address":{"Label":"ulica Tadeusza Kościuszki 21, 40-608 Katowice, Polska","Country":"POL","State":"Woj. Śląskie","County":"Katowice","City":"Katowice","District":"Katowice","Street":"ulica Tadeusza Kościuszki","HouseNumber":"21","PostalCode":"40-608","AdditionalData":[{"value":"Polska","key":"CountryName"},{"value":"Woj. Śląskie","key":"StateName"},{"value":"Katowice","key":"CountyName"}]},"MapReference":{"ReferenceId":"984047476","Spot":0.0,"SideOfStreet":"left","CountryId":"20624059","StateId":"20629003","CountyId":"20629028","CityId":"20629029","DistrictId":"20646719","AddressId":"222353333","RoadLinkId":"315283062"}}},{"Relevance":1.0,"Distance":85.0,"MatchLevel":"houseNumber","MatchQuality":{"Country":1.0,"State":1.0,"County":1.0,"City":1.0,"District":1.0,"Street":[1.0],"HouseNumber":1.0,"PostalCode":1.0},"MatchType":"interpolated","Location":{"LocationId":"NT_htuf1R89EAOWgM6AN7RjhD_zQTN","LocationType":"point","DisplayPosition":{"Latitude":50.21636,"Longitude":18.9854},"MapView":{"TopLeft":{"Latitude":50.2174842,"Longitude":18.9836432},"BottomRight":{"Latitude":50.2152358,"Longitude":18.9871568}},"Address":{"Label":"ulica Tadeusza Kościuszki 345, 40-608 Katowice, Polska","Country":"POL","State":"Woj. Śląskie","County":"Katowice","City":"Katowice","District":"Katowice","Street":"ulica Tadeusza Kościuszki","HouseNumber":"345","PostalCode":"40-608","AdditionalData":[{"value":"Polska","key":"CountryName"},{"value":"Woj. Śląskie","key":"StateName"},{"value":"Katowice","key":"CountyName"}]},"MapReference":{"ReferenceId":"984047478","Spot":0.0,"SideOfStreet":"right","CountryId":"20624059","StateId":"20629003","CountyId":"20629028","CityId":"20629029","DistrictId":"20646719","AddressId":"403676287","RoadLinkId":"315283064"}}},{"Relevance":1.0,"Distance":130.0,"MatchLevel":"street","MatchQuality":{"Country":1.0,"State":1.0,"County":1.0,"City":1.0,"District":1.0,"Street":[1.0],"PostalCode":1.0},"Location":{"LocationId":"NT_htuf1R89EAOWgM6AN7RjhD_l_984047477_L","LocationType":"point","DisplayPosition":{"Latitude":50.21758,"Longitude":18.98292},"MapView":{"TopLeft":{"Latitude":50.21762,"Longitude":18.98249},"BottomRight":{"Latitude":50.21758,"Longitude":18.98292}},"Address":{"Label":"ulica Tadeusza Kościuszki, 40-608 Katowice, Polska","Country":"POL","State":"Woj. Śląskie","County":"Katowice","City":"Katowice","District":"Katowice","Street":"ulica Tadeusza Kościuszki","PostalCode":"40-608","AdditionalData":[{"value":"Polska","key":"CountryName"},{"value":"Woj. Śląskie","key":"StateName"},{"value":"Katowice","key":"CountyName"}]},"MapReference":{"ReferenceId":"984047477","Spot":0.0,"SideOfStreet":"left","CountryId":"20624059","StateId":"20629003","CountyId":"20629028","CityId":"20629029","DistrictId":"20646719"}}},{"Relevance":1.0,"Distance":132.4,"MatchLevel":"houseNumber","MatchQuality":{"Country":1.0,"State":1.0,"County":1.0,"City":1.0,"District":1.0,"Street":[1.0],"HouseNumber":1.0,"PostalCode":1.0},"MatchType":"interpolated","Location":{"LocationId":"NT_XetvV-HF3dIq.4-z8wBTbD_yUD","LocationType":"point","DisplayPosition":{"Latitude":50.21828,"Longitude":18.98366},"MapView":{"TopLeft":{"Latitude":50.2194042,"Longitude":18.9819031},"BottomRight":{"Latitude":50.2171558,"Longitude":18.9854169}},"Address":{"Label":"ulica Fabryczna 25, 40-611 Katowice, Polska","Country":"POL","State":"Woj. Śląskie","County":"Katowice","City":"Katowice","District":"Katowice","Street":"ulica Fabryczna","HouseNumber":"25","PostalCode":"40-611","AdditionalData":[{"value":"Polska","key":"CountryName"},{"value":"Woj. Śląskie","key":"StateName"},{"value":"Katowice","key":"CountyName"}]},"MapReference":{"ReferenceId":"1133896493","Spot":0.94,"SideOfStreet":"left","CountryId":"20624059","StateId":"20629003","CountyId":"20629028","CityId":"20629029","DistrictId":"20646719","AddressId":"211453484","RoadLinkId":"443818262"}}},{"Relevance":1.0,"Distance":152.3,"MatchLevel":"houseNumber","MatchQuality":{"Country":1.0,"State":1.0,"County":1.0,"City":1.0,"District":1.0,"Street":[1.0],"HouseNumber":1.0,"PostalCode":1.0},"MatchType":"interpolated","Location":{"LocationId":"NT_htuf1R89EAOWgM6AN7RjhD_3gD","LocationType":"point","DisplayPosition":{"Latitude":50.21749,"Longitude":18.98234},"MapView":{"TopLeft":{"Latitude":50.2186142,"Longitude":18.9805832},"BottomRight":{"Latitude":50.2163658,"Longitude":18.9840968}},"Address":{"Label":"ulica Tadeusza Kościuszki 78, 40-608 Katowice, Polska","Country":"POL","State":"Woj. Śląskie","County":"Katowice","City":"Katowice","District":"Katowice","Street":"ulica Tadeusza Kościuszki","HouseNumber":"78","PostalCode":"40-608","AdditionalData":[{"value":"Polska","key":"CountryName"},{"value":"Woj. Śląskie","key":"StateName"},{"value":"Katowice","key":"CountyName"}]},"MapReference":{"ReferenceId":"1194041256","Spot":0.36,"SideOfStreet":"left","CountryId":"20624059","StateId":"20629003","CountyId":"20629028","CityId":"20629029","DistrictId":"20646719","AddressId":"222413452","RoadLinkId":"503977417"}}},{"Relevance":1.0,"Distance":153.7,"MatchLevel":"street","MatchQuality":{"Country":1.0,"State":1.0,"County":1.0,"City":1.0,"District":1.0,"Street":[1.0],"PostalCode":1.0},"Location":{"LocationId":"NT_8wdAPUVcCpUvvA1uC7GtOB_l_590001354_L","LocationType":"point","DisplayPosition":{"Latitude":50.21762,"Longitude":18.98249},"MapView":{"TopLeft":{"Latitude":50.21797,"Longitude":18.9818},"BottomRight":{"Latitude":50.21762,"Longitude":18.98249}},"Address":{"Label":"ulica Zadole, 40-605 Katowice, Polska","Country":"POL","State":"Woj. Śląskie","County":"Katowice","City":"Katowice","District":"Katowice","Street":"ulica Zadole","PostalCode":"40-605","AdditionalData":[{"value":"Polska","key":"CountryName"},{"value":"Woj. Śląskie","key":"StateName"},{"value":"Katowice","key":"CountyName"}]},"MapReference":{"ReferenceId":"590001354","Spot":0.0,"SideOfStreet":"left","CountryId":"20624059","StateId":"20629003","CountyId":"20629028","CityId":"20629029","DistrictId":"20646719"}}},{"Relevance":1.0,"Distance":158.5,"MatchLevel":"street","MatchQuality":{"Country":1.0,"State":1.0,"County":1.0,"City":1.0,"District":1.0,"Street":[1.0],"PostalCode":1.0},"Location":{"LocationId":"NT_joZ8RVy8L6Y5vBNn6Wc9lD_l_900932133_R","LocationType":"point","DisplayPosition":{"Latitude":50.21777,"Longitude":18.98265},"MapView":{"TopLeft":{"Latitude":50.21777,"Longitude":18.98249},"BottomRight":{"Latitude":50.21762,"Longitude":18.98265}},"Address":{"Label":"ulica Tadeusza Kościuszki, 40-600 Katowice, Polska","Country":"POL","State":"Woj. Śląskie","County":"Katowice","City":"Katowice","District":"Katowice","Street":"ulica Tadeusza Kościuszki","PostalCode":"40-600","AdditionalData":[{"value":"Polska","key":"CountryName"},{"value":"Woj. Śląskie","key":"StateName"},{"value":"Katowice","key":"CountyName"}]},"MapReference":{"ReferenceId":"900932133","Spot":1.0,"SideOfStreet":"right","CountryId":"20624059","StateId":"20629003","CountyId":"20629028","CityId":"20629029","DistrictId":"20646719"}}},{"Relevance":1.0,"Distance":168.1,"MatchLevel":"street","MatchQuality":{"Country":1.0,"State":1.0,"County":1.0,"City":1.0,"District":1.0,"Street":[1.0],"PostalCode":1.0},"Location":{"LocationId":"NT_joZ8RVy8L6Y5vBNn6Wc9lD_l_1169068203_R","LocationType":"point","DisplayPosition":{"Latitude":50.2179701,"Longitude":18.9828728},"MapView":{"TopLeft":{"Latitude":50.2181,"Longitude":18.98265},"BottomRight":{"Latitude":50.21777,"Longitude":18.98302}},"Address":{"Label":"ulica Tadeusza Kościuszki, 40-600 Katowice, Polska","Country":"POL","State":"Woj. Śląskie","County":"Katowice","City":"Katowice","District":"Katowice","Street":"ulica Tadeusza Kościuszki","PostalCode":"40-600","AdditionalData":[{"value":"Polska","key":"CountryName"},{"value":"Woj. Śląskie","key":"StateName"},{"value":"Katowice","key":"CountyName"}]},"MapReference":{"ReferenceId":"1169068203","Spot":0.6,"SideOfStreet":"right","CountryId":"20624059","StateId":"20629003","CountyId":"20629028","CityId":"20629029","DistrictId":"20646719"}}},{"Relevance":1.0,"Distance":176.3,"MatchLevel":"street","MatchQuality":{"Country":1.0,"State":1.0,"County":1.0,"City":1.0,"District":1.0,"Street":[1.0],"PostalCode":1.0},"Location":{"LocationId":"NT_zdVErA0JP-jSFFkhASFdzC_l_1169068204_R","LocationType":"point","DisplayPosition":{"Latitude":50.2181,"Longitude":18.98302},"MapView":{"TopLeft":{"Latitude":50.21828,"Longitude":18.98302},"BottomRight":{"Latitude":50.2181,"Longitude":18.98321}},"Address":{"Label":"ulica Tadeusza Kościuszki, 40-600 Katowice, Polska","Country":"POL","State":"Woj. Śląskie","County":"Katowice","City":"Katowice","District":"Katowice","Street":"ulica Tadeusza Kościuszki","PostalCode":"40-600","AdditionalData":[{"value":"Polska","key":"CountryName"},{"value":"Woj. Śląskie","key":"StateName"},{"value":"Katowice","key":"CountyName"}]},"MapReference":{"ReferenceId":"1169068204","Spot":0.0,"SideOfStreet":"right","CountryId":"20624059","StateId":"20629003","CountyId":"20629028","CityId":"20629029","DistrictId":"20646719"}}}]}]}}