{"Response":{"MetaInfo":{"Timestamp":"2020-03-28T11:30:08.251+0000","NextPageInformation":"2"},"View":[{"_type":"SearchResultsViewType","ViewId":0,"Result":[{"Relevance":1.0,"Distance":0.0,"Direction":0.0,"MatchLevel":"district","MatchQuality":{"Country":1.0,"State":1.0,"County":1.0,"City":1.0,"District":1.0,"PostalCode":1.0},"Location":{"LocationId":"NT_DkIwPzvNfz-RoJRBG4.JXA","LocationType":"point","DisplayPosition":{"Latitude":50.2270376,"Longitude":18.9592083},"MapView":{"TopLeft":{"Latitude":50.29543,"Longitude":18.91063},"BottomRight":{"Latitude":50.16354,"Longitude":19.11784}},"Address":{"Label":"Katowice, Woj. Śląskie, Polska","Country":"POL","State":"Woj. Śląskie","County":"Katowice","City":"Katowice","District":"Katowice","PostalCode":"40-022","AdditionalData":[{"value":"Polska","key":"CountryName"},{"value":"Woj. Śląskie","key":"StateName"},{"value":"Katowice","key":"CountyName"}]},"MapReference":{"ReferenceId":"1053147953","SideOfStreet":"neither","CountryId":"20624059","StateId":"20629003","CountyId":"20629028","CityId":"20629029","DistrictId":"20646719"}}},{"Relevance":1.0,"Distance":9.1,"MatchLevel":"street","MatchQuality":{"Country":1.0,"State":1.0,"County":1.0,"City":1.0,"District":1.0,"PostalCode":1.0},"Location":{"LocationId":"NT_YayFeSDwdpGSdYlIV0LuND_l_594605565_L","LocationType":"point","DisplayPosition":{"Latitude":50.227116,"Longitude":18.9592442},"MapView":{"TopLeft":{"Latitude":50.22715,"Longitude":18.95917},"BottomRight":{"Latitude":50.22693,"Longitude":18.95965}},"Address":{"Label":"40-760 Katowice, Polska","Country":"POL","State":"Woj. Śląskie","County":"Katowice","City":"Katowice","District":"Katowice","PostalCode":"40-760","AdditionalData":[{"value":"Polska","key":"CountryName"},{"value":"Woj. Śląskie","key":"StateName"},{"value":"Katowice","key":"CountyName"}]},"MapReference":{"ReferenceId":"594605565","Spot":0.85,"SideOfStreet":"left","CountryId":"20624059","StateId":"20629003","CountyId":"20629028","CityId":"20629029","DistrictId":"20646719"}}},{"Relevance":1.0,"Distance":9.4,"MatchLevel":"houseNumber","MatchQuality":{"Country":1.0,"State":1.0,"County":1.0,"City":1.0,"District":1.0,"Street":[1.0],"HouseNumber":1.0,"PostalCode":1.0},"MatchType":"interpolated","Location":{"LocationId":"NT_Q2.tZQsKRcYktsptrj6vlB_zA","LocationType":"point","DisplayPosition":{"Latitude":50.2271,"Longitude":18.95912},"MapView":{"TopLeft":{"Latitude":50.2282242,"Longitude":18.9573628},"BottomRight":{"Latitude":50.2259758,"Longitude":18.9608772}},"Address":{"Label":"ulica Medyków 3, 40-751 Katowice, Polska","Country":"POL","State":"Woj. Śląskie","County":"Katowice","City":"Katowice","District":"Katowice","Street":"ulica Medyków","HouseNumber":"3","PostalCode":"40-751","AdditionalData":[{"value":"Polska","key":"CountryName"},{"value":"Woj. Śląskie","key":"StateName"},{"value":"Katowice","key":"CountyName"}]},"MapReference":{"ReferenceId":"594605563","Spot":0.87,"SideOfStreet":"left","CountryId":"20624059","StateId":"20629003","CountyId":"20629028","CityId":"20629029","DistrictId":"20646719","AddressId":"582352333","RoadLinkId":"96099303"}}},{"Relevance":1.0,"Distance":30.2,"MatchLevel":"houseNumber","MatchQuality":{"Country":1.0,"State":1.0,"County":1.0,"City":1.0,"District":1.0,"Street":[1.0],"HouseNumber":1.0,"PostalCode":1.0},"MatchType":"interpolated","Location":{"LocationId":"NT_08XMHAgl-2.d2mOO-Hqp7C_xA","LocationType":"point","DisplayPosition":{"Latitude":50.2273,"Longitude":18.95932},"MapView":{"TopLeft":{"Latitude":50.2284242,"Longitude":18.9575628},"BottomRight":{"Latitude":50.2261758,"Longitude":18.9610772}},"Address":{"Label":"ulica Medyków 1, 40-752 Katowice, Polska","Country":"POL","State":"Woj. Śląskie","County":"Katowice","City":"Katowice","District":"Katowice","Street":"ulica Medyków","HouseNumber":"1","PostalCode":"40-752","AdditionalData":[{"value":"Polska","key":"CountryName"},{"value":"Woj. Śląskie","key":"StateName"},{"value":"Katowice","key":"CountyName"}]},"MapReference":{"ReferenceId":"594605564","Spot":0.39,"SideOfStreet":"right","CountryId":"20624059","StateId":"20629003","CountyId":"20629028","CityId":"20629029","DistrictId":"20646719","AddressId":"732139976","RoadLinkId":"96299434"}}},{"Relevance":1.0,"Distance":33.8,"MatchLevel":"houseNumber","MatchQuality":{"Country":1.0,"State":1.0,"County":1.0,"City":1.0,"District":1.0,"Street":[1.0],"HouseNumber":1.0,"PostalCode":1.0},"MatchType":"interpolated","Location":{"LocationId":"NT_BjHD7xdNv.3Ez6dz-8LqyA_2cD","LocationType":"point","DisplayPosition":{"Latitude":50.22739,"Longitude":18.95989},"MapView":{"TopLeft":{"Latitude":50.2285142,"Longitude":18.9581328},"BottomRight":{"Latitude":50.2262658,"Longitude":18.9616472}},"Address":{"Label":"ulica Panewnicka 67, 40-760 Katowice, Polska","Country":"POL","State":"Woj. Śląskie","County":"Katowice","City":"Katowice","District":"Katowice","Street":"ulica Panewnicka","HouseNumber":"67","PostalCode":"40-760","AdditionalData":[{"value":"Polska","key":"CountryName"},{"value":"Woj. Śląskie","key":"StateName"},{"value":"Katowice","key":"CountyName"}]},"MapReference":{"ReferenceId":"1052735433","Spot":0.78,"SideOfStreet":"left","CountryId":"20624059","StateId":"20629003","CountyId":"20629028","CityId":"20629029","DistrictId":"20646719","AddressId":"211466029","RoadLinkId":"372372777"}}},{"Relevance":1.0,"Distance":43.1,"MatchLevel":"street","MatchQuality":{"Country":1.0,"State":1.0,"County":1.0,"City":1.0,"District":1.0,"Street":[1.0],"PostalCode":1.0},"Location":{"LocationId":"NT_d8I4SGSA2TQpjo.VjPhXOD_l_590000220_R","LocationType":"point","DisplayPosition":{"Latitude":50.22677,"Longitude":18.95877},"MapView":{"TopLeft":{"Latitude":50.22686,"Longitude":18.95618},"BottomRight":{"Latitude":50.22677,"Longitude":18.95877}},"Address":{"Label":"ulica hetm. Jana K. Chodkiewicza, 40-764 Katowice, Polska","Country":"POL","State":"Woj. Śląskie","County":"Katowice","City":"Katowice","District":"Katowice","Street":"ulica hetm. Jana K. Chodkiewicza","PostalCode":"40-764","AdditionalData":[{"value":"Polska","key":"CountryName"},{"value":"Woj. Śląskie","key":"StateName"},{"value":"Katowice","key":"CountyName"}]},"MapReference":{"ReferenceId":"590000220","Spot":0.0,"SideOfStreet":"right","CountryId":"20624059","StateId":"20629003","CountyId":"20629028","CityId":"20629029","DistrictId":"20646719"}}},{"Relevance":1.0,"Distance":43.1,"MatchLevel":"street","MatchQuality":{"Country":1.0,"State":1.0,"County":1.0,"City":1.0,"District":1.0,"Street":[1.0],"PostalCode":1.0},"Location":{"LocationId":"NT_Q2.tZQsKRcYktsptrj6vlB_l_1053277103_R","LocationType":"point","DisplayPosition":{"Latitude":50.22677,"Longitude":18.95877},"MapView":{"TopLeft":{"Latitude":50.22677,"Longitude":18.95864},"BottomRight":{"Latitude":50.22662,"Longitude":18.95877}},"Address":{"Label":"ulica Medyków, 40-752 Katowice, Polska","Country":"POL","State":"Woj. Śląskie","County":"Katowice","City":"Katowice","District":"Katowice","Street":"ulica Medyków","PostalCode":"40-752","AdditionalData":[{"value":"Polska","key":"CountryName"},{"value":"Woj. Śląskie","key":"StateName"},{"value":"Katowice","key":"CountyName"}]},"MapReference":{"ReferenceId":"1053277103","Spot":1.0,"SideOfStreet":"right","CountryId":"20624059","StateId":"20629003","CountyId":"20629028","CityId":"20629029","DistrictId":"20646719"}}},{"Relevance":1.0,"Distance":48.1,"MatchLevel":"houseNumber","MatchQuality":{"Country":1.0,"State":1.0,"County":1.0,"City":1.0,"District":1.0,"Street":[1.0],"HouseNumber":1.0,"PostalCode":1.0},"MatchType":"interpolated","Location":{"LocationId":"NT_UEo0DgJaH7RJgvzZPSrpGB_l_828072557_L_3MD","LocationType":"point","DisplayPosition":{"Latitude":50.22759,"Longitude":18.9594134},"MapView":{"TopLeft":{"Latitude":50.2287141,"Longitude":18.9576562},"BottomRight":{"Latitude":50.2264658,"Longitude":18.9611706}},"Address":{"Label":"ulica Panewnicka 73, 40-761 Katowice, Polska","Country":"POL","State":"Woj. Śląskie","County":"Katowice","City":"Katowice","District":"Katowice","Street":"ulica Panewnicka","HouseNumber":"73","PostalCode":"40-761","AdditionalData":[{"value":"Polska","key":"CountryName"},{"value":"Woj. Śląskie","key":"StateName"},{"value":"Katowice","key":"CountyName"}]},"MapReference":{"ReferenceId":"828072557","Spot":0.53,"SideOfStreet":"left","CountryId":"20624059","StateId":"20629003","CountyId":"20629028","CityId":"20629029","DistrictId":"20646719"}}},{"Relevance":1.0,"Distance":51.7,"MatchLevel":"houseNumber","MatchQuality":{"Country":1.0,"State":1.0,"County":1.0,"City":1.0,"District":1.0,"Street":[1.0],"HouseNumber":1.0,"PostalCode":1.0},"MatchType":"interpolated","Location":{"LocationId":"NT_sGvFUTU8Sp-9hz-Pv9wrxB_3MD","LocationType":"point","DisplayPosition":{"Latitude":50.22764,"Longitude":18.95926},"MapView":{"TopLeft":{"Latitude":50.2287642,"Longitude":18.9575028},"BottomRight":{"Latitude":50.2265158,"Longitude":18.9610172}},"Address":{"Label":"ulica Panewnicka 73, 40-762 Katowice, Polska","Country":"POL","State":"Woj. Śląskie","County":"Katowice","City":"Katowice","District":"Katowice","Street":"ulica Panewnicka","HouseNumber":"73","PostalCode":"40-762","AdditionalData":[{"value":"Polska","key":"CountryName"},{"value":"Woj. Śląskie","key":"StateName"},{"value":"Katowice","key":"CountyName"}]},"MapReference":{"ReferenceId":"828072558","Spot":0.03,"SideOfStreet":"left","CountryId":"20624059","StateId":"20629003","CountyId":"20629028","CityId":"20629029","DistrictId":"20646719","AddressId":"209220807","RoadLinkId":"212755398"}}},{"Relevance":1.0,"Distance":61.6,"MatchLevel":"street","MatchQuality":{"Country":1.0,"State":1.0,"County":1.0,"City":1.0,"District":1.0,"Street":[1.0],"PostalCode":1.0},"Location":{"LocationId":"NT_Q2.tZQsKRcYktsptrj6vlB_l_1053277102_R","LocationType":"point","DisplayPosition":{"Latitude":50.22662,"Longitude":18.95864},"MapView":{"TopLeft":{"Latitude":50.22662,"Longitude":18.9585},"BottomRight":{"Latitude":50.22646,"Longitude":18.95864}},"Address":{"Label":"ulica Medyków, 40-752 Katowice, Polska","Country":"POL","State":"Woj. Śląskie","County":"Katowice","City":"Katowice","District":"Katowice","Street":"ulica Medyków","PostalCode":"40-752","AdditionalData":[{"value":"Polska","key":"CountryName"},{"value":"Woj. Śląskie","key":"StateName"},{"value":"Katowice","key":"CountyName"}]},"MapReference":{"ReferenceId":"1053277102","Spot":1.0,"SideOfStreet":"right","CountryId":"20624059","StateId":"20629003","CountyId":"20629028","CityId":"20629029","DistrictId":"20646719"}}}]}]}}