{"Response":{"MetaInfo":{"Timestamp":"2020-03-28T09:58:19.550+0000","NextPageInformation":"2"},"View":[{"_type":"SearchResultsViewType","ViewId":0,"Result":[{"Relevance":1.0,"Distance":0.0,"Direction":0.0,"MatchLevel":"district","MatchQuality":{"Country":1.0,"State":1.0,"County":1.0,"City":1.0,"District":1.0,"PostalCode":1.0},"Location":{"LocationId":"NT_gjeS.txVd8Tf9XDIfjZCeC","LocationType":"point","DisplayPosition":{"Latitude":50.2684633,"Longitude":18.9341114},"MapView":{"TopLeft":{"Latitude":50.32763,"Longitude":18.91887},"BottomRight":{"Latitude":50.2597,"Longitude":18.9841}},"Address":{"Label":"Chorzów, Woj. Śląskie, Polska","Country":"POL","State":"Woj. Śląskie","County":"Chorzów","City":"Chorzów","District":"Chorzów","PostalCode":"41-506","AdditionalData":[{"value":"Polska","key":"CountryName"},{"value":"Woj. Śląskie","key":"StateName"},{"value":"Chorzów","key":"CountyName"}]},"MapReference":{"ReferenceId":"1047691575","SideOfStreet":"neither","CountryId":"20624059","StateId":"20629003","CountyId":"20629010","CityId":"20629011","DistrictId":"20646640"}}},{"Relevance":1.0,"Distance":21.7,"MatchLevel":"houseNumber","MatchQuality":{"Country":1.0,"State":1.0,"County":1.0,"City":1.0,"District":1.0,"Street":[1.0],"HouseNumber":1.0,"PostalCode":1.0},"MatchType":"interpolated","Location":{"LocationId":"NT_wdhpdtNhTkeBtKXRczg9xB_0ID","LocationType":"point","DisplayPosition":{"Latitude":50.26821,"Longitude":18.93441},"MapView":{"TopLeft":{"Latitude":50.2693342,"Longitude":18.9326513},"BottomRight":{"Latitude":50.2670858,"Longitude":18.9361687}},"Address":{"Label":"ulica Jubileuszowa 42, 41-506 Chorzów, Polska","Country":"POL","State":"Woj. Śląskie","County":"Chorzów","City":"Chorzów","District":"Chorzów","Street":"ulica Jubileuszowa","HouseNumber":"42","PostalCode":"41-506","AdditionalData":[{"value":"Polska","key":"CountryName"},{"value":"Woj. Śląskie","key":"StateName"},{"value":"Chorzów","key":"CountyName"}]},"MapReference":{"ReferenceId":"594365345","Spot":1.0,"SideOfStreet":"right","CountryId":"20624059","StateId":"20629003","CountyId":"20629010","CityId":"20629011","DistrictId":"20646640","AddressId":"267498323","RoadLinkId":"96001771"}}},{"Relevance":1.0,"Distance":56.5,"MatchLevel":"houseNumber","MatchQuality":{"Country":1.0,"State":1.0,"County":1.0,"City":1.0,"District":1.0,"Street":[1.0],"HouseNumber":1.0,"PostalCode":1.0},"MatchType":"interpolated","Location":{"LocationId":"NT_D94VLfGHvwrpvs6m9Q.LXC_0gD","LocationType":"point","DisplayPosition":{"Latitude":50.26805,"Longitude":18.93365},"MapView":{"TopLeft":{"Latitude":50.2691742,"Longitude":18.9318913},"BottomRight":{"Latitude":50.2669258,"Longitude":18.9354087}},"Address":{"Label":"ulica ks. Józefa Czempiela 48, 41-506 Chorzów, Polska","Country":"POL","State":"Woj. Śląskie","County":"Chorzów","City":"Chorzów","District":"Chorzów","Street":"ulica ks. Józefa Czempiela","HouseNumber":"48","PostalCode":"41-506","AdditionalData":[{"value":"Polska","key":"CountryName"},{"value":"Woj. Śląskie","key":"StateName"},{"value":"Chorzów","key":"CountyName"}]},"MapReference":{"ReferenceId":"594365291","Spot":0.46,"SideOfStreet":"left","CountryId":"20624059","StateId":"20629003","CountyId":"20629010","CityId":"20629011","DistrictId":"20646640","AddressId":"222360256","RoadLinkId":"96010751"}}},{"Relevance":1.0,"Distance":58.5,"MatchLevel":"houseNumber","MatchQuality":{"Country":1.0,"State":1.0,"County":1.0,"City":1.0,"District":1.0,"Street":[1.0],"HouseNumber":1.0,"PostalCode":1.0},"MatchType":"interpolated","Location":{"LocationId":"NT_D94VLfGHvwrpvs6m9Q.LXC_0QD","LocationType":"point","DisplayPosition":{"Latitude":50.26784,"Longitude":18.93416},"MapView":{"TopLeft":{"Latitude":50.2689642,"Longitude":18.9324013},"BottomRight":{"Latitude":50.2667158,"Longitude":18.9359187}},"Address":{"Label":"ulica ks. Józefa Czempiela 44, 41-506 Chorzów, Polska","Country":"POL","State":"Woj. Śląskie","County":"Chorzów","City":"Chorzów","District":"Chorzów","Street":"ulica ks. Józefa Czempiela","HouseNumber":"44","PostalCode":"41-506","AdditionalData":[{"value":"Polska","key":"CountryName"},{"value":"Woj. Śląskie","key":"StateName"},{"value":"Chorzów","key":"CountyName"}]},"MapReference":{"ReferenceId":"594365333","Spot":0.6,"SideOfStreet":"left","CountryId":"20624059","StateId":"20629003","CountyId":"20629010","CityId":"20629011","DistrictId":"20646640","AddressId":"222419764","RoadLinkId":"96557693"}}},{"Relevance":1.0,"Distance":85.3,"MatchLevel":"houseNumber","MatchQuality":{"Country":1.0,"State":1.0,"County":1.0,"City":1.0,"District":1.0,"Street":[1.0],"HouseNumber":1.0,"PostalCode":1.0},"MatchType":"interpolated","Location":{"LocationId":"NT_wdhpdtNhTkeBtKXRczg9xB_zYD","LocationType":"point","DisplayPosition":{"Latitude":50.26741,"Longitude":18.93452},"MapView":{"TopLeft":{"Latitude":50.2685342,"Longitude":18.9327613},"BottomRight":{"Latitude":50.2662858,"Longitude":18.9362787}},"Address":{"Label":"ulica Jubileuszowa 36, 41-506 Chorzów, Polska","Country":"POL","State":"Woj. Śląskie","County":"Chorzów","City":"Chorzów","District":"Chorzów","Street":"ulica Jubileuszowa","HouseNumber":"36","PostalCode":"41-506","AdditionalData":[{"value":"Polska","key":"CountryName"},{"value":"Woj. Śląskie","key":"StateName"},{"value":"Chorzów","key":"CountyName"}]},"MapReference":{"ReferenceId":"594365373","Spot":0.19,"SideOfStreet":"left","CountryId":"20624059","StateId":"20629003","CountyId":"20629010","CityId":"20629011","DistrictId":"20646640","AddressId":"210801180","RoadLinkId":"95997826"}}},{"Relevance":1.0,"Distance":106.8,"MatchLevel":"houseNumber","MatchQuality":{"Country":1.0,"State":1.0,"County":1.0,"City":1.0,"District":1.0,"Street":[1.0],"HouseNumber":1.0,"PostalCode":1.0},"MatchType":"interpolated","Location":{"LocationId":"NT_D94VLfGHvwrpvs6m9Q.LXC_l_594365334_R_zYD","LocationType":"point","DisplayPosition":{"Latitude":50.2674833,"Longitude":18.9333567},"MapView":{"TopLeft":{"Latitude":50.2686075,"Longitude":18.931598},"BottomRight":{"Latitude":50.2663592,"Longitude":18.9351153}},"Address":{"Label":"ulica ks. Józefa Czempiela 36, 41-506 Chorzów, Polska","Country":"POL","State":"Woj. Śląskie","County":"Chorzów","City":"Chorzów","District":"Chorzów","Street":"ulica ks. Józefa Czempiela","HouseNumber":"36","PostalCode":"41-506","AdditionalData":[{"value":"Polska","key":"CountryName"},{"value":"Woj. Śląskie","key":"StateName"},{"value":"Chorzów","key":"CountyName"}]},"MapReference":{"ReferenceId":"594365334","Spot":0.56,"SideOfStreet":"right","CountryId":"20624059","StateId":"20629003","CountyId":"20629010","CityId":"20629011","DistrictId":"20646640"}}},{"Relevance":1.0,"Distance":119.7,"MatchLevel":"houseNumber","MatchQuality":{"Country":1.0,"State":1.0,"County":1.0,"City":1.0,"District":1.0,"Street":[1.0],"HouseNumber":1.0,"PostalCode":1.0},"MatchType":"interpolated","Location":{"LocationId":"NT_D94VLfGHvwrpvs6m9Q.LXC_l_594365374_R_ygD","LocationType":"point","DisplayPosition":{"Latitude":50.26726,"Longitude":18.9339067},"MapView":{"TopLeft":{"Latitude":50.2683842,"Longitude":18.932148},"BottomRight":{"Latitude":50.2661359,"Longitude":18.9356653}},"Address":{"Label":"ulica ks. Józefa Czempiela 28, 41-506 Chorzów, Polska","Country":"POL","State":"Woj. Śląskie","County":"Chorzów","City":"Chorzów","District":"Chorzów","Street":"ulica ks. Józefa Czempiela","HouseNumber":"28","PostalCode":"41-506","AdditionalData":[{"value":"Polska","key":"CountryName"},{"value":"Woj. Śląskie","key":"StateName"},{"value":"Chorzów","key":"CountyName"}]},"MapReference":{"ReferenceId":"594365374","Spot":0.56,"SideOfStreet":"right","CountryId":"20624059","StateId":"20629003","CountyId":"20629010","CityId":"20629011","DistrictId":"20646640"}}},{"Relevance":1.0,"Distance":120.0,"MatchLevel":"street","MatchQuality":{"Country":1.0,"State":1.0,"County":1.0,"City":1.0,"District":1.0,"Street":[1.0],"PostalCode":1.0},"Location":{"LocationId":"NT_D94VLfGHvwrpvs6m9Q.LXC_l_1047691568_R","LocationType":"point","DisplayPosition":{"Latitude":50.26759,"Longitude":18.93312},"MapView":{"TopLeft":{"Latitude":50.26774,"Longitude":18.93277},"BottomRight":{"Latitude":50.26759,"Longitude":18.93312}},"Address":{"Label":"ulica ks. Józefa Czempiela, 41-506 Chorzów, Polska","Country":"POL","State":"Woj. Śląskie","County":"Chorzów","City":"Chorzów","District":"Chorzów","Street":"ulica ks. Józefa Czempiela","PostalCode":"41-506","AdditionalData":[{"value":"Polska","key":"CountryName"},{"value":"Woj. Śląskie","key":"StateName"},{"value":"Chorzów","key":"CountyName"}]},"MapReference":{"ReferenceId":"1047691568","Spot":0.0,"SideOfStreet":"right","CountryId":"20624059","StateId":"20629003","CountyId":"20629010","CityId":"20629011","DistrictId":"20646640"}}},{"Relevance":1.0,"Distance":124.7,"MatchLevel":"street","MatchQuality":{"Country":1.0,"State":1.0,"County":1.0,"City":1.0,"District":1.0,"Street":[1.0],"PostalCode":1.0},"Location":{"LocationId":"NT_D94VLfGHvwrpvs6m9Q.LXC_l_1047728715_R","LocationType":"point","DisplayPosition":{"Latitude":50.26774,"Longitude":18.93277},"MapView":{"TopLeft":{"Latitude":50.2678,"Longitude":18.93265},"BottomRight":{"Latitude":50.26774,"Longitude":18.93277}},"Address":{"Label":"ulica ks. Józefa Czempiela, 41-506 Chorzów, Polska","Country":"POL","State":"Woj. Śląskie","County":"Chorzów","City":"Chorzów","District":"Chorzów","Street":"ulica ks. Józefa Czempiela","PostalCode":"41-506","AdditionalData":[{"value":"Polska","key":"CountryName"},{"value":"Woj. Śląskie","key":"StateName"},{"value":"Chorzów","key":"CountyName"}]},"MapReference":{"ReferenceId":"1047728715","Spot":0.0,"SideOfStreet":"right","CountryId":"20624059","StateId":"20629003","CountyId":"20629010","CityId":"20629011","DistrictId":"20646640"}}},{"Relevance":1.0,"Distance":127.4,"MatchLevel":"houseNumber","MatchQuality":{"Country":1.0,"State":1.0,"County":1.0,"City":1.0,"District":1.0,"Street":[1.0],"HouseNumber":1.0,"PostalCode":1.0},"MatchType":"interpolated","Location":{"LocationId":"NT_D94VLfGHvwrpvs6m9Q.LXC_1kD","LocationType":"point","DisplayPosition":{"Latitude":50.2678,"Longitude":18.93265},"MapView":{"TopLeft":{"Latitude":50.2689242,"Longitude":18.9308913},"BottomRight":{"Latitude":50.2666758,"Longitude":18.9344087}},"Address":{"Label":"ulica ks. Józefa Czempiela 59, 41-506 Chorzów, Polska","Country":"POL","State":"Woj. Śląskie","County":"Chorzów","City":"Chorzów","District":"Chorzów","Street":"ulica ks. Józefa Czempiela","HouseNumber":"59","PostalCode":"41-506","AdditionalData":[{"value":"Polska","key":"CountryName"},{"value":"Woj. Śląskie","key":"StateName"},{"value":"Chorzów","key":"CountyName"}]},"MapReference":{"ReferenceId":"1047728716","Spot":0.0,"SideOfStreet":"left","CountryId":"20624059","StateId":"20629003","CountyId":"20629010","CityId":"20629011","DistrictId":"20646640","AddressId":"222364158","RoadLinkId":"367884643"}}}]}]}}