{"Response":{"MetaInfo":{"Timestamp":"2020-03-28T11:57:21.590+0000","NextPageInformation":"2"},"View":[{"_type":"SearchResultsViewType","ViewId":0,"Result":[{"Relevance":1.0,"Distance":0.0,"Direction":0.0,"MatchLevel":"district","MatchQuality":{"Country":1.0,"State":1.0,"County":1.0,"City":1.0,"District":1.0,"PostalCode":1.0},"Location":{"LocationId":"NT_5H.Q6rgjCmCJ0UMdTyOkHB","LocationType":"point","DisplayPosition":{"Latitude":50.2142659,"Longitude":-5.2986666},"MapView":{"TopLeft":{"Latitude":50.23604,"Longitude":-5.31921},"BottomRight":{"Latitude":50.2024,"Longitude":-5.24122}},"Address":{"Label":"Camborne, England, United Kingdom","Country":"GBR","State":"England","County":"Cornwall","City":"Camborne","District":"Camborne","PostalCode":"TR14 8","AdditionalData":[{"value":"United Kingdom","key":"CountryName"},{"value":"England","key":"StateName"},{"value":"Cornwall","key":"CountyName"}]},"MapReference":{"ReferenceId":"995494159","SideOfStreet":"neither","StateId":"20248595","CountyId":"20352622","CityId":"20352756","DistrictId":"20352757"}}},{"Relevance":1.0,"Distance":1.7,"MatchLevel":"houseNumber","MatchQuality":{"Country":1.0,"State":1.0,"County":1.0,"City":1.0,"District":1.0,"Street":[1.0],"HouseNumber":1.0,"PostalCode":1.0},"MatchType":"interpolated","Location":{"LocationId":"NT_7iSKMl7Hom-pqwQUUCM9LC_l_995620949_L_yED","LocationType":"point","DisplayPosition":{"Latitude":50.2141323,"Longitude":-5.2986728},"MapView":{"TopLeft":{"Latitude":50.2152564,"Longitude":-5.3004295},"BottomRight":{"Latitude":50.2130081,"Longitude":-5.2969161}},"Address":{"Label":"21 Trelowarren Street, Camborne, TR14 8AD, United Kingdom","Country":"GBR","State":"England","County":"Cornwall","City":"Camborne","District":"Camborne","Street":"Trelowarren Street","HouseNumber":"21","PostalCode":"TR14 8AD","AdditionalData":[{"value":"United Kingdom","key":"CountryName"},{"value":"England","key":"StateName"},{"value":"Cornwall","key":"CountyName"}]},"MapReference":{"ReferenceId":"995620949","Spot":0.59,"SideOfStreet":"left","StateId":"20248595","CountyId":"20352622","CityId":"20352756","DistrictId":"20352757"}}},{"Relevance":1.0,"Distance":13.9,"MatchLevel":"postalCode","MatchQuality":{"PostalCode":1.0},"MatchType":"interpolated","Location":{"LocationId":"NT_7iSKMl7Hom-pqwQUUCM9LC_l_995620949_L_yED","LocationType":"point","DisplayPosition":{"Latitude":50.2142,"Longitude":-5.2985},"MapView":{"TopLeft":{"Latitude":50.2231932,"Longitude":-5.3125537},"BottomRight":{"Latitude":50.2052068,"Longitude":-5.2844463}},"Address":{"Label":"TR14 8AD, Camborne, England, United Kingdom","Country":"GBR","State":"England","County":"Cornwall","City":"Camborne","PostalCode":"TR14 8AD","AdditionalData":[{"value":"United Kingdom","key":"CountryName"},{"value":"England","key":"StateName"},{"value":"Cornwall","key":"CountyName"}]},"MapReference":{"ReferenceId":"995620949","Spot":0.59,"SideOfStreet":"neither","StateId":"20248595","CountyId":"20352622","CityId":"20352756"}}},{"Relevance":1.0,"Distance":38.3,"MatchLevel":"houseNumber","MatchQuality":{"Country":1.0,"State":1.0,"County":1.0,"City":1.0,"District":1.0,"Street":[1.0],"HouseNumber":1.0,"PostalCode":1.0},"MatchType":"interpolated","Location":{"LocationId":"NT_7iSKMl7Hom-pqwQUUCM9LC_l_995620950_L_zMD","LocationType":"point","DisplayPosition":{"Latitude":50.2142,"Longitude":-5.29812},"MapView":{"TopLeft":{"Latitude":50.2153242,"Longitude":-5.2998767},"BottomRight":{"Latitude":50.2130759,"Longitude":-5.2963632}},"Address":{"Label":"33 Trelowarren Street, Camborne, TR14 8AD, United Kingdom","Country":"GBR","State":"England","County":"Cornwall","City":"Camborne","District":"Camborne","Street":"Trelowarren Street","HouseNumber":"33","PostalCode":"TR14 8AD","AdditionalData":[{"value":"United Kingdom","key":"CountryName"},{"value":"England","key":"StateName"},{"value":"Cornwall","key":"CountyName"}]},"MapReference":{"ReferenceId":"995620950","Spot":0.0,"SideOfStreet":"left","StateId":"20248595","CountyId":"20352622","CityId":"20352756","DistrictId":"20352757"}}},{"Relevance":1.0,"Distance":60.1,"MatchLevel":"houseNumber","MatchQuality":{"Country":1.0,"State":1.0,"County":1.0,"City":1.0,"District":1.0,"Street":[1.0],"HouseNumber":1.0,"PostalCode":1.0},"MatchType":"interpolated","Location":{"LocationId":"NT_MNjOGIzbqPANQPAbqWhSyC_l_26636095_L_ygD","LocationType":"point","DisplayPosition":{"Latitude":50.2148801,"Longitude":-5.2982418},"MapView":{"TopLeft":{"Latitude":50.2160042,"Longitude":-5.2999986},"BottomRight":{"Latitude":50.2137559,"Longitude":-5.2964851}},"Address":{"Label":"28 Vyvyan Street, Camborne, TR14 8, United Kingdom","Country":"GBR","State":"England","County":"Cornwall","City":"Camborne","District":"Camborne","Street":"Vyvyan Street","HouseNumber":"28","PostalCode":"TR14 8","AdditionalData":[{"value":"United Kingdom","key":"CountryName"},{"value":"England","key":"StateName"},{"value":"Cornwall","key":"CountyName"}]},"MapReference":{"ReferenceId":"26636095","Spot":0.43,"SideOfStreet":"left","StateId":"20248595","CountyId":"20352622","CityId":"20352756","DistrictId":"20352757"}}},{"Relevance":1.0,"Distance":63.8,"MatchLevel":"street","MatchQuality":{"Country":1.0,"State":1.0,"County":1.0,"City":1.0,"District":1.0,"Street":[1.0],"PostalCode":1.0},"Location":{"LocationId":"NT_7iSKMl7Hom-pqwQUUCM9LC_l_26636132_L","LocationType":"point","DisplayPosition":{"Latitude":50.21425,"Longitude":-5.29777},"MapView":{"TopLeft":{"Latitude":50.21427,"Longitude":-5.29777},"BottomRight":{"Latitude":50.21425,"Longitude":-5.29767}},"Address":{"Label":"Trelowarren Street, Camborne, TR14 8, United Kingdom","Country":"GBR","State":"England","County":"Cornwall","City":"Camborne","District":"Camborne","Street":"Trelowarren Street","PostalCode":"TR14 8","AdditionalData":[{"value":"United Kingdom","key":"CountryName"},{"value":"England","key":"StateName"},{"value":"Cornwall","key":"CountyName"}]},"MapReference":{"ReferenceId":"26636132","Spot":0.0,"SideOfStreet":"left","StateId":"20248595","CountyId":"20352622","CityId":"20352756","DistrictId":"20352757"}}},{"Relevance":1.0,"Distance":63.8,"MatchLevel":"street","MatchQuality":{"Country":1.0,"State":1.0,"County":1.0,"City":1.0,"District":1.0,"Street":[1.0],"PostalCode":1.0},"Location":{"LocationId":"NT_ddZD5LK8acTQjNUlA73KzB_l_26636198_L","LocationType":"point","DisplayPosition":{"Latitude":50.21425,"Longitude":-5.29777},"MapView":{"TopLeft":{"Latitude":50.21425,"Longitude":-5.29777},"BottomRight":{"Latitude":50.21357,"Longitude":-5.2976}},"Address":{"Label":"New Connections Street, Camborne, TR14 8, United Kingdom","Country":"GBR","State":"England","County":"Cornwall","City":"Camborne","District":"Camborne","Street":"New Connections Street","PostalCode":"TR14 8","AdditionalData":[{"value":"United Kingdom","key":"CountryName"},{"value":"England","key":"StateName"},{"value":"Cornwall","key":"CountyName"}]},"MapReference":{"ReferenceId":"26636198","Spot":1.0,"SideOfStreet":"left","StateId":"20248595","CountyId":"20352622","CityId":"20352756","DistrictId":"20352757"}}},{"Relevance":1.0,"Distance":65.4,"MatchLevel":"postalCode","MatchQuality":{"PostalCode":1.0},"Location":{"LocationId":"NT_psb5Ll9eUP4jXMIeLJcWIC_l_26636136_R","LocationType":"point","DisplayPosition":{"Latitude":50.21468,"Longitude":-5.29932},"MapView":{"TopLeft":{"Latitude":50.2236732,"Longitude":-5.3133738},"BottomRight":{"Latitude":50.2056868,"Longitude":-5.2852662}},"Address":{"Label":"TR14 8AZ, Camborne, England, United Kingdom","Country":"GBR","State":"England","County":"Cornwall","City":"Camborne","PostalCode":"TR14 8AZ","AdditionalData":[{"value":"United Kingdom","key":"CountryName"},{"value":"England","key":"StateName"},{"value":"Cornwall","key":"CountyName"}]},"MapReference":{"ReferenceId":"26636136","Spot":0.57,"SideOfStreet":"neither","StateId":"20248595","CountyId":"20352622","CityId":"20352756"}}},{"Relevance":1.0,"Distance":65.6,"MatchLevel":"street","MatchQuality":{"Country":1.0,"State":1.0,"County":1.0,"City":1.0,"District":1.0,"Street":[1.0],"PostalCode":1.0},"Location":{"LocationId":"NT_iyoOFfw7TaJVSNS7EooiZC_l_577358927_R","LocationType":"point","DisplayPosition":{"Latitude":50.2139094,"Longitude":-5.2994018},"MapView":{"TopLeft":{"Latitude":50.21405,"Longitude":-5.29947},"BottomRight":{"Latitude":50.21372,"Longitude":-5.29931}},"Address":{"Label":"Commercial Square, Camborne, TR14 8, United Kingdom","Country":"GBR","State":"England","County":"Cornwall","City":"Camborne","District":"Camborne","Street":"Commercial Square","PostalCode":"TR14 8","AdditionalData":[{"value":"United Kingdom","key":"CountryName"},{"value":"England","key":"StateName"},{"value":"Cornwall","key":"CountyName"}]},"MapReference":{"ReferenceId":"577358927","Spot":0.57,"SideOfStreet":"right","StateId":"20248595","CountyId":"20352622","CityId":"20352756","DistrictId":"20352757"}}},{"Relevance":1.0,"Distance":65.8,"MatchLevel":"postalCode","MatchQuality":{"PostalCode":1.0},"MatchType":"interpolated","Location":{"LocationId":"NT_GhyUv3Gq2xyNBuQyQQEQ1A_l_26636199_L_xID","LocationType":"point","DisplayPosition":{"Latitude":50.21374,"Longitude":-5.29909},"MapView":{"TopLeft":{"Latitude":50.2227332,"Longitude":-5.3131435},"BottomRight":{"Latitude":50.2047468,"Longitude":-5.2850365}},"Address":{"Label":"TR14 8EB, Camborne, England, United Kingdom","Country":"GBR","State":"England","County":"Cornwall","City":"Camborne","PostalCode":"TR14 8EB","AdditionalData":[{"value":"United Kingdom","key":"CountryName"},{"value":"England","key":"StateName"},{"value":"Cornwall","key":"CountyName"}]},"MapReference":{"ReferenceId":"26636199","Spot":0.5,"SideOfStreet":"neither","StateId":"20248595","CountyId":"20352622","CityId":"20352756"}}}]}]}}