{"Response":{"MetaInfo":{"Timestamp":"2020-03-28T09:33:52.671+0000","NextPageInformation":"2"},"View":[{"_type":"SearchResultsViewType","ViewId":0,"Result":[{"Relevance":1.0,"Distance":0.0,"Direction":0.0,"MatchLevel":"city","MatchQuality":{"Country":1.0,"State":1.0,"County":1.0,"City":1.0,"PostalCode":1.0},"Location":{"LocationId":"NT_Tda1DFBu9-b9UivUilcVqB","LocationType":"point","DisplayPosition":{"Latitude":50.2316745,"Longitude":5.3457174},"MapView":{"TopLeft":{"Latitude":50.27899,"Longitude":5.20636},"BottomRight":{"Latitude":50.15738,"Longitude":5.47318}},"Address":{"Label":"Marche-en-Famenne, Wallonie, Belgique","Country":"BEL","State":"Wallonie","County":"Luxembourg","City":"Marche-en-Famenne","PostalCode":"6900","AdditionalData":[{"value":"Belgique","key":"CountryName"},{"value":"Wallonie","key":"StateName"},{"value":"Luxembourg","key":"CountyName"}]},"MapReference":{"ReferenceId":"60065621","SideOfStreet":"neither","CountryId":"20128886","StateId":"20205526","CountyId":"20206990","CityId":"20207124"}}},{"Relevance":1.0,"Distance":19.3,"MatchLevel":"houseNumber","MatchQuality":{"Country":1.0,"State":1.0,"County":1.0,"City":1.0,"Street":[1.0],"HouseNumber":1.0,"PostalCode":1.0},"MatchType":"interpolated","Location":{"LocationId":"NT_0KLZf-y9u2teq5uX2jnQvC_xA","LocationType":"point","DisplayPosition":{"Latitude":50.23131,"Longitude":5.34615},"MapView":{"TopLeft":{"Latitude":50.2324342,"Longitude":5.3443927},"BottomRight":{"Latitude":50.2301858,"Longitude":5.3479073}},"Address":{"Label":"Rue Erène 1, 6900 Marche-en-Famenne, Belgique","Country":"BEL","State":"Wallonie","County":"Luxembourg","City":"Marche-en-Famenne","Street":"Rue Erène","HouseNumber":"1","PostalCode":"6900","AdditionalData":[{"value":"Belgique","key":"CountryName"},{"value":"Wallonie","key":"StateName"},{"value":"Luxembourg","key":"CountyName"}]},"MapReference":{"ReferenceId":"68217924","Spot":0.51,"SideOfStreet":"left","CountryId":"20128886","StateId":"20205526","CountyId":"20206990","CityId":"20207124","AddressId":"455888880","RoadLinkId":"30596721"}}},{"Relevance":1.0,"Distance":19.7,"MatchLevel":"landmark","MatchQuality":{"Country":1.0,"State":1.0,"Name":1.0},"Location":{"LocationId":"NT_GA.RtFoQjJrwXbwZRx3zIC","LocationType":"river","Name":"La Marchette","DisplayPosition":{"Latitude":50.27455,"Longitude":5.35894},"MapView":{"TopLeft":{"Latitude":50.29718,"Longitude":5.33704},"BottomRight":{"Latitude":50.23159,"Longitude":5.39608}},"Address":{"Label":"Belgique","Country":"BEL","State":"Wallonie","AdditionalData":[{"value":"Belgique","key":"CountryName"},{"value":"Wallonie","key":"StateName"}]},"MapReference":{"CountryId":"20128886","StateId":"20205526","PlaceId":"751877435"}}},{"Relevance":1.0,"Distance":49.7,"MatchLevel":"street","MatchQuality":{"Country":1.0,"State":1.0,"County":1.0,"City":1.0,"PostalCode":1.0},"Location":{"LocationId":"NT_qQZ79KF.e2nWkpHlvD1Q4B_l_995987295_L","LocationType":"point","DisplayPosition":{"Latitude":50.23123,"Longitude":5.34579},"MapView":{"TopLeft":{"Latitude":50.23123,"Longitude":5.34508},"BottomRight":{"Latitude":50.23021,"Longitude":5.34579}},"Address":{"Label":"6900 Marche-en-Famenne, Belgique","Country":"BEL","State":"Wallonie","County":"Luxembourg","City":"Marche-en-Famenne","PostalCode":"6900","AdditionalData":[{"value":"Belgique","key":"CountryName"},{"value":"Wallonie","key":"StateName"},{"value":"Luxembourg","key":"CountyName"}]},"MapReference":{"ReferenceId":"995987295","Spot":1.0,"SideOfStreet":"left","CountryId":"20128886","StateId":"20205526","CountyId":"20206990","CityId":"20207124"}}},{"Relevance":1.0,"Distance":60.2,"MatchLevel":"street","MatchQuality":{"Country":1.0,"State":1.0,"County":1.0,"City":1.0,"Street":[1.0],"PostalCode":1.0},"Location":{"LocationId":"NT_mZsV.VsBrFw23kHCGJGxfB_l_995987296_L","LocationType":"point","DisplayPosition":{"Latitude":50.23114,"Longitude":5.34585},"MapView":{"TopLeft":{"Latitude":50.23122,"Longitude":5.34541},"BottomRight":{"Latitude":50.23016,"Longitude":5.3462}},"Address":{"Label":"Chaussée de l'Ourthe, 6900 Marche-en-Famenne, Belgique","Country":"BEL","State":"Wallonie","County":"Luxembourg","City":"Marche-en-Famenne","Street":"Chaussée de l'Ourthe","PostalCode":"6900","AdditionalData":[{"value":"Belgique","key":"CountryName"},{"value":"Wallonie","key":"StateName"},{"value":"Luxembourg","key":"CountyName"}]},"MapReference":{"ReferenceId":"995987296","Spot":0.83,"SideOfStreet":"left","CountryId":"20128886","StateId":"20205526","CountyId":"20206990","CityId":"20207124"}}},{"Relevance":1.0,"Distance":64.6,"MatchLevel":"street","MatchQuality":{"Country":1.0,"State":1.0,"County":1.0,"City":1.0,"Street":[1.0],"PostalCode":1.0},"Location":{"LocationId":"NT_0KLZf-y9u2teq5uX2jnQvC_l_53794494_L","LocationType":"point","DisplayPosition":{"Latitude":50.23138,"Longitude":5.3465},"MapView":{"TopLeft":{"Latitude":50.23138,"Longitude":5.3465},"BottomRight":{"Latitude":50.23028,"Longitude":5.347}},"Address":{"Label":"Rue Erène, 6900 Marche-en-Famenne, Belgique","Country":"BEL","State":"Wallonie","County":"Luxembourg","City":"Marche-en-Famenne","Street":"Rue Erène","PostalCode":"6900","AdditionalData":[{"value":"Belgique","key":"CountryName"},{"value":"Wallonie","key":"StateName"},{"value":"Luxembourg","key":"CountyName"}]},"MapReference":{"ReferenceId":"53794494","Spot":1.0,"SideOfStreet":"left","CountryId":"20128886","StateId":"20205526","CountyId":"20206990","CityId":"20207124"}}},{"Relevance":1.0,"Distance":67.0,"MatchLevel":"houseNumber","MatchQuality":{"Country":1.0,"State":1.0,"County":1.0,"City":1.0,"Street":[1.0],"HouseNumber":1.0,"PostalCode":1.0},"MatchType":"interpolated","Location":{"LocationId":"NT_0won7PWRXpCbs2Ujmz7BbC_ykD","LocationType":"point","DisplayPosition":{"Latitude":50.23215,"Longitude":5.34431},"MapView":{"TopLeft":{"Latitude":50.2332742,"Longitude":5.3425526},"BottomRight":{"Latitude":50.2310258,"Longitude":5.3460674}},"Address":{"Label":"Chaussée de Liège 29, 6900 Marche-en-Famenne, Belgique","Country":"BEL","State":"Wallonie","County":"Luxembourg","City":"Marche-en-Famenne","Street":"Chaussée de Liège","HouseNumber":"29","PostalCode":"6900","AdditionalData":[{"value":"Belgique","key":"CountryName"},{"value":"Wallonie","key":"StateName"},{"value":"Luxembourg","key":"CountyName"}]},"MapReference":{"ReferenceId":"1115388519","Spot":0.59,"SideOfStreet":"right","CountryId":"20128886","StateId":"20205526","CountyId":"20206990","CityId":"20207124","AddressId":"776620565","RoadLinkId":"425493965"}}},{"Relevance":1.0,"Distance":95.2,"MatchLevel":"houseNumber","MatchQuality":{"Country":1.0,"State":1.0,"County":1.0,"City":1.0,"Street":[1.0],"HouseNumber":1.0,"PostalCode":1.0},"MatchType":"interpolated","Location":{"LocationId":"NT_0won7PWRXpCbs2Ujmz7BbC_yED","LocationType":"point","DisplayPosition":{"Latitude":50.2311,"Longitude":5.34425},"MapView":{"TopLeft":{"Latitude":50.2322242,"Longitude":5.3424927},"BottomRight":{"Latitude":50.2299758,"Longitude":5.3460073}},"Address":{"Label":"Chaussée de Liège 21, 6900 Marche-en-Famenne, Belgique","Country":"BEL","State":"Wallonie","County":"Luxembourg","City":"Marche-en-Famenne","Street":"Chaussée de Liège","HouseNumber":"21","PostalCode":"6900","AdditionalData":[{"value":"Belgique","key":"CountryName"},{"value":"Wallonie","key":"StateName"},{"value":"Luxembourg","key":"CountyName"}]},"MapReference":{"ReferenceId":"1115388518","Spot":0.4,"SideOfStreet":"right","CountryId":"20128886","StateId":"20205526","CountyId":"20206990","CityId":"20207124","AddressId":"368669058","RoadLinkId":"425493962"}}},{"Relevance":1.0,"Distance":112.5,"MatchLevel":"houseNumber","MatchQuality":{"Country":1.0,"State":1.0,"County":1.0,"City":1.0,"Street":[1.0],"HouseNumber":1.0,"PostalCode":1.0},"MatchType":"interpolated","Location":{"LocationId":"NT_0won7PWRXpCbs2Ujmz7BbC_xkD","LocationType":"point","DisplayPosition":{"Latitude":50.2308,"Longitude":5.34424},"MapView":{"TopLeft":{"Latitude":50.2319242,"Longitude":5.3424827},"BottomRight":{"Latitude":50.2296758,"Longitude":5.3459973}},"Address":{"Label":"Chaussée de Liège 19, 6900 Marche-en-Famenne, Belgique","Country":"BEL","State":"Wallonie","County":"Luxembourg","City":"Marche-en-Famenne","Street":"Chaussée de Liège","HouseNumber":"19","PostalCode":"6900","AdditionalData":[{"value":"Belgique","key":"CountryName"},{"value":"Wallonie","key":"StateName"},{"value":"Luxembourg","key":"CountyName"}]},"MapReference":{"ReferenceId":"1115388517","Spot":0.39,"SideOfStreet":"right","CountryId":"20128886","StateId":"20205526","CountyId":"20206990","CityId":"20207124","AddressId":"368427588","RoadLinkId":"425493959"}}},{"Relevance":1.0,"Distance":123.1,"MatchLevel":"street","MatchQuality":{"Country":1.0,"State":1.0,"County":1.0,"City":1.0,"PostalCode":1.0},"Location":{"LocationId":"NT_qQZ79KF.e2nWkpHlvD1Q4B_l_1259956244_L","LocationType":"point","DisplayPosition":{"Latitude":50.23278,"Longitude":5.3458},"MapView":{"TopLeft":{"Latitude":50.233,"Longitude":5.34566},"BottomRight":{"Latitude":50.23278,"Longitude":5.34611}},"Address":{"Label":"6900 Marche-en-Famenne, Belgique","Country":"BEL","State":"Wallonie","County":"Luxembourg","City":"Marche-en-Famenne","PostalCode":"6900","AdditionalData":[{"value":"Belgique","key":"CountryName"},{"value":"Wallonie","key":"StateName"},{"value":"Luxembourg","key":"CountyName"}]},"MapReference":{"ReferenceId":"1259956244","Spot":0.54,"SideOfStreet":"left","CountryId":"20128886","StateId":"20205526","CountyId":"20206990","CityId":"20207124"}}}]}]}}