{"Response":{"MetaInfo":{"Timestamp":"2020-03-28T09:57:34.711+0000","NextPageInformation":"2"},"View":[{"_type":"SearchResultsViewType","ViewId":0,"Result":[{"Relevance":1.0,"Distance":0.0,"Direction":0.0,"MatchLevel":"district","MatchQuality":{"Country":1.0,"State":1.0,"County":1.0,"City":1.0,"District":1.0,"PostalCode":1.0},"Location":{"LocationId":"NT_nqV3ejFc9RoRQ3iCeD7sPC","LocationType":"point","DisplayPosition":{"Latitude":50.2724086,"Longitude":19.1259304},"MapView":{"TopLeft":{"Latitude":50.31687,"Longitude":19.07129},"BottomRight":{"Latitude":50.22556,"Longitude":19.31952}},"Address":{"Label":"Sosnowiec, Woj. Śląskie, Polska","Country":"POL","State":"Woj. Śląskie","County":"Sosnowiec","City":"Sosnowiec","District":"Sosnowiec","PostalCode":"41-214","AdditionalData":[{"value":"Polska","key":"CountryName"},{"value":"Woj. Śląskie","key":"StateName"},{"value":"Sosnowiec","key":"CountyName"}]},"MapReference":{"ReferenceId":"1076099647","SideOfStreet":"neither","CountryId":"20624059","StateId":"20629003","CountyId":"20629391","CityId":"20629392","DistrictId":"20646816"}}},{"Relevance":1.0,"Distance":6.8,"MatchLevel":"houseNumber","MatchQuality":{"Country":1.0,"State":1.0,"County":1.0,"City":1.0,"District":1.0,"Street":[1.0],"HouseNumber":1.0,"PostalCode":1.0},"MatchType":"interpolated","Location":{"LocationId":"NT_qbN7KQM.8MgyPZvQA228WC_2A","LocationType":"point","DisplayPosition":{"Latitude":50.27198,"Longitude":19.1264},"MapView":{"TopLeft":{"Latitude":50.2731042,"Longitude":19.1246412},"BottomRight":{"Latitude":50.2708558,"Longitude":19.1281588}},"Address":{"Label":"ulica Teatralna 6, 41-200 Sosnowiec, Polska","Country":"POL","State":"Woj. Śląskie","County":"Sosnowiec","City":"Sosnowiec","District":"Sosnowiec","Street":"ulica Teatralna","HouseNumber":"6","PostalCode":"41-200","AdditionalData":[{"value":"Polska","key":"CountryName"},{"value":"Woj. Śląskie","key":"StateName"},{"value":"Sosnowiec","key":"CountyName"}]},"MapReference":{"ReferenceId":"594583957","Spot":0.8,"SideOfStreet":"left","CountryId":"20624059","StateId":"20629003","CountyId":"20629391","CityId":"20629392","DistrictId":"20646816","AddressId":"209878014","RoadLinkId":"96215576"}}},{"Relevance":1.0,"Distance":50.9,"MatchLevel":"houseNumber","MatchQuality":{"Country":1.0,"State":1.0,"County":1.0,"City":1.0,"District":1.0,"Street":[1.0],"HouseNumber":1.0,"PostalCode":1.0},"MatchType":"interpolated","Location":{"LocationId":"NT_qbN7KQM.8MgyPZvQA228WC_4A","LocationType":"point","DisplayPosition":{"Latitude":50.27238,"Longitude":19.1247},"MapView":{"TopLeft":{"Latitude":50.2735042,"Longitude":19.1229411},"BottomRight":{"Latitude":50.2712558,"Longitude":19.1264589}},"Address":{"Label":"ulica Teatralna 8, 41-200 Sosnowiec, Polska","Country":"POL","State":"Woj. Śląskie","County":"Sosnowiec","City":"Sosnowiec","District":"Sosnowiec","Street":"ulica Teatralna","HouseNumber":"8","PostalCode":"41-200","AdditionalData":[{"value":"Polska","key":"CountryName"},{"value":"Woj. Śląskie","key":"StateName"},{"value":"Sosnowiec","key":"CountyName"}]},"MapReference":{"ReferenceId":"594365045","Spot":0.04,"SideOfStreet":"right","CountryId":"20624059","StateId":"20629003","CountyId":"20629391","CityId":"20629392","DistrictId":"20646816","AddressId":"209999206","RoadLinkId":"95984180"}}},{"Relevance":1.0,"Distance":61.0,"MatchLevel":"houseNumber","MatchQuality":{"Country":1.0,"State":1.0,"County":1.0,"City":1.0,"District":1.0,"Street":[1.0],"HouseNumber":1.0,"PostalCode":1.0},"MatchType":"interpolated","Location":{"LocationId":"NT_pL8czPYy2lxJnlPV1QaXEB_xMD","LocationType":"point","DisplayPosition":{"Latitude":50.27198,"Longitude":19.12716},"MapView":{"TopLeft":{"Latitude":50.2731042,"Longitude":19.1254012},"BottomRight":{"Latitude":50.2708558,"Longitude":19.1289188}},"Address":{"Label":"ulica Wspólna 13, 41-200 Sosnowiec, Polska","Country":"POL","State":"Woj. Śląskie","County":"Sosnowiec","City":"Sosnowiec","District":"Sosnowiec","Street":"ulica Wspólna","HouseNumber":"13","PostalCode":"41-200","AdditionalData":[{"value":"Polska","key":"CountryName"},{"value":"Woj. Śląskie","key":"StateName"},{"value":"Sosnowiec","key":"CountyName"}]},"MapReference":{"ReferenceId":"1235609974","Spot":0.68,"SideOfStreet":"left","CountryId":"20624059","StateId":"20629003","CountyId":"20629391","CityId":"20629392","DistrictId":"20646816","AddressId":"211409792","RoadLinkId":"556148320"}}},{"Relevance":1.0,"Distance":74.0,"MatchLevel":"street","MatchQuality":{"Country":1.0,"State":1.0,"County":1.0,"City":1.0,"District":1.0,"PostalCode":1.0},"Location":{"LocationId":"NT_RjHwXAxT3ASPcGqrz6Hc-C_l_758947325_L","LocationType":"point","DisplayPosition":{"Latitude":50.27307,"Longitude":19.12582},"MapView":{"TopLeft":{"Latitude":50.27322,"Longitude":19.12538},"BottomRight":{"Latitude":50.27307,"Longitude":19.12582}},"Address":{"Label":"41-200 Sosnowiec, Polska","Country":"POL","State":"Woj. Śląskie","County":"Sosnowiec","City":"Sosnowiec","District":"Sosnowiec","PostalCode":"41-200","AdditionalData":[{"value":"Polska","key":"CountryName"},{"value":"Woj. Śląskie","key":"StateName"},{"value":"Sosnowiec","key":"CountyName"}]},"MapReference":{"ReferenceId":"758947325","Spot":0.0,"SideOfStreet":"left","CountryId":"20624059","StateId":"20629003","CountyId":"20629391","CityId":"20629392","DistrictId":"20646816"}}},{"Relevance":1.0,"Distance":74.0,"MatchLevel":"street","MatchQuality":{"Country":1.0,"State":1.0,"County":1.0,"City":1.0,"District":1.0,"PostalCode":1.0},"Location":{"LocationId":"NT_RjHwXAxT3ASPcGqrz6Hc-C_l_758947326_R","LocationType":"point","DisplayPosition":{"Latitude":50.27307,"Longitude":19.12582},"MapView":{"TopLeft":{"Latitude":50.2737,"Longitude":19.12575},"BottomRight":{"Latitude":50.27307,"Longitude":19.12597}},"Address":{"Label":"41-200 Sosnowiec, Polska","Country":"POL","State":"Woj. Śląskie","County":"Sosnowiec","City":"Sosnowiec","District":"Sosnowiec","PostalCode":"41-200","AdditionalData":[{"value":"Polska","key":"CountryName"},{"value":"Woj. Śląskie","key":"StateName"},{"value":"Sosnowiec","key":"CountyName"}]},"MapReference":{"ReferenceId":"758947326","Spot":0.0,"SideOfStreet":"right","CountryId":"20624059","StateId":"20629003","CountyId":"20629391","CityId":"20629392","DistrictId":"20646816"}}},{"Relevance":1.0,"Distance":89.9,"MatchLevel":"street","MatchQuality":{"Country":1.0,"State":1.0,"County":1.0,"City":1.0,"District":1.0,"Street":[1.0],"PostalCode":1.0},"Location":{"LocationId":"NT_qbN7KQM.8MgyPZvQA228WC_l_594583947_R","LocationType":"point","DisplayPosition":{"Latitude":50.27234,"Longitude":19.12467},"MapView":{"TopLeft":{"Latitude":50.27234,"Longitude":19.12452},"BottomRight":{"Latitude":50.27217,"Longitude":19.12467}},"Address":{"Label":"ulica Teatralna, 41-200 Sosnowiec, Polska","Country":"POL","State":"Woj. Śląskie","County":"Sosnowiec","City":"Sosnowiec","District":"Sosnowiec","Street":"ulica Teatralna","PostalCode":"41-200","AdditionalData":[{"value":"Polska","key":"CountryName"},{"value":"Woj. Śląskie","key":"StateName"},{"value":"Sosnowiec","key":"CountyName"}]},"MapReference":{"ReferenceId":"594583947","Spot":1.0,"SideOfStreet":"right","CountryId":"20624059","StateId":"20629003","CountyId":"20629391","CityId":"20629392","DistrictId":"20646816"}}},{"Relevance":1.0,"Distance":96.3,"MatchLevel":"houseNumber","MatchQuality":{"Country":1.0,"State":1.0,"County":1.0,"City":1.0,"District":1.0,"Street":[1.0],"HouseNumber":1.0,"PostalCode":1.0},"MatchType":"interpolated","Location":{"LocationId":"NT_pL8czPYy2lxJnlPV1QaXEB_xUD","LocationType":"point","DisplayPosition":{"Latitude":50.27168,"Longitude":19.12713},"MapView":{"TopLeft":{"Latitude":50.2728042,"Longitude":19.1253712},"BottomRight":{"Latitude":50.2705558,"Longitude":19.1288888}},"Address":{"Label":"ulica Wspólna 15, 41-200 Sosnowiec, Polska","Country":"POL","State":"Woj. Śląskie","County":"Sosnowiec","City":"Sosnowiec","District":"Sosnowiec","Street":"ulica Wspólna","HouseNumber":"15","PostalCode":"41-200","AdditionalData":[{"value":"Polska","key":"CountryName"},{"value":"Woj. Śląskie","key":"StateName"},{"value":"Sosnowiec","key":"CountyName"}]},"MapReference":{"ReferenceId":"758947328","Spot":0.84,"SideOfStreet":"left","CountryId":"20624059","StateId":"20629003","CountyId":"20629391","CityId":"20629392","DistrictId":"20646816","AddressId":"209591555","RoadLinkId":"153578378"}}},{"Relevance":1.0,"Distance":102.9,"MatchLevel":"houseNumber","MatchQuality":{"Country":1.0,"State":1.0,"County":1.0,"City":1.0,"District":1.0,"Street":[1.0],"HouseNumber":1.0,"PostalCode":1.0},"MatchType":"interpolated","Location":{"LocationId":"NT_pL8czPYy2lxJnlPV1QaXEB_xETQ","LocationType":"point","DisplayPosition":{"Latitude":50.27227,"Longitude":19.12744},"MapView":{"TopLeft":{"Latitude":50.2733942,"Longitude":19.1256811},"BottomRight":{"Latitude":50.2711458,"Longitude":19.1291989}},"Address":{"Label":"ulica Wspólna 11A, 41-200 Sosnowiec, Polska","Country":"POL","State":"Woj. Śląskie","County":"Sosnowiec","City":"Sosnowiec","District":"Sosnowiec","Street":"ulica Wspólna","HouseNumber":"11A","PostalCode":"41-200","AdditionalData":[{"value":"Polska","key":"CountryName"},{"value":"Woj. Śląskie","key":"StateName"},{"value":"Sosnowiec","key":"CountyName"}]},"MapReference":{"ReferenceId":"1235609975","Spot":0.72,"SideOfStreet":"left","CountryId":"20624059","StateId":"20629003","CountyId":"20629391","CityId":"20629392","DistrictId":"20646816","AddressId":"210818614","RoadLinkId":"556148321"}}},{"Relevance":1.0,"Distance":114.7,"MatchLevel":"street","MatchQuality":{"Country":1.0,"State":1.0,"County":1.0,"City":1.0,"District":1.0,"PostalCode":1.0},"Location":{"LocationId":"NT_RjHwXAxT3ASPcGqrz6Hc-C_l_1235609980_L","LocationType":"point","DisplayPosition":{"Latitude":50.27174,"Longitude":19.12716},"MapView":{"TopLeft":{"Latitude":50.27229,"Longitude":19.12716},"BottomRight":{"Latitude":50.27174,"Longitude":19.12757}},"Address":{"Label":"41-200 Sosnowiec, Polska","Country":"POL","State":"Woj. Śląskie","County":"Sosnowiec","City":"Sosnowiec","District":"Sosnowiec","PostalCode":"41-200","AdditionalData":[{"value":"Polska","key":"CountryName"},{"value":"Woj. Śląskie","key":"StateName"},{"value":"Sosnowiec","key":"CountyName"}]},"MapReference":{"ReferenceId":"1235609980","Spot":0.0,"SideOfStreet":"left","CountryId":"20624059","StateId":"20629003","CountyId":"20629391","CityId":"20629392","DistrictId":"20646816"}}}]}]}}