{"Response":{"MetaInfo":{"Timestamp":"2020-03-28T12:06:19.579+0000","NextPageInformation":"2"},"View":[{"_type":"SearchResultsViewType","ViewId":0,"Result":[{"Relevance":1.0,"Distance":0.0,"Direction":0.0,"MatchLevel":"district","MatchQuality":{"Country":1.0,"State":1.0,"County":1.0,"City":1.0,"District":1.0,"PostalCode":1.0},"Location":{"LocationId":"NT_QnQB8m2UprP19sibeEtgmC","LocationType":"point","DisplayPosition":{"Latitude":50.3171723,"Longitude":17.3774996},"MapView":{"TopLeft":{"Latitude":50.32707,"Longitude":17.35099},"BottomRight":{"Latitude":50.30033,"Longitude":17.39884}},"Address":{"Label":"Głuchołazy, Woj. Opolskie, Polska","Country":"POL","State":"Woj. Opolskie","County":"Powiat Nyski","City":"Głuchołazy","District":"Głuchołazy","PostalCode":"48-340","AdditionalData":[{"value":"Polska","key":"CountryName"},{"value":"Woj. Opolskie","key":"StateName"},{"value":"Powiat Nyski","key":"CountyName"}]},"MapReference":{"ReferenceId":"916804214","SideOfStreet":"neither","CountryId":"20624059","StateId":"20627925","CountyId":"20628006","CityId":"20628007","DistrictId":"20690292"}}},{"Relevance":1.0,"Distance":9.5,"MatchLevel":"houseNumber","MatchQuality":{"Country":1.0,"State":1.0,"County":1.0,"City":1.0,"District":1.0,"Street":[1.0],"HouseNumber":1.0,"PostalCode":1.0},"MatchType":"interpolated","Location":{"LocationId":"NT_lwGwRPrkIT4rEWD0Ovp-DC_3IE","LocationType":"point","DisplayPosition":{"Latitude":50.31731,"Longitude":17.37766},"MapView":{"TopLeft":{"Latitude":50.3184342,"Longitude":17.3758995},"BottomRight":{"Latitude":50.3161858,"Longitude":17.3794205}},"Address":{"Label":"ulica Józefa Ignacego Kraszewskiego 7B, 48-340 Głuchołazy, Polska","Country":"POL","State":"Woj. Opolskie","County":"Powiat Nyski","City":"Głuchołazy","District":"Głuchołazy","Street":"ulica Józefa Ignacego Kraszewskiego","HouseNumber":"7B","PostalCode":"48-340","AdditionalData":[{"value":"Polska","key":"CountryName"},{"value":"Woj. Opolskie","key":"StateName"},{"value":"Powiat Nyski","key":"CountyName"}]},"MapReference":{"ReferenceId":"1172288750","Spot":0.65,"SideOfStreet":"left","CountryId":"20624059","StateId":"20627925","CountyId":"20628006","CityId":"20628007","DistrictId":"20690292","AddressId":"222315842","RoadLinkId":"479423089"}}},{"Relevance":1.0,"Distance":34.2,"MatchLevel":"street","MatchQuality":{"Country":1.0,"State":1.0,"County":1.0,"City":1.0,"District":1.0,"Street":[1.0],"PostalCode":1.0},"Location":{"LocationId":"NT_4fysu5WUFE1GzdKcqwfZzC_l_594548274_R","LocationType":"point","DisplayPosition":{"Latitude":50.3172614,"Longitude":17.3770393},"MapView":{"TopLeft":{"Latitude":50.31742,"Longitude":17.37701},"BottomRight":{"Latitude":50.31711,"Longitude":17.37707}},"Address":{"Label":"ulica Karola Miarki, 48-340 Głuchołazy, Polska","Country":"POL","State":"Woj. Opolskie","County":"Powiat Nyski","City":"Głuchołazy","District":"Głuchołazy","Street":"ulica Karola Miarki","PostalCode":"48-340","AdditionalData":[{"value":"Polska","key":"CountryName"},{"value":"Woj. Opolskie","key":"StateName"},{"value":"Powiat Nyski","key":"CountyName"}]},"MapReference":{"ReferenceId":"594548274","Spot":0.49,"SideOfStreet":"right","CountryId":"20624059","StateId":"20627925","CountyId":"20628006","CityId":"20628007","DistrictId":"20690292"}}},{"Relevance":1.0,"Distance":34.5,"MatchLevel":"houseNumber","MatchQuality":{"Country":1.0,"State":1.0,"County":1.0,"City":1.0,"District":1.0,"Street":[1.0],"HouseNumber":1.0,"PostalCode":1.0},"MatchType":"interpolated","Location":{"LocationId":"NT_lwGwRPrkIT4rEWD0Ovp-DC_xAD","LocationType":"point","DisplayPosition":{"Latitude":50.3174,"Longitude":17.37717},"MapView":{"TopLeft":{"Latitude":50.3185242,"Longitude":17.3754095},"BottomRight":{"Latitude":50.3162758,"Longitude":17.3789305}},"Address":{"Label":"ulica Józefa Ignacego Kraszewskiego 10, 48-340 Głuchołazy, Polska","Country":"POL","State":"Woj. Opolskie","County":"Powiat Nyski","City":"Głuchołazy","District":"Głuchołazy","Street":"ulica Józefa Ignacego Kraszewskiego","HouseNumber":"10","PostalCode":"48-340","AdditionalData":[{"value":"Polska","key":"CountryName"},{"value":"Woj. Opolskie","key":"StateName"},{"value":"Powiat Nyski","key":"CountyName"}]},"MapReference":{"ReferenceId":"844745860","Spot":0.6,"SideOfStreet":"right","CountryId":"20624059","StateId":"20627925","CountyId":"20628006","CityId":"20628007","DistrictId":"20690292","AddressId":"222315846","RoadLinkId":"226142168"}}},{"Relevance":1.0,"Distance":43.9,"MatchLevel":"houseNumber","MatchQuality":{"Country":1.0,"State":1.0,"County":1.0,"City":1.0,"District":1.0,"Street":[1.0],"HouseNumber":1.0,"PostalCode":1.0},"MatchType":"interpolated","Location":{"LocationId":"NT_4fysu5WUFE1GzdKcqwfZzC_xA","LocationType":"point","DisplayPosition":{"Latitude":50.31682,"Longitude":17.377},"MapView":{"TopLeft":{"Latitude":50.3179442,"Longitude":17.3752395},"BottomRight":{"Latitude":50.3156958,"Longitude":17.3787605}},"Address":{"Label":"ulica Karola Miarki 1, 48-340 Głuchołazy, Polska","Country":"POL","State":"Woj. Opolskie","County":"Powiat Nyski","City":"Głuchołazy","District":"Głuchołazy","Street":"ulica Karola Miarki","HouseNumber":"1","PostalCode":"48-340","AdditionalData":[{"value":"Polska","key":"CountryName"},{"value":"Woj. Opolskie","key":"StateName"},{"value":"Powiat Nyski","key":"CountyName"}]},"MapReference":{"ReferenceId":"983996473","Spot":0.29,"SideOfStreet":"right","CountryId":"20624059","StateId":"20627925","CountyId":"20628006","CityId":"20628007","DistrictId":"20690292","AddressId":"731862436","RoadLinkId":"315244518"}}},{"Relevance":1.0,"Distance":53.1,"MatchLevel":"houseNumber","MatchQuality":{"Country":1.0,"State":1.0,"County":1.0,"City":1.0,"District":1.0,"Street":[1.0],"HouseNumber":1.0,"PostalCode":1.0},"MatchType":"interpolated","Location":{"LocationId":"NT_ALldsmpS83IE4zqJUCsqqC_xAD","LocationType":"point","DisplayPosition":{"Latitude":50.31737,"Longitude":17.37818},"MapView":{"TopLeft":{"Latitude":50.3184942,"Longitude":17.3764195},"BottomRight":{"Latitude":50.3162458,"Longitude":17.3799405}},"Address":{"Label":"ulica Szymona Koszyka 10, 48-340 Głuchołazy, Polska","Country":"POL","State":"Woj. Opolskie","County":"Powiat Nyski","City":"Głuchołazy","District":"Głuchołazy","Street":"ulica Szymona Koszyka","HouseNumber":"10","PostalCode":"48-340","AdditionalData":[{"value":"Polska","key":"CountryName"},{"value":"Woj. Opolskie","key":"StateName"},{"value":"Powiat Nyski","key":"CountyName"}]},"MapReference":{"ReferenceId":"1205066466","Spot":0.8,"SideOfStreet":"right","CountryId":"20624059","StateId":"20627925","CountyId":"20628006","CityId":"20628007","DistrictId":"20690292","AddressId":"745728796","RoadLinkId":"518575436"}}},{"Relevance":1.0,"Distance":58.5,"MatchLevel":"houseNumber","MatchQuality":{"Country":1.0,"State":1.0,"County":1.0,"City":1.0,"District":1.0,"Street":[1.0],"HouseNumber":1.0,"PostalCode":1.0},"MatchType":"interpolated","Location":{"LocationId":"NT_lwGwRPrkIT4rEWD0Ovp-DC_xID","LocationType":"point","DisplayPosition":{"Latitude":50.31746,"Longitude":17.37681},"MapView":{"TopLeft":{"Latitude":50.3185842,"Longitude":17.3750495},"BottomRight":{"Latitude":50.3163358,"Longitude":17.3785705}},"Address":{"Label":"ulica Józefa Ignacego Kraszewskiego 12, 48-340 Głuchołazy, Polska","Country":"POL","State":"Woj. Opolskie","County":"Powiat Nyski","City":"Głuchołazy","District":"Głuchołazy","Street":"ulica Józefa Ignacego Kraszewskiego","HouseNumber":"12","PostalCode":"48-340","AdditionalData":[{"value":"Polska","key":"CountryName"},{"value":"Woj. Opolskie","key":"StateName"},{"value":"Powiat Nyski","key":"CountyName"}]},"MapReference":{"ReferenceId":"594548273","Spot":0.86,"SideOfStreet":"right","CountryId":"20624059","StateId":"20627925","CountyId":"20628006","CityId":"20628007","DistrictId":"20690292","AddressId":"222315845","RoadLinkId":"136049755"}}},{"Relevance":1.0,"Distance":61.4,"MatchLevel":"houseNumber","MatchQuality":{"Country":1.0,"State":1.0,"County":1.0,"City":1.0,"District":1.0,"Street":[1.0],"HouseNumber":1.0,"PostalCode":1.0},"MatchType":"interpolated","Location":{"LocationId":"NT_qM.GsWxs8wFGzOMgstNgnC_1A","LocationType":"point","DisplayPosition":{"Latitude":50.31711,"Longitude":17.37664},"MapView":{"TopLeft":{"Latitude":50.3182342,"Longitude":17.3748795},"BottomRight":{"Latitude":50.3159858,"Longitude":17.3784005}},"Address":{"Label":"ulica Adama Mickiewicza 5, 48-340 Głuchołazy, Polska","Country":"POL","State":"Woj. Opolskie","County":"Powiat Nyski","City":"Głuchołazy","District":"Głuchołazy","Street":"ulica Adama Mickiewicza","HouseNumber":"5","PostalCode":"48-340","AdditionalData":[{"value":"Polska","key":"CountryName"},{"value":"Woj. Opolskie","key":"StateName"},{"value":"Powiat Nyski","key":"CountyName"}]},"MapReference":{"ReferenceId":"983996472","Spot":0.56,"SideOfStreet":"right","CountryId":"20624059","StateId":"20627925","CountyId":"20628006","CityId":"20628007","DistrictId":"20690292","AddressId":"210982264","RoadLinkId":"315244516"}}},{"Relevance":1.0,"Distance":64.3,"MatchLevel":"houseNumber","MatchQuality":{"Country":1.0,"State":1.0,"County":1.0,"City":1.0,"District":1.0,"Street":[1.0],"HouseNumber":1.0,"PostalCode":1.0},"MatchType":"interpolated","Location":{"LocationId":"NT_ALldsmpS83IE4zqJUCsqqC_xcD","LocationType":"point","DisplayPosition":{"Latitude":50.31781,"Longitude":17.3777},"MapView":{"TopLeft":{"Latitude":50.3189342,"Longitude":17.3759395},"BottomRight":{"Latitude":50.3166858,"Longitude":17.3794605}},"Address":{"Label":"ulica Szymona Koszyka 17, 48-340 Głuchołazy, Polska","Country":"POL","State":"Woj. Opolskie","County":"Powiat Nyski","City":"Głuchołazy","District":"Głuchołazy","Street":"ulica Szymona Koszyka","HouseNumber":"17","PostalCode":"48-340","AdditionalData":[{"value":"Polska","key":"CountryName"},{"value":"Woj. Opolskie","key":"StateName"},{"value":"Powiat Nyski","key":"CountyName"}]},"MapReference":{"ReferenceId":"1205066467","Spot":0.87,"SideOfStreet":"left","CountryId":"20624059","StateId":"20627925","CountyId":"20628006","CityId":"20628007","DistrictId":"20690292","AddressId":"745728784","RoadLinkId":"518575437"}}},{"Relevance":1.0,"Distance":65.6,"MatchLevel":"houseNumber","MatchQuality":{"Country":1.0,"State":1.0,"County":1.0,"City":1.0,"District":1.0,"Street":[1.0],"HouseNumber":1.0,"PostalCode":1.0},"MatchType":"interpolated","Location":{"LocationId":"NT_4fysu5WUFE1GzdKcqwfZzC_yEE","LocationType":"point","DisplayPosition":{"Latitude":50.31661,"Longitude":17.377},"MapView":{"TopLeft":{"Latitude":50.3177342,"Longitude":17.3752395},"BottomRight":{"Latitude":50.3154858,"Longitude":17.3787605}},"Address":{"Label":"ulica Karola Miarki 2A, 48-340 Głuchołazy, Polska","Country":"POL","State":"Woj. Opolskie","County":"Powiat Nyski","City":"Głuchołazy","District":"Głuchołazy","Street":"ulica Karola Miarki","HouseNumber":"2A","PostalCode":"48-340","AdditionalData":[{"value":"Polska","key":"CountryName"},{"value":"Woj. Opolskie","key":"StateName"},{"value":"Powiat Nyski","key":"CountyName"}]},"MapReference":{"ReferenceId":"983996475","Spot":0.76,"SideOfStreet":"right","CountryId":"20624059","StateId":"20627925","CountyId":"20628006","CityId":"20628007","DistrictId":"20690292","AddressId":"209241238","RoadLinkId":"315244520"}}}]}]}}