{"Response":{"MetaInfo":{"Timestamp":"2020-03-28T09:33:57.251+0000","NextPageInformation":"2"},"View":[{"_type":"SearchResultsViewType","ViewId":0,"Result":[{"Relevance":1.0,"Distance":0.0,"Direction":0.0,"MatchLevel":"city","MatchQuality":{"Country":1.0,"State":1.0,"County":1.0,"City":1.0,"PostalCode":1.0},"Location":{"LocationId":"NT_muN-kVBJunxwTaTwYqMqeC","LocationType":"point","DisplayPosition":{"Latitude":50.3944485,"Longitude":5.9319839},"MapView":{"TopLeft":{"Latitude":50.4961,"Longitude":5.85061},"BottomRight":{"Latitude":50.33622,"Longitude":6.03045}},"Address":{"Label":"Stavelot, Wallonie, Belgique","Country":"BEL","State":"Wallonie","County":"Liège","City":"Stavelot","PostalCode":"4970","AdditionalData":[{"value":"Belgique","key":"CountryName"},{"value":"Wallonie","key":"StateName"},{"value":"Liège","key":"CountyName"}]},"MapReference":{"ReferenceId":"55658253","SideOfStreet":"neither","CountryId":"20128886","StateId":"20205526","CountyId":"20206134","CityId":"20206509"}}},{"Relevance":1.0,"Distance":6.1,"MatchLevel":"street","MatchQuality":{"Country":1.0,"State":1.0,"County":1.0,"City":1.0,"Street":[1.0],"PostalCode":1.0},"Location":{"LocationId":"NT_qvrMGEjaGKZpAcqJJJ1NOB_l_55658138_R","LocationType":"point","DisplayPosition":{"Latitude":50.3943992,"Longitude":5.931946},"MapView":{"TopLeft":{"Latitude":50.39445,"Longitude":5.93188},"BottomRight":{"Latitude":50.39405,"Longitude":5.9324}},"Address":{"Label":"Cour de l'Abbaye, 4970 Stavelot, Belgique","Country":"BEL","State":"Wallonie","County":"Liège","City":"Stavelot","Street":"Cour de l'Abbaye","PostalCode":"4970","AdditionalData":[{"value":"Belgique","key":"CountryName"},{"value":"Wallonie","key":"StateName"},{"value":"Liège","key":"CountyName"}]},"MapReference":{"ReferenceId":"55658138","Spot":0.87,"SideOfStreet":"right","CountryId":"20128886","StateId":"20205526","CountyId":"20206134","CityId":"20206509"}}},{"Relevance":1.0,"Distance":7.4,"MatchLevel":"street","MatchQuality":{"Country":1.0,"State":1.0,"County":1.0,"City":1.0,"Street":[1.0],"PostalCode":1.0},"Location":{"LocationId":"NT_qvrMGEjaGKZpAcqJJJ1NOB_l_55658299_R","LocationType":"point","DisplayPosition":{"Latitude":50.39445,"Longitude":5.93188},"MapView":{"TopLeft":{"Latitude":50.39473,"Longitude":5.93165},"BottomRight":{"Latitude":50.39445,"Longitude":5.93188}},"Address":{"Label":"Cour de l'Abbaye, 4970 Stavelot, Belgique","Country":"BEL","State":"Wallonie","County":"Liège","City":"Stavelot","Street":"Cour de l'Abbaye","PostalCode":"4970","AdditionalData":[{"value":"Belgique","key":"CountryName"},{"value":"Wallonie","key":"StateName"},{"value":"Liège","key":"CountyName"}]},"MapReference":{"ReferenceId":"55658299","Spot":0.0,"SideOfStreet":"right","CountryId":"20128886","StateId":"20205526","CountyId":"20206134","CityId":"20206509"}}},{"Relevance":1.0,"Distance":8.6,"MatchLevel":"houseNumber","MatchQuality":{"Country":1.0,"State":1.0,"County":1.0,"City":1.0,"Street":[1.0],"HouseNumber":1.0,"PostalCode":1.0},"MatchType":"interpolated","Location":{"LocationId":"NT_0zmKfbO65lZ2pm1ev7BAFA_2A","LocationType":"point","DisplayPosition":{"Latitude":50.39475,"Longitude":5.93168},"MapView":{"TopLeft":{"Latitude":50.3958742,"Longitude":5.9299166},"BottomRight":{"Latitude":50.3936258,"Longitude":5.9334434}},"Address":{"Label":"Avenue Ferdinand Nicolay 6, 4970 Stavelot, Belgique","Country":"BEL","State":"Wallonie","County":"Liège","City":"Stavelot","Street":"Avenue Ferdinand Nicolay","HouseNumber":"6","PostalCode":"4970","AdditionalData":[{"value":"Belgique","key":"CountryName"},{"value":"Wallonie","key":"StateName"},{"value":"Liège","key":"CountyName"}]},"MapReference":{"ReferenceId":"55658298","Spot":0.1,"SideOfStreet":"right","CountryId":"20128886","StateId":"20205526","CountyId":"20206134","CityId":"20206509","AddressId":"767420297","RoadLinkId":"30496314"}}},{"Relevance":1.0,"Distance":39.6,"MatchLevel":"houseNumber","MatchQuality":{"Country":1.0,"State":1.0,"County":1.0,"City":1.0,"Street":[1.0],"HouseNumber":1.0,"PostalCode":1.0},"MatchType":"interpolated","Location":{"LocationId":"NT_0zmKfbO65lZ2pm1ev7BAFA_xMD","LocationType":"point","DisplayPosition":{"Latitude":50.39468,"Longitude":5.93156},"MapView":{"TopLeft":{"Latitude":50.3958042,"Longitude":5.9297966},"BottomRight":{"Latitude":50.3935558,"Longitude":5.9333234}},"Address":{"Label":"Avenue Ferdinand Nicolay 13, 4970 Stavelot, Belgique","Country":"BEL","State":"Wallonie","County":"Liège","City":"Stavelot","Street":"Avenue Ferdinand Nicolay","HouseNumber":"13","PostalCode":"4970","AdditionalData":[{"value":"Belgique","key":"CountryName"},{"value":"Wallonie","key":"StateName"},{"value":"Liège","key":"CountyName"}]},"MapReference":{"ReferenceId":"55658253","Spot":0.92,"SideOfStreet":"left","CountryId":"20128886","StateId":"20205526","CountyId":"20206134","CityId":"20206509","AddressId":"673772713","RoadLinkId":"30796799"}}},{"Relevance":1.0,"Distance":40.8,"MatchLevel":"houseNumber","MatchQuality":{"Country":1.0,"State":1.0,"County":1.0,"City":1.0,"Street":[1.0],"HouseNumber":1.0,"PostalCode":1.0},"MatchType":"interpolated","Location":{"LocationId":"NT_qvrMGEjaGKZpAcqJJJ1NOB_l_55658147_L_xcD","LocationType":"point","DisplayPosition":{"Latitude":50.3939578,"Longitude":5.9321511},"MapView":{"TopLeft":{"Latitude":50.3950819,"Longitude":5.9303878},"BottomRight":{"Latitude":50.3928336,"Longitude":5.9339145}},"Address":{"Label":"Cour de l'Abbaye 17, 4970 Stavelot, Belgique","Country":"BEL","State":"Wallonie","County":"Liège","City":"Stavelot","Street":"Cour de l'Abbaye","HouseNumber":"17","PostalCode":"4970","AdditionalData":[{"value":"Belgique","key":"CountryName"},{"value":"Wallonie","key":"StateName"},{"value":"Liège","key":"CountyName"}]},"MapReference":{"ReferenceId":"55658147","Spot":0.72,"SideOfStreet":"left","CountryId":"20128886","StateId":"20205526","CountyId":"20206134","CityId":"20206509"}}},{"Relevance":1.0,"Distance":41.0,"MatchLevel":"houseNumber","MatchQuality":{"Country":1.0,"State":1.0,"County":1.0,"City":1.0,"Street":[1.0],"HouseNumber":1.0,"PostalCode":1.0},"MatchType":"interpolated","Location":{"LocationId":"NT_qvrMGEjaGKZpAcqJJJ1NOB_l_55658128_L_xcD","LocationType":"point","DisplayPosition":{"Latitude":50.394106,"Longitude":5.9325172},"MapView":{"TopLeft":{"Latitude":50.3952302,"Longitude":5.9307538},"BottomRight":{"Latitude":50.3929819,"Longitude":5.9342805}},"Address":{"Label":"Cour de l'Abbaye 17, 4970 Stavelot, Belgique","Country":"BEL","State":"Wallonie","County":"Liège","City":"Stavelot","Street":"Cour de l'Abbaye","HouseNumber":"17","PostalCode":"4970","AdditionalData":[{"value":"Belgique","key":"CountryName"},{"value":"Wallonie","key":"StateName"},{"value":"Liège","key":"CountyName"}]},"MapReference":{"ReferenceId":"55658128","Spot":0.51,"SideOfStreet":"left","CountryId":"20128886","StateId":"20205526","CountyId":"20206134","CityId":"20206509"}}},{"Relevance":1.0,"Distance":58.1,"MatchLevel":"houseNumber","MatchQuality":{"Country":1.0,"State":1.0,"County":1.0,"City":1.0,"Street":[1.0],"HouseNumber":1.0,"PostalCode":1.0},"MatchType":"interpolated","Location":{"LocationId":"NT_0zmKfbO65lZ2pm1ev7BAFA_xcD","LocationType":"point","DisplayPosition":{"Latitude":50.39497,"Longitude":5.93204},"MapView":{"TopLeft":{"Latitude":50.3960942,"Longitude":5.9302766},"BottomRight":{"Latitude":50.3938458,"Longitude":5.9338034}},"Address":{"Label":"Avenue Ferdinand Nicolay 17, 4970 Stavelot, Belgique","Country":"BEL","State":"Wallonie","County":"Liège","City":"Stavelot","Street":"Avenue Ferdinand Nicolay","HouseNumber":"17","PostalCode":"4970","AdditionalData":[{"value":"Belgique","key":"CountryName"},{"value":"Wallonie","key":"StateName"},{"value":"Liège","key":"CountyName"}]},"MapReference":{"ReferenceId":"55658254","Spot":0.17,"SideOfStreet":"left","CountryId":"20128886","StateId":"20205526","CountyId":"20206134","CityId":"20206509","AddressId":"673774262","RoadLinkId":"30503416"}}},{"Relevance":1.0,"Distance":62.4,"MatchLevel":"houseNumber","MatchQuality":{"Country":1.0,"State":1.0,"County":1.0,"City":1.0,"Street":[1.0],"HouseNumber":1.0,"PostalCode":1.0},"MatchType":"interpolated","Location":{"LocationId":"NT_IQ7BJ1ThZ5W-qDJl66r0kC_xYD","LocationType":"point","DisplayPosition":{"Latitude":50.39503,"Longitude":5.93163},"MapView":{"TopLeft":{"Latitude":50.3961542,"Longitude":5.9298666},"BottomRight":{"Latitude":50.3939058,"Longitude":5.9333934}},"Address":{"Label":"Rue Basse 16, 4970 Stavelot, Belgique","Country":"BEL","State":"Wallonie","County":"Liège","City":"Stavelot","Street":"Rue Basse","HouseNumber":"16","PostalCode":"4970","AdditionalData":[{"value":"Belgique","key":"CountryName"},{"value":"Wallonie","key":"StateName"},{"value":"Liège","key":"CountyName"}]},"MapReference":{"ReferenceId":"55658255","Spot":0.7,"SideOfStreet":"left","CountryId":"20128886","StateId":"20205526","CountyId":"20206134","CityId":"20206509","AddressId":"673774265","RoadLinkId":"30491237"}}},{"Relevance":1.0,"Distance":65.7,"MatchLevel":"houseNumber","MatchQuality":{"Country":1.0,"State":1.0,"County":1.0,"City":1.0,"Street":[1.0],"HouseNumber":1.0,"PostalCode":1.0},"MatchType":"interpolated","Location":{"LocationId":"NT_IQ7BJ1ThZ5W-qDJl66r0kC_xQD","LocationType":"point","DisplayPosition":{"Latitude":50.39503,"Longitude":5.93137},"MapView":{"TopLeft":{"Latitude":50.3961542,"Longitude":5.9296066},"BottomRight":{"Latitude":50.3939058,"Longitude":5.9331334}},"Address":{"Label":"Rue Basse 14, 4970 Stavelot, Belgique","Country":"BEL","State":"Wallonie","County":"Liège","City":"Stavelot","Street":"Rue Basse","HouseNumber":"14","PostalCode":"4970","AdditionalData":[{"value":"Belgique","key":"CountryName"},{"value":"Wallonie","key":"StateName"},{"value":"Liège","key":"CountyName"}]},"MapReference":{"ReferenceId":"55658168","Spot":0.76,"SideOfStreet":"right","CountryId":"20128886","StateId":"20205526","CountyId":"20206134","CityId":"20206509","AddressId":"673774264","RoadLinkId":"30995594"}}}]}]}}