{"Response":{"MetaInfo":{"Timestamp":"2020-03-28T10:56:47.078+0000","NextPageInformation":"2"},"View":[{"_type":"SearchResultsViewType","ViewId":0,"Result":[{"Relevance":1.0,"Distance":0.0,"Direction":0.0,"MatchLevel":"city","MatchQuality":{"Country":1.0,"State":1.0,"County":1.0,"City":1.0,"PostalCode":1.0},"Location":{"LocationId":"NT_Ags7bqYZ-FNK99yravSatA","LocationType":"point","DisplayPosition":{"Latitude":50.3962933,"Longitude":9.1186761},"MapView":{"TopLeft":{"Latitude":50.39782,"Longitude":8.98675},"BottomRight":{"Latitude":50.31566,"Longitude":9.16443}},"Address":{"Label":"Ortenberg, Hessen, Deutschland","Country":"DEU","State":"Hessen","County":"Wetteraukreis","City":"Ortenberg","PostalCode":"63683","AdditionalData":[{"value":"Deutschland","key":"CountryName"},{"value":"Hessen","key":"StateName"},{"value":"Wetteraukreis","key":"CountyName"}]},"MapReference":{"ReferenceId":"52525711","SideOfStreet":"neither","CountryId":"20147700","StateId":"20160993","CountyId":"20161959","CityId":"20162105"}}},{"Relevance":1.0,"Distance":10.5,"MatchLevel":"houseNumber","MatchQuality":{"Country":1.0,"State":1.0,"County":1.0,"City":1.0,"Street":[1.0],"HouseNumber":1.0,"PostalCode":1.0},"MatchType":"interpolated","Location":{"LocationId":"NT_zjihfqo9aaIk8riMqWCknD_4A","LocationType":"point","DisplayPosition":{"Latitude":50.39633,"Longitude":9.11854},"MapView":{"TopLeft":{"Latitude":50.3974542,"Longitude":9.1167766},"BottomRight":{"Latitude":50.3952058,"Longitude":9.1203034}},"Address":{"Label":"Hillersbach 8, 63683 Ortenberg, Deutschland","Country":"DEU","State":"Hessen","County":"Wetteraukreis","City":"Ortenberg","Street":"Hillersbach","HouseNumber":"8","PostalCode":"63683","AdditionalData":[{"value":"Deutschland","key":"CountryName"},{"value":"Hessen","key":"StateName"},{"value":"Wetteraukreis","key":"CountyName"}]},"MapReference":{"ReferenceId":"62123159","Spot":0.56,"SideOfStreet":"right","CountryId":"20147700","StateId":"20160993","CountyId":"20161959","CityId":"20162105","AddressId":"621882479","RoadLinkId":"34082216"}}},{"Relevance":1.0,"Distance":20.3,"MatchLevel":"landmark","MatchQuality":{"Country":1.0,"State":1.0,"County":1.0,"Name":1.0},"Location":{"LocationId":"NT_j6YSgRY.KUWCPHM7ggf4lB","LocationType":"lake","Name":"Stausee","DisplayPosition":{"Latitude":50.39711,"Longitude":9.11892},"MapView":{"TopLeft":{"Latitude":50.39889,"Longitude":9.11535},"BottomRight":{"Latitude":50.39533,"Longitude":9.12171}},"Address":{"Label":"Deutschland","Country":"DEU","State":"Hessen","County":"Wetteraukreis","AdditionalData":[{"value":"Deutschland","key":"CountryName"},{"value":"Hessen","key":"StateName"},{"value":"Wetteraukreis","key":"CountyName"}]},"MapReference":{"CountryId":"20147700","StateId":"20160993","CountyId":"20161959","PlaceId":"50470212"}}},{"Relevance":1.0,"Distance":65.0,"MatchLevel":"street","MatchQuality":{"Country":1.0,"State":1.0,"County":1.0,"City":1.0,"PostalCode":1.0},"Location":{"LocationId":"NT_LfogIM2i68ng4KqQ5n3qDB_l_63597308_L","LocationType":"point","DisplayPosition":{"Latitude":50.39571,"Longitude":9.11873},"MapView":{"TopLeft":{"Latitude":50.3958,"Longitude":9.11676},"BottomRight":{"Latitude":50.39544,"Longitude":9.12337}},"Address":{"Label":"63683 Ortenberg, Deutschland","Country":"DEU","State":"Hessen","County":"Wetteraukreis","City":"Ortenberg","PostalCode":"63683","AdditionalData":[{"value":"Deutschland","key":"CountryName"},{"value":"Hessen","key":"StateName"},{"value":"Wetteraukreis","key":"CountyName"}]},"MapReference":{"ReferenceId":"63597308","Spot":0.3,"SideOfStreet":"left","CountryId":"20147700","StateId":"20160993","CountyId":"20161959","CityId":"20162105"}}},{"Relevance":1.0,"Distance":117.2,"MatchLevel":"street","MatchQuality":{"Country":1.0,"State":1.0,"County":1.0,"City":1.0,"Street":[1.0],"PostalCode":1.0},"Location":{"LocationId":"NT_q4yrGLqKrd-kha5jtn.t3A_l_62123154_R","LocationType":"point","DisplayPosition":{"Latitude":50.39698,"Longitude":9.11993},"MapView":{"TopLeft":{"Latitude":50.3976,"Longitude":9.11993},"BottomRight":{"Latitude":50.39698,"Longitude":9.12107}},"Address":{"Label":"Hillersbachstraße, 63697 Hirzenhain, Deutschland","Country":"DEU","State":"Hessen","County":"Wetteraukreis","City":"Hirzenhain","Street":"Hillersbachstraße","PostalCode":"63697","AdditionalData":[{"value":"Deutschland","key":"CountryName"},{"value":"Hessen","key":"StateName"},{"value":"Wetteraukreis","key":"CountyName"}]},"MapReference":{"ReferenceId":"62123154","Spot":0.0,"SideOfStreet":"right","CountryId":"20147700","StateId":"20160993","CountyId":"20161959","CityId":"20162047"}}},{"Relevance":1.0,"Distance":165.7,"MatchLevel":"street","MatchQuality":{"Country":1.0,"State":1.0,"County":1.0,"City":1.0,"PostalCode":1.0},"Location":{"LocationId":"NT_LfogIM2i68ng4KqQ5n3qDB_l_62123162_L","LocationType":"point","DisplayPosition":{"Latitude":50.39544,"Longitude":9.11676},"MapView":{"TopLeft":{"Latitude":50.39544,"Longitude":9.11546},"BottomRight":{"Latitude":50.39501,"Longitude":9.11676}},"Address":{"Label":"63683 Ortenberg, Deutschland","Country":"DEU","State":"Hessen","County":"Wetteraukreis","City":"Ortenberg","PostalCode":"63683","AdditionalData":[{"value":"Deutschland","key":"CountryName"},{"value":"Hessen","key":"StateName"},{"value":"Wetteraukreis","key":"CountyName"}]},"MapReference":{"ReferenceId":"62123162","Spot":1.0,"SideOfStreet":"left","CountryId":"20147700","StateId":"20160993","CountyId":"20161959","CityId":"20162105"}}},{"Relevance":1.0,"Distance":193.4,"MatchLevel":"street","MatchQuality":{"Country":1.0,"State":1.0,"County":1.0,"City":1.0,"PostalCode":1.0},"Location":{"LocationId":"NT_kwj0dQX5PGwjkxJ2Qpr72D_l_62112726_R","LocationType":"point","DisplayPosition":{"Latitude":50.3975636,"Longitude":9.1168129},"MapView":{"TopLeft":{"Latitude":50.40393,"Longitude":9.10583},"BottomRight":{"Latitude":50.39583,"Longitude":9.11694}},"Address":{"Label":"63667 Nidda, Deutschland","Country":"DEU","State":"Hessen","County":"Wetteraukreis","City":"Nidda","PostalCode":"63667","AdditionalData":[{"value":"Deutschland","key":"CountryName"},{"value":"Hessen","key":"StateName"},{"value":"Wetteraukreis","key":"CountyName"}]},"MapReference":{"ReferenceId":"62112726","Spot":0.22,"SideOfStreet":"right","CountryId":"20147700","StateId":"20160993","CountyId":"20161959","CityId":"20162077"}}},{"Relevance":1.0,"Distance":223.4,"MatchLevel":"street","MatchQuality":{"Country":1.0,"State":1.0,"County":1.0,"City":1.0,"PostalCode":1.0},"Location":{"LocationId":"NT_4foPdLSlVAUFyUg5nfhuwA_l_62123156_L","LocationType":"point","DisplayPosition":{"Latitude":50.3976,"Longitude":9.12107},"MapView":{"TopLeft":{"Latitude":50.40065,"Longitude":9.12107},"BottomRight":{"Latitude":50.3976,"Longitude":9.12402}},"Address":{"Label":"63697 Hirzenhain, Deutschland","Country":"DEU","State":"Hessen","County":"Wetteraukreis","City":"Hirzenhain","PostalCode":"63697","AdditionalData":[{"value":"Deutschland","key":"CountryName"},{"value":"Hessen","key":"StateName"},{"value":"Wetteraukreis","key":"CountyName"}]},"MapReference":{"ReferenceId":"62123156","Spot":0.0,"SideOfStreet":"left","CountryId":"20147700","StateId":"20160993","CountyId":"20161959","CityId":"20162047"}}},{"Relevance":1.0,"Distance":256.3,"MatchLevel":"street","MatchQuality":{"Country":1.0,"State":1.0,"County":1.0,"City":1.0,"PostalCode":1.0},"Location":{"LocationId":"NT_LfogIM2i68ng4KqQ5n3qDB_l_63597309_L","LocationType":"point","DisplayPosition":{"Latitude":50.3940847,"Longitude":9.1197117},"MapView":{"TopLeft":{"Latitude":50.3958,"Longitude":9.10743},"BottomRight":{"Latitude":50.38779,"Longitude":9.12337}},"Address":{"Label":"63683 Ortenberg, Deutschland","Country":"DEU","State":"Hessen","County":"Wetteraukreis","City":"Ortenberg","PostalCode":"63683","AdditionalData":[{"value":"Deutschland","key":"CountryName"},{"value":"Hessen","key":"StateName"},{"value":"Wetteraukreis","key":"CountyName"}]},"MapReference":{"ReferenceId":"63597309","Spot":0.78,"SideOfStreet":"left","CountryId":"20147700","StateId":"20160993","CountyId":"20161959","CityId":"20162105"}}},{"Relevance":1.0,"Distance":257.7,"MatchLevel":"street","MatchQuality":{"Country":1.0,"State":1.0,"County":1.0,"City":1.0,"PostalCode":1.0},"Location":{"LocationId":"NT_LfogIM2i68ng4KqQ5n3qDB_l_63606520_R","LocationType":"point","DisplayPosition":{"Latitude":50.3952,"Longitude":9.11547},"MapView":{"TopLeft":{"Latitude":50.39569,"Longitude":9.11497},"BottomRight":{"Latitude":50.39502,"Longitude":9.11547}},"Address":{"Label":"63683 Ortenberg, Deutschland","Country":"DEU","State":"Hessen","County":"Wetteraukreis","City":"Ortenberg","PostalCode":"63683","AdditionalData":[{"value":"Deutschland","key":"CountryName"},{"value":"Hessen","key":"StateName"},{"value":"Wetteraukreis","key":"CountyName"}]},"MapReference":{"ReferenceId":"63606520","Spot":0.2,"SideOfStreet":"right","CountryId":"20147700","StateId":"20160993","CountyId":"20161959","CityId":"20162105"}}}]}]}}