{"Response":{"MetaInfo":{"Timestamp":"2020-03-28T11:01:08.149+0000","NextPageInformation":"2"},"View":[{"_type":"SearchResultsViewType","ViewId":0,"Result":[{"Relevance":1.0,"Distance":0.0,"Direction":0.0,"MatchLevel":"district","MatchQuality":{"Country":1.0,"State":1.0,"County":1.0,"City":1.0,"District":1.0,"PostalCode":1.0},"Location":{"LocationId":"NT_8LMr6jX-9PdDtdvPBrkr8C","LocationType":"point","DisplayPosition":{"Latitude":50.3245168,"Longitude":10.2297902},"MapView":{"TopLeft":{"Latitude":50.33485,"Longitude":10.22829},"BottomRight":{"Latitude":50.32218,"Longitude":10.25083}},"Address":{"Label":"Herschfeld, Bad Neustadt a.d. Saale, Bayern, Deutschland","Country":"DEU","State":"Bayern","County":"Rhön-Grabfeld","City":"Bad Neustadt a.d. Saale","District":"Herschfeld","PostalCode":"97616","AdditionalData":[{"value":"Deutschland","key":"CountryName"},{"value":"Bayern","key":"StateName"},{"value":"Rhön-Grabfeld","key":"CountyName"}]},"MapReference":{"ReferenceId":"541838482","SideOfStreet":"neither","CountryId":"20147700","StateId":"20177250","CountyId":"20184229","CityId":"20184233","DistrictId":"20184237"}}},{"Relevance":1.0,"Distance":4.9,"MatchLevel":"street","MatchQuality":{"Country":1.0,"State":1.0,"County":1.0,"City":1.0,"District":1.0,"PostalCode":1.0},"Location":{"LocationId":"NT_enRdSm6s0hqLFRf94vVirD_l_1258047698_L","LocationType":"point","DisplayPosition":{"Latitude":50.3244736,"Longitude":10.2298025},"MapView":{"TopLeft":{"Latitude":50.32468,"Longitude":10.22918},"BottomRight":{"Latitude":50.32378,"Longitude":10.23071}},"Address":{"Label":"97616 Bad Neustadt a.d. Saale, Deutschland","Country":"DEU","State":"Bayern","County":"Rhön-Grabfeld","City":"Bad Neustadt a.d. Saale","District":"Herschfeld","PostalCode":"97616","AdditionalData":[{"value":"Deutschland","key":"CountryName"},{"value":"Bayern","key":"StateName"},{"value":"Rhön-Grabfeld","key":"CountyName"}]},"MapReference":{"ReferenceId":"1258047698","Spot":0.5,"SideOfStreet":"left","CountryId":"20147700","StateId":"20177250","CountyId":"20184229","CityId":"20184233","DistrictId":"20184237"}}},{"Relevance":1.0,"Distance":46.0,"MatchLevel":"street","MatchQuality":{"Country":1.0,"State":1.0,"County":1.0,"City":1.0,"District":1.0,"PostalCode":1.0},"Location":{"LocationId":"NT_enRdSm6s0hqLFRf94vVirD_l_1258047692_R","LocationType":"point","DisplayPosition":{"Latitude":50.3248645,"Longitude":10.2294381},"MapView":{"TopLeft":{"Latitude":50.32628,"Longitude":10.22893},"BottomRight":{"Latitude":50.32435,"Longitude":10.23484}},"Address":{"Label":"97616 Bad Neustadt a.d. Saale, Deutschland","Country":"DEU","State":"Bayern","County":"Rhön-Grabfeld","City":"Bad Neustadt a.d. Saale","District":"Herschfeld","PostalCode":"97616","AdditionalData":[{"value":"Deutschland","key":"CountryName"},{"value":"Bayern","key":"StateName"},{"value":"Rhön-Grabfeld","key":"CountyName"}]},"MapReference":{"ReferenceId":"1258047692","Spot":0.11,"SideOfStreet":"right","CountryId":"20147700","StateId":"20177250","CountyId":"20184229","CityId":"20184233","DistrictId":"20184237"}}},{"Relevance":1.0,"Distance":63.8,"MatchLevel":"street","MatchQuality":{"Country":1.0,"State":1.0,"County":1.0,"City":1.0,"PostalCode":1.0},"Location":{"LocationId":"NT_7469IUvote7PgagbedAtYD_l_1258047693_R","LocationType":"point","DisplayPosition":{"Latitude":50.32435,"Longitude":10.22893},"MapView":{"TopLeft":{"Latitude":50.32435,"Longitude":10.22835},"BottomRight":{"Latitude":50.32398,"Longitude":10.22893}},"Address":{"Label":"97616 Bad Neustadt a.d. Saale, Deutschland","Country":"DEU","State":"Bayern","County":"Rhön-Grabfeld","City":"Bad Neustadt a.d. Saale","PostalCode":"97616","AdditionalData":[{"value":"Deutschland","key":"CountryName"},{"value":"Bayern","key":"StateName"},{"value":"Rhön-Grabfeld","key":"CountyName"}]},"MapReference":{"ReferenceId":"1258047693","Spot":1.0,"SideOfStreet":"right","CountryId":"20147700","StateId":"20177250","CountyId":"20184229","CityId":"20184233"}}},{"Relevance":1.0,"Distance":67.7,"MatchLevel":"houseNumber","MatchQuality":{"Country":1.0,"State":1.0,"County":1.0,"City":1.0,"Street":[1.0],"HouseNumber":1.0,"PostalCode":1.0},"MatchType":"interpolated","Location":{"LocationId":"NT_TprgZV.VtNJXs-vtysbvBB_3A","LocationType":"point","DisplayPosition":{"Latitude":50.32336,"Longitude":10.22986},"MapView":{"TopLeft":{"Latitude":50.3244842,"Longitude":10.2280993},"BottomRight":{"Latitude":50.3222358,"Longitude":10.2316207}},"Address":{"Label":"Salzburgweg 7, 97616 Bad Neustadt a.d. Saale, Deutschland","Country":"DEU","State":"Bayern","County":"Rhön-Grabfeld","City":"Bad Neustadt a.d. Saale","Street":"Salzburgweg","HouseNumber":"7","PostalCode":"97616","AdditionalData":[{"value":"Deutschland","key":"CountryName"},{"value":"Bayern","key":"StateName"},{"value":"Rhön-Grabfeld","key":"CountyName"}]},"MapReference":{"ReferenceId":"547342596","Spot":1.0,"SideOfStreet":"left","CountryId":"20147700","StateId":"20177250","CountyId":"20184229","CityId":"20184233","AddressId":"585289141","RoadLinkId":"33490909"}}},{"Relevance":1.0,"Distance":67.8,"MatchLevel":"street","MatchQuality":{"Country":1.0,"State":1.0,"County":1.0,"City":1.0,"District":1.0,"PostalCode":1.0},"Location":{"LocationId":"NT_enRdSm6s0hqLFRf94vVirD_l_1258047695_R","LocationType":"point","DisplayPosition":{"Latitude":50.32468,"Longitude":10.23071},"MapView":{"TopLeft":{"Latitude":50.32481,"Longitude":10.23071},"BottomRight":{"Latitude":50.32416,"Longitude":10.23214}},"Address":{"Label":"97616 Bad Neustadt a.d. Saale, Deutschland","Country":"DEU","State":"Bayern","County":"Rhön-Grabfeld","City":"Bad Neustadt a.d. Saale","District":"Herschfeld","PostalCode":"97616","AdditionalData":[{"value":"Deutschland","key":"CountryName"},{"value":"Bayern","key":"StateName"},{"value":"Rhön-Grabfeld","key":"CountyName"}]},"MapReference":{"ReferenceId":"1258047695","Spot":1.0,"SideOfStreet":"right","CountryId":"20147700","StateId":"20177250","CountyId":"20184229","CityId":"20184233","DistrictId":"20184237"}}},{"Relevance":1.0,"Distance":72.3,"MatchLevel":"street","MatchQuality":{"Country":1.0,"State":1.0,"County":1.0,"City":1.0,"District":1.0,"PostalCode":1.0},"Location":{"LocationId":"NT_enRdSm6s0hqLFRf94vVirD_l_1258047694_L","LocationType":"point","DisplayPosition":{"Latitude":50.32405,"Longitude":10.2305},"MapView":{"TopLeft":{"Latitude":50.32468,"Longitude":10.22986},"BottomRight":{"Latitude":50.32336,"Longitude":10.23072}},"Address":{"Label":"97616 Bad Neustadt a.d. Saale, Deutschland","Country":"DEU","State":"Bayern","County":"Rhön-Grabfeld","City":"Bad Neustadt a.d. Saale","District":"Herschfeld","PostalCode":"97616","AdditionalData":[{"value":"Deutschland","key":"CountryName"},{"value":"Bayern","key":"StateName"},{"value":"Rhön-Grabfeld","key":"CountyName"}]},"MapReference":{"ReferenceId":"1258047694","Spot":0.6,"SideOfStreet":"left","CountryId":"20147700","StateId":"20177250","CountyId":"20184229","CityId":"20184233","DistrictId":"20184237"}}},{"Relevance":1.0,"Distance":78.3,"MatchLevel":"street","MatchQuality":{"Country":1.0,"State":1.0,"County":1.0,"City":1.0,"PostalCode":1.0},"Location":{"LocationId":"NT_7469IUvote7PgagbedAtYD_l_1259026197_R","LocationType":"point","DisplayPosition":{"Latitude":50.3248,"Longitude":10.22878},"MapView":{"TopLeft":{"Latitude":50.3248,"Longitude":10.22835},"BottomRight":{"Latitude":50.32398,"Longitude":10.22878}},"Address":{"Label":"97616 Bad Neustadt a.d. Saale, Deutschland","Country":"DEU","State":"Bayern","County":"Rhön-Grabfeld","City":"Bad Neustadt a.d. Saale","PostalCode":"97616","AdditionalData":[{"value":"Deutschland","key":"CountryName"},{"value":"Bayern","key":"StateName"},{"value":"Rhön-Grabfeld","key":"CountyName"}]},"MapReference":{"ReferenceId":"1259026197","Spot":1.0,"SideOfStreet":"right","CountryId":"20147700","StateId":"20177250","CountyId":"20184229","CityId":"20184233"}}},{"Relevance":1.0,"Distance":88.3,"MatchLevel":"street","MatchQuality":{"Country":1.0,"State":1.0,"County":1.0,"City":1.0,"District":1.0,"PostalCode":1.0},"Location":{"LocationId":"NT_enRdSm6s0hqLFRf94vVirD_l_541839564_R","LocationType":"point","DisplayPosition":{"Latitude":50.3251446,"Longitude":10.2290279},"MapView":{"TopLeft":{"Latitude":50.3266,"Longitude":10.22878},"BottomRight":{"Latitude":50.3248,"Longitude":10.2342}},"Address":{"Label":"97616 Bad Neustadt a.d. Saale, Deutschland","Country":"DEU","State":"Bayern","County":"Rhön-Grabfeld","City":"Bad Neustadt a.d. Saale","District":"Herschfeld","PostalCode":"97616","AdditionalData":[{"value":"Deutschland","key":"CountryName"},{"value":"Bayern","key":"StateName"},{"value":"Rhön-Grabfeld","key":"CountyName"}]},"MapReference":{"ReferenceId":"541839564","Spot":0.07,"SideOfStreet":"right","CountryId":"20147700","StateId":"20177250","CountyId":"20184229","CityId":"20184233","DistrictId":"20184237"}}},{"Relevance":1.0,"Distance":92.7,"MatchLevel":"street","MatchQuality":{"Country":1.0,"State":1.0,"County":1.0,"City":1.0,"PostalCode":1.0},"Location":{"LocationId":"NT_7469IUvote7PgagbedAtYD_l_1258047701_L","LocationType":"point","DisplayPosition":{"Latitude":50.32378,"Longitude":10.22918},"MapView":{"TopLeft":{"Latitude":50.32378,"Longitude":10.22807},"BottomRight":{"Latitude":50.32263,"Longitude":10.22918}},"Address":{"Label":"97616 Bad Neustadt a.d. Saale, Deutschland","Country":"DEU","State":"Bayern","County":"Rhön-Grabfeld","City":"Bad Neustadt a.d. Saale","PostalCode":"97616","AdditionalData":[{"value":"Deutschland","key":"CountryName"},{"value":"Bayern","key":"StateName"},{"value":"Rhön-Grabfeld","key":"CountyName"}]},"MapReference":{"ReferenceId":"1258047701","Spot":1.0,"SideOfStreet":"left","CountryId":"20147700","StateId":"20177250","CountyId":"20184229","CityId":"20184233"}}}]}]}}