{"Response":{"MetaInfo":{"Timestamp":"2020-03-28T10:05:46.597+0000","NextPageInformation":"2"},"View":[{"_type":"SearchResultsViewType","ViewId":0,"Result":[{"Relevance":1.0,"Distance":0.0,"Direction":0.0,"MatchLevel":"district","MatchQuality":{"Country":1.0,"State":1.0,"County":1.0,"City":1.0,"District":1.0,"PostalCode":1.0},"Location":{"LocationId":"NT_rOQ-wZpMkmydPUvKhUyNND","LocationType":"point","DisplayPosition":{"Latitude":50.3166846,"Longitude":7.8048148},"MapView":{"TopLeft":{"Latitude":50.32377,"Longitude":7.78545},"BottomRight":{"Latitude":50.30774,"Longitude":7.81297}},"Address":{"Label":"Nassau, Rheinland-Pfalz, Deutschland","Country":"DEU","State":"Rheinland-Pfalz","County":"Rhein-Lahn-Kreis","City":"Nassau","District":"Nassau","PostalCode":"56377","AdditionalData":[{"value":"Deutschland","key":"CountryName"},{"value":"Rheinland-Pfalz","key":"StateName"},{"value":"Rhein-Lahn-Kreis","key":"CountyName"}]},"MapReference":{"ReferenceId":"763909700","SideOfStreet":"neither","CountryId":"20147700","StateId":"20164001","CountyId":"20166538","CityId":"20166800","DistrictId":"20166803"}}},{"Relevance":1.0,"Distance":13.2,"MatchLevel":"houseNumber","MatchQuality":{"Country":1.0,"State":1.0,"County":1.0,"City":1.0,"District":1.0,"Street":[1.0],"HouseNumber":1.0,"PostalCode":1.0},"MatchType":"interpolated","Location":{"LocationId":"NT_vJkK82Y0TgV0PMc1QJpFPA_xA","LocationType":"point","DisplayPosition":{"Latitude":50.31687,"Longitude":7.80491},"MapView":{"TopLeft":{"Latitude":50.3179942,"Longitude":7.8031495},"BottomRight":{"Latitude":50.3157458,"Longitude":7.8066705}},"Address":{"Label":"Zur Schlimmeich 1, 56377 Nassau, Deutschland","Country":"DEU","State":"Rheinland-Pfalz","County":"Rhein-Lahn-Kreis","City":"Nassau","District":"Nassau","Street":"Zur Schlimmeich","HouseNumber":"1","PostalCode":"56377","AdditionalData":[{"value":"Deutschland","key":"CountryName"},{"value":"Rheinland-Pfalz","key":"StateName"},{"value":"Rhein-Lahn-Kreis","key":"CountyName"}]},"MapReference":{"ReferenceId":"548452778","Spot":0.58,"SideOfStreet":"left","CountryId":"20147700","StateId":"20164001","CountyId":"20166538","CityId":"20166800","DistrictId":"20166803","AddressId":"188713727","RoadLinkId":"34506423"}}},{"Relevance":1.0,"Distance":22.4,"MatchLevel":"houseNumber","MatchQuality":{"Country":1.0,"State":1.0,"County":1.0,"City":1.0,"District":1.0,"Street":[1.0],"HouseNumber":1.0,"PostalCode":1.0},"MatchType":"interpolated","Location":{"LocationId":"NT_qpkqGri.P4PmjuscDucBpB_1A","LocationType":"point","DisplayPosition":{"Latitude":50.31641,"Longitude":7.80432},"MapView":{"TopLeft":{"Latitude":50.3175342,"Longitude":7.8025595},"BottomRight":{"Latitude":50.3152858,"Longitude":7.8060805}},"Address":{"Label":"Oberer Hallgarten 5, 56377 Nassau, Deutschland","Country":"DEU","State":"Rheinland-Pfalz","County":"Rhein-Lahn-Kreis","City":"Nassau","District":"Nassau","Street":"Oberer Hallgarten","HouseNumber":"5","PostalCode":"56377","AdditionalData":[{"value":"Deutschland","key":"CountryName"},{"value":"Rheinland-Pfalz","key":"StateName"},{"value":"Rhein-Lahn-Kreis","key":"CountyName"}]},"MapReference":{"ReferenceId":"548452982","Spot":0.23,"SideOfStreet":"right","CountryId":"20147700","StateId":"20164001","CountyId":"20166538","CityId":"20166800","DistrictId":"20166803","AddressId":"188496506","RoadLinkId":"34350284"}}},{"Relevance":1.0,"Distance":27.6,"MatchLevel":"street","MatchQuality":{"Country":1.0,"State":1.0,"County":1.0,"City":1.0,"District":1.0,"Street":[1.0],"PostalCode":1.0},"Location":{"LocationId":"NT_UrtcBjlemPtJn8ikxQAoGB_l_548452740_L","LocationType":"point","DisplayPosition":{"Latitude":50.31681,"Longitude":7.80515},"MapView":{"TopLeft":{"Latitude":50.31698,"Longitude":7.80515},"BottomRight":{"Latitude":50.31681,"Longitude":7.80524}},"Address":{"Label":"Zum Heidchen, 56377 Nassau, Deutschland","Country":"DEU","State":"Rheinland-Pfalz","County":"Rhein-Lahn-Kreis","City":"Nassau","District":"Nassau","Street":"Zum Heidchen","PostalCode":"56377","AdditionalData":[{"value":"Deutschland","key":"CountryName"},{"value":"Rheinland-Pfalz","key":"StateName"},{"value":"Rhein-Lahn-Kreis","key":"CountyName"}]},"MapReference":{"ReferenceId":"548452740","Spot":0.0,"SideOfStreet":"left","CountryId":"20147700","StateId":"20164001","CountyId":"20166538","CityId":"20166800","DistrictId":"20166803"}}},{"Relevance":1.0,"Distance":32.5,"MatchLevel":"houseNumber","MatchQuality":{"Country":1.0,"State":1.0,"County":1.0,"City":1.0,"District":1.0,"Street":[1.0],"HouseNumber":1.0,"PostalCode":1.0},"MatchType":"interpolated","Location":{"LocationId":"NT_UrtcBjlemPtJn8ikxQAoGB_yA","LocationType":"point","DisplayPosition":{"Latitude":50.31642,"Longitude":7.80462},"MapView":{"TopLeft":{"Latitude":50.3175442,"Longitude":7.8028595},"BottomRight":{"Latitude":50.3152958,"Longitude":7.8063805}},"Address":{"Label":"Zum Heidchen 2, 56377 Nassau, Deutschland","Country":"DEU","State":"Rheinland-Pfalz","County":"Rhein-Lahn-Kreis","City":"Nassau","District":"Nassau","Street":"Zum Heidchen","HouseNumber":"2","PostalCode":"56377","AdditionalData":[{"value":"Deutschland","key":"CountryName"},{"value":"Rheinland-Pfalz","key":"StateName"},{"value":"Rhein-Lahn-Kreis","key":"CountyName"}]},"MapReference":{"ReferenceId":"548473661","Spot":0.27,"SideOfStreet":"right","CountryId":"20147700","StateId":"20164001","CountyId":"20166538","CityId":"20166800","DistrictId":"20166803","AddressId":"188230302","RoadLinkId":"34264707"}}},{"Relevance":1.0,"Distance":44.6,"MatchLevel":"street","MatchQuality":{"Country":1.0,"State":1.0,"County":1.0,"City":1.0,"District":1.0,"PostalCode":1.0},"Location":{"LocationId":"NT_FwDeMMvjQ5T-ZTppulqX4C_l_548473670_L","LocationType":"point","DisplayPosition":{"Latitude":50.31698,"Longitude":7.80524},"MapView":{"TopLeft":{"Latitude":50.31736,"Longitude":7.80464},"BottomRight":{"Latitude":50.31698,"Longitude":7.80526}},"Address":{"Label":"56377 Nassau, Deutschland","Country":"DEU","State":"Rheinland-Pfalz","County":"Rhein-Lahn-Kreis","City":"Nassau","District":"Nassau","PostalCode":"56377","AdditionalData":[{"value":"Deutschland","key":"CountryName"},{"value":"Rheinland-Pfalz","key":"StateName"},{"value":"Rhein-Lahn-Kreis","key":"CountyName"}]},"MapReference":{"ReferenceId":"548473670","Spot":0.0,"SideOfStreet":"left","CountryId":"20147700","StateId":"20164001","CountyId":"20166538","CityId":"20166800","DistrictId":"20166803"}}},{"Relevance":1.0,"Distance":61.7,"MatchLevel":"houseNumber","MatchQuality":{"Country":1.0,"State":1.0,"County":1.0,"City":1.0,"District":1.0,"Street":[1.0],"HouseNumber":1.0,"PostalCode":1.0},"MatchType":"interpolated","Location":{"LocationId":"NT_UrtcBjlemPtJn8ikxQAoGB_0A","LocationType":"point","DisplayPosition":{"Latitude":50.31622,"Longitude":7.80528},"MapView":{"TopLeft":{"Latitude":50.3173442,"Longitude":7.8035195},"BottomRight":{"Latitude":50.3150958,"Longitude":7.8070405}},"Address":{"Label":"Zum Heidchen 4, 56377 Nassau, Deutschland","Country":"DEU","State":"Rheinland-Pfalz","County":"Rhein-Lahn-Kreis","City":"Nassau","District":"Nassau","Street":"Zum Heidchen","HouseNumber":"4","PostalCode":"56377","AdditionalData":[{"value":"Deutschland","key":"CountryName"},{"value":"Rheinland-Pfalz","key":"StateName"},{"value":"Rhein-Lahn-Kreis","key":"CountyName"}]},"MapReference":{"ReferenceId":"548473671","Spot":0.68,"SideOfStreet":"left","CountryId":"20147700","StateId":"20164001","CountyId":"20166538","CityId":"20166800","DistrictId":"20166803","AddressId":"622228358","RoadLinkId":"34011630"}}},{"Relevance":1.0,"Distance":66.2,"MatchLevel":"houseNumber","MatchQuality":{"Country":1.0,"State":1.0,"County":1.0,"City":1.0,"District":1.0,"Street":[1.0],"HouseNumber":1.0,"PostalCode":1.0},"MatchType":"interpolated","Location":{"LocationId":"NT_3acRiqTuAXAaACtFfiwACC_0A","LocationType":"point","DisplayPosition":{"Latitude":50.3167,"Longitude":7.80378},"MapView":{"TopLeft":{"Latitude":50.3178242,"Longitude":7.8020195},"BottomRight":{"Latitude":50.3155758,"Longitude":7.8055405}},"Address":{"Label":"Bachbergweg 4, 56377 Nassau, Deutschland","Country":"DEU","State":"Rheinland-Pfalz","County":"Rhein-Lahn-Kreis","City":"Nassau","District":"Nassau","Street":"Bachbergweg","HouseNumber":"4","PostalCode":"56377","AdditionalData":[{"value":"Deutschland","key":"CountryName"},{"value":"Rheinland-Pfalz","key":"StateName"},{"value":"Rhein-Lahn-Kreis","key":"CountyName"}]},"MapReference":{"ReferenceId":"548473662","Spot":0.28,"SideOfStreet":"right","CountryId":"20147700","StateId":"20164001","CountyId":"20166538","CityId":"20166800","DistrictId":"20166803","AddressId":"364884213","RoadLinkId":"34058412"}}},{"Relevance":1.0,"Distance":82.1,"MatchLevel":"houseNumber","MatchQuality":{"Country":1.0,"State":1.0,"County":1.0,"City":1.0,"District":1.0,"Street":[1.0],"HouseNumber":1.0,"PostalCode":1.0},"MatchType":"interpolated","Location":{"LocationId":"NT_3acRiqTuAXAaACtFfiwACC_yEE","LocationType":"point","DisplayPosition":{"Latitude":50.31629,"Longitude":7.80368},"MapView":{"TopLeft":{"Latitude":50.3174142,"Longitude":7.8019195},"BottomRight":{"Latitude":50.3151658,"Longitude":7.8054405}},"Address":{"Label":"Bachbergweg 2A, 56377 Nassau, Deutschland","Country":"DEU","State":"Rheinland-Pfalz","County":"Rhein-Lahn-Kreis","City":"Nassau","District":"Nassau","Street":"Bachbergweg","HouseNumber":"2A","PostalCode":"56377","AdditionalData":[{"value":"Deutschland","key":"CountryName"},{"value":"Rheinland-Pfalz","key":"StateName"},{"value":"Rhein-Lahn-Kreis","key":"CountyName"}]},"MapReference":{"ReferenceId":"548453136","Spot":0.53,"SideOfStreet":"right","CountryId":"20147700","StateId":"20164001","CountyId":"20166538","CityId":"20166800","DistrictId":"20166803","AddressId":"188809778","RoadLinkId":"34488148"}}},{"Relevance":1.0,"Distance":85.1,"MatchLevel":"houseNumber","MatchQuality":{"Country":1.0,"State":1.0,"County":1.0,"City":1.0,"District":1.0,"Street":[1.0],"HouseNumber":1.0,"PostalCode":1.0},"MatchType":"interpolated","Location":{"LocationId":"NT_qpkqGri.P4PmjuscDucBpB_3A","LocationType":"point","DisplayPosition":{"Latitude":50.3159,"Longitude":7.80474},"MapView":{"TopLeft":{"Latitude":50.3170242,"Longitude":7.8029795},"BottomRight":{"Latitude":50.3147758,"Longitude":7.8065005}},"Address":{"Label":"Oberer Hallgarten 7, 56377 Nassau, Deutschland","Country":"DEU","State":"Rheinland-Pfalz","County":"Rhein-Lahn-Kreis","City":"Nassau","District":"Nassau","Street":"Oberer Hallgarten","HouseNumber":"7","PostalCode":"56377","AdditionalData":[{"value":"Deutschland","key":"CountryName"},{"value":"Rheinland-Pfalz","key":"StateName"},{"value":"Rhein-Lahn-Kreis","key":"CountyName"}]},"MapReference":{"ReferenceId":"548473660","Spot":0.84,"SideOfStreet":"right","CountryId":"20147700","StateId":"20164001","CountyId":"20166538","CityId":"20166800","DistrictId":"20166803","AddressId":"622224916","RoadLinkId":"34108163"}}}]}]}}