{"Response":{"MetaInfo":{"Timestamp":"2020-03-28T10:49:31.761+0000","NextPageInformation":"2"},"View":[{"_type":"SearchResultsViewType","ViewId":0,"Result":[{"Relevance":1.0,"Distance":0.0,"Direction":0.0,"MatchLevel":"district","MatchQuality":{"Country":1.0,"State":1.0,"County":1.0,"City":1.0,"District":1.0,"PostalCode":1.0},"Location":{"LocationId":"NT_lG.ntf45mdDSmuJBCDmmyB","LocationType":"point","DisplayPosition":{"Latitude":50.3663956,"Longitude":18.8481906},"MapView":{"TopLeft":{"Latitude":50.41301,"Longitude":18.78835},"BottomRight":{"Latitude":50.31659,"Longitude":18.94672}},"Address":{"Label":"Bytom, Woj. Śląskie, Polska","Country":"POL","State":"Woj. Śląskie","County":"Bytom","City":"Bytom","District":"Bytom","PostalCode":"41-902","AdditionalData":[{"value":"Polska","key":"CountryName"},{"value":"Woj. Śląskie","key":"StateName"},{"value":"Bytom","key":"CountyName"}]},"MapReference":{"ReferenceId":"594591307","SideOfStreet":"neither","CountryId":"20624059","StateId":"20629003","CountyId":"20629007","CityId":"20629008","DistrictId":"20646635"}}},{"Relevance":1.0,"Distance":4.8,"MatchLevel":"houseNumber","MatchQuality":{"Country":1.0,"State":1.0,"County":1.0,"City":1.0,"District":1.0,"Street":[1.0],"HouseNumber":1.0,"PostalCode":1.0},"MatchType":"interpolated","Location":{"LocationId":"NT_to5Rq87cBqntRAarpYzj5A_1EE","LocationType":"point","DisplayPosition":{"Latitude":50.36648,"Longitude":18.84764},"MapView":{"TopLeft":{"Latitude":50.3676042,"Longitude":18.8458777},"BottomRight":{"Latitude":50.3653558,"Longitude":18.8494023}},"Address":{"Label":"ulica Alojzego Felińskiego 5A, 41-923 Bytom, Polska","Country":"POL","State":"Woj. Śląskie","County":"Bytom","City":"Bytom","District":"Bytom","Street":"ulica Alojzego Felińskiego","HouseNumber":"5A","PostalCode":"41-923","AdditionalData":[{"value":"Polska","key":"CountryName"},{"value":"Woj. Śląskie","key":"StateName"},{"value":"Bytom","key":"CountyName"}]},"MapReference":{"ReferenceId":"594342105","Spot":0.49,"SideOfStreet":"right","CountryId":"20624059","StateId":"20629003","CountyId":"20629007","CityId":"20629008","DistrictId":"20646635","AddressId":"731745038","RoadLinkId":"272045258"}}},{"Relevance":1.0,"Distance":64.2,"MatchLevel":"houseNumber","MatchQuality":{"Country":1.0,"State":1.0,"County":1.0,"City":1.0,"District":1.0,"Street":[1.0],"HouseNumber":1.0,"PostalCode":1.0},"MatchType":"interpolated","Location":{"LocationId":"NT_l485Jo8XyZ6lBbFVQUKoUD_xYD","LocationType":"point","DisplayPosition":{"Latitude":50.36575,"Longitude":18.84861},"MapView":{"TopLeft":{"Latitude":50.3668742,"Longitude":18.8468477},"BottomRight":{"Latitude":50.3646258,"Longitude":18.8503723}},"Address":{"Label":"ulica Kasztanowa 16, 41-923 Bytom, Polska","Country":"POL","State":"Woj. Śląskie","County":"Bytom","City":"Bytom","District":"Bytom","Street":"ulica Kasztanowa","HouseNumber":"16","PostalCode":"41-923","AdditionalData":[{"value":"Polska","key":"CountryName"},{"value":"Woj. Śląskie","key":"StateName"},{"value":"Bytom","key":"CountyName"}]},"MapReference":{"ReferenceId":"984805935","Spot":0.4,"SideOfStreet":"right","CountryId":"20624059","StateId":"20629003","CountyId":"20629007","CityId":"20629008","DistrictId":"20646635","AddressId":"210454654","RoadLinkId":"315807515"}}},{"Relevance":1.0,"Distance":70.2,"MatchLevel":"houseNumber","MatchQuality":{"Country":1.0,"State":1.0,"County":1.0,"City":1.0,"District":1.0,"Street":[1.0],"HouseNumber":1.0,"PostalCode":1.0},"MatchType":"interpolated","Location":{"LocationId":"NT_to5Rq87cBqntRAarpYzj5A_xME","LocationType":"point","DisplayPosition":{"Latitude":50.36711,"Longitude":18.84837},"MapView":{"TopLeft":{"Latitude":50.3682342,"Longitude":18.8466076},"BottomRight":{"Latitude":50.3659858,"Longitude":18.8501324}},"Address":{"Label":"ulica Alojzego Felińskiego 1C, 41-923 Bytom, Polska","Country":"POL","State":"Woj. Śląskie","County":"Bytom","City":"Bytom","District":"Bytom","Street":"ulica Alojzego Felińskiego","HouseNumber":"1C","PostalCode":"41-923","AdditionalData":[{"value":"Polska","key":"CountryName"},{"value":"Woj. Śląskie","key":"StateName"},{"value":"Bytom","key":"CountyName"}]},"MapReference":{"ReferenceId":"594341827","Spot":0.25,"SideOfStreet":"right","CountryId":"20624059","StateId":"20629003","CountyId":"20629007","CityId":"20629008","DistrictId":"20646635","AddressId":"731471685","RoadLinkId":"96237783"}}},{"Relevance":1.0,"Distance":74.2,"MatchLevel":"houseNumber","MatchQuality":{"Country":1.0,"State":1.0,"County":1.0,"City":1.0,"District":1.0,"Street":[1.0],"HouseNumber":1.0,"PostalCode":1.0},"MatchType":"interpolated","Location":{"LocationId":"NT_to5Rq87cBqntRAarpYzj5A_0UD","LocationType":"point","DisplayPosition":{"Latitude":50.36685,"Longitude":18.84698},"MapView":{"TopLeft":{"Latitude":50.3679742,"Longitude":18.8452176},"BottomRight":{"Latitude":50.3657258,"Longitude":18.8487424}},"Address":{"Label":"ulica Alojzego Felińskiego 45, 41-923 Bytom, Polska","Country":"POL","State":"Woj. Śląskie","County":"Bytom","City":"Bytom","District":"Bytom","Street":"ulica Alojzego Felińskiego","HouseNumber":"45","PostalCode":"41-923","AdditionalData":[{"value":"Polska","key":"CountryName"},{"value":"Woj. Śląskie","key":"StateName"},{"value":"Bytom","key":"CountyName"}]},"MapReference":{"ReferenceId":"1198906735","Spot":0.02,"SideOfStreet":"right","CountryId":"20624059","StateId":"20629003","CountyId":"20629007","CityId":"20629008","DistrictId":"20646635","AddressId":"222392698","RoadLinkId":"510473757"}}},{"Relevance":1.0,"Distance":81.5,"MatchLevel":"houseNumber","MatchQuality":{"Country":1.0,"State":1.0,"County":1.0,"City":1.0,"District":1.0,"Street":[1.0],"HouseNumber":1.0,"PostalCode":1.0},"MatchType":"interpolated","Location":{"LocationId":"NT_qgGvTxTm.VZ0nx5WdNwjOC_3A","LocationType":"point","DisplayPosition":{"Latitude":50.36582,"Longitude":18.84731},"MapView":{"TopLeft":{"Latitude":50.3669442,"Longitude":18.8455477},"BottomRight":{"Latitude":50.3646958,"Longitude":18.8490723}},"Address":{"Label":"ulica Rolna 7, 41-923 Bytom, Polska","Country":"POL","State":"Woj. Śląskie","County":"Bytom","City":"Bytom","District":"Bytom","Street":"ulica Rolna","HouseNumber":"7","PostalCode":"41-923","AdditionalData":[{"value":"Polska","key":"CountryName"},{"value":"Woj. Śląskie","key":"StateName"},{"value":"Bytom","key":"CountyName"}]},"MapReference":{"ReferenceId":"594342304","Spot":0.79,"SideOfStreet":"right","CountryId":"20624059","StateId":"20629003","CountyId":"20629007","CityId":"20629008","DistrictId":"20646635","AddressId":"302048826","RoadLinkId":"272045256"}}},{"Relevance":1.0,"Distance":82.9,"MatchLevel":"houseNumber","MatchQuality":{"Country":1.0,"State":1.0,"County":1.0,"City":1.0,"District":1.0,"Street":[1.0],"HouseNumber":1.0,"PostalCode":1.0},"MatchType":"interpolated","Location":{"LocationId":"NT_P6Bxqyr1m2DFbzDIYtzMHD_zA","LocationType":"point","DisplayPosition":{"Latitude":50.36619,"Longitude":18.84958},"MapView":{"TopLeft":{"Latitude":50.3673142,"Longitude":18.8478177},"BottomRight":{"Latitude":50.3650658,"Longitude":18.8513423}},"Address":{"Label":"ulica Rolna 3, 41-923 Bytom, Polska","Country":"POL","State":"Woj. Śląskie","County":"Bytom","City":"Bytom","District":"Bytom","Street":"ulica Rolna","HouseNumber":"3","PostalCode":"41-923","AdditionalData":[{"value":"Polska","key":"CountryName"},{"value":"Woj. Śląskie","key":"StateName"},{"value":"Bytom","key":"CountyName"}]},"MapReference":{"ReferenceId":"984805936","Spot":0.41,"SideOfStreet":"left","CountryId":"20624059","StateId":"20629003","CountyId":"20629007","CityId":"20629008","DistrictId":"20646635","AddressId":"403657492","RoadLinkId":"315807516"}}},{"Relevance":1.0,"Distance":95.1,"MatchLevel":"houseNumber","MatchQuality":{"Country":1.0,"State":1.0,"County":1.0,"City":1.0,"District":1.0,"Street":[1.0],"HouseNumber":1.0,"PostalCode":1.0},"MatchType":"interpolated","Location":{"LocationId":"NT_to5Rq87cBqntRAarpYzj5A_0cD","LocationType":"point","DisplayPosition":{"Latitude":50.36681,"Longitude":18.84671},"MapView":{"TopLeft":{"Latitude":50.3679342,"Longitude":18.8449476},"BottomRight":{"Latitude":50.3656858,"Longitude":18.8484724}},"Address":{"Label":"ulica Alojzego Felińskiego 47, 41-923 Bytom, Polska","Country":"POL","State":"Woj. Śląskie","County":"Bytom","City":"Bytom","District":"Bytom","Street":"ulica Alojzego Felińskiego","HouseNumber":"47","PostalCode":"41-923","AdditionalData":[{"value":"Polska","key":"CountryName"},{"value":"Woj. Śląskie","key":"StateName"},{"value":"Bytom","key":"CountyName"}]},"MapReference":{"ReferenceId":"1198906734","Spot":0.59,"SideOfStreet":"right","CountryId":"20624059","StateId":"20629003","CountyId":"20629007","CityId":"20629008","DistrictId":"20646635","AddressId":"222392697","RoadLinkId":"510473756"}}},{"Relevance":1.0,"Distance":106.4,"MatchLevel":"street","MatchQuality":{"Country":1.0,"State":1.0,"County":1.0,"City":1.0,"District":1.0,"Street":[1.0],"PostalCode":1.0},"Location":{"LocationId":"NT_to5Rq87cBqntRAarpYzj5A_l_1211820661_R","LocationType":"point","DisplayPosition":{"Latitude":50.3670191,"Longitude":18.8470527},"MapView":{"TopLeft":{"Latitude":50.36758,"Longitude":18.84696},"BottomRight":{"Latitude":50.36685,"Longitude":18.84736}},"Address":{"Label":"ulica Alojzego Felińskiego, 41-923 Bytom, Polska","Country":"POL","State":"Woj. Śląskie","County":"Bytom","City":"Bytom","District":"Bytom","Street":"ulica Alojzego Felińskiego","PostalCode":"41-923","AdditionalData":[{"value":"Polska","key":"CountryName"},{"value":"Woj. Śląskie","key":"StateName"},{"value":"Bytom","key":"CountyName"}]},"MapReference":{"ReferenceId":"1211820661","Spot":0.23,"SideOfStreet":"right","CountryId":"20624059","StateId":"20629003","CountyId":"20629007","CityId":"20629008","DistrictId":"20646635"}}},{"Relevance":1.0,"Distance":129.9,"MatchLevel":"houseNumber","MatchQuality":{"Country":1.0,"State":1.0,"County":1.0,"City":1.0,"District":1.0,"Street":[1.0],"HouseNumber":1.0,"PostalCode":1.0},"MatchType":"interpolated","Location":{"LocationId":"NT_to5Rq87cBqntRAarpYzj5A_zkTQ","LocationType":"point","DisplayPosition":{"Latitude":50.36677,"Longitude":18.84626},"MapView":{"TopLeft":{"Latitude":50.3678942,"Longitude":18.8444976},"BottomRight":{"Latitude":50.3656458,"Longitude":18.8480224}},"Address":{"Label":"ulica Alojzego Felińskiego 39A, 41-923 Bytom, Polska","Country":"POL","State":"Woj. Śląskie","County":"Bytom","City":"Bytom","District":"Bytom","Street":"ulica Alojzego Felińskiego","HouseNumber":"39A","PostalCode":"41-923","AdditionalData":[{"value":"Polska","key":"CountryName"},{"value":"Woj. Śląskie","key":"StateName"},{"value":"Bytom","key":"CountyName"}]},"MapReference":{"ReferenceId":"594587441","Spot":0.08,"SideOfStreet":"left","CountryId":"20624059","StateId":"20629003","CountyId":"20629007","CityId":"20629008","DistrictId":"20646635","AddressId":"731691757","RoadLinkId":"95982726"}}}]}]}}