{"Response":{"MetaInfo":{"Timestamp":"2020-03-28T11:47:14.820+0000","NextPageInformation":"2"},"View":[{"_type":"SearchResultsViewType","ViewId":0,"Result":[{"Relevance":1.0,"Distance":0.0,"Direction":0.0,"MatchLevel":"city","MatchQuality":{"Country":1.0,"State":1.0,"County":1.0,"City":1.0,"PostalCode":1.0},"Location":{"LocationId":"NT_a14x6bVmtaqhrWRk58NZXC","LocationType":"point","DisplayPosition":{"Latitude":50.30132,"Longitude":2.803679},"MapView":{"TopLeft":{"Latitude":50.32996,"Longitude":2.77552},"BottomRight":{"Latitude":50.28905,"Longitude":2.83566}},"Address":{"Label":"Saint-Laurent-Blangy, Hauts-de-France, France","Country":"FRA","State":"Hauts-de-France","County":"Pas-de-Calais","City":"Saint-Laurent-Blangy","PostalCode":"62223","AdditionalData":[{"value":"France","key":"CountryName"},{"value":"Hauts-de-France","key":"StateName"},{"value":"Pas-de-Calais","key":"CountyName"}]},"MapReference":{"ReferenceId":"967022563","SideOfStreet":"neither","CountryId":"20000001","StateId":"20000002","CountyId":"20030132","CityId":"20032353"}}},{"Relevance":1.0,"Distance":11.5,"MatchLevel":"houseNumber","MatchQuality":{"Country":1.0,"State":1.0,"County":1.0,"City":1.0,"Street":[1.0],"HouseNumber":1.0,"PostalCode":1.0},"MatchType":"interpolated","Location":{"LocationId":"NT_T.vrRxVYcbARvXHjW6UgjA_zED","LocationType":"point","DisplayPosition":{"Latitude":50.30115,"Longitude":2.80376},"MapView":{"TopLeft":{"Latitude":50.3022742,"Longitude":2.8020001},"BottomRight":{"Latitude":50.3000258,"Longitude":2.8055199}},"Address":{"Label":"31 Rue de Versailles, 62223 Saint-Laurent-Blangy, France","Country":"FRA","State":"Hauts-de-France","County":"Pas-de-Calais","City":"Saint-Laurent-Blangy","Street":"Rue de Versailles","HouseNumber":"31","PostalCode":"62223","AdditionalData":[{"value":"France","key":"CountryName"},{"value":"Hauts-de-France","key":"StateName"},{"value":"Pas-de-Calais","key":"CountyName"}]},"MapReference":{"ReferenceId":"967022562","Spot":0.64,"SideOfStreet":"left","CountryId":"20000001","StateId":"20000002","CountyId":"20030132","CityId":"20032353","AddressId":"322549101","RoadLinkId":"305386628"}}},{"Relevance":1.0,"Distance":19.7,"MatchLevel":"landmark","MatchQuality":{"Country":1.0,"State":1.0,"County":1.0,"City":1.0,"Street":[1.0],"PostalCode":1.0,"Name":1.0},"Location":{"LocationId":"NT_.BmSIitli-PtTIFu5x6OlD_p_nO3w9ASs9UEpci0wwCpI3B","LocationType":"park","Name":"Parc d'Immercourt","DisplayPosition":{"Latitude":50.30406,"Longitude":2.81254},"MapView":{"TopLeft":{"Latitude":50.30455,"Longitude":2.80169},"BottomRight":{"Latitude":50.29865,"Longitude":2.81627}},"Address":{"Label":"Rue Henri Barbusse, 62223 Saint-Laurent-Blangy, France","Country":"FRA","State":"Hauts-de-France","County":"Pas-de-Calais","City":"Saint-Laurent-Blangy","Street":"Rue Henri Barbusse","PostalCode":"62223","AdditionalData":[{"value":"France","key":"CountryName"},{"value":"Hauts-de-France","key":"StateName"},{"value":"Pas-de-Calais","key":"CountyName"}]},"MapReference":{"CountryId":"20000001","StateId":"20000002","CountyId":"20030132","CityId":"20032353","PlaceId":"543490180"}}},{"Relevance":1.0,"Distance":69.5,"MatchLevel":"houseNumber","MatchQuality":{"Country":1.0,"State":1.0,"County":1.0,"City":1.0,"Street":[1.0],"HouseNumber":1.0,"PostalCode":1.0},"MatchType":"interpolated","Location":{"LocationId":"NT_T.vrRxVYcbARvXHjW6UgjA_zkjQ","LocationType":"point","DisplayPosition":{"Latitude":50.30148,"Longitude":2.80464},"MapView":{"TopLeft":{"Latitude":50.3026042,"Longitude":2.8028801},"BottomRight":{"Latitude":50.3003558,"Longitude":2.8063999}},"Address":{"Label":"39B Rue de Versailles, 62223 Saint-Laurent-Blangy, France","Country":"FRA","State":"Hauts-de-France","County":"Pas-de-Calais","City":"Saint-Laurent-Blangy","Street":"Rue de Versailles","HouseNumber":"39B","PostalCode":"62223","AdditionalData":[{"value":"France","key":"CountryName"},{"value":"Hauts-de-France","key":"StateName"},{"value":"Pas-de-Calais","key":"CountyName"}]},"MapReference":{"ReferenceId":"967022563","Spot":0.36,"SideOfStreet":"left","CountryId":"20000001","StateId":"20000002","CountyId":"20030132","CityId":"20032353","AddressId":"322549090","RoadLinkId":"305386629"}}},{"Relevance":1.0,"Distance":85.3,"MatchLevel":"houseNumber","MatchQuality":{"Country":1.0,"State":1.0,"County":1.0,"City":1.0,"Street":[1.0],"HouseNumber":1.0,"PostalCode":1.0},"MatchType":"interpolated","Location":{"LocationId":"NT_ykXz4zuV70f4qmlg.ykEgB_l_707592495_L_xA","LocationType":"point","DisplayPosition":{"Latitude":50.3018509,"Longitude":2.8048212},"MapView":{"TopLeft":{"Latitude":50.302975,"Longitude":2.8030612},"BottomRight":{"Latitude":50.3007267,"Longitude":2.8065811}},"Address":{"Label":"1 Rue du Maréchal Foch, 62223 Saint-Laurent-Blangy, France","Country":"FRA","State":"Hauts-de-France","County":"Pas-de-Calais","City":"Saint-Laurent-Blangy","Street":"Rue du Maréchal Foch","HouseNumber":"1","PostalCode":"62223","AdditionalData":[{"value":"France","key":"CountryName"},{"value":"Hauts-de-France","key":"StateName"},{"value":"Pas-de-Calais","key":"CountyName"}]},"MapReference":{"ReferenceId":"707592495","Spot":0.5,"SideOfStreet":"left","CountryId":"20000001","StateId":"20000002","CountyId":"20030132","CityId":"20032353"}}},{"Relevance":1.0,"Distance":90.4,"MatchLevel":"houseNumber","MatchQuality":{"Country":1.0,"State":1.0,"County":1.0,"City":1.0,"Street":[1.0],"HouseNumber":1.0,"PostalCode":1.0},"MatchType":"interpolated","Location":{"LocationId":"NT_T.vrRxVYcbARvXHjW6UgjA_yIjQ","LocationType":"point","DisplayPosition":{"Latitude":50.30088,"Longitude":2.80475},"MapView":{"TopLeft":{"Latitude":50.3020042,"Longitude":2.8029901},"BottomRight":{"Latitude":50.2997558,"Longitude":2.8065099}},"Address":{"Label":"22B Rue de Versailles, 62223 Saint-Laurent-Blangy, France","Country":"FRA","State":"Hauts-de-France","County":"Pas-de-Calais","City":"Saint-Laurent-Blangy","Street":"Rue de Versailles","HouseNumber":"22B","PostalCode":"62223","AdditionalData":[{"value":"France","key":"CountryName"},{"value":"Hauts-de-France","key":"StateName"},{"value":"Pas-de-Calais","key":"CountyName"}]},"MapReference":{"ReferenceId":"967022564","Spot":0.08,"SideOfStreet":"right","CountryId":"20000001","StateId":"20000002","CountyId":"20030132","CityId":"20032353","AddressId":"371513044","RoadLinkId":"305386630"}}},{"Relevance":1.0,"Distance":93.0,"MatchLevel":"houseNumber","MatchQuality":{"Country":1.0,"State":1.0,"County":1.0,"City":1.0,"Street":[1.0],"HouseNumber":1.0,"PostalCode":1.0},"MatchType":"interpolated","Location":{"LocationId":"NT_gDVzNTi9JMCbMxRrWyXfSD_xgjQ","LocationType":"point","DisplayPosition":{"Latitude":50.30207,"Longitude":2.80302},"MapView":{"TopLeft":{"Latitude":50.3031942,"Longitude":2.80126},"BottomRight":{"Latitude":50.3009458,"Longitude":2.80478}},"Address":{"Label":"18B Rue Jean Jaurès, 62223 Saint-Laurent-Blangy, France","Country":"FRA","State":"Hauts-de-France","County":"Pas-de-Calais","City":"Saint-Laurent-Blangy","Street":"Rue Jean Jaurès","HouseNumber":"18B","PostalCode":"62223","AdditionalData":[{"value":"France","key":"CountryName"},{"value":"Hauts-de-France","key":"StateName"},{"value":"Pas-de-Calais","key":"CountyName"}]},"MapReference":{"ReferenceId":"707592487","Spot":0.95,"SideOfStreet":"right","CountryId":"20000001","StateId":"20000002","CountyId":"20030132","CityId":"20032353","AddressId":"322548901","RoadLinkId":"113152437"}}},{"Relevance":1.0,"Distance":97.9,"MatchLevel":"houseNumber","MatchQuality":{"Country":1.0,"State":1.0,"County":1.0,"City":1.0,"Street":[1.0],"HouseNumber":1.0,"PostalCode":1.0},"MatchType":"interpolated","Location":{"LocationId":"NT_gDVzNTi9JMCbMxRrWyXfSD_yID","LocationType":"point","DisplayPosition":{"Latitude":50.30216,"Longitude":2.80321},"MapView":{"TopLeft":{"Latitude":50.3032842,"Longitude":2.80145},"BottomRight":{"Latitude":50.3010358,"Longitude":2.80497}},"Address":{"Label":"22 Rue Jean Jaurès, 62223 Saint-Laurent-Blangy, France","Country":"FRA","State":"Hauts-de-France","County":"Pas-de-Calais","City":"Saint-Laurent-Blangy","Street":"Rue Jean Jaurès","HouseNumber":"22","PostalCode":"62223","AdditionalData":[{"value":"France","key":"CountryName"},{"value":"Hauts-de-France","key":"StateName"},{"value":"Pas-de-Calais","key":"CountyName"}]},"MapReference":{"ReferenceId":"707592488","Spot":0.29,"SideOfStreet":"right","CountryId":"20000001","StateId":"20000002","CountyId":"20030132","CityId":"20032353","AddressId":"323028034","RoadLinkId":"113152438"}}},{"Relevance":1.0,"Distance":114.1,"MatchLevel":"houseNumber","MatchQuality":{"Country":1.0,"State":1.0,"County":1.0,"City":1.0,"Street":[1.0],"HouseNumber":1.0,"PostalCode":1.0},"MatchType":"interpolated","Location":{"LocationId":"NT_T.vrRxVYcbARvXHjW6UgjA_4ADN1A","LocationType":"point","DisplayPosition":{"Latitude":50.30103,"Longitude":2.80522},"MapView":{"TopLeft":{"Latitude":50.3021542,"Longitude":2.8034601},"BottomRight":{"Latitude":50.2999058,"Longitude":2.8069799}},"Address":{"Label":"8045 Rue de Versailles, 62223 Saint-Laurent-Blangy, France","Country":"FRA","State":"Hauts-de-France","County":"Pas-de-Calais","City":"Saint-Laurent-Blangy","Street":"Rue de Versailles","HouseNumber":"8045","PostalCode":"62223","AdditionalData":[{"value":"France","key":"CountryName"},{"value":"Hauts-de-France","key":"StateName"},{"value":"Pas-de-Calais","key":"CountyName"}]},"MapReference":{"ReferenceId":"967031678","Spot":0.04,"SideOfStreet":"right","CountryId":"20000001","StateId":"20000002","CountyId":"20030132","CityId":"20032353","AddressId":"371540318","RoadLinkId":"305395855"}}},{"Relevance":1.0,"Distance":115.7,"MatchLevel":"houseNumber","MatchQuality":{"Country":1.0,"State":1.0,"County":1.0,"City":1.0,"Street":[1.0],"HouseNumber":1.0,"PostalCode":1.0},"MatchType":"interpolated","Location":{"LocationId":"NT_gDVzNTi9JMCbMxRrWyXfSD_zAD","LocationType":"point","DisplayPosition":{"Latitude":50.30237,"Longitude":2.80363},"MapView":{"TopLeft":{"Latitude":50.3034942,"Longitude":2.80187},"BottomRight":{"Latitude":50.3012458,"Longitude":2.80539}},"Address":{"Label":"30 Rue Jean Jaurès, 62223 Saint-Laurent-Blangy, France","Country":"FRA","State":"Hauts-de-France","County":"Pas-de-Calais","City":"Saint-Laurent-Blangy","Street":"Rue Jean Jaurès","HouseNumber":"30","PostalCode":"62223","AdditionalData":[{"value":"France","key":"CountryName"},{"value":"Hauts-de-France","key":"StateName"},{"value":"Pas-de-Calais","key":"CountyName"}]},"MapReference":{"ReferenceId":"707592486","Spot":0.13,"SideOfStreet":"right","CountryId":"20000001","StateId":"20000002","CountyId":"20030132","CityId":"20032353","AddressId":"345241952","RoadLinkId":"113152436"}}}]}]}}