{"Response":{"MetaInfo":{"Timestamp":"2020-03-28T11:32:27.555+0000","NextPageInformation":"2"},"View":[{"_type":"SearchResultsViewType","ViewId":0,"Result":[{"Relevance":1.0,"Distance":0.0,"Direction":0.0,"MatchLevel":"district","MatchQuality":{"Country":1.0,"State":1.0,"County":1.0,"City":1.0,"District":1.0,"PostalCode":1.0},"Location":{"LocationId":"NT_nqV3ejFc9RoRQ3iCeD7sPC","LocationType":"point","DisplayPosition":{"Latitude":50.3023513,"Longitude":19.1213631},"MapView":{"TopLeft":{"Latitude":50.31687,"Longitude":19.07129},"BottomRight":{"Latitude":50.22556,"Longitude":19.31952}},"Address":{"Label":"Sosnowiec, Woj. Śląskie, Polska","Country":"POL","State":"Woj. Śląskie","County":"Sosnowiec","City":"Sosnowiec","District":"Sosnowiec","PostalCode":"41-214","AdditionalData":[{"value":"Polska","key":"CountryName"},{"value":"Woj. Śląskie","key":"StateName"},{"value":"Sosnowiec","key":"CountyName"}]},"MapReference":{"ReferenceId":"1076099647","SideOfStreet":"neither","CountryId":"20624059","StateId":"20629003","CountyId":"20629391","CityId":"20629392","DistrictId":"20646816"}}},{"Relevance":1.0,"Distance":81.3,"MatchLevel":"street","MatchQuality":{"Country":1.0,"State":1.0,"County":1.0,"City":1.0,"District":1.0,"Street":[1.0],"PostalCode":1.0},"Location":{"LocationId":"NT_Dl0Q9u5wmDyoVrH2n8wSqA_l_585242276_R","LocationType":"point","DisplayPosition":{"Latitude":50.3016704,"Longitude":19.1209457},"MapView":{"TopLeft":{"Latitude":50.30224,"Longitude":19.12005},"BottomRight":{"Latitude":50.30049,"Longitude":19.12408}},"Address":{"Label":"94, 41-214 Sosnowiec, Polska","Country":"POL","State":"Woj. Śląskie","County":"Sosnowiec","City":"Sosnowiec","District":"Sosnowiec","Street":"94","PostalCode":"41-214","AdditionalData":[{"value":"Polska","key":"CountryName"},{"value":"Woj. Śląskie","key":"StateName"},{"value":"Sosnowiec","key":"CountyName"}]},"MapReference":{"ReferenceId":"585242276","Spot":0.76,"SideOfStreet":"right","CountryId":"20624059","StateId":"20629003","CountyId":"20629391","CityId":"20629392","DistrictId":"20646816"}}},{"Relevance":1.0,"Distance":94.0,"MatchLevel":"street","MatchQuality":{"Country":1.0,"State":1.0,"County":1.0,"City":1.0,"District":1.0,"Street":[1.0],"PostalCode":1.0},"Location":{"LocationId":"NT_Blyx5oeH5V9-pxJsRsQqVC_l_585243247_R","LocationType":"point","DisplayPosition":{"Latitude":50.3016391,"Longitude":19.1206509},"MapView":{"TopLeft":{"Latitude":50.30224,"Longitude":19.12005},"BottomRight":{"Latitude":50.2988,"Longitude":19.12152}},"Address":{"Label":"86, 41-214 Sosnowiec, Polska","Country":"POL","State":"Woj. Śląskie","County":"Sosnowiec","City":"Sosnowiec","District":"Sosnowiec","Street":"86","PostalCode":"41-214","AdditionalData":[{"value":"Polska","key":"CountryName"},{"value":"Woj. Śląskie","key":"StateName"},{"value":"Sosnowiec","key":"CountyName"}]},"MapReference":{"ReferenceId":"585243247","Spot":0.79,"SideOfStreet":"right","CountryId":"20624059","StateId":"20629003","CountyId":"20629391","CityId":"20629392","DistrictId":"20646816"}}},{"Relevance":1.0,"Distance":94.1,"MatchLevel":"street","MatchQuality":{"Country":1.0,"State":1.0,"County":1.0,"City":1.0,"District":1.0,"Street":[1.0],"PostalCode":1.0},"Location":{"LocationId":"NT_ZxzRbTKiAK8URSIZCN65PA_l_1084512144_R","LocationType":"point","DisplayPosition":{"Latitude":50.30224,"Longitude":19.12005},"MapView":{"TopLeft":{"Latitude":50.30252,"Longitude":19.11976},"BottomRight":{"Latitude":50.30224,"Longitude":19.12005}},"Address":{"Label":"86, 42-500 Będzin, Polska","Country":"POL","State":"Woj. Śląskie","County":"Powiat Będziński","City":"Będzin","District":"Będzin","Street":"86","PostalCode":"42-500","AdditionalData":[{"value":"Polska","key":"CountryName"},{"value":"Woj. Śląskie","key":"StateName"},{"value":"Powiat Będziński","key":"CountyName"}]},"MapReference":{"ReferenceId":"1084512144","Spot":0.0,"SideOfStreet":"right","CountryId":"20624059","StateId":"20629003","CountyId":"20629037","CityId":"20629038","DistrictId":"20629038"}}},{"Relevance":1.0,"Distance":97.0,"MatchLevel":"houseNumber","MatchQuality":{"Country":1.0,"State":1.0,"County":1.0,"City":1.0,"District":1.0,"Street":[1.0],"HouseNumber":1.0,"PostalCode":1.0},"MatchType":"interpolated","Location":{"LocationId":"NT_GwzUmGQnCd8Mxt0RqOLhCB_yA","LocationType":"point","DisplayPosition":{"Latitude":50.30337,"Longitude":19.12226},"MapView":{"TopLeft":{"Latitude":50.3044942,"Longitude":19.1205},"BottomRight":{"Latitude":50.3022458,"Longitude":19.12402}},"Address":{"Label":"plac Medyków 2, 41-214 Sosnowiec, Polska","Country":"POL","State":"Woj. Śląskie","County":"Sosnowiec","City":"Sosnowiec","District":"Sosnowiec","Street":"plac Medyków","HouseNumber":"2","PostalCode":"41-214","AdditionalData":[{"value":"Polska","key":"CountryName"},{"value":"Woj. Śląskie","key":"StateName"},{"value":"Sosnowiec","key":"CountyName"}]},"MapReference":{"ReferenceId":"594583617","Spot":0.0,"SideOfStreet":"left","CountryId":"20624059","StateId":"20629003","CountyId":"20629391","CityId":"20629392","DistrictId":"20646816","AddressId":"731637961","RoadLinkId":"96064646"}}},{"Relevance":1.0,"Distance":97.8,"MatchLevel":"street","MatchQuality":{"Country":1.0,"State":1.0,"County":1.0,"City":1.0,"District":1.0,"Street":[1.0],"PostalCode":1.0},"Location":{"LocationId":"NT_Dl0Q9u5wmDyoVrH2n8wSqA_l_972150767_R","LocationType":"point","DisplayPosition":{"Latitude":50.30187,"Longitude":19.12021},"MapView":{"TopLeft":{"Latitude":50.30223,"Longitude":19.11984},"BottomRight":{"Latitude":50.30187,"Longitude":19.12021}},"Address":{"Label":"86, 41-214 Sosnowiec, Polska","Country":"POL","State":"Woj. Śląskie","County":"Sosnowiec","City":"Sosnowiec","District":"Sosnowiec","Street":"86","PostalCode":"41-214","AdditionalData":[{"value":"Polska","key":"CountryName"},{"value":"Woj. Śląskie","key":"StateName"},{"value":"Sosnowiec","key":"CountyName"}]},"MapReference":{"ReferenceId":"972150767","Spot":0.0,"SideOfStreet":"right","CountryId":"20624059","StateId":"20629003","CountyId":"20629391","CityId":"20629392","DistrictId":"20646816"}}},{"Relevance":1.0,"Distance":106.6,"MatchLevel":"street","MatchQuality":{"Country":1.0,"State":1.0,"County":1.0,"City":1.0,"District":1.0,"Street":[1.0],"PostalCode":1.0},"Location":{"LocationId":"NT_Dl0Q9u5wmDyoVrH2n8wSqA_l_972150766_R","LocationType":"point","DisplayPosition":{"Latitude":50.30155,"Longitude":19.12054},"MapView":{"TopLeft":{"Latitude":50.30187,"Longitude":19.12021},"BottomRight":{"Latitude":50.30068,"Longitude":19.1212}},"Address":{"Label":"86, 41-214 Sosnowiec, Polska","Country":"POL","State":"Woj. Śląskie","County":"Sosnowiec","City":"Sosnowiec","District":"Sosnowiec","Street":"86","PostalCode":"41-214","AdditionalData":[{"value":"Polska","key":"CountryName"},{"value":"Woj. Śląskie","key":"StateName"},{"value":"Sosnowiec","key":"CountyName"}]},"MapReference":{"ReferenceId":"972150766","Spot":0.7,"SideOfStreet":"right","CountryId":"20624059","StateId":"20629003","CountyId":"20629391","CityId":"20629392","DistrictId":"20646816"}}},{"Relevance":1.0,"Distance":109.0,"MatchLevel":"street","MatchQuality":{"Country":1.0,"State":1.0,"County":1.0,"City":1.0,"District":1.0,"Street":[1.0],"PostalCode":1.0},"Location":{"LocationId":"NT_i62IPcdA07ugKqIoqXGc6C_l_1171263390_R","LocationType":"point","DisplayPosition":{"Latitude":50.30223,"Longitude":19.11984},"MapView":{"TopLeft":{"Latitude":50.30244,"Longitude":19.11962},"BottomRight":{"Latitude":50.30223,"Longitude":19.11984}},"Address":{"Label":"86, 42-500 Będzin, Polska","Country":"POL","State":"Woj. Śląskie","County":"Powiat Będziński","City":"Będzin","District":"Będzin","Street":"86","PostalCode":"42-500","AdditionalData":[{"value":"Polska","key":"CountryName"},{"value":"Woj. Śląskie","key":"StateName"},{"value":"Powiat Będziński","key":"CountyName"}]},"MapReference":{"ReferenceId":"1171263390","Spot":0.0,"SideOfStreet":"right","CountryId":"20624059","StateId":"20629003","CountyId":"20629037","CityId":"20629038","DistrictId":"20629038"}}},{"Relevance":1.0,"Distance":115.4,"MatchLevel":"street","MatchQuality":{"Country":1.0,"State":1.0,"County":1.0,"City":1.0,"District":1.0,"Street":[1.0],"PostalCode":1.0},"Location":{"LocationId":"NT_0GMf2i5z73NUaYhS8M.MtD_l_1171257617_R","LocationType":"point","DisplayPosition":{"Latitude":50.30252,"Longitude":19.11976},"MapView":{"TopLeft":{"Latitude":50.30351,"Longitude":19.11871},"BottomRight":{"Latitude":50.30252,"Longitude":19.11976}},"Address":{"Label":"86, 42-500 Będzin, Polska","Country":"POL","State":"Woj. Śląskie","County":"Powiat Będziński","City":"Będzin","District":"Będzin","Street":"86","PostalCode":"42-500","AdditionalData":[{"value":"Polska","key":"CountryName"},{"value":"Woj. Śląskie","key":"StateName"},{"value":"Powiat Będziński","key":"CountyName"}]},"MapReference":{"ReferenceId":"1171257617","Spot":0.0,"SideOfStreet":"right","CountryId":"20624059","StateId":"20629003","CountyId":"20629037","CityId":"20629038","DistrictId":"20629038"}}},{"Relevance":1.0,"Distance":124.2,"MatchLevel":"street","MatchQuality":{"Country":1.0,"State":1.0,"County":1.0,"City":1.0,"District":1.0,"Street":[1.0],"PostalCode":1.0},"Location":{"LocationId":"NT_i62IPcdA07ugKqIoqXGc6C_l_1171263391_R","LocationType":"point","DisplayPosition":{"Latitude":50.30244,"Longitude":19.11962},"MapView":{"TopLeft":{"Latitude":50.3027,"Longitude":19.11934},"BottomRight":{"Latitude":50.30244,"Longitude":19.11962}},"Address":{"Label":"86, 42-500 Będzin, Polska","Country":"POL","State":"Woj. Śląskie","County":"Powiat Będziński","City":"Będzin","District":"Będzin","Street":"86","PostalCode":"42-500","AdditionalData":[{"value":"Polska","key":"CountryName"},{"value":"Woj. Śląskie","key":"StateName"},{"value":"Powiat Będziński","key":"CountyName"}]},"MapReference":{"ReferenceId":"1171263391","Spot":0.0,"SideOfStreet":"right","CountryId":"20624059","StateId":"20629003","CountyId":"20629037","CityId":"20629038","DistrictId":"20629038"}}}]}]}}