{"Response":{"MetaInfo":{"Timestamp":"2020-03-28T10:55:36.204+0000","NextPageInformation":"2"},"View":[{"_type":"SearchResultsViewType","ViewId":0,"Result":[{"Relevance":1.0,"Distance":0.0,"Direction":0.0,"MatchLevel":"district","MatchQuality":{"Country":1.0,"State":1.0,"County":1.0,"City":1.0,"District":1.0,"PostalCode":1.0},"Location":{"LocationId":"NT_pIHfVYe2LlYK9TJY0dSE9C","LocationType":"point","DisplayPosition":{"Latitude":50.314658,"Longitude":11.2452089},"MapView":{"TopLeft":{"Latitude":50.32439,"Longitude":11.22848},"BottomRight":{"Latitude":50.30459,"Longitude":11.25349}},"Address":{"Label":"Neuhaus-Schierschnitz, Föritztal, Thüringen, Deutschland","Country":"DEU","State":"Thüringen","County":"Sonneberg","City":"Föritztal","District":"Neuhaus-Schierschnitz","PostalCode":"96524","AdditionalData":[{"value":"Deutschland","key":"CountryName"},{"value":"Thüringen","key":"StateName"},{"value":"Sonneberg","key":"CountyName"}]},"MapReference":{"ReferenceId":"554809284","SideOfStreet":"neither","CountryId":"20147700","StateId":"20196974","CountyId":"20198640","CityId":"20198647","DistrictId":"20198679"}}},{"Relevance":1.0,"Distance":54.0,"MatchLevel":"houseNumber","MatchQuality":{"Country":1.0,"State":1.0,"County":1.0,"City":1.0,"District":1.0,"Street":[1.0],"HouseNumber":1.0,"PostalCode":1.0},"MatchType":"interpolated","Location":{"LocationId":"NT_RKOov15OXL3T2EOrHqfuTD_0EE","LocationType":"point","DisplayPosition":{"Latitude":50.31425,"Longitude":11.24578},"MapView":{"TopLeft":{"Latitude":50.3153742,"Longitude":11.2440196},"BottomRight":{"Latitude":50.3131258,"Longitude":11.2475404}},"Address":{"Label":"Schloßbergring 4A, 96524 Föritztal, Deutschland","Country":"DEU","State":"Thüringen","County":"Sonneberg","City":"Föritztal","District":"Neuhaus-Schierschnitz","Street":"Schloßbergring","HouseNumber":"4A","PostalCode":"96524","AdditionalData":[{"value":"Deutschland","key":"CountryName"},{"value":"Thüringen","key":"StateName"},{"value":"Sonneberg","key":"CountyName"}]},"MapReference":{"ReferenceId":"548068049","Spot":0.43,"SideOfStreet":"left","CountryId":"20147700","StateId":"20196974","CountyId":"20198640","CityId":"20198647","DistrictId":"20198679","AddressId":"189357760","RoadLinkId":"40017826"}}},{"Relevance":1.0,"Distance":56.4,"MatchLevel":"houseNumber","MatchQuality":{"Country":1.0,"State":1.0,"County":1.0,"City":1.0,"District":1.0,"Street":[1.0],"HouseNumber":1.0,"PostalCode":1.0},"MatchType":"interpolated","Location":{"LocationId":"NT_RKOov15OXL3T2EOrHqfuTD_0A","LocationType":"point","DisplayPosition":{"Latitude":50.31406,"Longitude":11.24504},"MapView":{"TopLeft":{"Latitude":50.3151842,"Longitude":11.2432796},"BottomRight":{"Latitude":50.3129358,"Longitude":11.2468004}},"Address":{"Label":"Schloßbergring 4, 96524 Föritztal, Deutschland","Country":"DEU","State":"Thüringen","County":"Sonneberg","City":"Föritztal","District":"Neuhaus-Schierschnitz","Street":"Schloßbergring","HouseNumber":"4","PostalCode":"96524","AdditionalData":[{"value":"Deutschland","key":"CountryName"},{"value":"Thüringen","key":"StateName"},{"value":"Sonneberg","key":"CountyName"}]},"MapReference":{"ReferenceId":"548096512","Spot":0.54,"SideOfStreet":"left","CountryId":"20147700","StateId":"20196974","CountyId":"20198640","CityId":"20198647","DistrictId":"20198679","AddressId":"189659186","RoadLinkId":"39671698"}}},{"Relevance":1.0,"Distance":61.0,"MatchLevel":"street","MatchQuality":{"Country":1.0,"State":1.0,"County":1.0,"City":1.0,"District":1.0,"Street":[1.0],"PostalCode":1.0},"Location":{"LocationId":"NT_HszP3oKL72iMZOX8VBKmLB_l_548068016_R","LocationType":"point","DisplayPosition":{"Latitude":50.31519,"Longitude":11.245},"MapView":{"TopLeft":{"Latitude":50.31558,"Longitude":11.24402},"BottomRight":{"Latitude":50.31442,"Longitude":11.24561}},"Address":{"Label":"Schloß Neuhaus, 96524 Föritztal, Deutschland","Country":"DEU","State":"Thüringen","County":"Sonneberg","City":"Föritztal","District":"Neuhaus-Schierschnitz","Street":"Schloß Neuhaus","PostalCode":"96524","AdditionalData":[{"value":"Deutschland","key":"CountryName"},{"value":"Thüringen","key":"StateName"},{"value":"Sonneberg","key":"CountyName"}]},"MapReference":{"ReferenceId":"548068016","Spot":0.66,"SideOfStreet":"right","CountryId":"20147700","StateId":"20196974","CountyId":"20198640","CityId":"20198647","DistrictId":"20198679"}}},{"Relevance":1.0,"Distance":63.8,"MatchLevel":"street","MatchQuality":{"Country":1.0,"State":1.0,"County":1.0,"City":1.0,"District":1.0,"Street":[1.0],"PostalCode":1.0},"Location":{"LocationId":"NT_RKOov15OXL3T2EOrHqfuTD_l_548068026_L","LocationType":"point","DisplayPosition":{"Latitude":50.31409,"Longitude":11.24534},"MapView":{"TopLeft":{"Latitude":50.31409,"Longitude":11.24519},"BottomRight":{"Latitude":50.31373,"Longitude":11.24534}},"Address":{"Label":"Schloßbergring, 96524 Föritztal, Deutschland","Country":"DEU","State":"Thüringen","County":"Sonneberg","City":"Föritztal","District":"Neuhaus-Schierschnitz","Street":"Schloßbergring","PostalCode":"96524","AdditionalData":[{"value":"Deutschland","key":"CountryName"},{"value":"Thüringen","key":"StateName"},{"value":"Sonneberg","key":"CountyName"}]},"MapReference":{"ReferenceId":"548068026","Spot":1.0,"SideOfStreet":"left","CountryId":"20147700","StateId":"20196974","CountyId":"20198640","CityId":"20198647","DistrictId":"20198679"}}},{"Relevance":1.0,"Distance":68.2,"MatchLevel":"houseNumber","MatchQuality":{"Country":1.0,"State":1.0,"County":1.0,"City":1.0,"District":1.0,"Street":[1.0],"HouseNumber":1.0,"PostalCode":1.0},"MatchType":"interpolated","Location":{"LocationId":"NT_RKOov15OXL3T2EOrHqfuTD_xEzQ","LocationType":"point","DisplayPosition":{"Latitude":50.31481,"Longitude":11.24614},"MapView":{"TopLeft":{"Latitude":50.3159342,"Longitude":11.2443796},"BottomRight":{"Latitude":50.3136858,"Longitude":11.2479004}},"Address":{"Label":"Schloßbergring 11C, 96524 Föritztal, Deutschland","Country":"DEU","State":"Thüringen","County":"Sonneberg","City":"Föritztal","District":"Neuhaus-Schierschnitz","Street":"Schloßbergring","HouseNumber":"11C","PostalCode":"96524","AdditionalData":[{"value":"Deutschland","key":"CountryName"},{"value":"Thüringen","key":"StateName"},{"value":"Sonneberg","key":"CountyName"}]},"MapReference":{"ReferenceId":"548068004","Spot":0.31,"SideOfStreet":"right","CountryId":"20147700","StateId":"20196974","CountyId":"20198640","CityId":"20198647","DistrictId":"20198679","AddressId":"189654430","RoadLinkId":"39773046"}}},{"Relevance":1.0,"Distance":88.0,"MatchLevel":"houseNumber","MatchQuality":{"Country":1.0,"State":1.0,"County":1.0,"City":1.0,"District":1.0,"Street":[1.0],"HouseNumber":1.0,"PostalCode":1.0},"MatchType":"interpolated","Location":{"LocationId":"NT_inphU-i8rVu0dlpQp7.mOD_xQD","LocationType":"point","DisplayPosition":{"Latitude":50.31373,"Longitude":11.24532},"MapView":{"TopLeft":{"Latitude":50.3148542,"Longitude":11.2435596},"BottomRight":{"Latitude":50.3126058,"Longitude":11.2470804}},"Address":{"Label":"Minnastraße 14, 96524 Föritztal, Deutschland","Country":"DEU","State":"Thüringen","County":"Sonneberg","City":"Föritztal","District":"Neuhaus-Schierschnitz","Street":"Minnastraße","HouseNumber":"14","PostalCode":"96524","AdditionalData":[{"value":"Deutschland","key":"CountryName"},{"value":"Thüringen","key":"StateName"},{"value":"Sonneberg","key":"CountyName"}]},"MapReference":{"ReferenceId":"548068035","Spot":0.97,"SideOfStreet":"right","CountryId":"20147700","StateId":"20196974","CountyId":"20198640","CityId":"20198647","DistrictId":"20198679","AddressId":"189555854","RoadLinkId":"40006209"}}},{"Relevance":1.0,"Distance":95.1,"MatchLevel":"houseNumber","MatchQuality":{"Country":1.0,"State":1.0,"County":1.0,"City":1.0,"District":1.0,"Street":[1.0],"HouseNumber":1.0,"PostalCode":1.0},"MatchType":"interpolated","Location":{"LocationId":"NT_inphU-i8rVu0dlpQp7.mOD_xAD","LocationType":"point","DisplayPosition":{"Latitude":50.31382,"Longitude":11.24494},"MapView":{"TopLeft":{"Latitude":50.3149442,"Longitude":11.2431796},"BottomRight":{"Latitude":50.3126958,"Longitude":11.2467004}},"Address":{"Label":"Minnastraße 10, 96524 Föritztal, Deutschland","Country":"DEU","State":"Thüringen","County":"Sonneberg","City":"Föritztal","District":"Neuhaus-Schierschnitz","Street":"Minnastraße","HouseNumber":"10","PostalCode":"96524","AdditionalData":[{"value":"Deutschland","key":"CountryName"},{"value":"Thüringen","key":"StateName"},{"value":"Sonneberg","key":"CountyName"}]},"MapReference":{"ReferenceId":"548096514","Spot":0.57,"SideOfStreet":"left","CountryId":"20147700","StateId":"20196974","CountyId":"20198640","CityId":"20198647","DistrictId":"20198679","AddressId":"189523850","RoadLinkId":"39965589"}}},{"Relevance":1.0,"Distance":106.1,"MatchLevel":"houseNumber","MatchQuality":{"Country":1.0,"State":1.0,"County":1.0,"City":1.0,"District":1.0,"Street":[1.0],"HouseNumber":1.0,"PostalCode":1.0},"MatchType":"interpolated","Location":{"LocationId":"NT_RKOov15OXL3T2EOrHqfuTD_xMTQ","LocationType":"point","DisplayPosition":{"Latitude":50.31561,"Longitude":11.2453},"MapView":{"TopLeft":{"Latitude":50.3167342,"Longitude":11.2435395},"BottomRight":{"Latitude":50.3144858,"Longitude":11.2470605}},"Address":{"Label":"Schloßbergring 13A, 96524 Föritztal, Deutschland","Country":"DEU","State":"Thüringen","County":"Sonneberg","City":"Föritztal","District":"Neuhaus-Schierschnitz","Street":"Schloßbergring","HouseNumber":"13A","PostalCode":"96524","AdditionalData":[{"value":"Deutschland","key":"CountryName"},{"value":"Thüringen","key":"StateName"},{"value":"Sonneberg","key":"CountyName"}]},"MapReference":{"ReferenceId":"548067944","Spot":0.2,"SideOfStreet":"right","CountryId":"20147700","StateId":"20196974","CountyId":"20198640","CityId":"20198647","DistrictId":"20198679","AddressId":"189285394","RoadLinkId":"39801198"}}},{"Relevance":1.0,"Distance":106.5,"MatchLevel":"houseNumber","MatchQuality":{"Country":1.0,"State":1.0,"County":1.0,"City":1.0,"District":1.0,"Street":[1.0],"HouseNumber":1.0,"PostalCode":1.0},"MatchType":"interpolated","Location":{"LocationId":"NT_6.Fj7N0UHTTiSTkToGyfVD_yAD","LocationType":"point","DisplayPosition":{"Latitude":50.31555,"Longitude":11.24599},"MapView":{"TopLeft":{"Latitude":50.3166742,"Longitude":11.2442295},"BottomRight":{"Latitude":50.3144258,"Longitude":11.2477505}},"Address":{"Label":"Großer Garten 20, 96524 Föritztal, Deutschland","Country":"DEU","State":"Thüringen","County":"Sonneberg","City":"Föritztal","District":"Neuhaus-Schierschnitz","Street":"Großer Garten","HouseNumber":"20","PostalCode":"96524","AdditionalData":[{"value":"Deutschland","key":"CountryName"},{"value":"Thüringen","key":"StateName"},{"value":"Sonneberg","key":"CountyName"}]},"MapReference":{"ReferenceId":"554820190","Spot":0.91,"SideOfStreet":"left","CountryId":"20147700","StateId":"20196974","CountyId":"20198640","CityId":"20198647","DistrictId":"20198679","AddressId":"189207998","RoadLinkId":"39805607"}}}]}]}}