{"Response":{"MetaInfo":{"Timestamp":"2020-03-28T09:52:20.350+0000","NextPageInformation":"2"},"View":[{"_type":"SearchResultsViewType","ViewId":0,"Result":[{"Relevance":1.0,"Distance":0.0,"Direction":0.0,"MatchLevel":"district","MatchQuality":{"Country":1.0,"State":1.0,"County":1.0,"City":1.0,"District":1.0,"PostalCode":1.0},"Location":{"LocationId":"NT_uD7xiVLYSNmySGa4WX5igB","LocationType":"point","DisplayPosition":{"Latitude":50.3859911,"Longitude":-4.0527257},"MapView":{"TopLeft":{"Latitude":50.40049,"Longitude":-4.09456},"BottomRight":{"Latitude":50.37832,"Longitude":-4.00909}},"Address":{"Label":"Plympton, Plymouth, England, United Kingdom","Country":"GBR","State":"England","County":"Devon","City":"Plymouth","District":"Plympton","PostalCode":"PL7 2","AdditionalData":[{"value":"United Kingdom","key":"CountryName"},{"value":"England","key":"StateName"},{"value":"Devon","key":"CountyName"}]},"MapReference":{"ReferenceId":"985363664","SideOfStreet":"neither","StateId":"20248595","CountyId":"20353913","CityId":"20354548","DistrictId":"20354589"}}},{"Relevance":1.0,"Distance":7.7,"MatchLevel":"houseNumber","MatchQuality":{"Country":1.0,"State":1.0,"County":1.0,"City":1.0,"District":1.0,"Street":[1.0],"HouseNumber":1.0,"PostalCode":1.0},"MatchType":"interpolated","Location":{"LocationId":"NT_9xvj5bc75oEi0zZ8ysEFxB_l_565695764_L_0YD","LocationType":"point","DisplayPosition":{"Latitude":50.38594,"Longitude":-4.0528},"MapView":{"TopLeft":{"Latitude":50.3870642,"Longitude":-4.0545631},"BottomRight":{"Latitude":50.3848159,"Longitude":-4.051037}},"Address":{"Label":"46 Dark Street Lane, Plymouth, PL7 1PW, United Kingdom","Country":"GBR","State":"England","County":"Devon","City":"Plymouth","District":"Plympton","Street":"Dark Street Lane","HouseNumber":"46","PostalCode":"PL7 1PW","AdditionalData":[{"value":"United Kingdom","key":"CountryName"},{"value":"England","key":"StateName"},{"value":"Devon","key":"CountyName"}]},"MapReference":{"ReferenceId":"565695764","Spot":0.16,"SideOfStreet":"left","StateId":"20248595","CountyId":"20353913","CityId":"20354548","DistrictId":"20354589"}}},{"Relevance":1.0,"Distance":10.5,"MatchLevel":"postalCode","MatchQuality":{"PostalCode":1.0},"MatchType":"interpolated","Location":{"LocationId":"NT_9xvj5bc75oEi0zZ8ysEFxB_l_565695764_L_0YD","LocationType":"point","DisplayPosition":{"Latitude":50.38594,"Longitude":-4.05285},"MapView":{"TopLeft":{"Latitude":50.3949332,"Longitude":-4.0669545},"BottomRight":{"Latitude":50.3769468,"Longitude":-4.0387455}},"Address":{"Label":"PL7 1PW, Plymouth, England, United Kingdom","Country":"GBR","State":"England","County":"Devon","City":"Plymouth","PostalCode":"PL7 1PW","AdditionalData":[{"value":"United Kingdom","key":"CountryName"},{"value":"England","key":"StateName"},{"value":"Devon","key":"CountyName"}]},"MapReference":{"ReferenceId":"565695764","Spot":0.16,"SideOfStreet":"neither","StateId":"20248595","CountyId":"20353913","CityId":"20354548"}}},{"Relevance":1.0,"Distance":18.7,"MatchLevel":"street","MatchQuality":{"Country":1.0,"State":1.0,"County":1.0,"City":1.0,"District":1.0,"PostalCode":1.0},"Location":{"LocationId":"NT_mpIHFVjIFWUoZhPCq3mQMA_l_565695765_L","LocationType":"point","DisplayPosition":{"Latitude":50.3858239,"Longitude":-4.0526972},"MapView":{"TopLeft":{"Latitude":50.38589,"Longitude":-4.05272},"BottomRight":{"Latitude":50.38582,"Longitude":-4.05231}},"Address":{"Label":"Plymouth, PL7 1, United Kingdom","Country":"GBR","State":"England","County":"Devon","City":"Plymouth","District":"Plympton","PostalCode":"PL7 1","AdditionalData":[{"value":"United Kingdom","key":"CountryName"},{"value":"England","key":"StateName"},{"value":"Devon","key":"CountyName"}]},"MapReference":{"ReferenceId":"565695765","Spot":0.06,"SideOfStreet":"left","StateId":"20248595","CountyId":"20353913","CityId":"20354548","DistrictId":"20354589"}}},{"Relevance":1.0,"Distance":44.4,"MatchLevel":"houseNumber","MatchQuality":{"Country":1.0,"State":1.0,"County":1.0,"City":1.0,"District":1.0,"Street":[1.0],"HouseNumber":1.0,"PostalCode":1.0},"MatchType":"interpolated","Location":{"LocationId":"NT_9xvj5bc75oEi0zZ8ysEFxB_l_565695763_L_0gD","LocationType":"point","DisplayPosition":{"Latitude":50.3856074,"Longitude":-4.0525531},"MapView":{"TopLeft":{"Latitude":50.3867316,"Longitude":-4.0543162},"BottomRight":{"Latitude":50.3844833,"Longitude":-4.0507901}},"Address":{"Label":"48 Dark Street Lane, Plymouth, PL7 1PW, United Kingdom","Country":"GBR","State":"England","County":"Devon","City":"Plymouth","District":"Plympton","Street":"Dark Street Lane","HouseNumber":"48","PostalCode":"PL7 1PW","AdditionalData":[{"value":"United Kingdom","key":"CountryName"},{"value":"England","key":"StateName"},{"value":"Devon","key":"CountyName"}]},"MapReference":{"ReferenceId":"565695763","Spot":0.62,"SideOfStreet":"left","StateId":"20248595","CountyId":"20353913","CityId":"20354548","DistrictId":"20354589"}}},{"Relevance":1.0,"Distance":70.6,"MatchLevel":"houseNumber","MatchQuality":{"Country":1.0,"State":1.0,"County":1.0,"City":1.0,"District":1.0,"Street":[1.0],"HouseNumber":1.0,"PostalCode":1.0},"MatchType":"interpolated","Location":{"LocationId":"NT_I67Ivj--lRu7PmprwqwD6C_l_26686016_L_xA","LocationType":"point","DisplayPosition":{"Latitude":50.38661,"Longitude":-4.05337},"MapView":{"TopLeft":{"Latitude":50.3877342,"Longitude":-4.0551331},"BottomRight":{"Latitude":50.3854858,"Longitude":-4.0516069}},"Address":{"Label":"1 Priory Drive, Plymouth, PL7 1PU, United Kingdom","Country":"GBR","State":"England","County":"Devon","City":"Plymouth","District":"Plympton","Street":"Priory Drive","HouseNumber":"1","PostalCode":"PL7 1PU","AdditionalData":[{"value":"United Kingdom","key":"CountryName"},{"value":"England","key":"StateName"},{"value":"Devon","key":"CountyName"}]},"MapReference":{"ReferenceId":"26686016","Spot":0.44,"SideOfStreet":"left","StateId":"20248595","CountyId":"20353913","CityId":"20354548","DistrictId":"20354589"}}},{"Relevance":1.0,"Distance":82.8,"MatchLevel":"houseNumber","MatchQuality":{"Country":1.0,"State":1.0,"County":1.0,"City":1.0,"District":1.0,"Street":[1.0],"HouseNumber":1.0,"PostalCode":1.0},"MatchType":"interpolated","Location":{"LocationId":"NT_I67Ivj--lRu7PmprwqwD6C_l_26790047_L_3ID","LocationType":"point","DisplayPosition":{"Latitude":50.38618,"Longitude":-4.0538905},"MapView":{"TopLeft":{"Latitude":50.3873042,"Longitude":-4.0556536},"BottomRight":{"Latitude":50.3850558,"Longitude":-4.0521274}},"Address":{"Label":"72 Priory Drive, Plymouth, PL7 1PX, United Kingdom","Country":"GBR","State":"England","County":"Devon","City":"Plymouth","District":"Plympton","Street":"Priory Drive","HouseNumber":"72","PostalCode":"PL7 1PX","AdditionalData":[{"value":"United Kingdom","key":"CountryName"},{"value":"England","key":"StateName"},{"value":"Devon","key":"CountyName"}]},"MapReference":{"ReferenceId":"26790047","Spot":0.04,"SideOfStreet":"left","StateId":"20248595","CountyId":"20353913","CityId":"20354548","DistrictId":"20354589"}}},{"Relevance":1.0,"Distance":88.3,"MatchLevel":"street","MatchQuality":{"Country":1.0,"State":1.0,"County":1.0,"City":1.0,"District":1.0,"Street":[1.0],"PostalCode":1.0},"Location":{"LocationId":"NT_jurFe87XAKg9aA8iC6ijDD_l_565642303_R","LocationType":"point","DisplayPosition":{"Latitude":50.38522,"Longitude":-4.05243},"MapView":{"TopLeft":{"Latitude":50.38522,"Longitude":-4.05243},"BottomRight":{"Latitude":50.38509,"Longitude":-4.05211}},"Address":{"Label":"Redvers Grove, Plymouth, PL7 1, United Kingdom","Country":"GBR","State":"England","County":"Devon","City":"Plymouth","District":"Plympton","Street":"Redvers Grove","PostalCode":"PL7 1","AdditionalData":[{"value":"United Kingdom","key":"CountryName"},{"value":"England","key":"StateName"},{"value":"Devon","key":"CountyName"}]},"MapReference":{"ReferenceId":"565642303","Spot":1.0,"SideOfStreet":"right","StateId":"20248595","CountyId":"20353913","CityId":"20354548","DistrictId":"20354589"}}},{"Relevance":1.0,"Distance":88.9,"MatchLevel":"houseNumber","MatchQuality":{"Country":1.0,"State":1.0,"County":1.0,"City":1.0,"District":1.0,"Street":[1.0],"HouseNumber":1.0,"PostalCode":1.0},"MatchType":"interpolated","Location":{"LocationId":"NT_9xvj5bc75oEi0zZ8ysEFxB_l_26686012_L_zgD","LocationType":"point","DisplayPosition":{"Latitude":50.3867337,"Longitude":-4.053191},"MapView":{"TopLeft":{"Latitude":50.3878578,"Longitude":-4.0549541},"BottomRight":{"Latitude":50.3856095,"Longitude":-4.0514279}},"Address":{"Label":"38 Dark Street Lane, Plymouth, PL7 1, United Kingdom","Country":"GBR","State":"England","County":"Devon","City":"Plymouth","District":"Plympton","Street":"Dark Street Lane","HouseNumber":"38","PostalCode":"PL7 1","AdditionalData":[{"value":"United Kingdom","key":"CountryName"},{"value":"England","key":"StateName"},{"value":"Devon","key":"CountyName"}]},"MapReference":{"ReferenceId":"26686012","Spot":0.52,"SideOfStreet":"left","StateId":"20248595","CountyId":"20353913","CityId":"20354548","DistrictId":"20354589"}}},{"Relevance":1.0,"Distance":89.5,"MatchLevel":"houseNumber","MatchQuality":{"Country":1.0,"State":1.0,"County":1.0,"City":1.0,"District":1.0,"Street":[1.0],"HouseNumber":1.0,"PostalCode":1.0},"MatchType":"interpolated","Location":{"LocationId":"NT_9xvj5bc75oEi0zZ8ysEFxB_l_565642301_L_1YD","LocationType":"point","DisplayPosition":{"Latitude":50.385095,"Longitude":-4.052505},"MapView":{"TopLeft":{"Latitude":50.3862192,"Longitude":-4.054268},"BottomRight":{"Latitude":50.3839709,"Longitude":-4.050742}},"Address":{"Label":"56 Dark Street Lane, Plymouth, PL7 1PW, United Kingdom","Country":"GBR","State":"England","County":"Devon","City":"Plymouth","District":"Plympton","Street":"Dark Street Lane","HouseNumber":"56","PostalCode":"PL7 1PW","AdditionalData":[{"value":"United Kingdom","key":"CountryName"},{"value":"England","key":"StateName"},{"value":"Devon","key":"CountyName"}]},"MapReference":{"ReferenceId":"565642301","Spot":0.5,"SideOfStreet":"left","StateId":"20248595","CountyId":"20353913","CityId":"20354548","DistrictId":"20354589"}}}]}]}}