{"Response":{"MetaInfo":{"Timestamp":"2020-03-28T10:54:11.576+0000","NextPageInformation":"2"},"View":[{"_type":"SearchResultsViewType","ViewId":0,"Result":[{"Relevance":1.0,"Distance":-6.9,"MatchLevel":"landmark","MatchQuality":{"Country":1.0,"State":1.0,"County":1.0,"City":1.0,"District":1.0,"Street":[1.0],"PostalCode":1.0,"Name":1.0},"Location":{"LocationId":"NT_KeYzHT5eWGS-6JYtyaxdWA_p_zfRuriw5muZo9VxpboUWPC","LocationType":"hospital","Name":"Nemocnice Kadaň","DisplayPosition":{"Latitude":50.39104,"Longitude":13.27149},"MapView":{"TopLeft":{"Latitude":50.39261,"Longitude":13.2673},"BottomRight":{"Latitude":50.3902,"Longitude":13.2724}},"Address":{"Label":"Golovinova, 432 01 Kadaň, Česká Republika","Country":"CZE","State":"Ústecký kraj","County":"Chomutov","City":"Kadaň","District":"Kadaň","Street":"Golovinova","PostalCode":"432 01","AdditionalData":[{"value":"Česká Republika","key":"CountryName"},{"value":"Ústecký kraj","key":"StateName"},{"value":"Chomutov","key":"CountyName"}]},"MapReference":{"CountryId":"20427915","StateId":"20446117","CountyId":"20446118","CityId":"20446155","DistrictId":"20446156","PlaceId":"916725285"}}},{"Relevance":1.0,"Distance":0.0,"Direction":0.0,"MatchLevel":"district","MatchQuality":{"Country":1.0,"State":1.0,"County":1.0,"City":1.0,"District":1.0,"PostalCode":1.0},"Location":{"LocationId":"NT_OG3EqS8iW1HfS4FP7aoAGC","LocationType":"point","DisplayPosition":{"Latitude":50.3903195,"Longitude":13.2688283},"MapView":{"TopLeft":{"Latitude":50.39824,"Longitude":13.24871},"BottomRight":{"Latitude":50.36421,"Longitude":13.29276}},"Address":{"Label":"Kadaň, Ústecký kraj, Česká Republika","Country":"CZE","State":"Ústecký kraj","County":"Chomutov","City":"Kadaň","District":"Kadaň","PostalCode":"432 01","AdditionalData":[{"value":"Česká Republika","key":"CountryName"},{"value":"Ústecký kraj","key":"StateName"},{"value":"Chomutov","key":"CountyName"}]},"MapReference":{"ReferenceId":"1125416290","SideOfStreet":"neither","CountryId":"20427915","StateId":"20446117","CountyId":"20446118","CityId":"20446155","DistrictId":"20446156"}}},{"Relevance":1.0,"Distance":14.2,"MatchLevel":"street","MatchQuality":{"Country":1.0,"State":1.0,"County":1.0,"City":1.0,"District":1.0,"Street":[1.0],"PostalCode":1.0},"Location":{"LocationId":"NT_Td.eTBC14viipAXM6LTgpD_l_704347048_L","LocationType":"point","DisplayPosition":{"Latitude":50.3902,"Longitude":13.2689},"MapView":{"TopLeft":{"Latitude":50.39092,"Longitude":13.2689},"BottomRight":{"Latitude":50.3902,"Longitude":13.27107}},"Address":{"Label":"Golovinova, 432 01 Kadaň, Česká Republika","Country":"CZE","State":"Ústecký kraj","County":"Chomutov","City":"Kadaň","District":"Kadaň","Street":"Golovinova","PostalCode":"432 01","AdditionalData":[{"value":"Česká Republika","key":"CountryName"},{"value":"Ústecký kraj","key":"StateName"},{"value":"Chomutov","key":"CountyName"}]},"MapReference":{"ReferenceId":"704347048","Spot":0.0,"SideOfStreet":"left","CountryId":"20427915","StateId":"20446117","CountyId":"20446118","CityId":"20446155","DistrictId":"20446156"}}},{"Relevance":1.0,"Distance":14.2,"MatchLevel":"street","MatchQuality":{"Country":1.0,"State":1.0,"County":1.0,"City":1.0,"District":1.0,"Street":[1.0],"PostalCode":1.0},"Location":{"LocationId":"NT_Td.eTBC14viipAXM6LTgpD_l_704347052_L","LocationType":"point","DisplayPosition":{"Latitude":50.3902,"Longitude":13.2689},"MapView":{"TopLeft":{"Latitude":50.3902,"Longitude":13.26873},"BottomRight":{"Latitude":50.39008,"Longitude":13.2689}},"Address":{"Label":"Golovinova, 432 01 Kadaň, Česká Republika","Country":"CZE","State":"Ústecký kraj","County":"Chomutov","City":"Kadaň","District":"Kadaň","Street":"Golovinova","PostalCode":"432 01","AdditionalData":[{"value":"Česká Republika","key":"CountryName"},{"value":"Ústecký kraj","key":"StateName"},{"value":"Chomutov","key":"CountyName"}]},"MapReference":{"ReferenceId":"704347052","Spot":1.0,"SideOfStreet":"left","CountryId":"20427915","StateId":"20446117","CountyId":"20446118","CityId":"20446155","DistrictId":"20446156"}}},{"Relevance":1.0,"Distance":25.3,"MatchLevel":"street","MatchQuality":{"Country":1.0,"State":1.0,"County":1.0,"City":1.0,"District":1.0,"Street":[1.0],"PostalCode":1.0},"Location":{"LocationId":"NT_Td.eTBC14viipAXM6LTgpD_l_704347053_R","LocationType":"point","DisplayPosition":{"Latitude":50.3901116,"Longitude":13.2686844},"MapView":{"TopLeft":{"Latitude":50.39036,"Longitude":13.26834},"BottomRight":{"Latitude":50.39008,"Longitude":13.26873}},"Address":{"Label":"Golovinova, 432 01 Kadaň, Česká Republika","Country":"CZE","State":"Ústecký kraj","County":"Chomutov","City":"Kadaň","District":"Kadaň","Street":"Golovinova","PostalCode":"432 01","AdditionalData":[{"value":"Česká Republika","key":"CountryName"},{"value":"Ústecký kraj","key":"StateName"},{"value":"Chomutov","key":"CountyName"}]},"MapReference":{"ReferenceId":"704347053","Spot":0.11,"SideOfStreet":"right","CountryId":"20427915","StateId":"20446117","CountyId":"20446118","CityId":"20446155","DistrictId":"20446156"}}},{"Relevance":1.0,"Distance":34.9,"MatchLevel":"street","MatchQuality":{"Country":1.0,"State":1.0,"County":1.0,"City":1.0,"District":1.0,"Street":[1.0],"PostalCode":1.0},"Location":{"LocationId":"NT_Td.eTBC14viipAXM6LTgpD_l_736225444_R","LocationType":"point","DisplayPosition":{"Latitude":50.39036,"Longitude":13.26834},"MapView":{"TopLeft":{"Latitude":50.39046,"Longitude":13.26791},"BottomRight":{"Latitude":50.39036,"Longitude":13.26834}},"Address":{"Label":"Golovinova, 432 01 Kadaň, Česká Republika","Country":"CZE","State":"Ústecký kraj","County":"Chomutov","City":"Kadaň","District":"Kadaň","Street":"Golovinova","PostalCode":"432 01","AdditionalData":[{"value":"Česká Republika","key":"CountryName"},{"value":"Ústecký kraj","key":"StateName"},{"value":"Chomutov","key":"CountyName"}]},"MapReference":{"ReferenceId":"736225444","Spot":0.0,"SideOfStreet":"right","CountryId":"20427915","StateId":"20446117","CountyId":"20446118","CityId":"20446155","DistrictId":"20446156"}}},{"Relevance":1.0,"Distance":34.9,"MatchLevel":"street","MatchQuality":{"Country":1.0,"State":1.0,"County":1.0,"City":1.0,"District":1.0,"Street":[1.0],"PostalCode":1.0},"Location":{"LocationId":"NT_Td.eTBC14viipAXM6LTgpD_l_736225442_R","LocationType":"point","DisplayPosition":{"Latitude":50.39036,"Longitude":13.26834},"MapView":{"TopLeft":{"Latitude":50.39036,"Longitude":13.2683},"BottomRight":{"Latitude":50.39025,"Longitude":13.26834}},"Address":{"Label":"Golovinova, 432 01 Kadaň, Česká Republika","Country":"CZE","State":"Ústecký kraj","County":"Chomutov","City":"Kadaň","District":"Kadaň","Street":"Golovinova","PostalCode":"432 01","AdditionalData":[{"value":"Česká Republika","key":"CountryName"},{"value":"Ústecký kraj","key":"StateName"},{"value":"Chomutov","key":"CountyName"}]},"MapReference":{"ReferenceId":"736225442","Spot":1.0,"SideOfStreet":"right","CountryId":"20427915","StateId":"20446117","CountyId":"20446118","CityId":"20446155","DistrictId":"20446156"}}},{"Relevance":1.0,"Distance":38.2,"MatchLevel":"street","MatchQuality":{"Country":1.0,"State":1.0,"County":1.0,"City":1.0,"District":1.0,"Street":[1.0],"PostalCode":1.0},"Location":{"LocationId":"NT_Td.eTBC14viipAXM6LTgpD_l_736225443_R","LocationType":"point","DisplayPosition":{"Latitude":50.39025,"Longitude":13.2683},"MapView":{"TopLeft":{"Latitude":50.39046,"Longitude":13.26782},"BottomRight":{"Latitude":50.39025,"Longitude":13.2683}},"Address":{"Label":"Golovinova, 432 01 Kadaň, Česká Republika","Country":"CZE","State":"Ústecký kraj","County":"Chomutov","City":"Kadaň","District":"Kadaň","Street":"Golovinova","PostalCode":"432 01","AdditionalData":[{"value":"Česká Republika","key":"CountryName"},{"value":"Ústecký kraj","key":"StateName"},{"value":"Chomutov","key":"CountyName"}]},"MapReference":{"ReferenceId":"736225443","Spot":0.0,"SideOfStreet":"right","CountryId":"20427915","StateId":"20446117","CountyId":"20446118","CityId":"20446155","DistrictId":"20446156"}}},{"Relevance":1.0,"Distance":45.6,"MatchLevel":"houseNumber","MatchQuality":{"Country":1.0,"State":1.0,"County":1.0,"City":1.0,"District":1.0,"Street":[1.0],"HouseNumber":1.0,"PostalCode":1.0},"MatchType":"interpolated","Location":{"LocationId":"NT_Td.eTBC14viipAXM6LTgpD_xMzMwA","LocationType":"point","DisplayPosition":{"Latitude":50.38991,"Longitude":13.26886},"MapView":{"TopLeft":{"Latitude":50.3910342,"Longitude":13.2670968},"BottomRight":{"Latitude":50.3887858,"Longitude":13.2706232}},"Address":{"Label":"Golovinova 1330, 432 01 Kadaň, Česká Republika","Country":"CZE","State":"Ústecký kraj","County":"Chomutov","City":"Kadaň","District":"Kadaň","Street":"Golovinova","HouseNumber":"1330","PostalCode":"432 01","AdditionalData":[{"value":"Česká Republika","key":"CountryName"},{"value":"Ústecký kraj","key":"StateName"},{"value":"Chomutov","key":"CountyName"}]},"MapReference":{"ReferenceId":"1119748578","Spot":1.0,"SideOfStreet":"right","CountryId":"20427915","StateId":"20446117","CountyId":"20446118","CityId":"20446155","DistrictId":"20446156","AddressId":"239652529","RoadLinkId":"429879620"}}},{"Relevance":1.0,"Distance":55.0,"MatchLevel":"houseNumber","MatchQuality":{"Country":1.0,"State":1.0,"County":1.0,"City":1.0,"District":1.0,"Street":[1.0],"HouseNumber":1.0,"PostalCode":1.0},"MatchType":"interpolated","Location":{"LocationId":"NT_Td.eTBC14viipAXM6LTgpD_xMTNzA","LocationType":"point","DisplayPosition":{"Latitude":50.39015,"Longitude":13.26813},"MapView":{"TopLeft":{"Latitude":50.3912742,"Longitude":13.2663668},"BottomRight":{"Latitude":50.3890258,"Longitude":13.2698932}},"Address":{"Label":"Golovinova 1353, 432 01 Kadaň, Česká Republika","Country":"CZE","State":"Ústecký kraj","County":"Chomutov","City":"Kadaň","District":"Kadaň","Street":"Golovinova","HouseNumber":"1353","PostalCode":"432 01","AdditionalData":[{"value":"Česká Republika","key":"CountryName"},{"value":"Ústecký kraj","key":"StateName"},{"value":"Chomutov","key":"CountyName"}]},"MapReference":{"ReferenceId":"736225441","Spot":0.77,"SideOfStreet":"right","CountryId":"20427915","StateId":"20446117","CountyId":"20446118","CityId":"20446155","DistrictId":"20446156","AddressId":"241164867","RoadLinkId":"135913218"}}}]}]}}