{"Response":{"MetaInfo":{"Timestamp":"2020-03-28T11:01:57.835+0000","NextPageInformation":"2"},"View":[{"_type":"SearchResultsViewType","ViewId":0,"Result":[{"Relevance":1.0,"Distance":0.0,"Direction":0.0,"MatchLevel":"city","MatchQuality":{"Country":1.0,"State":1.0,"County":1.0,"City":1.0,"PostalCode":1.0},"Location":{"LocationId":"NT_zjrFbzyO18N49rGZf0d9.B","LocationType":"point","DisplayPosition":{"Latitude":50.3882324,"Longitude":8.0502631},"MapView":{"TopLeft":{"Latitude":50.44584,"Longitude":7.98351},"BottomRight":{"Latitude":50.35688,"Longitude":8.1573}},"Address":{"Label":"Limburg an der Lahn, Hessen, Deutschland","Country":"DEU","State":"Hessen","County":"Limburg-Weilburg","City":"Limburg an der Lahn","PostalCode":"65549","AdditionalData":[{"value":"Deutschland","key":"CountryName"},{"value":"Hessen","key":"StateName"},{"value":"Limburg-Weilburg","key":"CountyName"}]},"MapReference":{"ReferenceId":"61955922","SideOfStreet":"neither","CountryId":"20147700","StateId":"20160993","CountyId":"20162477","CityId":"20162527"}}},{"Relevance":1.0,"Distance":62.7,"MatchLevel":"street","MatchQuality":{"Country":1.0,"State":1.0,"County":1.0,"City":1.0,"District":1.0,"PostalCode":1.0},"Location":{"LocationId":"NT_XpHfqq8Qr.xwsw8H6fuXaB_l_590224016_L","LocationType":"point","DisplayPosition":{"Latitude":50.38781,"Longitude":8.05085},"MapView":{"TopLeft":{"Latitude":50.38781,"Longitude":8.05085},"BottomRight":{"Latitude":50.38774,"Longitude":8.0509}},"Address":{"Label":"65549 Limburg an der Lahn, Deutschland","Country":"DEU","State":"Hessen","County":"Limburg-Weilburg","City":"Limburg an der Lahn","District":"Limburg an der Lahn","PostalCode":"65549","AdditionalData":[{"value":"Deutschland","key":"CountryName"},{"value":"Hessen","key":"StateName"},{"value":"Limburg-Weilburg","key":"CountyName"}]},"MapReference":{"ReferenceId":"590224016","Spot":1.0,"SideOfStreet":"left","CountryId":"20147700","StateId":"20160993","CountyId":"20162477","CityId":"20162527","DistrictId":"20162533"}}},{"Relevance":1.0,"Distance":71.0,"MatchLevel":"street","MatchQuality":{"Country":1.0,"State":1.0,"County":1.0,"City":1.0,"District":1.0,"PostalCode":1.0},"Location":{"LocationId":"NT_XpHfqq8Qr.xwsw8H6fuXaB_l_590224017_R","LocationType":"point","DisplayPosition":{"Latitude":50.38774,"Longitude":8.0509},"MapView":{"TopLeft":{"Latitude":50.38778,"Longitude":8.0509},"BottomRight":{"Latitude":50.38772,"Longitude":8.05237}},"Address":{"Label":"65549 Limburg an der Lahn, Deutschland","Country":"DEU","State":"Hessen","County":"Limburg-Weilburg","City":"Limburg an der Lahn","District":"Limburg an der Lahn","PostalCode":"65549","AdditionalData":[{"value":"Deutschland","key":"CountryName"},{"value":"Hessen","key":"StateName"},{"value":"Limburg-Weilburg","key":"CountyName"}]},"MapReference":{"ReferenceId":"590224017","Spot":1.0,"SideOfStreet":"right","CountryId":"20147700","StateId":"20160993","CountyId":"20162477","CityId":"20162527","DistrictId":"20162533"}}},{"Relevance":1.0,"Distance":71.0,"MatchLevel":"street","MatchQuality":{"Country":1.0,"State":1.0,"County":1.0,"City":1.0,"District":1.0,"PostalCode":1.0},"Location":{"LocationId":"NT_XpHfqq8Qr.xwsw8H6fuXaB_l_590224015_L","LocationType":"point","DisplayPosition":{"Latitude":50.38774,"Longitude":8.0509},"MapView":{"TopLeft":{"Latitude":50.38774,"Longitude":8.0509},"BottomRight":{"Latitude":50.38739,"Longitude":8.05136}},"Address":{"Label":"65549 Limburg an der Lahn, Deutschland","Country":"DEU","State":"Hessen","County":"Limburg-Weilburg","City":"Limburg an der Lahn","District":"Limburg an der Lahn","PostalCode":"65549","AdditionalData":[{"value":"Deutschland","key":"CountryName"},{"value":"Hessen","key":"StateName"},{"value":"Limburg-Weilburg","key":"CountyName"}]},"MapReference":{"ReferenceId":"590224015","Spot":1.0,"SideOfStreet":"left","CountryId":"20147700","StateId":"20160993","CountyId":"20162477","CityId":"20162527","DistrictId":"20162533"}}},{"Relevance":1.0,"Distance":121.7,"MatchLevel":"street","MatchQuality":{"Country":1.0,"State":1.0,"County":1.0,"City":1.0,"District":1.0,"Street":[1.0],"PostalCode":1.0},"Location":{"LocationId":"NT_fQzXKDKLKCwK2933pCCHZA_l_590224014_L","LocationType":"point","DisplayPosition":{"Latitude":50.38739,"Longitude":8.05136},"MapView":{"TopLeft":{"Latitude":50.38772,"Longitude":8.05136},"BottomRight":{"Latitude":50.38736,"Longitude":8.05237}},"Address":{"Label":"Auf dem Schafsberg, 65549 Limburg an der Lahn, Deutschland","Country":"DEU","State":"Hessen","County":"Limburg-Weilburg","City":"Limburg an der Lahn","District":"Limburg an der Lahn","Street":"Auf dem Schafsberg","PostalCode":"65549","AdditionalData":[{"value":"Deutschland","key":"CountryName"},{"value":"Hessen","key":"StateName"},{"value":"Limburg-Weilburg","key":"CountyName"}]},"MapReference":{"ReferenceId":"590224014","Spot":0.0,"SideOfStreet":"left","CountryId":"20147700","StateId":"20160993","CountyId":"20162477","CityId":"20162527","DistrictId":"20162533"}}},{"Relevance":1.0,"Distance":123.0,"MatchLevel":"street","MatchQuality":{"Country":1.0,"State":1.0,"County":1.0,"City":1.0,"District":1.0,"Street":[1.0],"PostalCode":1.0},"Location":{"LocationId":"NT_fQzXKDKLKCwK2933pCCHZA_l_61956240_L","LocationType":"point","DisplayPosition":{"Latitude":50.3871973,"Longitude":8.0508747},"MapView":{"TopLeft":{"Latitude":50.38739,"Longitude":8.05052},"BottomRight":{"Latitude":50.38689,"Longitude":8.05136}},"Address":{"Label":"Auf dem Schafsberg, 65549 Limburg an der Lahn, Deutschland","Country":"DEU","State":"Hessen","County":"Limburg-Weilburg","City":"Limburg an der Lahn","District":"Limburg an der Lahn","Street":"Auf dem Schafsberg","PostalCode":"65549","AdditionalData":[{"value":"Deutschland","key":"CountryName"},{"value":"Hessen","key":"StateName"},{"value":"Limburg-Weilburg","key":"CountyName"}]},"MapReference":{"ReferenceId":"61956240","Spot":0.48,"SideOfStreet":"left","CountryId":"20147700","StateId":"20160993","CountyId":"20162477","CityId":"20162527","DistrictId":"20162533"}}},{"Relevance":1.0,"Distance":159.6,"MatchLevel":"houseNumber","MatchQuality":{"Country":1.0,"State":1.0,"County":1.0,"City":1.0,"District":1.0,"Street":[1.0],"HouseNumber":1.0,"PostalCode":1.0},"MatchType":"interpolated","Location":{"LocationId":"NT_bU3QqVu-xzUG.6H1zQqcBB_3A","LocationType":"point","DisplayPosition":{"Latitude":50.38974,"Longitude":8.05049},"MapView":{"TopLeft":{"Latitude":50.3908642,"Longitude":8.0487268},"BottomRight":{"Latitude":50.3886158,"Longitude":8.0522532}},"Address":{"Label":"Beethovenstraße 7, 65549 Limburg an der Lahn, Deutschland","Country":"DEU","State":"Hessen","County":"Limburg-Weilburg","City":"Limburg an der Lahn","District":"Limburg an der Lahn","Street":"Beethovenstraße","HouseNumber":"7","PostalCode":"65549","AdditionalData":[{"value":"Deutschland","key":"CountryName"},{"value":"Hessen","key":"StateName"},{"value":"Limburg-Weilburg","key":"CountyName"}]},"MapReference":{"ReferenceId":"61956090","Spot":0.53,"SideOfStreet":"right","CountryId":"20147700","StateId":"20160993","CountyId":"20162477","CityId":"20162527","DistrictId":"20162533","AddressId":"186762020","RoadLinkId":"34252792"}}},{"Relevance":1.0,"Distance":164.0,"MatchLevel":"houseNumber","MatchQuality":{"Country":1.0,"State":1.0,"County":1.0,"City":1.0,"District":1.0,"Street":[1.0],"HouseNumber":1.0,"PostalCode":1.0},"MatchType":"interpolated","Location":{"LocationId":"NT_3xmt04hV.myOsVu8Ka92yD_1A","LocationType":"point","DisplayPosition":{"Latitude":50.38685,"Longitude":8.05107},"MapView":{"TopLeft":{"Latitude":50.3879742,"Longitude":8.0493069},"BottomRight":{"Latitude":50.3857258,"Longitude":8.0528331}},"Address":{"Label":"Albrechtstraße 5, 65549 Limburg an der Lahn, Deutschland","Country":"DEU","State":"Hessen","County":"Limburg-Weilburg","City":"Limburg an der Lahn","District":"Limburg an der Lahn","Street":"Albrechtstraße","HouseNumber":"5","PostalCode":"65549","AdditionalData":[{"value":"Deutschland","key":"CountryName"},{"value":"Hessen","key":"StateName"},{"value":"Limburg-Weilburg","key":"CountyName"}]},"MapReference":{"ReferenceId":"62100350","Spot":0.54,"SideOfStreet":"left","CountryId":"20147700","StateId":"20160993","CountyId":"20162477","CityId":"20162527","DistrictId":"20162533","AddressId":"187180448","RoadLinkId":"34530322"}}},{"Relevance":1.0,"Distance":180.3,"MatchLevel":"houseNumber","MatchQuality":{"Country":1.0,"State":1.0,"County":1.0,"City":1.0,"District":1.0,"Street":[1.0],"HouseNumber":1.0,"PostalCode":1.0},"MatchType":"interpolated","Location":{"LocationId":"NT_bU3QqVu-xzUG.6H1zQqcBB_xAD","LocationType":"point","DisplayPosition":{"Latitude":50.38962,"Longitude":8.05158},"MapView":{"TopLeft":{"Latitude":50.3907442,"Longitude":8.0498168},"BottomRight":{"Latitude":50.3884958,"Longitude":8.0533432}},"Address":{"Label":"Beethovenstraße 10, 65549 Limburg an der Lahn, Deutschland","Country":"DEU","State":"Hessen","County":"Limburg-Weilburg","City":"Limburg an der Lahn","District":"Limburg an der Lahn","Street":"Beethovenstraße","HouseNumber":"10","PostalCode":"65549","AdditionalData":[{"value":"Deutschland","key":"CountryName"},{"value":"Hessen","key":"StateName"},{"value":"Limburg-Weilburg","key":"CountyName"}]},"MapReference":{"ReferenceId":"61955763","Spot":0.34,"SideOfStreet":"right","CountryId":"20147700","StateId":"20160993","CountyId":"20162477","CityId":"20162527","DistrictId":"20162533","AddressId":"186738143","RoadLinkId":"34611869"}}},{"Relevance":1.0,"Distance":191.0,"MatchLevel":"houseNumber","MatchQuality":{"Country":1.0,"State":1.0,"County":1.0,"City":1.0,"District":1.0,"Street":[1.0],"HouseNumber":1.0,"PostalCode":1.0},"MatchType":"interpolated","Location":{"LocationId":"NT_vf4-FquIMtdgd9DXBvwU8D_xUD","LocationType":"point","DisplayPosition":{"Latitude":50.38667,"Longitude":8.05164},"MapView":{"TopLeft":{"Latitude":50.3877942,"Longitude":8.0498769},"BottomRight":{"Latitude":50.3855458,"Longitude":8.0534031}},"Address":{"Label":"Andreasstraße 15, 65549 Limburg an der Lahn, Deutschland","Country":"DEU","State":"Hessen","County":"Limburg-Weilburg","City":"Limburg an der Lahn","District":"Limburg an der Lahn","Street":"Andreasstraße","HouseNumber":"15","PostalCode":"65549","AdditionalData":[{"value":"Deutschland","key":"CountryName"},{"value":"Hessen","key":"StateName"},{"value":"Limburg-Weilburg","key":"CountyName"}]},"MapReference":{"ReferenceId":"78674200","Spot":0.92,"SideOfStreet":"left","CountryId":"20147700","StateId":"20160993","CountyId":"20162477","CityId":"20162527","DistrictId":"20162533","AddressId":"187409258","RoadLinkId":"33904397"}}}]}]}}