{"Response":{"MetaInfo":{"Timestamp":"2020-03-28T10:33:17.042+0000","NextPageInformation":"2"},"View":[{"_type":"SearchResultsViewType","ViewId":0,"Result":[{"Relevance":1.0,"Distance":0.0,"Direction":0.0,"MatchLevel":"district","MatchQuality":{"Country":1.0,"State":1.0,"County":1.0,"City":1.0,"District":1.0,"PostalCode":1.0},"Location":{"LocationId":"NT_hc0sV7l9ZRjv9B8gQsgepB","LocationType":"point","DisplayPosition":{"Latitude":50.3573488,"Longitude":-4.0863908},"MapView":{"TopLeft":{"Latitude":50.36642,"Longitude":-4.1006},"BottomRight":{"Latitude":50.34657,"Longitude":-4.06608}},"Address":{"Label":"Plymstock, Plymouth, England, United Kingdom","Country":"GBR","State":"England","County":"Devon","City":"Plymouth","District":"Plymstock","PostalCode":"PL9 9","AdditionalData":[{"value":"United Kingdom","key":"CountryName"},{"value":"England","key":"StateName"},{"value":"Devon","key":"CountyName"}]},"MapReference":{"ReferenceId":"985363654","SideOfStreet":"neither","StateId":"20248595","CountyId":"20353913","CityId":"20354548","DistrictId":"20354590"}}},{"Relevance":1.0,"Distance":29.8,"MatchLevel":"houseNumber","MatchQuality":{"Country":1.0,"State":1.0,"County":1.0,"City":1.0,"District":1.0,"Street":[1.0],"HouseNumber":1.0,"PostalCode":1.0},"MatchType":"interpolated","Location":{"LocationId":"NT_acOukEdt929.wlrolAzL7C_l_26688286_L_xYD","LocationType":"point","DisplayPosition":{"Latitude":50.3575041,"Longitude":-4.0858111},"MapView":{"TopLeft":{"Latitude":50.3586283,"Longitude":-4.0875731},"BottomRight":{"Latitude":50.35638,"Longitude":-4.0840491}},"Address":{"Label":"16 Holland Road, Plymouth, PL9 9BW, United Kingdom","Country":"GBR","State":"England","County":"Devon","City":"Plymouth","District":"Plymstock","Street":"Holland Road","HouseNumber":"16","PostalCode":"PL9 9BW","AdditionalData":[{"value":"United Kingdom","key":"CountryName"},{"value":"England","key":"StateName"},{"value":"Devon","key":"CountyName"}]},"MapReference":{"ReferenceId":"26688286","Spot":0.44,"SideOfStreet":"left","StateId":"20248595","CountyId":"20353913","CityId":"20354548","DistrictId":"20354590"}}},{"Relevance":1.0,"Distance":46.8,"MatchLevel":"postalCode","MatchQuality":{"PostalCode":1.0},"MatchType":"interpolated","Location":{"LocationId":"NT_acOukEdt929.wlrolAzL7C_l_26688286_L_xYD","LocationType":"point","DisplayPosition":{"Latitude":50.35763,"Longitude":-4.0859},"MapView":{"TopLeft":{"Latitude":50.3666232,"Longitude":-4.0999961},"BottomRight":{"Latitude":50.3486368,"Longitude":-4.0718039}},"Address":{"Label":"PL9 9BW, Plymouth, England, United Kingdom","Country":"GBR","State":"England","County":"Devon","City":"Plymouth","PostalCode":"PL9 9BW","AdditionalData":[{"value":"United Kingdom","key":"CountryName"},{"value":"England","key":"StateName"},{"value":"Devon","key":"CountyName"}]},"MapReference":{"ReferenceId":"26688286","Spot":0.44,"SideOfStreet":"neither","StateId":"20248595","CountyId":"20353913","CityId":"20354548"}}},{"Relevance":1.0,"Distance":52.5,"MatchLevel":"houseNumber","MatchQuality":{"Country":1.0,"State":1.0,"County":1.0,"City":1.0,"District":1.0,"Street":[1.0],"HouseNumber":1.0,"PostalCode":1.0},"MatchType":"interpolated","Location":{"LocationId":"NT_gODkak0I.TqT93jsAfVeCB_l_26688244_R_4kD","LocationType":"point","DisplayPosition":{"Latitude":50.3577973,"Longitude":-4.0870127},"MapView":{"TopLeft":{"Latitude":50.3589214,"Longitude":-4.0887747},"BottomRight":{"Latitude":50.3566731,"Longitude":-4.0852507}},"Address":{"Label":"89 Church Road, Plymouth, PL9 9AX, United Kingdom","Country":"GBR","State":"England","County":"Devon","City":"Plymouth","District":"Plymstock","Street":"Church Road","HouseNumber":"89","PostalCode":"PL9 9AX","AdditionalData":[{"value":"United Kingdom","key":"CountryName"},{"value":"England","key":"StateName"},{"value":"Devon","key":"CountyName"}]},"MapReference":{"ReferenceId":"26688244","Spot":0.73,"SideOfStreet":"right","StateId":"20248595","CountyId":"20353913","CityId":"20354548","DistrictId":"20354590"}}},{"Relevance":1.0,"Distance":60.3,"MatchLevel":"postalCode","MatchQuality":{"PostalCode":1.0},"MatchType":"interpolated","Location":{"LocationId":"NT_tdgCA-3.iU6A7OJVBo2VsB_l_26688295_L_3A","LocationType":"point","DisplayPosition":{"Latitude":50.35693,"Longitude":-4.08693},"MapView":{"TopLeft":{"Latitude":50.3659232,"Longitude":-4.1010259},"BottomRight":{"Latitude":50.3479368,"Longitude":-4.0728341}},"Address":{"Label":"PL9 9BH, Plymouth, England, United Kingdom","Country":"GBR","State":"England","County":"Devon","City":"Plymouth","PostalCode":"PL9 9BH","AdditionalData":[{"value":"United Kingdom","key":"CountryName"},{"value":"England","key":"StateName"},{"value":"Devon","key":"CountyName"}]},"MapReference":{"ReferenceId":"26688295","Spot":0.75,"SideOfStreet":"neither","StateId":"20248595","CountyId":"20353913","CityId":"20354548"}}},{"Relevance":1.0,"Distance":61.6,"MatchLevel":"postalCode","MatchQuality":{"PostalCode":1.0},"MatchType":"interpolated","Location":{"LocationId":"NT_gODkak0I.TqT93jsAfVeCB_l_26688244_R_4kD","LocationType":"point","DisplayPosition":{"Latitude":50.35771,"Longitude":-4.08705},"MapView":{"TopLeft":{"Latitude":50.3667032,"Longitude":-4.1011461},"BottomRight":{"Latitude":50.3487168,"Longitude":-4.0729539}},"Address":{"Label":"PL9 9AX, Plymouth, England, United Kingdom","Country":"GBR","State":"England","County":"Devon","City":"Plymouth","PostalCode":"PL9 9AX","AdditionalData":[{"value":"United Kingdom","key":"CountryName"},{"value":"England","key":"StateName"},{"value":"Devon","key":"CountyName"}]},"MapReference":{"ReferenceId":"26688244","Spot":0.73,"SideOfStreet":"neither","StateId":"20248595","CountyId":"20353913","CityId":"20354548"}}},{"Relevance":1.0,"Distance":62.0,"MatchLevel":"houseNumber","MatchQuality":{"Country":1.0,"State":1.0,"County":1.0,"City":1.0,"District":1.0,"Street":[1.0],"HouseNumber":1.0,"PostalCode":1.0},"MatchType":"interpolated","Location":{"LocationId":"NT_tdgCA-3.iU6A7OJVBo2VsB_l_26688295_L_3A","LocationType":"point","DisplayPosition":{"Latitude":50.3570428,"Longitude":-4.0871216},"MapView":{"TopLeft":{"Latitude":50.358167,"Longitude":-4.0888836},"BottomRight":{"Latitude":50.3559187,"Longitude":-4.0853596}},"Address":{"Label":"7 Cobb Lane, Plymouth, PL9 9BQ, United Kingdom","Country":"GBR","State":"England","County":"Devon","City":"Plymouth","District":"Plymstock","Street":"Cobb Lane","HouseNumber":"7","PostalCode":"PL9 9BQ","AdditionalData":[{"value":"United Kingdom","key":"CountryName"},{"value":"England","key":"StateName"},{"value":"Devon","key":"CountyName"}]},"MapReference":{"ReferenceId":"26688295","Spot":0.75,"SideOfStreet":"left","StateId":"20248595","CountyId":"20353913","CityId":"20354548","DistrictId":"20354590"}}},{"Relevance":1.0,"Distance":67.5,"MatchLevel":"houseNumber","MatchQuality":{"Country":1.0,"State":1.0,"County":1.0,"City":1.0,"District":1.0,"Street":[1.0],"HouseNumber":1.0,"PostalCode":1.0},"MatchType":"interpolated","Location":{"LocationId":"NT_gODkak0I.TqT93jsAfVeCB_l_26688214_R_4cD","LocationType":"point","DisplayPosition":{"Latitude":50.3580711,"Longitude":-4.0866122},"MapView":{"TopLeft":{"Latitude":50.3591953,"Longitude":-4.0883742},"BottomRight":{"Latitude":50.356947,"Longitude":-4.0848502}},"Address":{"Label":"87 Church Road, Plymouth, PL9 9AX, United Kingdom","Country":"GBR","State":"England","County":"Devon","City":"Plymouth","District":"Plymstock","Street":"Church Road","HouseNumber":"87","PostalCode":"PL9 9AX","AdditionalData":[{"value":"United Kingdom","key":"CountryName"},{"value":"England","key":"StateName"},{"value":"Devon","key":"CountyName"}]},"MapReference":{"ReferenceId":"26688214","Spot":0.52,"SideOfStreet":"right","StateId":"20248595","CountyId":"20353913","CityId":"20354548","DistrictId":"20354590"}}},{"Relevance":1.0,"Distance":71.1,"MatchLevel":"street","MatchQuality":{"Country":1.0,"State":1.0,"County":1.0,"City":1.0,"District":1.0,"Street":[1.0],"PostalCode":1.0},"Location":{"LocationId":"NT_VSVbj5EKm3vq0YaJnFSlyD_l_26688215_L","LocationType":"point","DisplayPosition":{"Latitude":50.35792,"Longitude":-4.08684},"MapView":{"TopLeft":{"Latitude":50.35876,"Longitude":-4.08763},"BottomRight":{"Latitude":50.35792,"Longitude":-4.08684}},"Address":{"Label":"Horn Lane, Plymouth, PL9 9, United Kingdom","Country":"GBR","State":"England","County":"Devon","City":"Plymouth","District":"Plymstock","Street":"Horn Lane","PostalCode":"PL9 9","AdditionalData":[{"value":"United Kingdom","key":"CountryName"},{"value":"England","key":"StateName"},{"value":"Devon","key":"CountyName"}]},"MapReference":{"ReferenceId":"26688215","Spot":0.0,"SideOfStreet":"left","StateId":"20248595","CountyId":"20353913","CityId":"20354548","DistrictId":"20354590"}}},{"Relevance":1.0,"Distance":79.3,"MatchLevel":"street","MatchQuality":{"Country":1.0,"State":1.0,"County":1.0,"City":1.0,"District":1.0,"Street":[1.0],"PostalCode":1.0},"Location":{"LocationId":"NT_gODkak0I.TqT93jsAfVeCB_l_78774962_R","LocationType":"point","DisplayPosition":{"Latitude":50.35748,"Longitude":-4.08749},"MapView":{"TopLeft":{"Latitude":50.35748,"Longitude":-4.08781},"BottomRight":{"Latitude":50.35733,"Longitude":-4.08749}},"Address":{"Label":"Church Road, Plymouth, PL9 9, United Kingdom","Country":"GBR","State":"England","County":"Devon","City":"Plymouth","District":"Plymstock","Street":"Church Road","PostalCode":"PL9 9","AdditionalData":[{"value":"United Kingdom","key":"CountryName"},{"value":"England","key":"StateName"},{"value":"Devon","key":"CountyName"}]},"MapReference":{"ReferenceId":"78774962","Spot":1.0,"SideOfStreet":"right","StateId":"20248595","CountyId":"20353913","CityId":"20354548","DistrictId":"20354590"}}}]}]}}