{"Response":{"MetaInfo":{"Timestamp":"2020-03-28T09:57:36.436+0000","NextPageInformation":"2"},"View":[{"_type":"SearchResultsViewType","ViewId":0,"Result":[{"Relevance":1.0,"Distance":0.0,"Direction":0.0,"MatchLevel":"district","MatchQuality":{"Country":1.0,"State":1.0,"County":1.0,"City":1.0,"District":1.0,"PostalCode":1.0},"Location":{"LocationId":"NT_WSKNA9xA8Pc2hhTqrg36aC","LocationType":"point","DisplayPosition":{"Latitude":50.3235847,"Longitude":19.1200631},"MapView":{"TopLeft":{"Latitude":50.36707,"Longitude":19.06121},"BottomRight":{"Latitude":50.30122,"Longitude":19.18595}},"Address":{"Label":"Będzin, Woj. Śląskie, Polska","Country":"POL","State":"Woj. Śląskie","County":"Powiat Będziński","City":"Będzin","District":"Będzin","PostalCode":"42-500","AdditionalData":[{"value":"Polska","key":"CountryName"},{"value":"Woj. Śląskie","key":"StateName"},{"value":"Powiat Będziński","key":"CountyName"}]},"MapReference":{"ReferenceId":"1048354540","SideOfStreet":"neither","CountryId":"20624059","StateId":"20629003","CountyId":"20629037","CityId":"20629038","DistrictId":"20646563"}}},{"Relevance":1.0,"Distance":21.3,"MatchLevel":"houseNumber","MatchQuality":{"Country":1.0,"State":1.0,"County":1.0,"City":1.0,"District":1.0,"Street":[1.0],"HouseNumber":1.0,"PostalCode":1.0},"MatchType":"interpolated","Location":{"LocationId":"NT_n1ndaMqvy7J0se9ZWaDj3B_zAD","LocationType":"point","DisplayPosition":{"Latitude":50.32348,"Longitude":19.11981},"MapView":{"TopLeft":{"Latitude":50.3246042,"Longitude":19.1180493},"BottomRight":{"Latitude":50.3223558,"Longitude":19.1215707}},"Address":{"Label":"ulica Zwycięstwa 30, 42-500 Będzin, Polska","Country":"POL","State":"Woj. Śląskie","County":"Powiat Będziński","City":"Będzin","District":"Będzin","Street":"ulica Zwycięstwa","HouseNumber":"30","PostalCode":"42-500","AdditionalData":[{"value":"Polska","key":"CountryName"},{"value":"Woj. Śląskie","key":"StateName"},{"value":"Powiat Będziński","key":"CountyName"}]},"MapReference":{"ReferenceId":"1133737416","Spot":0.21,"SideOfStreet":"right","CountryId":"20624059","StateId":"20629003","CountyId":"20629037","CityId":"20629038","DistrictId":"20646563","AddressId":"353288933","RoadLinkId":"443681872"}}},{"Relevance":1.0,"Distance":42.1,"MatchLevel":"street","MatchQuality":{"Country":1.0,"State":1.0,"County":1.0,"City":1.0,"District":1.0,"PostalCode":1.0},"Location":{"LocationId":"NT_m7K2kxS6BNWp-AyzZwwI.B_l_594352568_L","LocationType":"point","DisplayPosition":{"Latitude":50.3237041,"Longitude":19.1206253},"MapView":{"TopLeft":{"Latitude":50.3242,"Longitude":19.12052},"BottomRight":{"Latitude":50.32297,"Longitude":19.12182}},"Address":{"Label":"42-500 Będzin, Polska","Country":"POL","State":"Woj. Śląskie","County":"Powiat Będziński","City":"Będzin","District":"Będzin","PostalCode":"42-500","AdditionalData":[{"value":"Polska","key":"CountryName"},{"value":"Woj. Śląskie","key":"StateName"},{"value":"Powiat Będziński","key":"CountyName"}]},"MapReference":{"ReferenceId":"594352568","Spot":0.77,"SideOfStreet":"left","CountryId":"20624059","StateId":"20629003","CountyId":"20629037","CityId":"20629038","DistrictId":"20646563"}}},{"Relevance":1.0,"Distance":75.7,"MatchLevel":"street","MatchQuality":{"Country":1.0,"State":1.0,"County":1.0,"City":1.0,"District":1.0,"PostalCode":1.0},"Location":{"LocationId":"NT_m7K2kxS6BNWp-AyzZwwI.B_l_594352208_L","LocationType":"point","DisplayPosition":{"Latitude":50.3242,"Longitude":19.12052},"MapView":{"TopLeft":{"Latitude":50.32476,"Longitude":19.1204},"BottomRight":{"Latitude":50.3242,"Longitude":19.12052}},"Address":{"Label":"42-500 Będzin, Polska","Country":"POL","State":"Woj. Śląskie","County":"Powiat Będziński","City":"Będzin","District":"Będzin","PostalCode":"42-500","AdditionalData":[{"value":"Polska","key":"CountryName"},{"value":"Woj. Śląskie","key":"StateName"},{"value":"Powiat Będziński","key":"CountyName"}]},"MapReference":{"ReferenceId":"594352208","Spot":0.0,"SideOfStreet":"left","CountryId":"20624059","StateId":"20629003","CountyId":"20629037","CityId":"20629038","DistrictId":"20646563"}}},{"Relevance":1.0,"Distance":75.7,"MatchLevel":"street","MatchQuality":{"Country":1.0,"State":1.0,"County":1.0,"City":1.0,"District":1.0,"PostalCode":1.0},"Location":{"LocationId":"NT_m7K2kxS6BNWp-AyzZwwI.B_l_594352207_R","LocationType":"point","DisplayPosition":{"Latitude":50.3242,"Longitude":19.12052},"MapView":{"TopLeft":{"Latitude":50.32423,"Longitude":19.12052},"BottomRight":{"Latitude":50.3242,"Longitude":19.12068}},"Address":{"Label":"42-500 Będzin, Polska","Country":"POL","State":"Woj. Śląskie","County":"Powiat Będziński","City":"Będzin","District":"Będzin","PostalCode":"42-500","AdditionalData":[{"value":"Polska","key":"CountryName"},{"value":"Woj. Śląskie","key":"StateName"},{"value":"Powiat Będziński","key":"CountyName"}]},"MapReference":{"ReferenceId":"594352207","Spot":0.0,"SideOfStreet":"right","CountryId":"20624059","StateId":"20629003","CountyId":"20629037","CityId":"20629038","DistrictId":"20646563"}}},{"Relevance":1.0,"Distance":84.1,"MatchLevel":"street","MatchQuality":{"Country":1.0,"State":1.0,"County":1.0,"City":1.0,"District":1.0,"PostalCode":1.0},"Location":{"LocationId":"NT_m7K2kxS6BNWp-AyzZwwI.B_l_594352197_R","LocationType":"point","DisplayPosition":{"Latitude":50.32423,"Longitude":19.12068},"MapView":{"TopLeft":{"Latitude":50.32503,"Longitude":19.12068},"BottomRight":{"Latitude":50.32423,"Longitude":19.12163}},"Address":{"Label":"42-500 Będzin, Polska","Country":"POL","State":"Woj. Śląskie","County":"Powiat Będziński","City":"Będzin","District":"Będzin","PostalCode":"42-500","AdditionalData":[{"value":"Polska","key":"CountryName"},{"value":"Woj. Śląskie","key":"StateName"},{"value":"Powiat Będziński","key":"CountyName"}]},"MapReference":{"ReferenceId":"594352197","Spot":0.0,"SideOfStreet":"right","CountryId":"20624059","StateId":"20629003","CountyId":"20629037","CityId":"20629038","DistrictId":"20646563"}}},{"Relevance":1.0,"Distance":84.1,"MatchLevel":"street","MatchQuality":{"Country":1.0,"State":1.0,"County":1.0,"City":1.0,"District":1.0,"PostalCode":1.0},"Location":{"LocationId":"NT_m7K2kxS6BNWp-AyzZwwI.B_l_594352196_R","LocationType":"point","DisplayPosition":{"Latitude":50.32423,"Longitude":19.12068},"MapView":{"TopLeft":{"Latitude":50.3243,"Longitude":19.12068},"BottomRight":{"Latitude":50.32423,"Longitude":19.12154}},"Address":{"Label":"42-500 Będzin, Polska","Country":"POL","State":"Woj. Śląskie","County":"Powiat Będziński","City":"Będzin","District":"Będzin","PostalCode":"42-500","AdditionalData":[{"value":"Polska","key":"CountryName"},{"value":"Woj. Śląskie","key":"StateName"},{"value":"Powiat Będziński","key":"CountyName"}]},"MapReference":{"ReferenceId":"594352196","Spot":0.0,"SideOfStreet":"right","CountryId":"20624059","StateId":"20629003","CountyId":"20629037","CityId":"20629038","DistrictId":"20646563"}}},{"Relevance":1.0,"Distance":84.9,"MatchLevel":"houseNumber","MatchQuality":{"Country":1.0,"State":1.0,"County":1.0,"City":1.0,"District":1.0,"Street":[1.0],"HouseNumber":1.0,"PostalCode":1.0},"MatchType":"interpolated","Location":{"LocationId":"NT_n1ndaMqvy7J0se9ZWaDj3B_zID","LocationType":"point","DisplayPosition":{"Latitude":50.32289,"Longitude":19.12056},"MapView":{"TopLeft":{"Latitude":50.3240142,"Longitude":19.1187993},"BottomRight":{"Latitude":50.3217658,"Longitude":19.1223207}},"Address":{"Label":"ulica Zwycięstwa 32, 42-500 Będzin, Polska","Country":"POL","State":"Woj. Śląskie","County":"Powiat Będziński","City":"Będzin","District":"Będzin","Street":"ulica Zwycięstwa","HouseNumber":"32","PostalCode":"42-500","AdditionalData":[{"value":"Polska","key":"CountryName"},{"value":"Woj. Śląskie","key":"StateName"},{"value":"Powiat Będziński","key":"CountyName"}]},"MapReference":{"ReferenceId":"594352586","Spot":0.0,"SideOfStreet":"right","CountryId":"20624059","StateId":"20629003","CountyId":"20629037","CityId":"20629038","DistrictId":"20646563","AddressId":"701970989","RoadLinkId":"276945902"}}},{"Relevance":1.0,"Distance":90.1,"MatchLevel":"houseNumber","MatchQuality":{"Country":1.0,"State":1.0,"County":1.0,"City":1.0,"District":1.0,"Street":[1.0],"HouseNumber":1.0,"PostalCode":1.0},"MatchType":"interpolated","Location":{"LocationId":"NT_n1ndaMqvy7J0se9ZWaDj3B_yID","LocationType":"point","DisplayPosition":{"Latitude":50.32322,"Longitude":19.11893},"MapView":{"TopLeft":{"Latitude":50.3243442,"Longitude":19.1171693},"BottomRight":{"Latitude":50.3220958,"Longitude":19.1206907}},"Address":{"Label":"ulica Zwycięstwa 22, 42-500 Będzin, Polska","Country":"POL","State":"Woj. Śląskie","County":"Powiat Będziński","City":"Będzin","District":"Będzin","Street":"ulica Zwycięstwa","HouseNumber":"22","PostalCode":"42-500","AdditionalData":[{"value":"Polska","key":"CountryName"},{"value":"Woj. Śląskie","key":"StateName"},{"value":"Powiat Będziński","key":"CountyName"}]},"MapReference":{"ReferenceId":"594352497","Spot":0.72,"SideOfStreet":"left","CountryId":"20624059","StateId":"20629003","CountyId":"20629037","CityId":"20629038","DistrictId":"20646563","AddressId":"701970981","RoadLinkId":"276945903"}}},{"Relevance":1.0,"Distance":98.8,"MatchLevel":"houseNumber","MatchQuality":{"Country":1.0,"State":1.0,"County":1.0,"City":1.0,"District":1.0,"Street":[1.0],"HouseNumber":1.0,"PostalCode":1.0},"MatchType":"interpolated","Location":{"LocationId":"NT_n1ndaMqvy7J0se9ZWaDj3B_yYD","LocationType":"point","DisplayPosition":{"Latitude":50.32375,"Longitude":19.11828},"MapView":{"TopLeft":{"Latitude":50.3248742,"Longitude":19.1165192},"BottomRight":{"Latitude":50.3226258,"Longitude":19.1200408}},"Address":{"Label":"ulica Zwycięstwa 26, 42-500 Będzin, Polska","Country":"POL","State":"Woj. Śląskie","County":"Powiat Będziński","City":"Będzin","District":"Będzin","Street":"ulica Zwycięstwa","HouseNumber":"26","PostalCode":"42-500","AdditionalData":[{"value":"Polska","key":"CountryName"},{"value":"Woj. Śląskie","key":"StateName"},{"value":"Powiat Będziński","key":"CountyName"}]},"MapReference":{"ReferenceId":"594352365","Spot":0.24,"SideOfStreet":"right","CountryId":"20624059","StateId":"20629003","CountyId":"20629037","CityId":"20629038","DistrictId":"20646563","AddressId":"210598146","RoadLinkId":"96058575"}}}]}]}}