{"Response":{"MetaInfo":{"Timestamp":"2020-03-28T11:39:21.393+0000","NextPageInformation":"2"},"View":[{"_type":"SearchResultsViewType","ViewId":0,"Result":[{"Relevance":1.0,"Distance":0.0,"Direction":0.0,"MatchLevel":"district","MatchQuality":{"Country":1.0,"State":1.0,"County":1.0,"City":1.0,"District":1.0,"PostalCode":1.0},"Location":{"LocationId":"NT_5sx95KIlT4inKARRMGEWWC","LocationType":"point","DisplayPosition":{"Latitude":50.3527146,"Longitude":4.4119315},"MapView":{"TopLeft":{"Latitude":50.35909,"Longitude":4.40959},"BottomRight":{"Latitude":50.34857,"Longitude":4.42394}},"Address":{"Label":"Jamioulx, Ham-sur-Heure-Nalinnes, Wallonie, Belgique","Country":"BEL","State":"Wallonie","County":"Hainaut","City":"Ham-sur-Heure-Nalinnes","District":"Jamioulx","PostalCode":"6120","AdditionalData":[{"value":"Belgique","key":"CountryName"},{"value":"Wallonie","key":"StateName"},{"value":"Hainaut","key":"CountyName"}]},"MapReference":{"ReferenceId":"53786214","SideOfStreet":"neither","CountryId":"20128886","StateId":"20205526","CountyId":"20205527","CityId":"20206000","DistrictId":"20206004"}}},{"Relevance":1.0,"Distance":5.6,"MatchLevel":"houseNumber","MatchQuality":{"Country":1.0,"State":1.0,"County":1.0,"City":1.0,"District":1.0,"Street":[1.0],"HouseNumber":1.0,"PostalCode":1.0},"MatchType":"interpolated","Location":{"LocationId":"NT_me1uZZg1vnrVQzlR5a0TYD_1A","LocationType":"point","DisplayPosition":{"Latitude":50.3526,"Longitude":4.41209},"MapView":{"TopLeft":{"Latitude":50.3537242,"Longitude":4.4103282},"BottomRight":{"Latitude":50.3514758,"Longitude":4.4138518}},"Address":{"Label":"Place Communale 5, 6120 Ham-sur-Heure-Nalinnes, Belgique","Country":"BEL","State":"Wallonie","County":"Hainaut","City":"Ham-sur-Heure-Nalinnes","District":"Jamioulx","Street":"Place Communale","HouseNumber":"5","PostalCode":"6120","AdditionalData":[{"value":"Belgique","key":"CountryName"},{"value":"Wallonie","key":"StateName"},{"value":"Hainaut","key":"CountyName"}]},"MapReference":{"ReferenceId":"1227404385","Spot":0.09,"SideOfStreet":"left","CountryId":"20128886","StateId":"20205526","CountyId":"20205527","CityId":"20206000","DistrictId":"20206004","AddressId":"369127158","RoadLinkId":"546086086"}}},{"Relevance":1.0,"Distance":8.5,"MatchLevel":"houseNumber","MatchQuality":{"Country":1.0,"State":1.0,"County":1.0,"City":1.0,"District":1.0,"Street":[1.0],"HouseNumber":1.0,"PostalCode":1.0},"MatchType":"interpolated","Location":{"LocationId":"NT_me1uZZg1vnrVQzlR5a0TYD_zA","LocationType":"point","DisplayPosition":{"Latitude":50.35279,"Longitude":4.41191},"MapView":{"TopLeft":{"Latitude":50.3539142,"Longitude":4.4101482},"BottomRight":{"Latitude":50.3516658,"Longitude":4.4136718}},"Address":{"Label":"Place Communale 3, 6120 Ham-sur-Heure-Nalinnes, Belgique","Country":"BEL","State":"Wallonie","County":"Hainaut","City":"Ham-sur-Heure-Nalinnes","District":"Jamioulx","Street":"Place Communale","HouseNumber":"3","PostalCode":"6120","AdditionalData":[{"value":"Belgique","key":"CountryName"},{"value":"Wallonie","key":"StateName"},{"value":"Hainaut","key":"CountyName"}]},"MapReference":{"ReferenceId":"59763177","Spot":0.92,"SideOfStreet":"left","CountryId":"20128886","StateId":"20205526","CountyId":"20205527","CityId":"20206000","DistrictId":"20206004","AddressId":"455893092","RoadLinkId":"213719604"}}},{"Relevance":1.0,"Distance":17.8,"MatchLevel":"street","MatchQuality":{"Country":1.0,"State":1.0,"County":1.0,"City":1.0,"District":1.0,"Street":[1.0],"PostalCode":1.0},"Location":{"LocationId":"NT_me1uZZg1vnrVQzlR5a0TYD_l_1227404384_L","LocationType":"point","DisplayPosition":{"Latitude":50.3525594,"Longitude":4.4119936},"MapView":{"TopLeft":{"Latitude":50.35259,"Longitude":4.41192},"BottomRight":{"Latitude":50.35253,"Longitude":4.41207}},"Address":{"Label":"Place Communale, 6120 Ham-sur-Heure-Nalinnes, Belgique","Country":"BEL","State":"Wallonie","County":"Hainaut","City":"Ham-sur-Heure-Nalinnes","District":"Jamioulx","Street":"Place Communale","PostalCode":"6120","AdditionalData":[{"value":"Belgique","key":"CountryName"},{"value":"Wallonie","key":"StateName"},{"value":"Hainaut","key":"CountyName"}]},"MapReference":{"ReferenceId":"1227404384","Spot":0.49,"SideOfStreet":"left","CountryId":"20128886","StateId":"20205526","CountyId":"20205527","CityId":"20206000","DistrictId":"20206004"}}},{"Relevance":1.0,"Distance":20.5,"MatchLevel":"street","MatchQuality":{"Country":1.0,"State":1.0,"County":1.0,"City":1.0,"District":1.0,"Street":[1.0],"PostalCode":1.0},"Location":{"LocationId":"NT_MElm8IV9sD193aJoONblrA_l_53786239_L","LocationType":"point","DisplayPosition":{"Latitude":50.35253,"Longitude":4.41192},"MapView":{"TopLeft":{"Latitude":50.35253,"Longitude":4.41172},"BottomRight":{"Latitude":50.35246,"Longitude":4.41192}},"Address":{"Label":"Rue d'Andrémont, 6120 Ham-sur-Heure-Nalinnes, Belgique","Country":"BEL","State":"Wallonie","County":"Hainaut","City":"Ham-sur-Heure-Nalinnes","District":"Jamioulx","Street":"Rue d'Andrémont","PostalCode":"6120","AdditionalData":[{"value":"Belgique","key":"CountryName"},{"value":"Wallonie","key":"StateName"},{"value":"Hainaut","key":"CountyName"}]},"MapReference":{"ReferenceId":"53786239","Spot":1.0,"SideOfStreet":"left","CountryId":"20128886","StateId":"20205526","CountyId":"20205527","CityId":"20206000","DistrictId":"20206004"}}},{"Relevance":1.0,"Distance":26.1,"MatchLevel":"houseNumber","MatchQuality":{"Country":1.0,"State":1.0,"County":1.0,"City":1.0,"District":1.0,"Street":[1.0],"HouseNumber":1.0,"PostalCode":1.0},"MatchType":"interpolated","Location":{"LocationId":"NT_me1uZZg1vnrVQzlR5a0TYD_xED","LocationType":"point","DisplayPosition":{"Latitude":50.35271,"Longitude":4.41236},"MapView":{"TopLeft":{"Latitude":50.3538342,"Longitude":4.4105982},"BottomRight":{"Latitude":50.3515858,"Longitude":4.4141218}},"Address":{"Label":"Place Communale 11, 6120 Ham-sur-Heure-Nalinnes, Belgique","Country":"BEL","State":"Wallonie","County":"Hainaut","City":"Ham-sur-Heure-Nalinnes","District":"Jamioulx","Street":"Place Communale","HouseNumber":"11","PostalCode":"6120","AdditionalData":[{"value":"Belgique","key":"CountryName"},{"value":"Wallonie","key":"StateName"},{"value":"Hainaut","key":"CountyName"}]},"MapReference":{"ReferenceId":"802463318","Spot":0.32,"SideOfStreet":"left","CountryId":"20128886","StateId":"20205526","CountyId":"20205527","CityId":"20206000","DistrictId":"20206004","AddressId":"369261508","RoadLinkId":"191937535"}}},{"Relevance":1.0,"Distance":31.8,"MatchLevel":"houseNumber","MatchQuality":{"Country":1.0,"State":1.0,"County":1.0,"City":1.0,"District":1.0,"Street":[1.0],"HouseNumber":1.0,"PostalCode":1.0},"MatchType":"interpolated","Location":{"LocationId":"NT_me1uZZg1vnrVQzlR5a0TYD_yA","LocationType":"point","DisplayPosition":{"Latitude":50.35245,"Longitude":4.4121},"MapView":{"TopLeft":{"Latitude":50.3535742,"Longitude":4.4103382},"BottomRight":{"Latitude":50.3513258,"Longitude":4.4138618}},"Address":{"Label":"Place Communale 2, 6120 Ham-sur-Heure-Nalinnes, Belgique","Country":"BEL","State":"Wallonie","County":"Hainaut","City":"Ham-sur-Heure-Nalinnes","District":"Jamioulx","Street":"Place Communale","HouseNumber":"2","PostalCode":"6120","AdditionalData":[{"value":"Belgique","key":"CountryName"},{"value":"Wallonie","key":"StateName"},{"value":"Hainaut","key":"CountyName"}]},"MapReference":{"ReferenceId":"53786237","Spot":0.15,"SideOfStreet":"right","CountryId":"20128886","StateId":"20205526","CountyId":"20205527","CityId":"20206000","DistrictId":"20206004","AddressId":"368910096","RoadLinkId":"30349692"}}},{"Relevance":1.0,"Distance":33.7,"MatchLevel":"street","MatchQuality":{"Country":1.0,"State":1.0,"County":1.0,"City":1.0,"District":1.0,"Street":[1.0],"PostalCode":1.0},"Location":{"LocationId":"NT_-Khjvkj08h4ypJ0nE2q-HB_l_79527842_R","LocationType":"point","DisplayPosition":{"Latitude":50.35262,"Longitude":4.41148},"MapView":{"TopLeft":{"Latitude":50.35365,"Longitude":4.41007},"BottomRight":{"Latitude":50.35262,"Longitude":4.41148}},"Address":{"Label":"Allée Jean Hainaut, 6120 Ham-sur-Heure-Nalinnes, Belgique","Country":"BEL","State":"Wallonie","County":"Hainaut","City":"Ham-sur-Heure-Nalinnes","District":"Jamioulx","Street":"Allée Jean Hainaut","PostalCode":"6120","AdditionalData":[{"value":"Belgique","key":"CountryName"},{"value":"Wallonie","key":"StateName"},{"value":"Hainaut","key":"CountyName"}]},"MapReference":{"ReferenceId":"79527842","Spot":0.0,"SideOfStreet":"right","CountryId":"20128886","StateId":"20205526","CountyId":"20205527","CityId":"20206000","DistrictId":"20206004"}}},{"Relevance":1.0,"Distance":35.4,"MatchLevel":"houseNumber","MatchQuality":{"Country":1.0,"State":1.0,"County":1.0,"City":1.0,"District":1.0,"Street":[1.0],"HouseNumber":1.0,"PostalCode":1.0},"MatchType":"interpolated","Location":{"LocationId":"NT_MElm8IV9sD193aJoONblrA_xA","LocationType":"point","DisplayPosition":{"Latitude":50.35244,"Longitude":4.41168},"MapView":{"TopLeft":{"Latitude":50.3535642,"Longitude":4.4099182},"BottomRight":{"Latitude":50.3513158,"Longitude":4.4134418}},"Address":{"Label":"Rue d'Andrémont 1, 6120 Ham-sur-Heure-Nalinnes, Belgique","Country":"BEL","State":"Wallonie","County":"Hainaut","City":"Ham-sur-Heure-Nalinnes","District":"Jamioulx","Street":"Rue d'Andrémont","HouseNumber":"1","PostalCode":"6120","AdditionalData":[{"value":"Belgique","key":"CountryName"},{"value":"Wallonie","key":"StateName"},{"value":"Hainaut","key":"CountyName"}]},"MapReference":{"ReferenceId":"59763206","Spot":0.4,"SideOfStreet":"right","CountryId":"20128886","StateId":"20205526","CountyId":"20205527","CityId":"20206000","DistrictId":"20206004","AddressId":"369162242","RoadLinkId":"30493294"}}},{"Relevance":1.0,"Distance":36.2,"MatchLevel":"street","MatchQuality":{"Country":1.0,"State":1.0,"County":1.0,"City":1.0,"District":1.0,"Street":[1.0],"PostalCode":1.0},"Location":{"LocationId":"NT_-Khjvkj08h4ypJ0nE2q-HB_l_79527843_R","LocationType":"point","DisplayPosition":{"Latitude":50.3524446,"Longitude":4.4116456},"MapView":{"TopLeft":{"Latitude":50.35262,"Longitude":4.41148},"BottomRight":{"Latitude":50.35244,"Longitude":4.41165}},"Address":{"Label":"Allée Jean Hainaut, 6120 Ham-sur-Heure-Nalinnes, Belgique","Country":"BEL","State":"Wallonie","County":"Hainaut","City":"Ham-sur-Heure-Nalinnes","District":"Jamioulx","Street":"Allée Jean Hainaut","PostalCode":"6120","AdditionalData":[{"value":"Belgique","key":"CountryName"},{"value":"Wallonie","key":"StateName"},{"value":"Hainaut","key":"CountyName"}]},"MapReference":{"ReferenceId":"79527843","Spot":0.03,"SideOfStreet":"right","CountryId":"20128886","StateId":"20205526","CountyId":"20205527","CityId":"20206000","DistrictId":"20206004"}}}]}]}}