{"Response":{"MetaInfo":{"Timestamp":"2020-03-28T10:24:38.862+0000","NextPageInformation":"2"},"View":[{"_type":"SearchResultsViewType","ViewId":0,"Result":[{"Relevance":1.0,"Distance":0.0,"Direction":0.0,"MatchLevel":"district","MatchQuality":{"Country":1.0,"State":1.0,"County":1.0,"City":1.0,"District":1.0,"PostalCode":1.0},"Location":{"LocationId":"NT_n.wvKxG1DaSfYUJ2YXsl4C","LocationType":"point","DisplayPosition":{"Latitude":50.3240853,"Longitude":10.1980223},"MapView":{"TopLeft":{"Latitude":50.34273,"Longitude":10.18438},"BottomRight":{"Latitude":50.31504,"Longitude":10.23378}},"Address":{"Label":"Bad Neustadt a.d. Saale, Bayern, Deutschland","Country":"DEU","State":"Bayern","County":"Rhön-Grabfeld","City":"Bad Neustadt a.d. Saale","District":"Bad Neustadt a.d. Saale","PostalCode":"97616","AdditionalData":[{"value":"Deutschland","key":"CountryName"},{"value":"Bayern","key":"StateName"},{"value":"Rhön-Grabfeld","key":"CountyName"}]},"MapReference":{"ReferenceId":"1257932515","SideOfStreet":"neither","CountryId":"20147700","StateId":"20177250","CountyId":"20184229","CityId":"20184233","DistrictId":"20184235"}}},{"Relevance":1.0,"Distance":11.8,"MatchLevel":"houseNumber","MatchQuality":{"Country":1.0,"State":1.0,"County":1.0,"City":1.0,"District":1.0,"Street":[1.0],"HouseNumber":1.0,"PostalCode":1.0},"MatchType":"interpolated","Location":{"LocationId":"NT_0kQXu9bdK8bdMNMclW3t6A_xED","LocationType":"point","DisplayPosition":{"Latitude":50.32429,"Longitude":10.19781},"MapView":{"TopLeft":{"Latitude":50.3254142,"Longitude":10.1960492},"BottomRight":{"Latitude":50.3231658,"Longitude":10.1995708}},"Address":{"Label":"Rhönstraße 11, 97616 Bad Neustadt a.d. Saale, Deutschland","Country":"DEU","State":"Bayern","County":"Rhön-Grabfeld","City":"Bad Neustadt a.d. Saale","District":"Bad Neustadt a.d. Saale","Street":"Rhönstraße","HouseNumber":"11","PostalCode":"97616","AdditionalData":[{"value":"Deutschland","key":"CountryName"},{"value":"Bayern","key":"StateName"},{"value":"Rhön-Grabfeld","key":"CountyName"}]},"MapReference":{"ReferenceId":"541840075","Spot":0.17,"SideOfStreet":"right","CountryId":"20147700","StateId":"20177250","CountyId":"20184229","CityId":"20184233","DistrictId":"20184235","AddressId":"185914675","RoadLinkId":"33372553"}}},{"Relevance":1.0,"Distance":30.1,"MatchLevel":"houseNumber","MatchQuality":{"Country":1.0,"State":1.0,"County":1.0,"City":1.0,"District":1.0,"Street":[1.0],"HouseNumber":1.0,"PostalCode":1.0},"MatchType":"interpolated","Location":{"LocationId":"NT_oPqCMU-bBr0GH9qEYetY3C_1A","LocationType":"point","DisplayPosition":{"Latitude":50.32382,"Longitude":10.19811},"MapView":{"TopLeft":{"Latitude":50.3249442,"Longitude":10.1963492},"BottomRight":{"Latitude":50.3226958,"Longitude":10.1998708}},"Address":{"Label":"Sankt-Bruno-Straße 5, 97616 Bad Neustadt a.d. Saale, Deutschland","Country":"DEU","State":"Bayern","County":"Rhön-Grabfeld","City":"Bad Neustadt a.d. Saale","District":"Bad Neustadt a.d. Saale","Street":"Sankt-Bruno-Straße","HouseNumber":"5","PostalCode":"97616","AdditionalData":[{"value":"Deutschland","key":"CountryName"},{"value":"Bayern","key":"StateName"},{"value":"Rhön-Grabfeld","key":"CountyName"}]},"MapReference":{"ReferenceId":"1184929147","Spot":0.62,"SideOfStreet":"right","CountryId":"20147700","StateId":"20177250","CountyId":"20184229","CityId":"20184233","DistrictId":"20184235","AddressId":"249305127","RoadLinkId":"493164460"}}},{"Relevance":1.0,"Distance":41.3,"MatchLevel":"street","MatchQuality":{"Country":1.0,"State":1.0,"County":1.0,"City":1.0,"District":1.0,"PostalCode":1.0},"Location":{"LocationId":"NT_Gbe4JJgebwzrm9rvIdvV3C_l_1184929149_L","LocationType":"point","DisplayPosition":{"Latitude":50.32384,"Longitude":10.19846},"MapView":{"TopLeft":{"Latitude":50.32384,"Longitude":10.19846},"BottomRight":{"Latitude":50.32364,"Longitude":10.19848}},"Address":{"Label":"97616 Bad Neustadt a.d. Saale, Deutschland","Country":"DEU","State":"Bayern","County":"Rhön-Grabfeld","City":"Bad Neustadt a.d. Saale","District":"Bad Neustadt a.d. Saale","PostalCode":"97616","AdditionalData":[{"value":"Deutschland","key":"CountryName"},{"value":"Bayern","key":"StateName"},{"value":"Rhön-Grabfeld","key":"CountyName"}]},"MapReference":{"ReferenceId":"1184929149","Spot":1.0,"SideOfStreet":"left","CountryId":"20147700","StateId":"20177250","CountyId":"20184229","CityId":"20184233","DistrictId":"20184235"}}},{"Relevance":1.0,"Distance":43.4,"MatchLevel":"houseNumber","MatchQuality":{"Country":1.0,"State":1.0,"County":1.0,"City":1.0,"District":1.0,"Street":[1.0],"HouseNumber":1.0,"PostalCode":1.0},"MatchType":"interpolated","Location":{"LocationId":"NT_oPqCMU-bBr0GH9qEYetY3C_0A","LocationType":"point","DisplayPosition":{"Latitude":50.32383,"Longitude":10.19756},"MapView":{"TopLeft":{"Latitude":50.3249542,"Longitude":10.1957992},"BottomRight":{"Latitude":50.3227058,"Longitude":10.1993208}},"Address":{"Label":"Sankt-Bruno-Straße 4, 97616 Bad Neustadt a.d. Saale, Deutschland","Country":"DEU","State":"Bayern","County":"Rhön-Grabfeld","City":"Bad Neustadt a.d. Saale","District":"Bad Neustadt a.d. Saale","Street":"Sankt-Bruno-Straße","HouseNumber":"4","PostalCode":"97616","AdditionalData":[{"value":"Deutschland","key":"CountryName"},{"value":"Bayern","key":"StateName"},{"value":"Rhön-Grabfeld","key":"CountyName"}]},"MapReference":{"ReferenceId":"541840106","Spot":0.05,"SideOfStreet":"left","CountryId":"20147700","StateId":"20177250","CountyId":"20184229","CityId":"20184233","DistrictId":"20184235","AddressId":"249226909","RoadLinkId":"32944288"}}},{"Relevance":1.0,"Distance":43.6,"MatchLevel":"houseNumber","MatchQuality":{"Country":1.0,"State":1.0,"County":1.0,"City":1.0,"District":1.0,"Street":[1.0],"HouseNumber":1.0,"PostalCode":1.0},"MatchType":"interpolated","Location":{"LocationId":"NT_0kQXu9bdK8bdMNMclW3t6A_xMD","LocationType":"point","DisplayPosition":{"Latitude":50.32426,"Longitude":10.19743},"MapView":{"TopLeft":{"Latitude":50.3253842,"Longitude":10.1956692},"BottomRight":{"Latitude":50.3231358,"Longitude":10.1991908}},"Address":{"Label":"Rhönstraße 13, 97616 Bad Neustadt a.d. Saale, Deutschland","Country":"DEU","State":"Bayern","County":"Rhön-Grabfeld","City":"Bad Neustadt a.d. Saale","District":"Bad Neustadt a.d. Saale","Street":"Rhönstraße","HouseNumber":"13","PostalCode":"97616","AdditionalData":[{"value":"Deutschland","key":"CountryName"},{"value":"Bayern","key":"StateName"},{"value":"Rhön-Grabfeld","key":"CountyName"}]},"MapReference":{"ReferenceId":"541840074","Spot":0.89,"SideOfStreet":"right","CountryId":"20147700","StateId":"20177250","CountyId":"20184229","CityId":"20184233","DistrictId":"20184235","AddressId":"182440242","RoadLinkId":"32973031"}}},{"Relevance":1.0,"Distance":54.2,"MatchLevel":"houseNumber","MatchQuality":{"Country":1.0,"State":1.0,"County":1.0,"City":1.0,"District":1.0,"Street":[1.0],"HouseNumber":1.0,"PostalCode":1.0},"MatchType":"interpolated","Location":{"LocationId":"NT_oPqCMU-bBr0GH9qEYetY3C_xcD","LocationType":"point","DisplayPosition":{"Latitude":50.3236,"Longitude":10.1981},"MapView":{"TopLeft":{"Latitude":50.3247242,"Longitude":10.1963393},"BottomRight":{"Latitude":50.3224758,"Longitude":10.1998607}},"Address":{"Label":"Sankt-Bruno-Straße 17, 97616 Bad Neustadt a.d. Saale, Deutschland","Country":"DEU","State":"Bayern","County":"Rhön-Grabfeld","City":"Bad Neustadt a.d. Saale","District":"Bad Neustadt a.d. Saale","Street":"Sankt-Bruno-Straße","HouseNumber":"17","PostalCode":"97616","AdditionalData":[{"value":"Deutschland","key":"CountryName"},{"value":"Bayern","key":"StateName"},{"value":"Rhön-Grabfeld","key":"CountyName"}]},"MapReference":{"ReferenceId":"1186566617","Spot":0.68,"SideOfStreet":"right","CountryId":"20147700","StateId":"20177250","CountyId":"20184229","CityId":"20184233","DistrictId":"20184235","AddressId":"249171328","RoadLinkId":"495114867"}}},{"Relevance":1.0,"Distance":56.1,"MatchLevel":"houseNumber","MatchQuality":{"Country":1.0,"State":1.0,"County":1.0,"City":1.0,"District":1.0,"Street":[1.0],"HouseNumber":1.0,"PostalCode":1.0},"MatchType":"interpolated","Location":{"LocationId":"NT_oPqCMU-bBr0GH9qEYetY3C_3A","LocationType":"point","DisplayPosition":{"Latitude":50.32386,"Longitude":10.19873},"MapView":{"TopLeft":{"Latitude":50.3249842,"Longitude":10.1969692},"BottomRight":{"Latitude":50.3227358,"Longitude":10.2004908}},"Address":{"Label":"Sankt-Bruno-Straße 7, 97616 Bad Neustadt a.d. Saale, Deutschland","Country":"DEU","State":"Bayern","County":"Rhön-Grabfeld","City":"Bad Neustadt a.d. Saale","District":"Bad Neustadt a.d. Saale","Street":"Sankt-Bruno-Straße","HouseNumber":"7","PostalCode":"97616","AdditionalData":[{"value":"Deutschland","key":"CountryName"},{"value":"Bayern","key":"StateName"},{"value":"Rhön-Grabfeld","key":"CountyName"}]},"MapReference":{"ReferenceId":"1184929148","Spot":0.2,"SideOfStreet":"right","CountryId":"20147700","StateId":"20177250","CountyId":"20184229","CityId":"20184233","DistrictId":"20184235","AddressId":"255726423","RoadLinkId":"493164461"}}},{"Relevance":1.0,"Distance":76.5,"MatchLevel":"houseNumber","MatchQuality":{"Country":1.0,"State":1.0,"County":1.0,"City":1.0,"District":1.0,"Street":[1.0],"HouseNumber":1.0,"PostalCode":1.0},"MatchType":"interpolated","Location":{"LocationId":"NT_0kQXu9bdK8bdMNMclW3t6A_xA","LocationType":"point","DisplayPosition":{"Latitude":50.32435,"Longitude":10.19919},"MapView":{"TopLeft":{"Latitude":50.3254742,"Longitude":10.1974292},"BottomRight":{"Latitude":50.3232258,"Longitude":10.2009508}},"Address":{"Label":"Rhönstraße 1, 97616 Bad Neustadt a.d. Saale, Deutschland","Country":"DEU","State":"Bayern","County":"Rhön-Grabfeld","City":"Bad Neustadt a.d. Saale","District":"Bad Neustadt a.d. Saale","Street":"Rhönstraße","HouseNumber":"1","PostalCode":"97616","AdditionalData":[{"value":"Deutschland","key":"CountryName"},{"value":"Bayern","key":"StateName"},{"value":"Rhön-Grabfeld","key":"CountyName"}]},"MapReference":{"ReferenceId":"541840073","Spot":0.69,"SideOfStreet":"left","CountryId":"20147700","StateId":"20177250","CountyId":"20184229","CityId":"20184233","DistrictId":"20184235","AddressId":"183852756","RoadLinkId":"33471351"}}},{"Relevance":1.0,"Distance":78.1,"MatchLevel":"houseNumber","MatchQuality":{"Country":1.0,"State":1.0,"County":1.0,"City":1.0,"District":1.0,"Street":[1.0],"HouseNumber":1.0,"PostalCode":1.0},"MatchType":"interpolated","Location":{"LocationId":"NT_oPqCMU-bBr0GH9qEYetY3C_yUD","LocationType":"point","DisplayPosition":{"Latitude":50.32354,"Longitude":10.19733},"MapView":{"TopLeft":{"Latitude":50.3246642,"Longitude":10.1955693},"BottomRight":{"Latitude":50.3224158,"Longitude":10.1990907}},"Address":{"Label":"Sankt-Bruno-Straße 25, 97616 Bad Neustadt a.d. Saale, Deutschland","Country":"DEU","State":"Bayern","County":"Rhön-Grabfeld","City":"Bad Neustadt a.d. Saale","District":"Bad Neustadt a.d. Saale","Street":"Sankt-Bruno-Straße","HouseNumber":"25","PostalCode":"97616","AdditionalData":[{"value":"Deutschland","key":"CountryName"},{"value":"Bayern","key":"StateName"},{"value":"Rhön-Grabfeld","key":"CountyName"}]},"MapReference":{"ReferenceId":"1184640629","Spot":0.07,"SideOfStreet":"left","CountryId":"20147700","StateId":"20177250","CountyId":"20184229","CityId":"20184233","DistrictId":"20184235","AddressId":"249226904","RoadLinkId":"492846104"}}}]}]}}