{"Response":{"MetaInfo":{"Timestamp":"2020-03-28T10:13:05.724+0000","NextPageInformation":"2"},"View":[{"_type":"SearchResultsViewType","ViewId":0,"Result":[{"Relevance":1.0,"Distance":0.0,"Direction":0.0,"MatchLevel":"district","MatchQuality":{"Country":1.0,"State":1.0,"County":1.0,"City":1.0,"District":1.0,"PostalCode":1.0},"Location":{"LocationId":"NT_hFPQildnmwJCI7zskwvwmB","LocationType":"point","DisplayPosition":{"Latitude":50.3250707,"Longitude":19.2036667},"MapView":{"TopLeft":{"Latitude":50.43768,"Longitude":19.15474},"BottomRight":{"Latitude":50.29055,"Longitude":19.48013}},"Address":{"Label":"Dąbrowa Górnicza, Woj. Śląskie, Polska","Country":"POL","State":"Woj. Śląskie","County":"Dąbrowa Górnicza","City":"Dąbrowa Górnicza","District":"Dąbrowa Górnicza","PostalCode":"41-300","AdditionalData":[{"value":"Polska","key":"CountryName"},{"value":"Woj. Śląskie","key":"StateName"},{"value":"Dąbrowa Górnicza","key":"CountyName"}]},"MapReference":{"ReferenceId":"1171691345","SideOfStreet":"neither","CountryId":"20624059","StateId":"20629003","CountyId":"20629016","CityId":"20629017","DistrictId":"20646646"}}},{"Relevance":1.0,"Distance":16.6,"MatchLevel":"houseNumber","MatchQuality":{"Country":1.0,"State":1.0,"County":1.0,"City":1.0,"District":1.0,"Street":[1.0],"HouseNumber":1.0,"PostalCode":1.0},"MatchType":"interpolated","Location":{"LocationId":"NT_ej1SUdFTiDjmtzLO.lfu5D_1YD","LocationType":"point","DisplayPosition":{"Latitude":50.32522,"Longitude":19.20367},"MapView":{"TopLeft":{"Latitude":50.3263442,"Longitude":19.2019092},"BottomRight":{"Latitude":50.3240958,"Longitude":19.2054308}},"Address":{"Label":"ulica Królowej Jadwigi 56, 41-300 Dąbrowa Górnicza, Polska","Country":"POL","State":"Woj. Śląskie","County":"Dąbrowa Górnicza","City":"Dąbrowa Górnicza","District":"Dąbrowa Górnicza","Street":"ulica Królowej Jadwigi","HouseNumber":"56","PostalCode":"41-300","AdditionalData":[{"value":"Polska","key":"CountryName"},{"value":"Woj. Śląskie","key":"StateName"},{"value":"Dąbrowa Górnicza","key":"CountyName"}]},"MapReference":{"ReferenceId":"594599737","Spot":0.77,"SideOfStreet":"right","CountryId":"20624059","StateId":"20629003","CountyId":"20629016","CityId":"20629017","DistrictId":"20646646","AddressId":"210268327","RoadLinkId":"96222328"}}},{"Relevance":1.0,"Distance":33.5,"MatchLevel":"houseNumber","MatchQuality":{"Country":1.0,"State":1.0,"County":1.0,"City":1.0,"District":1.0,"Street":[1.0],"HouseNumber":1.0,"PostalCode":1.0},"MatchType":"interpolated","Location":{"LocationId":"NT_ej1SUdFTiDjmtzLO.lfu5D_zED","LocationType":"point","DisplayPosition":{"Latitude":50.32531,"Longitude":19.20338},"MapView":{"TopLeft":{"Latitude":50.3264342,"Longitude":19.2016192},"BottomRight":{"Latitude":50.3241858,"Longitude":19.2051408}},"Address":{"Label":"ulica Królowej Jadwigi 31, 41-300 Dąbrowa Górnicza, Polska","Country":"POL","State":"Woj. Śląskie","County":"Dąbrowa Górnicza","City":"Dąbrowa Górnicza","District":"Dąbrowa Górnicza","Street":"ulica Królowej Jadwigi","HouseNumber":"31","PostalCode":"41-300","AdditionalData":[{"value":"Polska","key":"CountryName"},{"value":"Woj. Śląskie","key":"StateName"},{"value":"Dąbrowa Górnicza","key":"CountyName"}]},"MapReference":{"ReferenceId":"594599744","Spot":0.63,"SideOfStreet":"left","CountryId":"20624059","StateId":"20629003","CountyId":"20629016","CityId":"20629017","DistrictId":"20646646","AddressId":"210570752","RoadLinkId":"96341858"}}},{"Relevance":1.0,"Distance":55.9,"MatchLevel":"street","MatchQuality":{"Country":1.0,"State":1.0,"County":1.0,"City":1.0,"District":1.0,"Street":[1.0],"PostalCode":1.0},"Location":{"LocationId":"NT_UFDJiFEpcr9e-5iy9Gt2ID_l_594599739_L","LocationType":"point","DisplayPosition":{"Latitude":50.32544,"Longitude":19.2042},"MapView":{"TopLeft":{"Latitude":50.32546,"Longitude":19.2042},"BottomRight":{"Latitude":50.32535,"Longitude":19.2049}},"Address":{"Label":"ulica Janusza Korczaka, 41-300 Dąbrowa Górnicza, Polska","Country":"POL","State":"Woj. Śląskie","County":"Dąbrowa Górnicza","City":"Dąbrowa Górnicza","District":"Dąbrowa Górnicza","Street":"ulica Janusza Korczaka","PostalCode":"41-300","AdditionalData":[{"value":"Polska","key":"CountryName"},{"value":"Woj. Śląskie","key":"StateName"},{"value":"Dąbrowa Górnicza","key":"CountyName"}]},"MapReference":{"ReferenceId":"594599739","Spot":1.0,"SideOfStreet":"left","CountryId":"20624059","StateId":"20629003","CountyId":"20629016","CityId":"20629017","DistrictId":"20646646"}}},{"Relevance":1.0,"Distance":55.9,"MatchLevel":"street","MatchQuality":{"Country":1.0,"State":1.0,"County":1.0,"City":1.0,"District":1.0,"Street":[1.0],"PostalCode":1.0},"Location":{"LocationId":"NT_ej1SUdFTiDjmtzLO.lfu5D_l_594599742_R","LocationType":"point","DisplayPosition":{"Latitude":50.32544,"Longitude":19.2042},"MapView":{"TopLeft":{"Latitude":50.32565,"Longitude":19.2042},"BottomRight":{"Latitude":50.32544,"Longitude":19.20469}},"Address":{"Label":"ulica Królowej Jadwigi, 41-300 Dąbrowa Górnicza, Polska","Country":"POL","State":"Woj. Śląskie","County":"Dąbrowa Górnicza","City":"Dąbrowa Górnicza","District":"Dąbrowa Górnicza","Street":"ulica Królowej Jadwigi","PostalCode":"41-300","AdditionalData":[{"value":"Polska","key":"CountryName"},{"value":"Woj. Śląskie","key":"StateName"},{"value":"Dąbrowa Górnicza","key":"CountyName"}]},"MapReference":{"ReferenceId":"594599742","Spot":0.0,"SideOfStreet":"right","CountryId":"20624059","StateId":"20629003","CountyId":"20629016","CityId":"20629017","DistrictId":"20646646"}}},{"Relevance":1.0,"Distance":72.0,"MatchLevel":"houseNumber","MatchQuality":{"Country":1.0,"State":1.0,"County":1.0,"City":1.0,"District":1.0,"Street":[1.0],"HouseNumber":1.0,"PostalCode":1.0},"MatchType":"interpolated","Location":{"LocationId":"NT_UFDJiFEpcr9e-5iy9Gt2ID_xkE","LocationType":"point","DisplayPosition":{"Latitude":50.32524,"Longitude":19.20502},"MapView":{"TopLeft":{"Latitude":50.3263642,"Longitude":19.2032592},"BottomRight":{"Latitude":50.3241158,"Longitude":19.2067808}},"Address":{"Label":"ulica Janusza Korczaka 1I, 41-300 Dąbrowa Górnicza, Polska","Country":"POL","State":"Woj. Śląskie","County":"Dąbrowa Górnicza","City":"Dąbrowa Górnicza","District":"Dąbrowa Górnicza","Street":"ulica Janusza Korczaka","HouseNumber":"1I","PostalCode":"41-300","AdditionalData":[{"value":"Polska","key":"CountryName"},{"value":"Woj. Śląskie","key":"StateName"},{"value":"Dąbrowa Górnicza","key":"CountyName"}]},"MapReference":{"ReferenceId":"1144100825","Spot":0.42,"SideOfStreet":"left","CountryId":"20624059","StateId":"20629003","CountyId":"20629016","CityId":"20629017","DistrictId":"20646646","AddressId":"210973863","RoadLinkId":"449284746"}}},{"Relevance":1.0,"Distance":79.2,"MatchLevel":"houseNumber","MatchQuality":{"Country":1.0,"State":1.0,"County":1.0,"City":1.0,"District":1.0,"Street":[1.0],"HouseNumber":1.0,"PostalCode":1.0},"MatchType":"interpolated","Location":{"LocationId":"NT_UFDJiFEpcr9e-5iy9Gt2ID_xkUS","LocationType":"point","DisplayPosition":{"Latitude":50.32514,"Longitude":19.2051},"MapView":{"TopLeft":{"Latitude":50.3262642,"Longitude":19.2033392},"BottomRight":{"Latitude":50.3240158,"Longitude":19.2068608}},"Address":{"Label":"ulica Janusza Korczaka 1II, 41-300 Dąbrowa Górnicza, Polska","Country":"POL","State":"Woj. Śląskie","County":"Dąbrowa Górnicza","City":"Dąbrowa Górnicza","District":"Dąbrowa Górnicza","Street":"ulica Janusza Korczaka","HouseNumber":"1II","PostalCode":"41-300","AdditionalData":[{"value":"Polska","key":"CountryName"},{"value":"Woj. Śląskie","key":"StateName"},{"value":"Dąbrowa Górnicza","key":"CountyName"}]},"MapReference":{"ReferenceId":"1144100824","Spot":0.58,"SideOfStreet":"left","CountryId":"20624059","StateId":"20629003","CountyId":"20629016","CityId":"20629017","DistrictId":"20646646","AddressId":"211014581","RoadLinkId":"449284745"}}},{"Relevance":1.0,"Distance":86.2,"MatchLevel":"street","MatchQuality":{"Country":1.0,"State":1.0,"County":1.0,"City":1.0,"District":1.0,"Street":[1.0],"PostalCode":1.0},"Location":{"LocationId":"NT_ej1SUdFTiDjmtzLO.lfu5D_l_1022941146_R","LocationType":"point","DisplayPosition":{"Latitude":50.32572,"Longitude":19.20433},"MapView":{"TopLeft":{"Latitude":50.32601,"Longitude":19.20433},"BottomRight":{"Latitude":50.32572,"Longitude":19.205}},"Address":{"Label":"ulica Królowej Jadwigi, 41-300 Dąbrowa Górnicza, Polska","Country":"POL","State":"Woj. Śląskie","County":"Dąbrowa Górnicza","City":"Dąbrowa Górnicza","District":"Dąbrowa Górnicza","Street":"ulica Królowej Jadwigi","PostalCode":"41-300","AdditionalData":[{"value":"Polska","key":"CountryName"},{"value":"Woj. Śląskie","key":"StateName"},{"value":"Dąbrowa Górnicza","key":"CountyName"}]},"MapReference":{"ReferenceId":"1022941146","Spot":0.0,"SideOfStreet":"right","CountryId":"20624059","StateId":"20629003","CountyId":"20629016","CityId":"20629017","DistrictId":"20646646"}}},{"Relevance":1.0,"Distance":88.0,"MatchLevel":"houseNumber","MatchQuality":{"Country":1.0,"State":1.0,"County":1.0,"City":1.0,"District":1.0,"Street":[1.0],"HouseNumber":1.0,"PostalCode":1.0},"MatchType":"interpolated","Location":{"LocationId":"NT_afkhiY4TbsqnAKAED2hYeD_0YD","LocationType":"point","DisplayPosition":{"Latitude":50.32586,"Longitude":19.20357},"MapView":{"TopLeft":{"Latitude":50.3269842,"Longitude":19.2018092},"BottomRight":{"Latitude":50.3247358,"Longitude":19.2053308}},"Address":{"Label":"ulica Mikołaja Kopernika 46, 41-300 Dąbrowa Górnicza, Polska","Country":"POL","State":"Woj. Śląskie","County":"Dąbrowa Górnicza","City":"Dąbrowa Górnicza","District":"Dąbrowa Górnicza","Street":"ulica Mikołaja Kopernika","HouseNumber":"46","PostalCode":"41-300","AdditionalData":[{"value":"Polska","key":"CountryName"},{"value":"Woj. Śląskie","key":"StateName"},{"value":"Dąbrowa Górnicza","key":"CountyName"}]},"MapReference":{"ReferenceId":"594599164","Spot":0.77,"SideOfStreet":"left","CountryId":"20624059","StateId":"20629003","CountyId":"20629016","CityId":"20629017","DistrictId":"20646646","AddressId":"210324728","RoadLinkId":"96426120"}}},{"Relevance":1.0,"Distance":94.7,"MatchLevel":"street","MatchQuality":{"Country":1.0,"State":1.0,"County":1.0,"City":1.0,"District":1.0,"Street":[1.0],"PostalCode":1.0},"Location":{"LocationId":"NT_UFDJiFEpcr9e-5iy9Gt2ID_l_594599741_L","LocationType":"point","DisplayPosition":{"Latitude":50.3255959,"Longitude":19.2047171},"MapView":{"TopLeft":{"Latitude":50.32565,"Longitude":19.20469},"BottomRight":{"Latitude":50.32535,"Longitude":19.2049}},"Address":{"Label":"ulica Janusza Korczaka, 41-300 Dąbrowa Górnicza, Polska","Country":"POL","State":"Woj. Śląskie","County":"Dąbrowa Górnicza","City":"Dąbrowa Górnicza","District":"Dąbrowa Górnicza","Street":"ulica Janusza Korczaka","PostalCode":"41-300","AdditionalData":[{"value":"Polska","key":"CountryName"},{"value":"Woj. Śląskie","key":"StateName"},{"value":"Dąbrowa Górnicza","key":"CountyName"}]},"MapReference":{"ReferenceId":"594599741","Spot":0.84,"SideOfStreet":"left","CountryId":"20624059","StateId":"20629003","CountyId":"20629016","CityId":"20629017","DistrictId":"20646646"}}}]}]}}