{"Response":{"MetaInfo":{"Timestamp":"2020-03-28T10:16:12.554+0000","NextPageInformation":"2"},"View":[{"_type":"SearchResultsViewType","ViewId":0,"Result":[{"Relevance":1.0,"Distance":0.0,"Direction":0.0,"MatchLevel":"district","MatchQuality":{"Country":1.0,"State":1.0,"County":1.0,"City":1.0,"District":1.0,"PostalCode":1.0},"Location":{"LocationId":"NT_AnSGi.4VLPSnytntF9j9AA","LocationType":"point","DisplayPosition":{"Latitude":50.3388278,"Longitude":4.9827777},"MapView":{"TopLeft":{"Latitude":50.34162,"Longitude":4.97177},"BottomRight":{"Latitude":50.33342,"Longitude":4.9923}},"Address":{"Label":"Durnal, Yvoir, Wallonie, Belgique","Country":"BEL","State":"Wallonie","County":"Namur","City":"Yvoir","District":"Durnal","PostalCode":"5530","AdditionalData":[{"value":"Belgique","key":"CountryName"},{"value":"Wallonie","key":"StateName"},{"value":"Namur","key":"CountyName"}]},"MapReference":{"ReferenceId":"53786911","SideOfStreet":"neither","CountryId":"20128886","StateId":"20205526","CountyId":"20207338","CityId":"20207480","DistrictId":"20207484"}}},{"Relevance":1.0,"Distance":6.7,"MatchLevel":"houseNumber","MatchQuality":{"Country":1.0,"State":1.0,"County":1.0,"City":1.0,"District":1.0,"Street":[1.0],"HouseNumber":1.0,"PostalCode":1.0},"MatchType":"interpolated","Location":{"LocationId":"NT_W.uD.CtDG59N8fZYFgZ.gD_zA","LocationType":"point","DisplayPosition":{"Latitude":50.33878,"Longitude":4.98289},"MapView":{"TopLeft":{"Latitude":50.3399042,"Longitude":4.9811287},"BottomRight":{"Latitude":50.3376558,"Longitude":4.9846513}},"Address":{"Label":"Pays de Liège 3, 5530 Yvoir, Belgique","Country":"BEL","State":"Wallonie","County":"Namur","City":"Yvoir","District":"Durnal","Street":"Pays de Liège","HouseNumber":"3","PostalCode":"5530","AdditionalData":[{"value":"Belgique","key":"CountryName"},{"value":"Wallonie","key":"StateName"},{"value":"Namur","key":"CountyName"}]},"MapReference":{"ReferenceId":"53786737","Spot":0.78,"SideOfStreet":"left","CountryId":"20128886","StateId":"20205526","CountyId":"20207338","CityId":"20207480","DistrictId":"20207484","AddressId":"368496235","RoadLinkId":"30636715"}}},{"Relevance":1.0,"Distance":29.3,"MatchLevel":"houseNumber","MatchQuality":{"Country":1.0,"State":1.0,"County":1.0,"City":1.0,"District":1.0,"Street":[1.0],"HouseNumber":1.0,"PostalCode":1.0},"MatchType":"interpolated","Location":{"LocationId":"NT_pQdJNwcnO6UB4rsNuom4CC_yID","LocationType":"point","DisplayPosition":{"Latitude":50.33832,"Longitude":4.98345},"MapView":{"TopLeft":{"Latitude":50.3394442,"Longitude":4.9816887},"BottomRight":{"Latitude":50.3371958,"Longitude":4.9852113}},"Address":{"Label":"Rue de Mianoye 22, 5530 Yvoir, Belgique","Country":"BEL","State":"Wallonie","County":"Namur","City":"Yvoir","District":"Durnal","Street":"Rue de Mianoye","HouseNumber":"22","PostalCode":"5530","AdditionalData":[{"value":"Belgique","key":"CountryName"},{"value":"Wallonie","key":"StateName"},{"value":"Namur","key":"CountyName"}]},"MapReference":{"ReferenceId":"567260852","Spot":0.72,"SideOfStreet":"left","CountryId":"20128886","StateId":"20205526","CountyId":"20207338","CityId":"20207480","DistrictId":"20207484","AddressId":"368400534","RoadLinkId":"30350135"}}},{"Relevance":1.0,"Distance":63.9,"MatchLevel":"houseNumber","MatchQuality":{"Country":1.0,"State":1.0,"County":1.0,"City":1.0,"District":1.0,"Street":[1.0],"HouseNumber":1.0,"PostalCode":1.0},"MatchType":"interpolated","Location":{"LocationId":"NT_pQdJNwcnO6UB4rsNuom4CC_xcD","LocationType":"point","DisplayPosition":{"Latitude":50.33815,"Longitude":4.9827},"MapView":{"TopLeft":{"Latitude":50.3392742,"Longitude":4.9809387},"BottomRight":{"Latitude":50.3370258,"Longitude":4.9844613}},"Address":{"Label":"Rue de Mianoye 17, 5530 Yvoir, Belgique","Country":"BEL","State":"Wallonie","County":"Namur","City":"Yvoir","District":"Durnal","Street":"Rue de Mianoye","HouseNumber":"17","PostalCode":"5530","AdditionalData":[{"value":"Belgique","key":"CountryName"},{"value":"Wallonie","key":"StateName"},{"value":"Namur","key":"CountyName"}]},"MapReference":{"ReferenceId":"802437704","Spot":0.18,"SideOfStreet":"left","CountryId":"20128886","StateId":"20205526","CountyId":"20207338","CityId":"20207480","DistrictId":"20207484","AddressId":"368611626","RoadLinkId":"191928607"}}},{"Relevance":1.0,"Distance":67.0,"MatchLevel":"houseNumber","MatchQuality":{"Country":1.0,"State":1.0,"County":1.0,"City":1.0,"District":1.0,"Street":[1.0],"HouseNumber":1.0,"PostalCode":1.0},"MatchType":"interpolated","Location":{"LocationId":"NT_pQdJNwcnO6UB4rsNuom4CC_xYD","LocationType":"point","DisplayPosition":{"Latitude":50.33814,"Longitude":4.98263},"MapView":{"TopLeft":{"Latitude":50.3392642,"Longitude":4.9808687},"BottomRight":{"Latitude":50.3370158,"Longitude":4.9843913}},"Address":{"Label":"Rue de Mianoye 16, 5530 Yvoir, Belgique","Country":"BEL","State":"Wallonie","County":"Namur","City":"Yvoir","District":"Durnal","Street":"Rue de Mianoye","HouseNumber":"16","PostalCode":"5530","AdditionalData":[{"value":"Belgique","key":"CountryName"},{"value":"Wallonie","key":"StateName"},{"value":"Namur","key":"CountyName"}]},"MapReference":{"ReferenceId":"828900777","Spot":0.96,"SideOfStreet":"left","CountryId":"20128886","StateId":"20205526","CountyId":"20207338","CityId":"20207480","DistrictId":"20207484","AddressId":"368731638","RoadLinkId":"213344503"}}},{"Relevance":1.0,"Distance":70.3,"MatchLevel":"houseNumber","MatchQuality":{"Country":1.0,"State":1.0,"County":1.0,"City":1.0,"District":1.0,"Street":[1.0],"HouseNumber":1.0,"PostalCode":1.0},"MatchType":"interpolated","Location":{"LocationId":"NT_WYt1QowQV5VcQq.7waZ3cB_4A","LocationType":"point","DisplayPosition":{"Latitude":50.3394,"Longitude":4.9832},"MapView":{"TopLeft":{"Latitude":50.3405242,"Longitude":4.9814387},"BottomRight":{"Latitude":50.3382758,"Longitude":4.9849613}},"Address":{"Label":"Pays-de-Liège 8, 5530 Yvoir, Belgique","Country":"BEL","State":"Wallonie","County":"Namur","City":"Yvoir","District":"Durnal","Street":"Pays-de-Liège","HouseNumber":"8","PostalCode":"5530","AdditionalData":[{"value":"Belgique","key":"CountryName"},{"value":"Wallonie","key":"StateName"},{"value":"Namur","key":"CountyName"}]},"MapReference":{"ReferenceId":"828900779","Spot":0.12,"SideOfStreet":"right","CountryId":"20128886","StateId":"20205526","CountyId":"20207338","CityId":"20207480","DistrictId":"20207484","AddressId":"767396442","RoadLinkId":"213344505"}}},{"Relevance":1.0,"Distance":70.6,"MatchLevel":"houseNumber","MatchQuality":{"Country":1.0,"State":1.0,"County":1.0,"City":1.0,"District":1.0,"Street":[1.0],"HouseNumber":1.0,"PostalCode":1.0},"MatchType":"interpolated","Location":{"LocationId":"NT_WYt1QowQV5VcQq.7waZ3cB_3A","LocationType":"point","DisplayPosition":{"Latitude":50.33942,"Longitude":4.98242},"MapView":{"TopLeft":{"Latitude":50.3405442,"Longitude":4.9806587},"BottomRight":{"Latitude":50.3382958,"Longitude":4.9841813}},"Address":{"Label":"Pays-de-Liège 7, 5530 Yvoir, Belgique","Country":"BEL","State":"Wallonie","County":"Namur","City":"Yvoir","District":"Durnal","Street":"Pays-de-Liège","HouseNumber":"7","PostalCode":"5530","AdditionalData":[{"value":"Belgique","key":"CountryName"},{"value":"Wallonie","key":"StateName"},{"value":"Namur","key":"CountyName"}]},"MapReference":{"ReferenceId":"828900778","Spot":1.0,"SideOfStreet":"left","CountryId":"20128886","StateId":"20205526","CountyId":"20207338","CityId":"20207480","DistrictId":"20207484","AddressId":"767411291","RoadLinkId":"213344504"}}},{"Relevance":1.0,"Distance":82.1,"MatchLevel":"houseNumber","MatchQuality":{"Country":1.0,"State":1.0,"County":1.0,"City":1.0,"District":1.0,"Street":[1.0],"HouseNumber":1.0,"PostalCode":1.0},"MatchType":"interpolated","Location":{"LocationId":"NT_pQdJNwcnO6UB4rsNuom4CC_ycD","LocationType":"point","DisplayPosition":{"Latitude":50.33848,"Longitude":4.98406},"MapView":{"TopLeft":{"Latitude":50.3396042,"Longitude":4.9822987},"BottomRight":{"Latitude":50.3373558,"Longitude":4.9858213}},"Address":{"Label":"Rue de Mianoye 27, 5530 Yvoir, Belgique","Country":"BEL","State":"Wallonie","County":"Namur","City":"Yvoir","District":"Durnal","Street":"Rue de Mianoye","HouseNumber":"27","PostalCode":"5530","AdditionalData":[{"value":"Belgique","key":"CountryName"},{"value":"Wallonie","key":"StateName"},{"value":"Namur","key":"CountyName"}]},"MapReference":{"ReferenceId":"852837187","Spot":0.78,"SideOfStreet":"left","CountryId":"20128886","StateId":"20205526","CountyId":"20207338","CityId":"20207480","DistrictId":"20207484","AddressId":"368465673","RoadLinkId":"231755924"}}},{"Relevance":1.0,"Distance":82.3,"MatchLevel":"houseNumber","MatchQuality":{"Country":1.0,"State":1.0,"County":1.0,"City":1.0,"District":1.0,"Street":[1.0],"HouseNumber":1.0,"PostalCode":1.0},"MatchType":"interpolated","Location":{"LocationId":"NT_2mtvCTTxuPAvzCLUOSI4DC_xA","LocationType":"point","DisplayPosition":{"Latitude":50.3381,"Longitude":4.98299},"MapView":{"TopLeft":{"Latitude":50.3392242,"Longitude":4.9812287},"BottomRight":{"Latitude":50.3369758,"Longitude":4.9847513}},"Address":{"Label":"Rue Adam 1, 5530 Yvoir, Belgique","Country":"BEL","State":"Wallonie","County":"Namur","City":"Yvoir","District":"Durnal","Street":"Rue Adam","HouseNumber":"1","PostalCode":"5530","AdditionalData":[{"value":"Belgique","key":"CountryName"},{"value":"Wallonie","key":"StateName"},{"value":"Namur","key":"CountyName"}]},"MapReference":{"ReferenceId":"53786830","Spot":0.9,"SideOfStreet":"right","CountryId":"20128886","StateId":"20205526","CountyId":"20207338","CityId":"20207480","DistrictId":"20207484","AddressId":"368752542","RoadLinkId":"31004120"}}},{"Relevance":1.0,"Distance":104.8,"MatchLevel":"houseNumber","MatchQuality":{"Country":1.0,"State":1.0,"County":1.0,"City":1.0,"District":1.0,"Street":[1.0],"HouseNumber":1.0,"PostalCode":1.0},"MatchType":"interpolated","Location":{"LocationId":"NT_pQdJNwcnO6UB4rsNuom4CC_xAD","LocationType":"point","DisplayPosition":{"Latitude":50.33798,"Longitude":4.98191},"MapView":{"TopLeft":{"Latitude":50.3391042,"Longitude":4.9801487},"BottomRight":{"Latitude":50.3368558,"Longitude":4.9836713}},"Address":{"Label":"Rue de Mianoye 10, 5530 Yvoir, Belgique","Country":"BEL","State":"Wallonie","County":"Namur","City":"Yvoir","District":"Durnal","Street":"Rue de Mianoye","HouseNumber":"10","PostalCode":"5530","AdditionalData":[{"value":"Belgique","key":"CountryName"},{"value":"Wallonie","key":"StateName"},{"value":"Namur","key":"CountyName"}]},"MapReference":{"ReferenceId":"828900776","Spot":0.12,"SideOfStreet":"left","CountryId":"20128886","StateId":"20205526","CountyId":"20207338","CityId":"20207480","DistrictId":"20207484","AddressId":"368509842","RoadLinkId":"213344502"}}}]}]}}