{"Response":{"MetaInfo":{"Timestamp":"2020-03-28T09:51:21.641+0000","NextPageInformation":"2"},"View":[{"_type":"SearchResultsViewType","ViewId":0,"Result":[{"Relevance":1.0,"Distance":0.0,"Direction":0.0,"MatchLevel":"district","MatchQuality":{"Country":1.0,"State":1.0,"County":1.0,"City":1.0,"District":1.0,"PostalCode":1.0},"Location":{"LocationId":"NT_3c5oUbSdcgZ4avAN28Ug6D","LocationType":"point","DisplayPosition":{"Latitude":50.4103928,"Longitude":-4.1584987},"MapView":{"TopLeft":{"Latitude":50.41664,"Longitude":-4.16819},"BottomRight":{"Latitude":50.40017,"Longitude":-4.13552}},"Address":{"Label":"Honicknowle, Plymouth, England, United Kingdom","Country":"GBR","State":"England","County":"Devon","City":"Plymouth","District":"Honicknowle","PostalCode":"PL5 3","AdditionalData":[{"value":"United Kingdom","key":"CountryName"},{"value":"England","key":"StateName"},{"value":"Devon","key":"CountyName"}]},"MapReference":{"ReferenceId":"1204460662","SideOfStreet":"neither","StateId":"20248595","CountyId":"20353913","CityId":"20354548","DistrictId":"20354573"}}},{"Relevance":1.0,"Distance":19.1,"MatchLevel":"street","MatchQuality":{"Country":1.0,"State":1.0,"County":1.0,"City":1.0,"District":1.0,"Street":[1.0],"PostalCode":1.0},"Location":{"LocationId":"NT_WS.ah0OJJUAMUSXOJIVQkB_l_26620183_L","LocationType":"point","DisplayPosition":{"Latitude":50.4105646,"Longitude":-4.1584852},"MapView":{"TopLeft":{"Latitude":50.41059,"Longitude":-4.15881},"BottomRight":{"Latitude":50.41046,"Longitude":-4.15715}},"Address":{"Label":"Honicknowle Green, Plymouth, PL5 3, United Kingdom","Country":"GBR","State":"England","County":"Devon","City":"Plymouth","District":"Honicknowle","Street":"Honicknowle Green","PostalCode":"PL5 3","AdditionalData":[{"value":"United Kingdom","key":"CountryName"},{"value":"England","key":"StateName"},{"value":"Devon","key":"CountyName"}]},"MapReference":{"ReferenceId":"26620183","Spot":0.8,"SideOfStreet":"left","StateId":"20248595","CountyId":"20353913","CityId":"20354548","DistrictId":"20354573"}}},{"Relevance":1.0,"Distance":23.9,"MatchLevel":"street","MatchQuality":{"Country":1.0,"State":1.0,"County":1.0,"City":1.0,"District":1.0,"Street":[1.0],"PostalCode":1.0},"Location":{"LocationId":"NT_WS.ah0OJJUAMUSXOJIVQkB_l_26620220_R","LocationType":"point","DisplayPosition":{"Latitude":50.4104353,"Longitude":-4.1588298},"MapView":{"TopLeft":{"Latitude":50.41059,"Longitude":-4.15886},"BottomRight":{"Latitude":50.4102,"Longitude":-4.15881}},"Address":{"Label":"Honicknowle Green, Plymouth, PL5 3, United Kingdom","Country":"GBR","State":"England","County":"Devon","City":"Plymouth","District":"Honicknowle","Street":"Honicknowle Green","PostalCode":"PL5 3","AdditionalData":[{"value":"United Kingdom","key":"CountryName"},{"value":"England","key":"StateName"},{"value":"Devon","key":"CountyName"}]},"MapReference":{"ReferenceId":"26620220","Spot":0.6,"SideOfStreet":"right","StateId":"20248595","CountyId":"20353913","CityId":"20354548","DistrictId":"20354573"}}},{"Relevance":1.0,"Distance":31.1,"MatchLevel":"street","MatchQuality":{"Country":1.0,"State":1.0,"County":1.0,"City":1.0,"District":1.0,"Street":[1.0],"PostalCode":1.0},"Location":{"LocationId":"NT_WS.ah0OJJUAMUSXOJIVQkB_l_26620145_R","LocationType":"point","DisplayPosition":{"Latitude":50.41059,"Longitude":-4.15881},"MapView":{"TopLeft":{"Latitude":50.41099,"Longitude":-4.15881},"BottomRight":{"Latitude":50.41059,"Longitude":-4.15874}},"Address":{"Label":"Honicknowle Green, Plymouth, PL5 3, United Kingdom","Country":"GBR","State":"England","County":"Devon","City":"Plymouth","District":"Honicknowle","Street":"Honicknowle Green","PostalCode":"PL5 3","AdditionalData":[{"value":"United Kingdom","key":"CountryName"},{"value":"England","key":"StateName"},{"value":"Devon","key":"CountyName"}]},"MapReference":{"ReferenceId":"26620145","Spot":0.0,"SideOfStreet":"right","StateId":"20248595","CountyId":"20353913","CityId":"20354548","DistrictId":"20354573"}}},{"Relevance":1.0,"Distance":33.4,"MatchLevel":"street","MatchQuality":{"Country":1.0,"State":1.0,"County":1.0,"City":1.0,"District":1.0,"Street":[1.0],"PostalCode":1.0},"Location":{"LocationId":"NT_WS.ah0OJJUAMUSXOJIVQkB_l_26620221_R","LocationType":"point","DisplayPosition":{"Latitude":50.4102,"Longitude":-4.15886},"MapView":{"TopLeft":{"Latitude":50.41031,"Longitude":-4.16003},"BottomRight":{"Latitude":50.4102,"Longitude":-4.15886}},"Address":{"Label":"Honicknowle Green, Plymouth, PL5 3, United Kingdom","Country":"GBR","State":"England","County":"Devon","City":"Plymouth","District":"Honicknowle","Street":"Honicknowle Green","PostalCode":"PL5 3","AdditionalData":[{"value":"United Kingdom","key":"CountryName"},{"value":"England","key":"StateName"},{"value":"Devon","key":"CountyName"}]},"MapReference":{"ReferenceId":"26620221","Spot":0.0,"SideOfStreet":"right","StateId":"20248595","CountyId":"20353913","CityId":"20354548","DistrictId":"20354573"}}},{"Relevance":1.0,"Distance":54.4,"MatchLevel":"houseNumber","MatchQuality":{"Country":1.0,"State":1.0,"County":1.0,"City":1.0,"District":1.0,"Street":[1.0],"HouseNumber":1.0,"PostalCode":1.0},"MatchType":"interpolated","Location":{"LocationId":"NT_v5ZcXdgyJ1oxbUe5VWE0-B_l_26620441_R_4ID","LocationType":"point","DisplayPosition":{"Latitude":50.4099816,"Longitude":-4.1589135},"MapView":{"TopLeft":{"Latitude":50.4111057,"Longitude":-4.1606775},"BottomRight":{"Latitude":50.4088574,"Longitude":-4.1571496}},"Address":{"Label":"82 Montacute Avenue, Plymouth, PL5 3PR, United Kingdom","Country":"GBR","State":"England","County":"Devon","City":"Plymouth","District":"Honicknowle","Street":"Montacute Avenue","HouseNumber":"82","PostalCode":"PL5 3PR","AdditionalData":[{"value":"United Kingdom","key":"CountryName"},{"value":"England","key":"StateName"},{"value":"Devon","key":"CountyName"}]},"MapReference":{"ReferenceId":"26620441","Spot":0.88,"SideOfStreet":"right","StateId":"20248595","CountyId":"20353913","CityId":"20354548","DistrictId":"20354573"}}},{"Relevance":1.0,"Distance":74.7,"MatchLevel":"houseNumber","MatchQuality":{"Country":1.0,"State":1.0,"County":1.0,"City":1.0,"District":1.0,"Street":[1.0],"HouseNumber":1.0,"PostalCode":1.0},"MatchType":"interpolated","Location":{"LocationId":"NT_WS.ah0OJJUAMUSXOJIVQkB_l_26620050_R_yA","LocationType":"point","DisplayPosition":{"Latitude":50.411,"Longitude":-4.1589503},"MapView":{"TopLeft":{"Latitude":50.4121242,"Longitude":-4.1607143},"BottomRight":{"Latitude":50.4098759,"Longitude":-4.1571863}},"Address":{"Label":"2 Honicknowle Green, Plymouth, PL5 3PL, United Kingdom","Country":"GBR","State":"England","County":"Devon","City":"Plymouth","District":"Honicknowle","Street":"Honicknowle Green","HouseNumber":"2","PostalCode":"PL5 3PL","AdditionalData":[{"value":"United Kingdom","key":"CountryName"},{"value":"England","key":"StateName"},{"value":"Devon","key":"CountyName"}]},"MapReference":{"ReferenceId":"26620050","Spot":0.19,"SideOfStreet":"right","StateId":"20248595","CountyId":"20353913","CityId":"20354548","DistrictId":"20354573"}}},{"Relevance":1.0,"Distance":79.4,"MatchLevel":"houseNumber","MatchQuality":{"Country":1.0,"State":1.0,"County":1.0,"City":1.0,"District":1.0,"Street":[1.0],"HouseNumber":1.0,"PostalCode":1.0},"MatchType":"interpolated","Location":{"LocationId":"NT_H.cUizGxAZWJkBhuzlDo2C_l_26620049_L_xA","LocationType":"point","DisplayPosition":{"Latitude":50.4111008,"Longitude":-4.1586399},"MapView":{"TopLeft":{"Latitude":50.4122249,"Longitude":-4.1604039},"BottomRight":{"Latitude":50.4099766,"Longitude":-4.1568759}},"Address":{"Label":"1 Chard Barton, Plymouth, PL5 3SR, United Kingdom","Country":"GBR","State":"England","County":"Devon","City":"Plymouth","District":"Honicknowle","Street":"Chard Barton","HouseNumber":"1","PostalCode":"PL5 3SR","AdditionalData":[{"value":"United Kingdom","key":"CountryName"},{"value":"England","key":"StateName"},{"value":"Devon","key":"CountyName"}]},"MapReference":{"ReferenceId":"26620049","Spot":0.16,"SideOfStreet":"left","StateId":"20248595","CountyId":"20353913","CityId":"20354548","DistrictId":"20354573"}}},{"Relevance":1.0,"Distance":85.1,"MatchLevel":"houseNumber","MatchQuality":{"Country":1.0,"State":1.0,"County":1.0,"City":1.0,"District":1.0,"Street":[1.0],"HouseNumber":1.0,"PostalCode":1.0},"MatchType":"interpolated","Location":{"LocationId":"NT_QjGrbfwbt.s8xVeQ1X0-sA_l_26620362_L_0MD","LocationType":"point","DisplayPosition":{"Latitude":50.4097012,"Longitude":-4.1576147},"MapView":{"TopLeft":{"Latitude":50.4108253,"Longitude":-4.1593787},"BottomRight":{"Latitude":50.408577,"Longitude":-4.1558508}},"Address":{"Label":"43 Farm Lane, Plymouth, PL5 3PH, United Kingdom","Country":"GBR","State":"England","County":"Devon","City":"Plymouth","District":"Honicknowle","Street":"Farm Lane","HouseNumber":"43","PostalCode":"PL5 3PH","AdditionalData":[{"value":"United Kingdom","key":"CountryName"},{"value":"England","key":"StateName"},{"value":"Devon","key":"CountyName"}]},"MapReference":{"ReferenceId":"26620362","Spot":0.39,"SideOfStreet":"left","StateId":"20248595","CountyId":"20353913","CityId":"20354548","DistrictId":"20354573"}}},{"Relevance":1.0,"Distance":86.3,"MatchLevel":"postalCode","MatchQuality":{"PostalCode":1.0},"Location":{"LocationId":"NT_WS.ah0OJJUAMUSXOJIVQkB_l_26620221_R","LocationType":"point","DisplayPosition":{"Latitude":50.41023,"Longitude":-4.15969},"MapView":{"TopLeft":{"Latitude":50.4192232,"Longitude":-4.1738017},"BottomRight":{"Latitude":50.4012368,"Longitude":-4.1455783}},"Address":{"Label":"PL5 3PL, Plymouth, England, United Kingdom","Country":"GBR","State":"England","County":"Devon","City":"Plymouth","PostalCode":"PL5 3PL","AdditionalData":[{"value":"United Kingdom","key":"CountryName"},{"value":"England","key":"StateName"},{"value":"Devon","key":"CountyName"}]},"MapReference":{"ReferenceId":"26620221","Spot":0.0,"SideOfStreet":"neither","StateId":"20248595","CountyId":"20353913","CityId":"20354548"}}}]}]}}