{"Response":{"MetaInfo":{"Timestamp":"2020-03-28T10:48:48.515+0000","NextPageInformation":"2"},"View":[{"_type":"SearchResultsViewType","ViewId":0,"Result":[{"Relevance":1.0,"Distance":0.0,"Direction":0.0,"MatchLevel":"district","MatchQuality":{"Country":1.0,"State":1.0,"County":1.0,"City":1.0,"District":1.0,"PostalCode":1.0},"Location":{"LocationId":"NT_RjSBg37vsNn6jm.S1dDZ-C","LocationType":"point","DisplayPosition":{"Latitude":50.4424821,"Longitude":18.8613477},"MapView":{"TopLeft":{"Latitude":50.49362,"Longitude":18.76986},"BottomRight":{"Latitude":50.41641,"Longitude":18.88811}},"Address":{"Label":"Tarnowskie Góry, Woj. Śląskie, Polska","Country":"POL","State":"Woj. Śląskie","County":"Powiat Tarnogórski","City":"Tarnowskie Góry","District":"Tarnowskie Góry","PostalCode":"42-600","AdditionalData":[{"value":"Polska","key":"CountryName"},{"value":"Woj. Śląskie","key":"StateName"},{"value":"Powiat Tarnogórski","key":"CountyName"}]},"MapReference":{"ReferenceId":"594327226","SideOfStreet":"neither","CountryId":"20624059","StateId":"20629003","CountyId":"20629284","CityId":"20629299","DistrictId":"20693945"}}},{"Relevance":1.0,"Distance":6.5,"MatchLevel":"houseNumber","MatchQuality":{"Country":1.0,"State":1.0,"County":1.0,"City":1.0,"District":1.0,"Street":[1.0],"HouseNumber":1.0,"PostalCode":1.0},"MatchType":"interpolated","Location":{"LocationId":"NT_1k5PCxlRwhbBAmBMoZIdKA_2ME","LocationType":"point","DisplayPosition":{"Latitude":50.44244,"Longitude":18.86077},"MapView":{"TopLeft":{"Latitude":50.4435642,"Longitude":18.8590048},"BottomRight":{"Latitude":50.4413158,"Longitude":18.8625352}},"Address":{"Label":"ulica Bytomska 6C, 42-606 Tarnowskie Góry, Polska","Country":"POL","State":"Woj. Śląskie","County":"Powiat Tarnogórski","City":"Tarnowskie Góry","District":"Tarnowskie Góry","Street":"ulica Bytomska","HouseNumber":"6C","PostalCode":"42-606","AdditionalData":[{"value":"Polska","key":"CountryName"},{"value":"Woj. Śląskie","key":"StateName"},{"value":"Powiat Tarnogórski","key":"CountyName"}]},"MapReference":{"ReferenceId":"1075509650","Spot":0.79,"SideOfStreet":"right","CountryId":"20624059","StateId":"20629003","CountyId":"20629284","CityId":"20629299","DistrictId":"20693945","AddressId":"731813517","RoadLinkId":"395687063"}}},{"Relevance":1.0,"Distance":65.4,"MatchLevel":"houseNumber","MatchQuality":{"Country":1.0,"State":1.0,"County":1.0,"City":1.0,"District":1.0,"Street":[1.0],"HouseNumber":1.0,"PostalCode":1.0},"MatchType":"interpolated","Location":{"LocationId":"NT_QhKSzNxuw84zQl8fzLC-XD_xIE","LocationType":"point","DisplayPosition":{"Latitude":50.44312,"Longitude":18.86132},"MapView":{"TopLeft":{"Latitude":50.4442442,"Longitude":18.8595548},"BottomRight":{"Latitude":50.4419958,"Longitude":18.8630852}},"Address":{"Label":"ulica Oświęcimska 1B, 42-600 Tarnowskie Góry, Polska","Country":"POL","State":"Woj. Śląskie","County":"Powiat Tarnogórski","City":"Tarnowskie Góry","District":"Tarnowskie Góry","Street":"ulica Oświęcimska","HouseNumber":"1B","PostalCode":"42-600","AdditionalData":[{"value":"Polska","key":"CountryName"},{"value":"Woj. Śląskie","key":"StateName"},{"value":"Powiat Tarnogórski","key":"CountyName"}]},"MapReference":{"ReferenceId":"594327942","Spot":0.55,"SideOfStreet":"left","CountryId":"20624059","StateId":"20629003","CountyId":"20629284","CityId":"20629299","DistrictId":"20693945","AddressId":"222386649","RoadLinkId":"96465840"}}},{"Relevance":1.0,"Distance":70.4,"MatchLevel":"houseNumber","MatchQuality":{"Country":1.0,"State":1.0,"County":1.0,"City":1.0,"District":1.0,"Street":[1.0],"HouseNumber":1.0,"PostalCode":1.0},"MatchType":"interpolated","Location":{"LocationId":"NT_1k5PCxlRwhbBAmBMoZIdKA_zIE","LocationType":"point","DisplayPosition":{"Latitude":50.44292,"Longitude":18.86063},"MapView":{"TopLeft":{"Latitude":50.4440442,"Longitude":18.8588648},"BottomRight":{"Latitude":50.4417958,"Longitude":18.8623952}},"Address":{"Label":"ulica Bytomska 3B, 42-606 Tarnowskie Góry, Polska","Country":"POL","State":"Woj. Śląskie","County":"Powiat Tarnogórski","City":"Tarnowskie Góry","District":"Tarnowskie Góry","Street":"ulica Bytomska","HouseNumber":"3B","PostalCode":"42-606","AdditionalData":[{"value":"Polska","key":"CountryName"},{"value":"Woj. Śląskie","key":"StateName"},{"value":"Powiat Tarnogórski","key":"CountyName"}]},"MapReference":{"ReferenceId":"1075509651","Spot":0.21,"SideOfStreet":"left","CountryId":"20624059","StateId":"20629003","CountyId":"20629284","CityId":"20629299","DistrictId":"20693945","AddressId":"210167483","RoadLinkId":"395687064"}}},{"Relevance":1.0,"Distance":90.1,"MatchLevel":"street","MatchQuality":{"Country":1.0,"State":1.0,"County":1.0,"City":1.0,"District":1.0,"Street":[1.0],"PostalCode":1.0},"Location":{"LocationId":"NT_QhKSzNxuw84zQl8fzLC-XD_l_594327955_L","LocationType":"point","DisplayPosition":{"Latitude":50.44304,"Longitude":18.86227},"MapView":{"TopLeft":{"Latitude":50.44304,"Longitude":18.86227},"BottomRight":{"Latitude":50.44301,"Longitude":18.86261}},"Address":{"Label":"ulica Oświęcimska, 42-600 Tarnowskie Góry, Polska","Country":"POL","State":"Woj. Śląskie","County":"Powiat Tarnogórski","City":"Tarnowskie Góry","District":"Tarnowskie Góry","Street":"ulica Oświęcimska","PostalCode":"42-600","AdditionalData":[{"value":"Polska","key":"CountryName"},{"value":"Woj. Śląskie","key":"StateName"},{"value":"Powiat Tarnogórski","key":"CountyName"}]},"MapReference":{"ReferenceId":"594327955","Spot":1.0,"SideOfStreet":"left","CountryId":"20624059","StateId":"20629003","CountyId":"20629284","CityId":"20629299","DistrictId":"20693945"}}},{"Relevance":1.0,"Distance":94.8,"MatchLevel":"street","MatchQuality":{"Country":1.0,"State":1.0,"County":1.0,"City":1.0,"District":1.0,"PostalCode":1.0},"Location":{"LocationId":"NT_54ph2doLRu38798J8cVqKB_l_594328557_L","LocationType":"point","DisplayPosition":{"Latitude":50.44218,"Longitude":18.8626},"MapView":{"TopLeft":{"Latitude":50.44295,"Longitude":18.86146},"BottomRight":{"Latitude":50.4402,"Longitude":18.86315}},"Address":{"Label":"42-606 Tarnowskie Góry, Polska","Country":"POL","State":"Woj. Śląskie","County":"Powiat Tarnogórski","City":"Tarnowskie Góry","District":"Tarnowskie Góry","PostalCode":"42-606","AdditionalData":[{"value":"Polska","key":"CountryName"},{"value":"Woj. Śląskie","key":"StateName"},{"value":"Powiat Tarnogórski","key":"CountyName"}]},"MapReference":{"ReferenceId":"594328557","Spot":0.72,"SideOfStreet":"left","CountryId":"20624059","StateId":"20629003","CountyId":"20629284","CityId":"20629299","DistrictId":"20693945"}}},{"Relevance":1.0,"Distance":106.9,"MatchLevel":"street","MatchQuality":{"Country":1.0,"State":1.0,"County":1.0,"City":1.0,"District":1.0,"Street":[1.0],"PostalCode":1.0},"Location":{"LocationId":"NT_QhKSzNxuw84zQl8fzLC-XD_l_594327978_L","LocationType":"point","DisplayPosition":{"Latitude":50.44301,"Longitude":18.86261},"MapView":{"TopLeft":{"Latitude":50.44301,"Longitude":18.86261},"BottomRight":{"Latitude":50.44295,"Longitude":18.86315}},"Address":{"Label":"ulica Oświęcimska, 42-600 Tarnowskie Góry, Polska","Country":"POL","State":"Woj. Śląskie","County":"Powiat Tarnogórski","City":"Tarnowskie Góry","District":"Tarnowskie Góry","Street":"ulica Oświęcimska","PostalCode":"42-600","AdditionalData":[{"value":"Polska","key":"CountryName"},{"value":"Woj. Śląskie","key":"StateName"},{"value":"Powiat Tarnogórski","key":"CountyName"}]},"MapReference":{"ReferenceId":"594327978","Spot":1.0,"SideOfStreet":"left","CountryId":"20624059","StateId":"20629003","CountyId":"20629284","CityId":"20629299","DistrictId":"20693945"}}},{"Relevance":1.0,"Distance":111.8,"MatchLevel":"houseNumber","MatchQuality":{"Country":1.0,"State":1.0,"County":1.0,"City":1.0,"District":1.0,"Street":[1.0],"HouseNumber":1.0,"PostalCode":1.0},"MatchType":"interpolated","Location":{"LocationId":"NT_1k5PCxlRwhbBAmBMoZIdKA_0A","LocationType":"point","DisplayPosition":{"Latitude":50.44337,"Longitude":18.86049},"MapView":{"TopLeft":{"Latitude":50.4444942,"Longitude":18.8587248},"BottomRight":{"Latitude":50.4422458,"Longitude":18.8622552}},"Address":{"Label":"ulica Bytomska 4, 42-606 Tarnowskie Góry, Polska","Country":"POL","State":"Woj. Śląskie","County":"Powiat Tarnogórski","City":"Tarnowskie Góry","District":"Tarnowskie Góry","Street":"ulica Bytomska","HouseNumber":"4","PostalCode":"42-606","AdditionalData":[{"value":"Polska","key":"CountryName"},{"value":"Woj. Śląskie","key":"StateName"},{"value":"Powiat Tarnogórski","key":"CountyName"}]},"MapReference":{"ReferenceId":"594327894","Spot":0.3,"SideOfStreet":"right","CountryId":"20624059","StateId":"20629003","CountyId":"20629284","CityId":"20629299","DistrictId":"20693945","AddressId":"209884302","RoadLinkId":"96541978"}}},{"Relevance":1.0,"Distance":123.2,"MatchLevel":"houseNumber","MatchQuality":{"Country":1.0,"State":1.0,"County":1.0,"City":1.0,"District":1.0,"Street":[1.0],"HouseNumber":1.0,"PostalCode":1.0},"MatchType":"interpolated","Location":{"LocationId":"NT_QhKSzNxuw84zQl8fzLC-XD_4A","LocationType":"point","DisplayPosition":{"Latitude":50.44345,"Longitude":18.8624},"MapView":{"TopLeft":{"Latitude":50.4445742,"Longitude":18.8606348},"BottomRight":{"Latitude":50.4423258,"Longitude":18.8641652}},"Address":{"Label":"ulica Oświęcimska 8, 42-600 Tarnowskie Góry, Polska","Country":"POL","State":"Woj. Śląskie","County":"Powiat Tarnogórski","City":"Tarnowskie Góry","District":"Tarnowskie Góry","Street":"ulica Oświęcimska","HouseNumber":"8","PostalCode":"42-600","AdditionalData":[{"value":"Polska","key":"CountryName"},{"value":"Woj. Śląskie","key":"StateName"},{"value":"Powiat Tarnogórski","key":"CountyName"}]},"MapReference":{"ReferenceId":"594594669","Spot":0.36,"SideOfStreet":"left","CountryId":"20624059","StateId":"20629003","CountyId":"20629284","CityId":"20629299","DistrictId":"20693945","AddressId":"222365692","RoadLinkId":"96179382"}}},{"Relevance":1.0,"Distance":128.5,"MatchLevel":"houseNumber","MatchQuality":{"Country":1.0,"State":1.0,"County":1.0,"City":1.0,"District":1.0,"Street":[1.0],"HouseNumber":1.0,"PostalCode":1.0},"MatchType":"interpolated","Location":{"LocationId":"NT_9auflbbUcJhU6auYohnzwB_xkD","LocationType":"point","DisplayPosition":{"Latitude":50.44331,"Longitude":18.86006},"MapView":{"TopLeft":{"Latitude":50.4444342,"Longitude":18.8582948},"BottomRight":{"Latitude":50.4421858,"Longitude":18.8618252}},"Address":{"Label":"ulica Piastowska 19, 42-600 Tarnowskie Góry, Polska","Country":"POL","State":"Woj. Śląskie","County":"Powiat Tarnogórski","City":"Tarnowskie Góry","District":"Tarnowskie Góry","Street":"ulica Piastowska","HouseNumber":"19","PostalCode":"42-600","AdditionalData":[{"value":"Polska","key":"CountryName"},{"value":"Woj. Śląskie","key":"StateName"},{"value":"Powiat Tarnogórski","key":"CountyName"}]},"MapReference":{"ReferenceId":"594327895","Spot":0.47,"SideOfStreet":"left","CountryId":"20624059","StateId":"20629003","CountyId":"20629284","CityId":"20629299","DistrictId":"20693945","AddressId":"209265393","RoadLinkId":"96190222"}}}]}]}}