{"Response":{"MetaInfo":{"Timestamp":"2020-03-28T11:43:37.905+0000","NextPageInformation":"2"},"View":[{"_type":"SearchResultsViewType","ViewId":0,"Result":[{"Relevance":1.0,"Distance":0.0,"Direction":0.0,"MatchLevel":"district","MatchQuality":{"Country":1.0,"State":1.0,"County":1.0,"City":1.0,"District":1.0,"PostalCode":1.0},"Location":{"LocationId":"NT_KSEIWWbWESkEsUaoV5MUCC","LocationType":"point","DisplayPosition":{"Latitude":50.4314008,"Longitude":11.158545},"MapView":{"TopLeft":{"Latitude":50.44413,"Longitude":11.14679},"BottomRight":{"Latitude":50.41911,"Longitude":11.17215}},"Address":{"Label":"Steinach, Thüringen, Deutschland","Country":"DEU","State":"Thüringen","County":"Sonneberg","City":"Steinach","District":"Steinach","PostalCode":"96523","AdditionalData":[{"value":"Deutschland","key":"CountryName"},{"value":"Thüringen","key":"StateName"},{"value":"Sonneberg","key":"CountyName"}]},"MapReference":{"ReferenceId":"1185246940","SideOfStreet":"neither","CountryId":"20147700","StateId":"20196974","CountyId":"20198640","CityId":"20198692","DistrictId":"20198694"}}},{"Relevance":1.0,"Distance":8.9,"MatchLevel":"houseNumber","MatchQuality":{"Country":1.0,"State":1.0,"County":1.0,"City":1.0,"District":1.0,"Street":[1.0],"HouseNumber":1.0,"PostalCode":1.0},"MatchType":"interpolated","Location":{"LocationId":"NT_OypuXQ1f3BNaTGYzoqVs1D_yITQ","LocationType":"point","DisplayPosition":{"Latitude":50.43139,"Longitude":11.15842},"MapView":{"TopLeft":{"Latitude":50.4325142,"Longitude":11.1566552},"BottomRight":{"Latitude":50.4302658,"Longitude":11.1601848}},"Address":{"Label":"Am Ockerwerk 22A, 96523 Steinach, Deutschland","Country":"DEU","State":"Thüringen","County":"Sonneberg","City":"Steinach","District":"Steinach","Street":"Am Ockerwerk","HouseNumber":"22A","PostalCode":"96523","AdditionalData":[{"value":"Deutschland","key":"CountryName"},{"value":"Thüringen","key":"StateName"},{"value":"Sonneberg","key":"CountyName"}]},"MapReference":{"ReferenceId":"547964467","Spot":0.59,"SideOfStreet":"right","CountryId":"20147700","StateId":"20196974","CountyId":"20198640","CityId":"20198692","DistrictId":"20198694","AddressId":"189651046","RoadLinkId":"39742941"}}},{"Relevance":1.0,"Distance":31.0,"MatchLevel":"houseNumber","MatchQuality":{"Country":1.0,"State":1.0,"County":1.0,"City":1.0,"District":1.0,"Street":[1.0],"HouseNumber":1.0,"PostalCode":1.0},"MatchType":"interpolated","Location":{"LocationId":"NT_bLNQAuDYFSLRhWVqquJmdA_4A","LocationType":"point","DisplayPosition":{"Latitude":50.43166,"Longitude":11.15818},"MapView":{"TopLeft":{"Latitude":50.4327842,"Longitude":11.1564152},"BottomRight":{"Latitude":50.4305358,"Longitude":11.1599448}},"Address":{"Label":"Marktplatz 8, 96523 Steinach, Deutschland","Country":"DEU","State":"Thüringen","County":"Sonneberg","City":"Steinach","District":"Steinach","Street":"Marktplatz","HouseNumber":"8","PostalCode":"96523","AdditionalData":[{"value":"Deutschland","key":"CountryName"},{"value":"Thüringen","key":"StateName"},{"value":"Sonneberg","key":"CountyName"}]},"MapReference":{"ReferenceId":"547964494","Spot":0.0,"SideOfStreet":"right","CountryId":"20147700","StateId":"20196974","CountyId":"20198640","CityId":"20198692","DistrictId":"20198694","AddressId":"249522337","RoadLinkId":"39641552"}}},{"Relevance":1.0,"Distance":38.7,"MatchLevel":"street","MatchQuality":{"Country":1.0,"State":1.0,"County":1.0,"City":1.0,"District":1.0,"Street":[1.0],"PostalCode":1.0},"Location":{"LocationId":"NT_MV.tF9-hRXRhb6B-d07m1B_l_547964459_R","LocationType":"point","DisplayPosition":{"Latitude":50.43166,"Longitude":11.15818},"MapView":{"TopLeft":{"Latitude":50.43166,"Longitude":11.1575},"BottomRight":{"Latitude":50.43134,"Longitude":11.15818}},"Address":{"Label":"Julius-Knye-Straße, 96523 Steinach, Deutschland","Country":"DEU","State":"Thüringen","County":"Sonneberg","City":"Steinach","District":"Steinach","Street":"Julius-Knye-Straße","PostalCode":"96523","AdditionalData":[{"value":"Deutschland","key":"CountryName"},{"value":"Thüringen","key":"StateName"},{"value":"Sonneberg","key":"CountyName"}]},"MapReference":{"ReferenceId":"547964459","Spot":1.0,"SideOfStreet":"right","CountryId":"20147700","StateId":"20196974","CountyId":"20198640","CityId":"20198692","DistrictId":"20198694"}}},{"Relevance":1.0,"Distance":41.0,"MatchLevel":"houseNumber","MatchQuality":{"Country":1.0,"State":1.0,"County":1.0,"City":1.0,"District":1.0,"Street":[1.0],"HouseNumber":1.0,"PostalCode":1.0},"MatchType":"interpolated","Location":{"LocationId":"NT_E39VBPHPhXgPc3w8HonpXC_yAD","LocationType":"point","DisplayPosition":{"Latitude":50.43115,"Longitude":11.15905},"MapView":{"TopLeft":{"Latitude":50.4322742,"Longitude":11.1572853},"BottomRight":{"Latitude":50.4300258,"Longitude":11.1608147}},"Address":{"Label":"Am Bahnhof 20, 96523 Steinach, Deutschland","Country":"DEU","State":"Thüringen","County":"Sonneberg","City":"Steinach","District":"Steinach","Street":"Am Bahnhof","HouseNumber":"20","PostalCode":"96523","AdditionalData":[{"value":"Deutschland","key":"CountryName"},{"value":"Thüringen","key":"StateName"},{"value":"Sonneberg","key":"CountyName"}]},"MapReference":{"ReferenceId":"547964466","Spot":0.23,"SideOfStreet":"left","CountryId":"20147700","StateId":"20196974","CountyId":"20198640","CityId":"20198692","DistrictId":"20198694","AddressId":"199131116","RoadLinkId":"39562142"}}},{"Relevance":1.0,"Distance":53.5,"MatchLevel":"houseNumber","MatchQuality":{"Country":1.0,"State":1.0,"County":1.0,"City":1.0,"District":1.0,"Street":[1.0],"HouseNumber":1.0,"PostalCode":1.0},"MatchType":"interpolated","Location":{"LocationId":"NT_OypuXQ1f3BNaTGYzoqVs1D_ykD","LocationType":"point","DisplayPosition":{"Latitude":50.43092,"Longitude":11.15855},"MapView":{"TopLeft":{"Latitude":50.4320442,"Longitude":11.1567853},"BottomRight":{"Latitude":50.4297958,"Longitude":11.1603147}},"Address":{"Label":"Am Ockerwerk 29, 96523 Steinach, Deutschland","Country":"DEU","State":"Thüringen","County":"Sonneberg","City":"Steinach","District":"Steinach","Street":"Am Ockerwerk","HouseNumber":"29","PostalCode":"96523","AdditionalData":[{"value":"Deutschland","key":"CountryName"},{"value":"Thüringen","key":"StateName"},{"value":"Sonneberg","key":"CountyName"}]},"MapReference":{"ReferenceId":"547964457","Spot":0.0,"SideOfStreet":"left","CountryId":"20147700","StateId":"20196974","CountyId":"20198640","CityId":"20198692","DistrictId":"20198694","AddressId":"189394719","RoadLinkId":"451507170"}}},{"Relevance":1.0,"Distance":69.6,"MatchLevel":"houseNumber","MatchQuality":{"Country":1.0,"State":1.0,"County":1.0,"City":1.0,"District":1.0,"Street":[1.0],"HouseNumber":1.0,"PostalCode":1.0},"MatchType":"interpolated","Location":{"LocationId":"NT_E39VBPHPhXgPc3w8HonpXC_xYD","LocationType":"point","DisplayPosition":{"Latitude":50.43181,"Longitude":11.15943},"MapView":{"TopLeft":{"Latitude":50.4329342,"Longitude":11.1576652},"BottomRight":{"Latitude":50.4306858,"Longitude":11.1611948}},"Address":{"Label":"Am Bahnhof 16, 96523 Steinach, Deutschland","Country":"DEU","State":"Thüringen","County":"Sonneberg","City":"Steinach","District":"Steinach","Street":"Am Bahnhof","HouseNumber":"16","PostalCode":"96523","AdditionalData":[{"value":"Deutschland","key":"CountryName"},{"value":"Thüringen","key":"StateName"},{"value":"Sonneberg","key":"CountyName"}]},"MapReference":{"ReferenceId":"1223054848","Spot":0.88,"SideOfStreet":"left","CountryId":"20147700","StateId":"20196974","CountyId":"20198640","CityId":"20198692","DistrictId":"20198694","AddressId":"189534972","RoadLinkId":"540923157"}}},{"Relevance":1.0,"Distance":69.7,"MatchLevel":"houseNumber","MatchQuality":{"Country":1.0,"State":1.0,"County":1.0,"City":1.0,"District":1.0,"Street":[1.0],"HouseNumber":1.0,"PostalCode":1.0},"MatchType":"interpolated","Location":{"LocationId":"NT_E39VBPHPhXgPc3w8HonpXC_xQD","LocationType":"point","DisplayPosition":{"Latitude":50.43195,"Longitude":11.15922},"MapView":{"TopLeft":{"Latitude":50.4330742,"Longitude":11.1574552},"BottomRight":{"Latitude":50.4308258,"Longitude":11.1609848}},"Address":{"Label":"Am Bahnhof 14, 96523 Steinach, Deutschland","Country":"DEU","State":"Thüringen","County":"Sonneberg","City":"Steinach","District":"Steinach","Street":"Am Bahnhof","HouseNumber":"14","PostalCode":"96523","AdditionalData":[{"value":"Deutschland","key":"CountryName"},{"value":"Thüringen","key":"StateName"},{"value":"Sonneberg","key":"CountyName"}]},"MapReference":{"ReferenceId":"1223054849","Spot":0.63,"SideOfStreet":"left","CountryId":"20147700","StateId":"20196974","CountyId":"20198640","CityId":"20198692","DistrictId":"20198694","AddressId":"189395376","RoadLinkId":"540923158"}}},{"Relevance":1.0,"Distance":71.7,"MatchLevel":"houseNumber","MatchQuality":{"Country":1.0,"State":1.0,"County":1.0,"City":1.0,"District":1.0,"Street":[1.0],"HouseNumber":1.0,"PostalCode":1.0},"MatchType":"interpolated","Location":{"LocationId":"NT_mvElaHXhhx.sNJBN3NbDBA_4A","LocationType":"point","DisplayPosition":{"Latitude":50.43217,"Longitude":11.15829},"MapView":{"TopLeft":{"Latitude":50.4332942,"Longitude":11.1565252},"BottomRight":{"Latitude":50.4310458,"Longitude":11.1600548}},"Address":{"Label":"Heubleinstraße 8, 96523 Steinach, Deutschland","Country":"DEU","State":"Thüringen","County":"Sonneberg","City":"Steinach","District":"Steinach","Street":"Heubleinstraße","HouseNumber":"8","PostalCode":"96523","AdditionalData":[{"value":"Deutschland","key":"CountryName"},{"value":"Thüringen","key":"StateName"},{"value":"Sonneberg","key":"CountyName"}]},"MapReference":{"ReferenceId":"547964482","Spot":0.49,"SideOfStreet":"right","CountryId":"20147700","StateId":"20196974","CountyId":"20198640","CityId":"20198692","DistrictId":"20198694","AddressId":"189274835","RoadLinkId":"40093309"}}},{"Relevance":1.0,"Distance":83.4,"MatchLevel":"street","MatchQuality":{"Country":1.0,"State":1.0,"County":1.0,"City":1.0,"District":1.0,"Street":[1.0],"PostalCode":1.0},"Location":{"LocationId":"NT_ZQaZouR4NgOt5y3GiSMh8B_l_1185246940_L","LocationType":"point","DisplayPosition":{"Latitude":50.4320876,"Longitude":11.1590172},"MapView":{"TopLeft":{"Latitude":50.43232,"Longitude":11.15869},"BottomRight":{"Latitude":50.43201,"Longitude":11.15913}},"Address":{"Label":"Am Bahnhof, 96523 Steinach, Deutschland","Country":"DEU","State":"Thüringen","County":"Sonneberg","City":"Steinach","District":"Steinach","Street":"Am Bahnhof","PostalCode":"96523","AdditionalData":[{"value":"Deutschland","key":"CountryName"},{"value":"Thüringen","key":"StateName"},{"value":"Sonneberg","key":"CountyName"}]},"MapReference":{"ReferenceId":"1185246940","Spot":0.25,"SideOfStreet":"left","CountryId":"20147700","StateId":"20196974","CountyId":"20198640","CityId":"20198692","DistrictId":"20198694"}}}]}]}}