{"Response":{"MetaInfo":{"Timestamp":"2020-03-28T11:14:40.520+0000","NextPageInformation":"2"},"View":[{"_type":"SearchResultsViewType","ViewId":0,"Result":[{"Relevance":1.0,"Distance":-73.2,"MatchLevel":"landmark","MatchQuality":{"Country":1.0,"State":1.0,"County":1.0,"City":1.0,"PostalCode":1.0,"Name":1.0},"Location":{"LocationId":"NT_42mFqrl9MeDf.9adppHmJD_p_j2XhRsm6kbTaJ3Lv40zXNB","LocationType":"hospital","Name":"Polyclinique de Riaumont","DisplayPosition":{"Latitude":50.41819,"Longitude":2.78403},"MapView":{"TopLeft":{"Latitude":50.41863,"Longitude":2.7809},"BottomRight":{"Latitude":50.41428,"Longitude":2.78605}},"Address":{"Label":"62800 Liévin, France","Country":"FRA","State":"Hauts-de-France","County":"Pas-de-Calais","City":"Liévin","PostalCode":"62800","AdditionalData":[{"value":"France","key":"CountryName"},{"value":"Hauts-de-France","key":"StateName"},{"value":"Pas-de-Calais","key":"CountyName"}]},"MapReference":{"CountryId":"20000001","StateId":"20000002","CountyId":"20030132","CityId":"20031635","PlaceId":"51473144"}}},{"Relevance":1.0,"Distance":0.0,"Direction":0.0,"MatchLevel":"city","MatchQuality":{"Country":1.0,"State":1.0,"County":1.0,"City":1.0,"PostalCode":1.0},"Location":{"LocationId":"NT_qAXUOjnj4bRAZ3wlMGFKaB","LocationType":"point","DisplayPosition":{"Latitude":50.4151347,"Longitude":2.7841011},"MapView":{"TopLeft":{"Latitude":50.44182,"Longitude":2.73555},"BottomRight":{"Latitude":50.40415,"Longitude":2.8045}},"Address":{"Label":"Liévin, Hauts-de-France, France","Country":"FRA","State":"Hauts-de-France","County":"Pas-de-Calais","City":"Liévin","PostalCode":"62800","AdditionalData":[{"value":"France","key":"CountryName"},{"value":"Hauts-de-France","key":"StateName"},{"value":"Pas-de-Calais","key":"CountyName"}]},"MapReference":{"ReferenceId":"1155981053","SideOfStreet":"neither","CountryId":"20000001","StateId":"20000002","CountyId":"20030132","CityId":"20031635"}}},{"Relevance":1.0,"Distance":67.2,"MatchLevel":"houseNumber","MatchQuality":{"Country":1.0,"State":1.0,"County":1.0,"City":1.0,"Street":[1.0],"HouseNumber":1.0,"PostalCode":1.0},"MatchType":"interpolated","Location":{"LocationId":"NT_GwYaYiMJBXRqr9-C5xDGEA_zYD","LocationType":"point","DisplayPosition":{"Latitude":50.41453,"Longitude":2.78445},"MapView":{"TopLeft":{"Latitude":50.4156542,"Longitude":2.7826859},"BottomRight":{"Latitude":50.4134058,"Longitude":2.7862141}},"Address":{"Label":"36 Rue Carnot, 62800 Liévin, France","Country":"FRA","State":"Hauts-de-France","County":"Pas-de-Calais","City":"Liévin","Street":"Rue Carnot","HouseNumber":"36","PostalCode":"62800","AdditionalData":[{"value":"France","key":"CountryName"},{"value":"Hauts-de-France","key":"StateName"},{"value":"Pas-de-Calais","key":"CountyName"}]},"MapReference":{"ReferenceId":"878377099","Spot":0.0,"SideOfStreet":"left","CountryId":"20000001","StateId":"20000002","CountyId":"20030132","CityId":"20031635","AddressId":"322420791","RoadLinkId":"248405085"}}},{"Relevance":1.0,"Distance":67.8,"MatchLevel":"houseNumber","MatchQuality":{"Country":1.0,"State":1.0,"County":1.0,"City":1.0,"Street":[1.0],"HouseNumber":1.0,"PostalCode":1.0},"MatchType":"interpolated","Location":{"LocationId":"NT_GwYaYiMJBXRqr9-C5xDGEA_zQD","LocationType":"point","DisplayPosition":{"Latitude":50.4145,"Longitude":2.78433},"MapView":{"TopLeft":{"Latitude":50.4156242,"Longitude":2.7825659},"BottomRight":{"Latitude":50.4133758,"Longitude":2.7860941}},"Address":{"Label":"34 Rue Carnot, 62800 Liévin, France","Country":"FRA","State":"Hauts-de-France","County":"Pas-de-Calais","City":"Liévin","Street":"Rue Carnot","HouseNumber":"34","PostalCode":"62800","AdditionalData":[{"value":"France","key":"CountryName"},{"value":"Hauts-de-France","key":"StateName"},{"value":"Pas-de-Calais","key":"CountyName"}]},"MapReference":{"ReferenceId":"1203276105","Spot":0.4,"SideOfStreet":"left","CountryId":"20000001","StateId":"20000002","CountyId":"20030132","CityId":"20031635","AddressId":"323065860","RoadLinkId":"516264685"}}},{"Relevance":1.0,"Distance":69.7,"MatchLevel":"houseNumber","MatchQuality":{"Country":1.0,"State":1.0,"County":1.0,"City":1.0,"Street":[1.0],"HouseNumber":1.0,"PostalCode":1.0},"MatchType":"interpolated","Location":{"LocationId":"NT_GwYaYiMJBXRqr9-C5xDGEA_zID","LocationType":"point","DisplayPosition":{"Latitude":50.41446,"Longitude":2.7842},"MapView":{"TopLeft":{"Latitude":50.4155842,"Longitude":2.7824359},"BottomRight":{"Latitude":50.4133358,"Longitude":2.7859641}},"Address":{"Label":"32 Rue Carnot, 62800 Liévin, France","Country":"FRA","State":"Hauts-de-France","County":"Pas-de-Calais","City":"Liévin","Street":"Rue Carnot","HouseNumber":"32","PostalCode":"62800","AdditionalData":[{"value":"France","key":"CountryName"},{"value":"Hauts-de-France","key":"StateName"},{"value":"Pas-de-Calais","key":"CountyName"}]},"MapReference":{"ReferenceId":"1203276104","Spot":0.85,"SideOfStreet":"left","CountryId":"20000001","StateId":"20000002","CountyId":"20030132","CityId":"20031635","AddressId":"590725880","RoadLinkId":"516264684"}}},{"Relevance":1.0,"Distance":78.2,"MatchLevel":"houseNumber","MatchQuality":{"Country":1.0,"State":1.0,"County":1.0,"City":1.0,"Street":[1.0],"HouseNumber":1.0,"PostalCode":1.0},"MatchType":"interpolated","Location":{"LocationId":"NT_gWb5y-b1dIz1fA.zOBW05B_xA","LocationType":"point","DisplayPosition":{"Latitude":50.41465,"Longitude":2.7849},"MapView":{"TopLeft":{"Latitude":50.4157742,"Longitude":2.7831359},"BottomRight":{"Latitude":50.4135258,"Longitude":2.7866641}},"Address":{"Label":"1 Rue Thiers, 62800 Liévin, France","Country":"FRA","State":"Hauts-de-France","County":"Pas-de-Calais","City":"Liévin","Street":"Rue Thiers","HouseNumber":"1","PostalCode":"62800","AdditionalData":[{"value":"France","key":"CountryName"},{"value":"Hauts-de-France","key":"StateName"},{"value":"Pas-de-Calais","key":"CountyName"}]},"MapReference":{"ReferenceId":"58948831","Spot":0.15,"SideOfStreet":"right","CountryId":"20000001","StateId":"20000002","CountyId":"20030132","CityId":"20031635","AddressId":"322631344","RoadLinkId":"44409316"}}},{"Relevance":1.0,"Distance":81.8,"MatchLevel":"houseNumber","MatchQuality":{"Country":1.0,"State":1.0,"County":1.0,"City":1.0,"Street":[1.0],"HouseNumber":1.0,"PostalCode":1.0},"MatchType":"interpolated","Location":{"LocationId":"NT_GwYaYiMJBXRqr9-C5xDGEA_yID","LocationType":"point","DisplayPosition":{"Latitude":50.41437,"Longitude":2.78386},"MapView":{"TopLeft":{"Latitude":50.4154942,"Longitude":2.7820959},"BottomRight":{"Latitude":50.4132458,"Longitude":2.7856241}},"Address":{"Label":"22 Rue Carnot, 62800 Liévin, France","Country":"FRA","State":"Hauts-de-France","County":"Pas-de-Calais","City":"Liévin","Street":"Rue Carnot","HouseNumber":"22","PostalCode":"62800","AdditionalData":[{"value":"France","key":"CountryName"},{"value":"Hauts-de-France","key":"StateName"},{"value":"Pas-de-Calais","key":"CountyName"}]},"MapReference":{"ReferenceId":"1203276103","Spot":0.71,"SideOfStreet":"left","CountryId":"20000001","StateId":"20000002","CountyId":"20030132","CityId":"20031635","AddressId":"323065863","RoadLinkId":"516264683"}}},{"Relevance":1.0,"Distance":89.1,"MatchLevel":"houseNumber","MatchQuality":{"Country":1.0,"State":1.0,"County":1.0,"City":1.0,"Street":[1.0],"HouseNumber":1.0,"PostalCode":1.0},"MatchType":"interpolated","Location":{"LocationId":"NT_GwYaYiMJBXRqr9-C5xDGEA_yAD","LocationType":"point","DisplayPosition":{"Latitude":50.41433,"Longitude":2.78369},"MapView":{"TopLeft":{"Latitude":50.4154542,"Longitude":2.7819259},"BottomRight":{"Latitude":50.4132058,"Longitude":2.7854541}},"Address":{"Label":"20 Rue Carnot, 62800 Liévin, France","Country":"FRA","State":"Hauts-de-France","County":"Pas-de-Calais","City":"Liévin","Street":"Rue Carnot","HouseNumber":"20","PostalCode":"62800","AdditionalData":[{"value":"France","key":"CountryName"},{"value":"Hauts-de-France","key":"StateName"},{"value":"Pas-de-Calais","key":"CountyName"}]},"MapReference":{"ReferenceId":"862852356","Spot":0.02,"SideOfStreet":"right","CountryId":"20000001","StateId":"20000002","CountyId":"20030132","CityId":"20031635","AddressId":"322921970","RoadLinkId":"236911869"}}},{"Relevance":1.0,"Distance":97.1,"MatchLevel":"street","MatchQuality":{"Country":1.0,"State":1.0,"County":1.0,"City":1.0,"PostalCode":1.0},"Location":{"LocationId":"NT_SFSWoy4JgiFcFgKWcRhWJC_l_591205842_L","LocationType":"point","DisplayPosition":{"Latitude":50.41561,"Longitude":2.78525},"MapView":{"TopLeft":{"Latitude":50.41651,"Longitude":2.78482},"BottomRight":{"Latitude":50.41487,"Longitude":2.78578}},"Address":{"Label":"62800 Liévin, France","Country":"FRA","State":"Hauts-de-France","County":"Pas-de-Calais","City":"Liévin","PostalCode":"62800","AdditionalData":[{"value":"France","key":"CountryName"},{"value":"Hauts-de-France","key":"StateName"},{"value":"Pas-de-Calais","key":"CountyName"}]},"MapReference":{"ReferenceId":"591205842","Spot":0.48,"SideOfStreet":"left","CountryId":"20000001","StateId":"20000002","CountyId":"20030132","CityId":"20031635"}}},{"Relevance":1.0,"Distance":113.1,"MatchLevel":"houseNumber","MatchQuality":{"Country":1.0,"State":1.0,"County":1.0,"City":1.0,"Street":[1.0],"HouseNumber":1.0,"PostalCode":1.0},"MatchType":"interpolated","Location":{"LocationId":"NT_O9MD2AB-Bx9UIvZWAFbl1A_zQD","LocationType":"point","DisplayPosition":{"Latitude":50.41429,"Longitude":2.785},"MapView":{"TopLeft":{"Latitude":50.4154142,"Longitude":2.7832359},"BottomRight":{"Latitude":50.4131658,"Longitude":2.7867641}},"Address":{"Label":"34 Rue de l'Abattoir, 62800 Liévin, France","Country":"FRA","State":"Hauts-de-France","County":"Pas-de-Calais","City":"Liévin","Street":"Rue de l'Abattoir","HouseNumber":"34","PostalCode":"62800","AdditionalData":[{"value":"France","key":"CountryName"},{"value":"Hauts-de-France","key":"StateName"},{"value":"Pas-de-Calais","key":"CountyName"}]},"MapReference":{"ReferenceId":"58948872","Spot":0.85,"SideOfStreet":"left","CountryId":"20000001","StateId":"20000002","CountyId":"20030132","CityId":"20031635","AddressId":"322917618","RoadLinkId":"44370485"}}}]}]}}