{"Response":{"MetaInfo":{"Timestamp":"2020-03-28T10:38:38.768+0000","NextPageInformation":"2"},"View":[{"_type":"SearchResultsViewType","ViewId":0,"Result":[{"Relevance":1.0,"Distance":0.0,"Direction":0.0,"MatchLevel":"district","MatchQuality":{"Country":1.0,"State":1.0,"County":1.0,"City":1.0,"District":1.0,"PostalCode":1.0},"Location":{"LocationId":"NT_7xRNtX1-BO4G.iP73-ttiD","LocationType":"point","DisplayPosition":{"Latitude":50.4275842,"Longitude":-4.1151745},"MapView":{"TopLeft":{"Latitude":50.44416,"Longitude":-4.20561},"BottomRight":{"Latitude":50.34204,"Longitude":-4.04975}},"Address":{"Label":"Plymouth, England, United Kingdom","Country":"GBR","State":"England","County":"Devon","City":"Plymouth","District":"Plymouth","PostalCode":"PL4 8","AdditionalData":[{"value":"United Kingdom","key":"CountryName"},{"value":"England","key":"StateName"},{"value":"Devon","key":"CountyName"}]},"MapReference":{"ReferenceId":"1119469764","SideOfStreet":"neither","StateId":"20248595","CountyId":"20353913","CityId":"20354548","DistrictId":"20354549"}}},{"Relevance":1.0,"Distance":10.2,"MatchLevel":"street","MatchQuality":{"Country":1.0,"State":1.0,"County":1.0,"City":1.0,"District":1.0,"Street":[1.0],"PostalCode":1.0},"Location":{"LocationId":"NT_JQWU9p7GZBnf0B11e5p.EB_l_26618138_L","LocationType":"point","DisplayPosition":{"Latitude":50.4276699,"Longitude":-4.1151231},"MapView":{"TopLeft":{"Latitude":50.42771,"Longitude":-4.11519},"BottomRight":{"Latitude":50.42744,"Longitude":-4.11466}},"Address":{"Label":"Southway Drive, Plymouth, PL6 6, United Kingdom","Country":"GBR","State":"England","County":"Devon","City":"Plymouth","District":"Plymouth","Street":"Southway Drive","PostalCode":"PL6 6","AdditionalData":[{"value":"United Kingdom","key":"CountryName"},{"value":"England","key":"StateName"},{"value":"Devon","key":"CountyName"}]},"MapReference":{"ReferenceId":"26618138","Spot":0.87,"SideOfStreet":"left","StateId":"20248595","CountyId":"20353913","CityId":"20354548","DistrictId":"20354549"}}},{"Relevance":1.0,"Distance":16.3,"MatchLevel":"postalCode","MatchQuality":{"PostalCode":1.0},"MatchType":"interpolated","Location":{"LocationId":"NT_RU2Sgx5G86FZhG3QMaJgSD_l_26618164_R_xA","LocationType":"point","DisplayPosition":{"Latitude":50.42753,"Longitude":-4.11496},"MapView":{"TopLeft":{"Latitude":50.4365232,"Longitude":-4.1290769},"BottomRight":{"Latitude":50.4185368,"Longitude":-4.1008431}},"Address":{"Label":"PL6 6PH, Plymouth, England, United Kingdom","Country":"GBR","State":"England","County":"Devon","City":"Plymouth","PostalCode":"PL6 6PH","AdditionalData":[{"value":"United Kingdom","key":"CountryName"},{"value":"England","key":"StateName"},{"value":"Devon","key":"CountyName"}]},"MapReference":{"ReferenceId":"26618164","Spot":0.53,"SideOfStreet":"neither","StateId":"20248595","CountyId":"20353913","CityId":"20354548"}}},{"Relevance":1.0,"Distance":20.3,"MatchLevel":"houseNumber","MatchQuality":{"Country":1.0,"State":1.0,"County":1.0,"City":1.0,"District":1.0,"Street":[1.0],"HouseNumber":1.0,"PostalCode":1.0},"MatchType":"interpolated","Location":{"LocationId":"NT_Z7OedMFxc2wOSXrM5fKjGB_l_26618136_L_0A","LocationType":"point","DisplayPosition":{"Latitude":50.427563,"Longitude":-4.1154592},"MapView":{"TopLeft":{"Latitude":50.4286872,"Longitude":-4.1172238},"BottomRight":{"Latitude":50.4264389,"Longitude":-4.1136946}},"Address":{"Label":"4 Barndale Crescent, Plymouth, PL6 6, United Kingdom","Country":"GBR","State":"England","County":"Devon","City":"Plymouth","District":"Plymouth","Street":"Barndale Crescent","HouseNumber":"4","PostalCode":"PL6 6","AdditionalData":[{"value":"United Kingdom","key":"CountryName"},{"value":"England","key":"StateName"},{"value":"Devon","key":"CountyName"}]},"MapReference":{"ReferenceId":"26618136","Spot":0.51,"SideOfStreet":"left","StateId":"20248595","CountyId":"20353913","CityId":"20354548","DistrictId":"20354549"}}},{"Relevance":1.0,"Distance":24.5,"MatchLevel":"houseNumber","MatchQuality":{"Country":1.0,"State":1.0,"County":1.0,"City":1.0,"District":1.0,"Street":[1.0],"HouseNumber":1.0,"PostalCode":1.0},"MatchType":"interpolated","Location":{"LocationId":"NT_RU2Sgx5G86FZhG3QMaJgSD_l_26618164_R_xA","LocationType":"point","DisplayPosition":{"Latitude":50.4272982,"Longitude":-4.1154397},"MapView":{"TopLeft":{"Latitude":50.4284223,"Longitude":-4.1172043},"BottomRight":{"Latitude":50.426174,"Longitude":-4.1136751}},"Address":{"Label":"1 Eastcote Close, Plymouth, PL6 6PH, United Kingdom","Country":"GBR","State":"England","County":"Devon","City":"Plymouth","District":"Plymouth","Street":"Eastcote Close","HouseNumber":"1","PostalCode":"PL6 6PH","AdditionalData":[{"value":"United Kingdom","key":"CountryName"},{"value":"England","key":"StateName"},{"value":"Devon","key":"CountyName"}]},"MapReference":{"ReferenceId":"26618164","Spot":0.53,"SideOfStreet":"right","StateId":"20248595","CountyId":"20353913","CityId":"20354548","DistrictId":"20354549"}}},{"Relevance":1.0,"Distance":27.2,"MatchLevel":"houseNumber","MatchQuality":{"Country":1.0,"State":1.0,"County":1.0,"City":1.0,"District":1.0,"Street":[1.0],"HouseNumber":1.0,"PostalCode":1.0},"MatchType":"interpolated","Location":{"LocationId":"NT_JQWU9p7GZBnf0B11e5p.EB_l_26618112_R_0kTN","LocationType":"point","DisplayPosition":{"Latitude":50.4278101,"Longitude":-4.1153201},"MapView":{"TopLeft":{"Latitude":50.4289342,"Longitude":-4.1170847},"BottomRight":{"Latitude":50.4266859,"Longitude":-4.1135555}},"Address":{"Label":"495 Southway Drive, Plymouth, PL6 6DA, United Kingdom","Country":"GBR","State":"England","County":"Devon","City":"Plymouth","District":"Plymouth","Street":"Southway Drive","HouseNumber":"495","PostalCode":"PL6 6DA","AdditionalData":[{"value":"United Kingdom","key":"CountryName"},{"value":"England","key":"StateName"},{"value":"Devon","key":"CountyName"}]},"MapReference":{"ReferenceId":"26618112","Spot":0.08,"SideOfStreet":"right","StateId":"20248595","CountyId":"20353913","CityId":"20354548","DistrictId":"20354549"}}},{"Relevance":1.0,"Distance":33.6,"MatchLevel":"houseNumber","MatchQuality":{"Country":1.0,"State":1.0,"County":1.0,"City":1.0,"District":1.0,"Street":[1.0],"HouseNumber":1.0,"PostalCode":1.0},"MatchType":"interpolated","Location":{"LocationId":"NT_kusQ9Z8ygA4jOap2ajFNYB_l_861106014_L_xA","LocationType":"point","DisplayPosition":{"Latitude":50.42755,"Longitude":-4.11454},"MapView":{"TopLeft":{"Latitude":50.4286742,"Longitude":-4.1163046},"BottomRight":{"Latitude":50.4264259,"Longitude":-4.1127754}},"Address":{"Label":"1 Southway Lane, Plymouth, PL6 7DH, United Kingdom","Country":"GBR","State":"England","County":"Devon","City":"Plymouth","District":"Plymouth","Street":"Southway Lane","HouseNumber":"1","PostalCode":"PL6 7DH","AdditionalData":[{"value":"United Kingdom","key":"CountryName"},{"value":"England","key":"StateName"},{"value":"Devon","key":"CountyName"}]},"MapReference":{"ReferenceId":"861106014","Spot":0.21,"SideOfStreet":"left","StateId":"20248595","CountyId":"20353913","CityId":"20354548","DistrictId":"20354549"}}},{"Relevance":1.0,"Distance":39.8,"MatchLevel":"street","MatchQuality":{"Country":1.0,"State":1.0,"County":1.0,"City":1.0,"District":1.0,"Street":[1.0],"PostalCode":1.0},"Location":{"LocationId":"NT_JQWU9p7GZBnf0B11e5p.EB_l_759850310_R","LocationType":"point","DisplayPosition":{"Latitude":50.42744,"Longitude":-4.11466},"MapView":{"TopLeft":{"Latitude":50.42744,"Longitude":-4.11466},"BottomRight":{"Latitude":50.42735,"Longitude":-4.11408}},"Address":{"Label":"Southway Drive, Plymouth, PL6 6, United Kingdom","Country":"GBR","State":"England","County":"Devon","City":"Plymouth","District":"Plymouth","Street":"Southway Drive","PostalCode":"PL6 6","AdditionalData":[{"value":"United Kingdom","key":"CountryName"},{"value":"England","key":"StateName"},{"value":"Devon","key":"CountyName"}]},"MapReference":{"ReferenceId":"759850310","Spot":1.0,"SideOfStreet":"right","StateId":"20248595","CountyId":"20353913","CityId":"20354548","DistrictId":"20354549"}}},{"Relevance":1.0,"Distance":39.8,"MatchLevel":"street","MatchQuality":{"Country":1.0,"State":1.0,"County":1.0,"City":1.0,"District":1.0,"Street":[1.0],"PostalCode":1.0},"Location":{"LocationId":"NT_JQWU9p7GZBnf0B11e5p.EB_l_1149201912_L","LocationType":"point","DisplayPosition":{"Latitude":50.42744,"Longitude":-4.11466},"MapView":{"TopLeft":{"Latitude":50.42744,"Longitude":-4.11466},"BottomRight":{"Latitude":50.42724,"Longitude":-4.11408}},"Address":{"Label":"Southway Drive, Plymouth, PL6 6, United Kingdom","Country":"GBR","State":"England","County":"Devon","City":"Plymouth","District":"Plymouth","Street":"Southway Drive","PostalCode":"PL6 6","AdditionalData":[{"value":"United Kingdom","key":"CountryName"},{"value":"England","key":"StateName"},{"value":"Devon","key":"CountyName"}]},"MapReference":{"ReferenceId":"1149201912","Spot":1.0,"SideOfStreet":"left","StateId":"20248595","CountyId":"20353913","CityId":"20354548","DistrictId":"20354549"}}},{"Relevance":1.0,"Distance":48.6,"MatchLevel":"houseNumber","MatchQuality":{"Country":1.0,"State":1.0,"County":1.0,"City":1.0,"District":1.0,"Street":[1.0],"HouseNumber":1.0,"PostalCode":1.0},"MatchType":"interpolated","Location":{"LocationId":"NT_gWQaLNzg3Jz9Y.cIKTLfmA_l_26618110_L_yID","LocationType":"point","DisplayPosition":{"Latitude":50.4278501,"Longitude":-4.1157301},"MapView":{"TopLeft":{"Latitude":50.4289742,"Longitude":-4.1174947},"BottomRight":{"Latitude":50.4267259,"Longitude":-4.1139655}},"Address":{"Label":"22 Brockton Gardens, Plymouth, PL6 6BY, United Kingdom","Country":"GBR","State":"England","County":"Devon","City":"Plymouth","District":"Plymouth","Street":"Brockton Gardens","HouseNumber":"22","PostalCode":"PL6 6BY","AdditionalData":[{"value":"United Kingdom","key":"CountryName"},{"value":"England","key":"StateName"},{"value":"Devon","key":"CountyName"}]},"MapReference":{"ReferenceId":"26618110","Spot":0.09,"SideOfStreet":"left","StateId":"20248595","CountyId":"20353913","CityId":"20354548","DistrictId":"20354549"}}}]}]}}