{"Response":{"MetaInfo":{"Timestamp":"2020-03-28T10:27:22.486+0000","NextPageInformation":"2"},"View":[{"_type":"SearchResultsViewType","ViewId":0,"Result":[{"Relevance":1.0,"Distance":0.0,"Direction":0.0,"MatchLevel":"city","MatchQuality":{"Country":1.0,"State":1.0,"County":1.0,"City":1.0,"PostalCode":1.0},"Location":{"LocationId":"NT_GuSFb0TpNxwSRvuSX98OID","LocationType":"point","DisplayPosition":{"Latitude":50.420844,"Longitude":2.89188},"MapView":{"TopLeft":{"Latitude":50.4393,"Longitude":2.8873},"BottomRight":{"Latitude":50.4177,"Longitude":2.92615}},"Address":{"Label":"Fouquières-lès-Lens, Hauts-de-France, France","Country":"FRA","State":"Hauts-de-France","County":"Pas-de-Calais","City":"Fouquières-lès-Lens","PostalCode":"62740","AdditionalData":[{"value":"France","key":"CountryName"},{"value":"Hauts-de-France","key":"StateName"},{"value":"Pas-de-Calais","key":"CountyName"}]},"MapReference":{"ReferenceId":"1155424768","SideOfStreet":"neither","CountryId":"20000001","StateId":"20000002","CountyId":"20030132","CityId":"20031170"}}},{"Relevance":1.0,"Distance":20.7,"MatchLevel":"street","MatchQuality":{"Country":1.0,"State":1.0,"County":1.0,"City":1.0,"Street":[1.0],"PostalCode":1.0},"Location":{"LocationId":"NT_BbcxBwkqlutexnNAh4upYB_l_58957280_R","LocationType":"point","DisplayPosition":{"Latitude":50.42103,"Longitude":2.89188},"MapView":{"TopLeft":{"Latitude":50.42103,"Longitude":2.89124},"BottomRight":{"Latitude":50.42102,"Longitude":2.89195}},"Address":{"Label":"Rue d'Artois, 62740 Fouquières-lès-Lens, France","Country":"FRA","State":"Hauts-de-France","County":"Pas-de-Calais","City":"Fouquières-lès-Lens","Street":"Rue d'Artois","PostalCode":"62740","AdditionalData":[{"value":"France","key":"CountryName"},{"value":"Hauts-de-France","key":"StateName"},{"value":"Pas-de-Calais","key":"CountyName"}]},"MapReference":{"ReferenceId":"58957280","Spot":0.9,"SideOfStreet":"right","CountryId":"20000001","StateId":"20000002","CountyId":"20030132","CityId":"20031170"}}},{"Relevance":1.0,"Distance":28.7,"MatchLevel":"houseNumber","MatchQuality":{"Country":1.0,"State":1.0,"County":1.0,"City":1.0,"Street":[1.0],"HouseNumber":1.0,"PostalCode":1.0},"MatchType":"interpolated","Location":{"LocationId":"NT_BbcxBwkqlutexnNAh4upYB_ygD","LocationType":"point","DisplayPosition":{"Latitude":50.42103,"Longitude":2.89216},"MapView":{"TopLeft":{"Latitude":50.4221542,"Longitude":2.8903956},"BottomRight":{"Latitude":50.4199058,"Longitude":2.8939244}},"Address":{"Label":"28 Rue d'Artois, 62740 Fouquières-lès-Lens, France","Country":"FRA","State":"Hauts-de-France","County":"Pas-de-Calais","City":"Fouquières-lès-Lens","Street":"Rue d'Artois","HouseNumber":"28","PostalCode":"62740","AdditionalData":[{"value":"France","key":"CountryName"},{"value":"Hauts-de-France","key":"StateName"},{"value":"Pas-de-Calais","key":"CountyName"}]},"MapReference":{"ReferenceId":"58957235","Spot":0.34,"SideOfStreet":"left","CountryId":"20000001","StateId":"20000002","CountyId":"20030132","CityId":"20031170","AddressId":"322752635","RoadLinkId":"44391534"}}},{"Relevance":1.0,"Distance":52.4,"MatchLevel":"houseNumber","MatchQuality":{"Country":1.0,"State":1.0,"County":1.0,"City":1.0,"Street":[1.0],"HouseNumber":1.0,"PostalCode":1.0},"MatchType":"interpolated","Location":{"LocationId":"NT_ZEXt0OB2aXNJGASBeS9d.D_3A","LocationType":"point","DisplayPosition":{"Latitude":50.42062,"Longitude":2.89256},"MapView":{"TopLeft":{"Latitude":50.4217442,"Longitude":2.8907956},"BottomRight":{"Latitude":50.4194958,"Longitude":2.8943244}},"Address":{"Label":"7 Rue d'Épinoy, 62740 Fouquières-lès-Lens, France","Country":"FRA","State":"Hauts-de-France","County":"Pas-de-Calais","City":"Fouquières-lès-Lens","Street":"Rue d'Épinoy","HouseNumber":"7","PostalCode":"62740","AdditionalData":[{"value":"France","key":"CountryName"},{"value":"Hauts-de-France","key":"StateName"},{"value":"Pas-de-Calais","key":"CountyName"}]},"MapReference":{"ReferenceId":"58957253","Spot":0.66,"SideOfStreet":"left","CountryId":"20000001","StateId":"20000002","CountyId":"20030132","CityId":"20031170","AddressId":"322574575","RoadLinkId":"44867580"}}},{"Relevance":1.0,"Distance":52.4,"MatchLevel":"street","MatchQuality":{"Country":1.0,"State":1.0,"County":1.0,"City":1.0,"Street":[1.0],"PostalCode":1.0},"Location":{"LocationId":"NT_BbcxBwkqlutexnNAh4upYB_l_58957234_R","LocationType":"point","DisplayPosition":{"Latitude":50.42103,"Longitude":2.89256},"MapView":{"TopLeft":{"Latitude":50.42105,"Longitude":2.89256},"BottomRight":{"Latitude":50.42103,"Longitude":2.89318}},"Address":{"Label":"Rue d'Artois, 62740 Fouquières-lès-Lens, France","Country":"FRA","State":"Hauts-de-France","County":"Pas-de-Calais","City":"Fouquières-lès-Lens","Street":"Rue d'Artois","PostalCode":"62740","AdditionalData":[{"value":"France","key":"CountryName"},{"value":"Hauts-de-France","key":"StateName"},{"value":"Pas-de-Calais","key":"CountyName"}]},"MapReference":{"ReferenceId":"58957234","Spot":0.0,"SideOfStreet":"right","CountryId":"20000001","StateId":"20000002","CountyId":"20030132","CityId":"20031170"}}},{"Relevance":1.0,"Distance":52.7,"MatchLevel":"houseNumber","MatchQuality":{"Country":1.0,"State":1.0,"County":1.0,"City":1.0,"Street":[1.0],"HouseNumber":1.0,"PostalCode":1.0},"MatchType":"interpolated","Location":{"LocationId":"NT_pRyEb8yoZroVftQzE2JX1A_zA","LocationType":"point","DisplayPosition":{"Latitude":50.42037,"Longitude":2.89196},"MapView":{"TopLeft":{"Latitude":50.4214942,"Longitude":2.8901957},"BottomRight":{"Latitude":50.4192458,"Longitude":2.8937243}},"Address":{"Label":"3 Avenue de l'Hôpital, 62740 Fouquières-lès-Lens, France","Country":"FRA","State":"Hauts-de-France","County":"Pas-de-Calais","City":"Fouquières-lès-Lens","Street":"Avenue de l'Hôpital","HouseNumber":"3","PostalCode":"62740","AdditionalData":[{"value":"France","key":"CountryName"},{"value":"Hauts-de-France","key":"StateName"},{"value":"Pas-de-Calais","key":"CountyName"}]},"MapReference":{"ReferenceId":"58964538","Spot":0.45,"SideOfStreet":"left","CountryId":"20000001","StateId":"20000002","CountyId":"20030132","CityId":"20031170","AddressId":"590723131","RoadLinkId":"44323533"}}},{"Relevance":1.0,"Distance":53.5,"MatchLevel":"houseNumber","MatchQuality":{"Country":1.0,"State":1.0,"County":1.0,"City":1.0,"Street":[1.0],"HouseNumber":1.0,"PostalCode":1.0},"MatchType":"interpolated","Location":{"LocationId":"NT_SgzrVIb97S8chF73osFHRB_3A","LocationType":"point","DisplayPosition":{"Latitude":50.42056,"Longitude":2.89127},"MapView":{"TopLeft":{"Latitude":50.4216842,"Longitude":2.8895056},"BottomRight":{"Latitude":50.4194358,"Longitude":2.8930344}},"Address":{"Label":"7 Rue de Bourganeuf, 62740 Fouquières-lès-Lens, France","Country":"FRA","State":"Hauts-de-France","County":"Pas-de-Calais","City":"Fouquières-lès-Lens","Street":"Rue de Bourganeuf","HouseNumber":"7","PostalCode":"62740","AdditionalData":[{"value":"France","key":"CountryName"},{"value":"Hauts-de-France","key":"StateName"},{"value":"Pas-de-Calais","key":"CountyName"}]},"MapReference":{"ReferenceId":"58964537","Spot":0.61,"SideOfStreet":"left","CountryId":"20000001","StateId":"20000002","CountyId":"20030132","CityId":"20031170","AddressId":"322760736","RoadLinkId":"44222230"}}},{"Relevance":1.0,"Distance":88.2,"MatchLevel":"houseNumber","MatchQuality":{"Country":1.0,"State":1.0,"County":1.0,"City":1.0,"Street":[1.0],"HouseNumber":1.0,"PostalCode":1.0},"MatchType":"interpolated","Location":{"LocationId":"NT_rkRiS-9piq3tu5AGYP5RHC_xA","LocationType":"point","DisplayPosition":{"Latitude":50.42143,"Longitude":2.89104},"MapView":{"TopLeft":{"Latitude":50.4225542,"Longitude":2.8892756},"BottomRight":{"Latitude":50.4203058,"Longitude":2.8928044}},"Address":{"Label":"1 Rue de Bourganeuf, 62221 Noyelles-sous-Lens, France","Country":"FRA","State":"Hauts-de-France","County":"Pas-de-Calais","City":"Noyelles-sous-Lens","Street":"Rue de Bourganeuf","HouseNumber":"1","PostalCode":"62221","AdditionalData":[{"value":"France","key":"CountryName"},{"value":"Hauts-de-France","key":"StateName"},{"value":"Pas-de-Calais","key":"CountyName"}]},"MapReference":{"ReferenceId":"58956967","Spot":0.35,"SideOfStreet":"left","CountryId":"20000001","StateId":"20000002","CountyId":"20030132","CityId":"20031984","AddressId":"572581896","RoadLinkId":"45093116"}}},{"Relevance":1.0,"Distance":89.3,"MatchLevel":"houseNumber","MatchQuality":{"Country":1.0,"State":1.0,"County":1.0,"City":1.0,"Street":[1.0],"HouseNumber":1.0,"PostalCode":1.0},"MatchType":"interpolated","Location":{"LocationId":"NT_GNtoRfdp2S5sSkdb.CgQ7A_xED","LocationType":"point","DisplayPosition":{"Latitude":50.42085,"Longitude":2.89318},"MapView":{"TopLeft":{"Latitude":50.4219742,"Longitude":2.8914156},"BottomRight":{"Latitude":50.4197258,"Longitude":2.8949444}},"Address":{"Label":"11 Rue de Boussac, 62740 Fouquières-lès-Lens, France","Country":"FRA","State":"Hauts-de-France","County":"Pas-de-Calais","City":"Fouquières-lès-Lens","Street":"Rue de Boussac","HouseNumber":"11","PostalCode":"62740","AdditionalData":[{"value":"France","key":"CountryName"},{"value":"Hauts-de-France","key":"StateName"},{"value":"Pas-de-Calais","key":"CountyName"}]},"MapReference":{"ReferenceId":"58957255","Spot":0.84,"SideOfStreet":"left","CountryId":"20000001","StateId":"20000002","CountyId":"20030132","CityId":"20031170","AddressId":"322671562","RoadLinkId":"45002445"}}},{"Relevance":1.0,"Distance":95.0,"MatchLevel":"houseNumber","MatchQuality":{"Country":1.0,"State":1.0,"County":1.0,"City":1.0,"Street":[1.0],"HouseNumber":1.0,"PostalCode":1.0},"MatchType":"interpolated","Location":{"LocationId":"NT_BbcxBwkqlutexnNAh4upYB_yMD","LocationType":"point","DisplayPosition":{"Latitude":50.42084,"Longitude":2.89053},"MapView":{"TopLeft":{"Latitude":50.4219642,"Longitude":2.8887656},"BottomRight":{"Latitude":50.4197158,"Longitude":2.8922944}},"Address":{"Label":"23 Rue d'Artois, 62740 Fouquières-lès-Lens, France","Country":"FRA","State":"Hauts-de-France","County":"Pas-de-Calais","City":"Fouquières-lès-Lens","Street":"Rue d'Artois","HouseNumber":"23","PostalCode":"62740","AdditionalData":[{"value":"France","key":"CountryName"},{"value":"Hauts-de-France","key":"StateName"},{"value":"Pas-de-Calais","key":"CountyName"}]},"MapReference":{"ReferenceId":"58956968","Spot":0.41,"SideOfStreet":"right","CountryId":"20000001","StateId":"20000002","CountyId":"20030132","CityId":"20031170","AddressId":"345264354","RoadLinkId":"43809153"}}}]}]}}