{"Response":{"MetaInfo":{"Timestamp":"2020-03-28T09:58:06.777+0000","NextPageInformation":"2"},"View":[{"_type":"SearchResultsViewType","ViewId":0,"Result":[{"Relevance":1.0,"Distance":0.0,"Direction":0.0,"MatchLevel":"district","MatchQuality":{"Country":1.0,"State":1.0,"County":1.0,"City":1.0,"District":1.0,"PostalCode":1.0},"Location":{"LocationId":"NT_0KVo3yNWCMvPFs8eOEvNLA","LocationType":"point","DisplayPosition":{"Latitude":50.4445188,"Longitude":23.4183441},"MapView":{"TopLeft":{"Latitude":50.47076,"Longitude":23.39274},"BottomRight":{"Latitude":50.42922,"Longitude":23.45579}},"Address":{"Label":"Tomaszów Lubelski, Woj. Lubelskie, Polska","Country":"POL","State":"Woj. Lubelskie","County":"Powiat Tomaszowski","City":"Tomaszów Lubelski","District":"Tomaszów Lubelski","PostalCode":"22-600","AdditionalData":[{"value":"Polska","key":"CountryName"},{"value":"Woj. Lubelskie","key":"StateName"},{"value":"Powiat Tomaszowski","key":"CountyName"}]},"MapReference":{"ReferenceId":"845098864","SideOfStreet":"neither","CountryId":"20624059","StateId":"20626116","CountyId":"20626499","CityId":"20684895","DistrictId":"20684896"}}},{"Relevance":1.0,"Distance":16.4,"MatchLevel":"houseNumber","MatchQuality":{"Country":1.0,"State":1.0,"County":1.0,"City":1.0,"District":1.0,"Street":[1.0],"HouseNumber":1.0,"PostalCode":1.0},"MatchType":"interpolated","Location":{"LocationId":"NT_lMTJyoGx4u9PkH5ptwIwlC_zA","LocationType":"point","DisplayPosition":{"Latitude":50.44428,"Longitude":23.41811},"MapView":{"TopLeft":{"Latitude":50.4454042,"Longitude":23.4163448},"BottomRight":{"Latitude":50.4431558,"Longitude":23.4198752}},"Address":{"Label":"ulica Janusza Petera 3, 22-600 Tomaszów Lubelski, Polska","Country":"POL","State":"Woj. Lubelskie","County":"Powiat Tomaszowski","City":"Tomaszów Lubelski","District":"Tomaszów Lubelski","Street":"ulica Janusza Petera","HouseNumber":"3","PostalCode":"22-600","AdditionalData":[{"value":"Polska","key":"CountryName"},{"value":"Woj. Lubelskie","key":"StateName"},{"value":"Powiat Tomaszowski","key":"CountyName"}]},"MapReference":{"ReferenceId":"596220036","Spot":0.63,"SideOfStreet":"right","CountryId":"20624059","StateId":"20626116","CountyId":"20626499","CityId":"20684895","DistrictId":"20684896","AddressId":"211063247","RoadLinkId":"95909113"}}},{"Relevance":1.0,"Distance":19.5,"MatchLevel":"houseNumber","MatchQuality":{"Country":1.0,"State":1.0,"County":1.0,"City":1.0,"District":1.0,"Street":[1.0],"HouseNumber":1.0,"PostalCode":1.0},"MatchType":"interpolated","Location":{"LocationId":"NT_ZqrXTwu12wSW7gFJxUF1oC_0UD","LocationType":"point","DisplayPosition":{"Latitude":50.44477,"Longitude":23.41808},"MapView":{"TopLeft":{"Latitude":50.4458942,"Longitude":23.4163147},"BottomRight":{"Latitude":50.4436458,"Longitude":23.4198453}},"Address":{"Label":"ulica Królewska 45, 22-600 Tomaszów Lubelski, Polska","Country":"POL","State":"Woj. Lubelskie","County":"Powiat Tomaszowski","City":"Tomaszów Lubelski","District":"Tomaszów Lubelski","Street":"ulica Królewska","HouseNumber":"45","PostalCode":"22-600","AdditionalData":[{"value":"Polska","key":"CountryName"},{"value":"Woj. Lubelskie","key":"StateName"},{"value":"Powiat Tomaszowski","key":"CountyName"}]},"MapReference":{"ReferenceId":"1166595848","Spot":1.0,"SideOfStreet":"right","CountryId":"20624059","StateId":"20626116","CountyId":"20626499","CityId":"20684895","DistrictId":"20684896","AddressId":"210355551","RoadLinkId":"473132911"}}},{"Relevance":1.0,"Distance":26.4,"MatchLevel":"street","MatchQuality":{"Country":1.0,"State":1.0,"County":1.0,"City":1.0,"District":1.0,"PostalCode":1.0},"Location":{"LocationId":"NT_kqroyLF-REhYpIbmwbo2qA_l_1166595850_R","LocationType":"point","DisplayPosition":{"Latitude":50.4447566,"Longitude":23.4183557},"MapView":{"TopLeft":{"Latitude":50.44484,"Longitude":23.41808},"BottomRight":{"Latitude":50.44475,"Longitude":23.41864}},"Address":{"Label":"22-600 Tomaszów Lubelski, Polska","Country":"POL","State":"Woj. Lubelskie","County":"Powiat Tomaszowski","City":"Tomaszów Lubelski","District":"Tomaszów Lubelski","PostalCode":"22-600","AdditionalData":[{"value":"Polska","key":"CountryName"},{"value":"Woj. Lubelskie","key":"StateName"},{"value":"Powiat Tomaszowski","key":"CountyName"}]},"MapReference":{"ReferenceId":"1166595850","Spot":0.45,"SideOfStreet":"right","CountryId":"20624059","StateId":"20626116","CountyId":"20626499","CityId":"20684895","DistrictId":"20684896"}}},{"Relevance":1.0,"Distance":28.8,"MatchLevel":"houseNumber","MatchQuality":{"Country":1.0,"State":1.0,"County":1.0,"City":1.0,"District":1.0,"Street":[1.0],"HouseNumber":1.0,"PostalCode":1.0},"MatchType":"interpolated","Location":{"LocationId":"NT_LLkovL2b9uHCJAyz49wWdD_yID","LocationType":"point","DisplayPosition":{"Latitude":50.44481,"Longitude":23.41942},"MapView":{"TopLeft":{"Latitude":50.4459342,"Longitude":23.4176547},"BottomRight":{"Latitude":50.4436858,"Longitude":23.4211853}},"Address":{"Label":"ulica Klasztorna 22, 22-600 Tomaszów Lubelski, Polska","Country":"POL","State":"Woj. Lubelskie","County":"Powiat Tomaszowski","City":"Tomaszów Lubelski","District":"Tomaszów Lubelski","Street":"ulica Klasztorna","HouseNumber":"22","PostalCode":"22-600","AdditionalData":[{"value":"Polska","key":"CountryName"},{"value":"Woj. Lubelskie","key":"StateName"},{"value":"Powiat Tomaszowski","key":"CountyName"}]},"MapReference":{"ReferenceId":"1166595852","Spot":0.1,"SideOfStreet":"left","CountryId":"20624059","StateId":"20626116","CountyId":"20626499","CityId":"20684895","DistrictId":"20684896","AddressId":"701721953","RoadLinkId":"473132915"}}},{"Relevance":1.0,"Distance":35.5,"MatchLevel":"street","MatchQuality":{"Country":1.0,"State":1.0,"County":1.0,"City":1.0,"District":1.0,"PostalCode":1.0},"Location":{"LocationId":"NT_kqroyLF-REhYpIbmwbo2qA_l_1166595855_L","LocationType":"point","DisplayPosition":{"Latitude":50.4444,"Longitude":23.41881},"MapView":{"TopLeft":{"Latitude":50.44469,"Longitude":23.41881},"BottomRight":{"Latitude":50.44428,"Longitude":23.41947}},"Address":{"Label":"22-600 Tomaszów Lubelski, Polska","Country":"POL","State":"Woj. Lubelskie","County":"Powiat Tomaszowski","City":"Tomaszów Lubelski","District":"Tomaszów Lubelski","PostalCode":"22-600","AdditionalData":[{"value":"Polska","key":"CountryName"},{"value":"Woj. Lubelskie","key":"StateName"},{"value":"Powiat Tomaszowski","key":"CountyName"}]},"MapReference":{"ReferenceId":"1166595855","Spot":0.22,"SideOfStreet":"left","CountryId":"20624059","StateId":"20626116","CountyId":"20626499","CityId":"20684895","DistrictId":"20684896"}}},{"Relevance":1.0,"Distance":42.0,"MatchLevel":"street","MatchQuality":{"Country":1.0,"State":1.0,"County":1.0,"City":1.0,"District":1.0,"PostalCode":1.0},"Location":{"LocationId":"NT_kqroyLF-REhYpIbmwbo2qA_l_1166595851_L","LocationType":"point","DisplayPosition":{"Latitude":50.4448502,"Longitude":23.4186281},"MapView":{"TopLeft":{"Latitude":50.44508,"Longitude":23.41831},"BottomRight":{"Latitude":50.44484,"Longitude":23.41864}},"Address":{"Label":"22-600 Tomaszów Lubelski, Polska","Country":"POL","State":"Woj. Lubelskie","County":"Powiat Tomaszowski","City":"Tomaszów Lubelski","District":"Tomaszów Lubelski","PostalCode":"22-600","AdditionalData":[{"value":"Polska","key":"CountryName"},{"value":"Woj. Lubelskie","key":"StateName"},{"value":"Powiat Tomaszowski","key":"CountyName"}]},"MapReference":{"ReferenceId":"1166595851","Spot":0.04,"SideOfStreet":"left","CountryId":"20624059","StateId":"20626116","CountyId":"20626499","CityId":"20684895","DistrictId":"20684896"}}},{"Relevance":1.0,"Distance":48.7,"MatchLevel":"houseNumber","MatchQuality":{"Country":1.0,"State":1.0,"County":1.0,"City":1.0,"District":1.0,"Street":[1.0],"HouseNumber":1.0,"PostalCode":1.0},"MatchType":"interpolated","Location":{"LocationId":"NT_ZqrXTwu12wSW7gFJxUF1oC_0MD","LocationType":"point","DisplayPosition":{"Latitude":50.44495,"Longitude":23.41822},"MapView":{"TopLeft":{"Latitude":50.4460742,"Longitude":23.4164547},"BottomRight":{"Latitude":50.4438258,"Longitude":23.4199853}},"Address":{"Label":"ulica Królewska 43, 22-600 Tomaszów Lubelski, Polska","Country":"POL","State":"Woj. Lubelskie","County":"Powiat Tomaszowski","City":"Tomaszów Lubelski","District":"Tomaszów Lubelski","Street":"ulica Królewska","HouseNumber":"43","PostalCode":"22-600","AdditionalData":[{"value":"Polska","key":"CountryName"},{"value":"Woj. Lubelskie","key":"StateName"},{"value":"Powiat Tomaszowski","key":"CountyName"}]},"MapReference":{"ReferenceId":"1166595849","Spot":0.59,"SideOfStreet":"right","CountryId":"20624059","StateId":"20626116","CountyId":"20626499","CityId":"20684895","DistrictId":"20684896","AddressId":"701721888","RoadLinkId":"473132912"}}},{"Relevance":1.0,"Distance":49.9,"MatchLevel":"street","MatchQuality":{"Country":1.0,"State":1.0,"County":1.0,"City":1.0,"District":1.0,"PostalCode":1.0},"Location":{"LocationId":"NT_kqroyLF-REhYpIbmwbo2qA_l_1166595854_L","LocationType":"point","DisplayPosition":{"Latitude":50.44428,"Longitude":23.41894},"MapView":{"TopLeft":{"Latitude":50.44451,"Longitude":23.41894},"BottomRight":{"Latitude":50.44428,"Longitude":23.41955}},"Address":{"Label":"22-600 Tomaszów Lubelski, Polska","Country":"POL","State":"Woj. Lubelskie","County":"Powiat Tomaszowski","City":"Tomaszów Lubelski","District":"Tomaszów Lubelski","PostalCode":"22-600","AdditionalData":[{"value":"Polska","key":"CountryName"},{"value":"Woj. Lubelskie","key":"StateName"},{"value":"Powiat Tomaszowski","key":"CountyName"}]},"MapReference":{"ReferenceId":"1166595854","Spot":0.0,"SideOfStreet":"left","CountryId":"20624059","StateId":"20626116","CountyId":"20626499","CityId":"20684895","DistrictId":"20684896"}}},{"Relevance":1.0,"Distance":49.9,"MatchLevel":"street","MatchQuality":{"Country":1.0,"State":1.0,"County":1.0,"City":1.0,"District":1.0,"PostalCode":1.0},"Location":{"LocationId":"NT_kqroyLF-REhYpIbmwbo2qA_l_1166595858_R","LocationType":"point","DisplayPosition":{"Latitude":50.44428,"Longitude":23.41894},"MapView":{"TopLeft":{"Latitude":50.44428,"Longitude":23.41894},"BottomRight":{"Latitude":50.44422,"Longitude":23.41968}},"Address":{"Label":"22-600 Tomaszów Lubelski, Polska","Country":"POL","State":"Woj. Lubelskie","County":"Powiat Tomaszowski","City":"Tomaszów Lubelski","District":"Tomaszów Lubelski","PostalCode":"22-600","AdditionalData":[{"value":"Polska","key":"CountryName"},{"value":"Woj. Lubelskie","key":"StateName"},{"value":"Powiat Tomaszowski","key":"CountyName"}]},"MapReference":{"ReferenceId":"1166595858","Spot":1.0,"SideOfStreet":"right","CountryId":"20624059","StateId":"20626116","CountyId":"20626499","CityId":"20684895","DistrictId":"20684896"}}}]}]}}