{"Response":{"MetaInfo":{"Timestamp":"2020-03-28T11:00:58.314+0000","NextPageInformation":"2"},"View":[{"_type":"SearchResultsViewType","ViewId":0,"Result":[{"Relevance":1.0,"Distance":0.0,"Direction":0.0,"MatchLevel":"city","MatchQuality":{"Country":1.0,"State":1.0,"County":1.0,"City":1.0,"PostalCode":1.0},"Location":{"LocationId":"NT_iq1WFTxxPJsxMoS5uK7VCD","LocationType":"point","DisplayPosition":{"Latitude":50.4570228,"Longitude":9.9181434},"MapView":{"TopLeft":{"Latitude":50.50303,"Longitude":9.80092},"BottomRight":{"Latitude":50.39755,"Longitude":9.99738}},"Address":{"Label":"Gersfeld (Rhön), Hessen, Deutschland","Country":"DEU","State":"Hessen","County":"Fulda","City":"Gersfeld (Rhön)","PostalCode":"36129","AdditionalData":[{"value":"Deutschland","key":"CountryName"},{"value":"Hessen","key":"StateName"},{"value":"Fulda","key":"CountyName"}]},"MapReference":{"ReferenceId":"1175228842","SideOfStreet":"neither","CountryId":"20147700","StateId":"20160993","CountyId":"20162976","CityId":"20163047"}}},{"Relevance":1.0,"Distance":37.3,"MatchLevel":"street","MatchQuality":{"Country":1.0,"State":1.0,"County":1.0,"City":1.0,"Street":[1.0],"PostalCode":1.0},"Location":{"LocationId":"NT_z1ckHSCXefwiq0-QXG.V5C_l_1169105819_R","LocationType":"point","DisplayPosition":{"Latitude":50.45717,"Longitude":9.91767},"MapView":{"TopLeft":{"Latitude":50.4576,"Longitude":9.91707},"BottomRight":{"Latitude":50.45679,"Longitude":9.91767}},"Address":{"Label":"Wolf-Hirth-Straße, 36129 Gersfeld (Rhön), Deutschland","Country":"DEU","State":"Hessen","County":"Fulda","City":"Gersfeld (Rhön)","Street":"Wolf-Hirth-Straße","PostalCode":"36129","AdditionalData":[{"value":"Deutschland","key":"CountryName"},{"value":"Hessen","key":"StateName"},{"value":"Fulda","key":"CountyName"}]},"MapReference":{"ReferenceId":"1169105819","Spot":0.35,"SideOfStreet":"right","CountryId":"20147700","StateId":"20160993","CountyId":"20162976","CityId":"20163047"}}},{"Relevance":1.0,"Distance":44.8,"MatchLevel":"houseNumber","MatchQuality":{"Country":1.0,"State":1.0,"County":1.0,"City":1.0,"District":1.0,"Street":[1.0],"HouseNumber":1.0,"PostalCode":1.0},"MatchType":"interpolated","Location":{"LocationId":"NT_erWl.hJ-AGGCqahlnw7VmA_xgD","LocationType":"point","DisplayPosition":{"Latitude":50.45598,"Longitude":9.91907},"MapView":{"TopLeft":{"Latitude":50.4571042,"Longitude":9.9173043},"BottomRight":{"Latitude":50.4548558,"Longitude":9.9208357}},"Address":{"Label":"Wolf-Hirth-Straße 18, 36129 Gersfeld (Rhön), Deutschland","Country":"DEU","State":"Hessen","County":"Fulda","City":"Gersfeld (Rhön)","District":"Gersfeld (Rhön)","Street":"Wolf-Hirth-Straße","HouseNumber":"18","PostalCode":"36129","AdditionalData":[{"value":"Deutschland","key":"CountryName"},{"value":"Hessen","key":"StateName"},{"value":"Fulda","key":"CountyName"}]},"MapReference":{"ReferenceId":"567336256","Spot":1.0,"SideOfStreet":"right","CountryId":"20147700","StateId":"20160993","CountyId":"20162976","CityId":"20163047","DistrictId":"20163049","AddressId":"621885837","RoadLinkId":"34503757"}}},{"Relevance":1.0,"Distance":51.2,"MatchLevel":"street","MatchQuality":{"Country":1.0,"State":1.0,"County":1.0,"City":1.0,"District":1.0,"Street":[1.0],"PostalCode":1.0},"Location":{"LocationId":"NT_erWl.hJ-AGGCqahlnw7VmA_l_1169105818_R","LocationType":"point","DisplayPosition":{"Latitude":50.45679,"Longitude":9.91752},"MapView":{"TopLeft":{"Latitude":50.45679,"Longitude":9.91741},"BottomRight":{"Latitude":50.45598,"Longitude":9.91907}},"Address":{"Label":"Wolf-Hirth-Straße, 36129 Gersfeld (Rhön), Deutschland","Country":"DEU","State":"Hessen","County":"Fulda","City":"Gersfeld (Rhön)","District":"Gersfeld (Rhön)","Street":"Wolf-Hirth-Straße","PostalCode":"36129","AdditionalData":[{"value":"Deutschland","key":"CountryName"},{"value":"Hessen","key":"StateName"},{"value":"Fulda","key":"CountyName"}]},"MapReference":{"ReferenceId":"1169105818","Spot":1.0,"SideOfStreet":"right","CountryId":"20147700","StateId":"20160993","CountyId":"20162976","CityId":"20163047","DistrictId":"20163049"}}},{"Relevance":1.0,"Distance":77.6,"MatchLevel":"street","MatchQuality":{"Country":1.0,"State":1.0,"County":1.0,"City":1.0,"District":1.0,"Street":[1.0],"PostalCode":1.0},"Location":{"LocationId":"NT_aqA-FYVcqRzqNUicRO5mTB_l_63617111_R","LocationType":"point","DisplayPosition":{"Latitude":50.45707,"Longitude":9.91705},"MapView":{"TopLeft":{"Latitude":50.45744,"Longitude":9.91678},"BottomRight":{"Latitude":50.4568,"Longitude":9.91705}},"Address":{"Label":"Kastanienallee, 36129 Gersfeld (Rhön), Deutschland","Country":"DEU","State":"Hessen","County":"Fulda","City":"Gersfeld (Rhön)","District":"Gersfeld (Rhön)","Street":"Kastanienallee","PostalCode":"36129","AdditionalData":[{"value":"Deutschland","key":"CountryName"},{"value":"Hessen","key":"StateName"},{"value":"Fulda","key":"CountyName"}]},"MapReference":{"ReferenceId":"63617111","Spot":0.4,"SideOfStreet":"right","CountryId":"20147700","StateId":"20160993","CountyId":"20162976","CityId":"20163047","DistrictId":"20163049"}}},{"Relevance":1.0,"Distance":92.1,"MatchLevel":"street","MatchQuality":{"Country":1.0,"State":1.0,"County":1.0,"City":1.0,"District":1.0,"Street":[1.0],"PostalCode":1.0},"Location":{"LocationId":"NT_aqA-FYVcqRzqNUicRO5mTB_l_78677737_R","LocationType":"point","DisplayPosition":{"Latitude":50.4568,"Longitude":9.91689},"MapView":{"TopLeft":{"Latitude":50.4568,"Longitude":9.91622},"BottomRight":{"Latitude":50.45496,"Longitude":9.91689}},"Address":{"Label":"Kastanienallee, 36129 Gersfeld (Rhön), Deutschland","Country":"DEU","State":"Hessen","County":"Fulda","City":"Gersfeld (Rhön)","District":"Gersfeld (Rhön)","Street":"Kastanienallee","PostalCode":"36129","AdditionalData":[{"value":"Deutschland","key":"CountryName"},{"value":"Hessen","key":"StateName"},{"value":"Fulda","key":"CountyName"}]},"MapReference":{"ReferenceId":"78677737","Spot":1.0,"SideOfStreet":"right","CountryId":"20147700","StateId":"20160993","CountyId":"20162976","CityId":"20163047","DistrictId":"20163049"}}},{"Relevance":1.0,"Distance":98.5,"MatchLevel":"street","MatchQuality":{"Country":1.0,"State":1.0,"County":1.0,"City":1.0,"District":1.0,"Street":[1.0],"PostalCode":1.0},"Location":{"LocationId":"NT_n4yg6-jU5ngnuslD7tm0nA_l_1268418120_R","LocationType":"point","DisplayPosition":{"Latitude":50.45775,"Longitude":9.91735},"MapView":{"TopLeft":{"Latitude":50.45775,"Longitude":9.91707},"BottomRight":{"Latitude":50.4576,"Longitude":9.91735}},"Address":{"Label":"Schachen, 36129 Gersfeld (Rhön), Deutschland","Country":"DEU","State":"Hessen","County":"Fulda","City":"Gersfeld (Rhön)","District":"Gersfeld (Rhön)","Street":"Schachen","PostalCode":"36129","AdditionalData":[{"value":"Deutschland","key":"CountryName"},{"value":"Hessen","key":"StateName"},{"value":"Fulda","key":"CountyName"}]},"MapReference":{"ReferenceId":"1268418120","Spot":1.0,"SideOfStreet":"right","CountryId":"20147700","StateId":"20160993","CountyId":"20162976","CityId":"20163047","DistrictId":"20163049"}}},{"Relevance":1.0,"Distance":98.5,"MatchLevel":"street","MatchQuality":{"Country":1.0,"State":1.0,"County":1.0,"City":1.0,"District":1.0,"PostalCode":1.0},"Location":{"LocationId":"NT_OOfLoEiAllCfC.oyudR.HD_l_1268418121_R","LocationType":"point","DisplayPosition":{"Latitude":50.45775,"Longitude":9.91735},"MapView":{"TopLeft":{"Latitude":50.45821,"Longitude":9.91726},"BottomRight":{"Latitude":50.45775,"Longitude":9.91735}},"Address":{"Label":"36129 Gersfeld (Rhön), Deutschland","Country":"DEU","State":"Hessen","County":"Fulda","City":"Gersfeld (Rhön)","District":"Gersfeld (Rhön)","PostalCode":"36129","AdditionalData":[{"value":"Deutschland","key":"CountryName"},{"value":"Hessen","key":"StateName"},{"value":"Fulda","key":"CountyName"}]},"MapReference":{"ReferenceId":"1268418121","Spot":0.0,"SideOfStreet":"right","CountryId":"20147700","StateId":"20160993","CountyId":"20162976","CityId":"20163047","DistrictId":"20163049"}}},{"Relevance":1.0,"Distance":99.5,"MatchLevel":"street","MatchQuality":{"Country":1.0,"State":1.0,"County":1.0,"City":1.0,"District":1.0,"Street":[1.0],"PostalCode":1.0},"Location":{"LocationId":"NT_dVbBsNb1hHPw27gzkxSdgA_l_63617121_R","LocationType":"point","DisplayPosition":{"Latitude":50.4576,"Longitude":9.91707},"MapView":{"TopLeft":{"Latitude":50.4576,"Longitude":9.91678},"BottomRight":{"Latitude":50.45744,"Longitude":9.91707}},"Address":{"Label":"Brembacher Weg, 36129 Gersfeld (Rhön), Deutschland","Country":"DEU","State":"Hessen","County":"Fulda","City":"Gersfeld (Rhön)","District":"Gersfeld (Rhön)","Street":"Brembacher Weg","PostalCode":"36129","AdditionalData":[{"value":"Deutschland","key":"CountryName"},{"value":"Hessen","key":"StateName"},{"value":"Fulda","key":"CountyName"}]},"MapReference":{"ReferenceId":"63617121","Spot":1.0,"SideOfStreet":"right","CountryId":"20147700","StateId":"20160993","CountyId":"20162976","CityId":"20163047","DistrictId":"20163049"}}},{"Relevance":1.0,"Distance":104.3,"MatchLevel":"street","MatchQuality":{"Country":1.0,"State":1.0,"County":1.0,"City":1.0,"District":1.0,"Street":[1.0],"PostalCode":1.0},"Location":{"LocationId":"NT_n4yg6-jU5ngnuslD7tm0nA_l_1268418122_R","LocationType":"point","DisplayPosition":{"Latitude":50.457869,"Longitude":9.9175087},"MapView":{"TopLeft":{"Latitude":50.45829,"Longitude":9.91735},"BottomRight":{"Latitude":50.45775,"Longitude":9.91807}},"Address":{"Label":"Schachen, 36129 Gersfeld (Rhön), Deutschland","Country":"DEU","State":"Hessen","County":"Fulda","City":"Gersfeld (Rhön)","District":"Gersfeld (Rhön)","Street":"Schachen","PostalCode":"36129","AdditionalData":[{"value":"Deutschland","key":"CountryName"},{"value":"Hessen","key":"StateName"},{"value":"Fulda","key":"CountyName"}]},"MapReference":{"ReferenceId":"1268418122","Spot":0.22,"SideOfStreet":"right","CountryId":"20147700","StateId":"20160993","CountyId":"20162976","CityId":"20163047","DistrictId":"20163049"}}}]}]}}