{"Response":{"MetaInfo":{"Timestamp":"2020-03-28T10:51:46.870+0000","NextPageInformation":"2"},"View":[{"_type":"SearchResultsViewType","ViewId":0,"Result":[{"Relevance":1.0,"Distance":-23.6,"MatchLevel":"landmark","MatchQuality":{"Country":1.0,"State":1.0,"County":1.0,"City":1.0,"District":1.0,"PostalCode":1.0,"Name":1.0},"Location":{"LocationId":"NT_SqgMhNZAMooRppoPz.qPwD_p_eLiAo.i4aQVmlKlMwDg8pC","LocationType":"hospital","Name":"Hôpital Civil Marie Curie","DisplayPosition":{"Latitude":50.4315,"Longitude":4.43906},"MapView":{"TopLeft":{"Latitude":50.43236,"Longitude":4.43518},"BottomRight":{"Latitude":50.4297,"Longitude":4.44079}},"Address":{"Label":"6042 Charleroi, Belgique","Country":"BEL","State":"Wallonie","County":"Hainaut","City":"Charleroi","District":"Lodelinsart","PostalCode":"6042","AdditionalData":[{"value":"Belgique","key":"CountryName"},{"value":"Wallonie","key":"StateName"},{"value":"Hainaut","key":"CountyName"}]},"MapReference":{"CountryId":"20128886","StateId":"20205526","CountyId":"20205527","CityId":"20205614","DistrictId":"20205623","PlaceId":"1132510901"}}},{"Relevance":1.0,"Distance":0.0,"Direction":0.0,"MatchLevel":"district","MatchQuality":{"Country":1.0,"State":1.0,"County":1.0,"City":1.0,"District":1.0,"PostalCode":1.0},"Location":{"LocationId":"NT_jOIJV2Yg.B4x3cRQp.RhVA","LocationType":"point","DisplayPosition":{"Latitude":50.4304463,"Longitude":4.4401943},"MapView":{"TopLeft":{"Latitude":50.44083,"Longitude":4.41944},"BottomRight":{"Latitude":50.42284,"Longitude":4.46853}},"Address":{"Label":"Lodelinsart, Charleroi, Wallonie, Belgique","Country":"BEL","State":"Wallonie","County":"Hainaut","City":"Charleroi","District":"Lodelinsart","PostalCode":"6042","AdditionalData":[{"value":"Belgique","key":"CountryName"},{"value":"Wallonie","key":"StateName"},{"value":"Hainaut","key":"CountyName"}]},"MapReference":{"ReferenceId":"53991627","SideOfStreet":"neither","CountryId":"20128886","StateId":"20205526","CountyId":"20205527","CityId":"20205614","DistrictId":"20205623"}}},{"Relevance":1.0,"Distance":14.5,"MatchLevel":"houseNumber","MatchQuality":{"Country":1.0,"State":1.0,"County":1.0,"City":1.0,"District":1.0,"Street":[1.0],"HouseNumber":1.0,"PostalCode":1.0},"MatchType":"interpolated","Location":{"LocationId":"NT_UW2pqi8KFoOqI2tvIFyZ7A_xkjM","LocationType":"point","DisplayPosition":{"Latitude":50.43042,"Longitude":4.44073},"MapView":{"TopLeft":{"Latitude":50.4315442,"Longitude":4.4389653},"BottomRight":{"Latitude":50.4292958,"Longitude":4.4424947}},"Address":{"Label":"Chaussée de Bruxelles 192, 6042 Charleroi, Belgique","Country":"BEL","State":"Wallonie","County":"Hainaut","City":"Charleroi","District":"Lodelinsart","Street":"Chaussée de Bruxelles","HouseNumber":"192","PostalCode":"6042","AdditionalData":[{"value":"Belgique","key":"CountryName"},{"value":"Wallonie","key":"StateName"},{"value":"Hainaut","key":"CountyName"}]},"MapReference":{"ReferenceId":"1073488085","Spot":0.08,"SideOfStreet":"left","CountryId":"20128886","StateId":"20205526","CountyId":"20205527","CityId":"20205614","DistrictId":"20205623","AddressId":"369126445","RoadLinkId":"393841045"}}},{"Relevance":1.0,"Distance":23.7,"MatchLevel":"street","MatchQuality":{"Country":1.0,"State":1.0,"County":1.0,"City":1.0,"District":1.0,"Street":[1.0],"PostalCode":1.0},"Location":{"LocationId":"NT_EAHjpZ4Vpa8fvlArcVUEVA_l_1073470038_L","LocationType":"point","DisplayPosition":{"Latitude":50.4302341,"Longitude":4.4402269},"MapView":{"TopLeft":{"Latitude":50.43031,"Longitude":4.4389},"BottomRight":{"Latitude":50.43003,"Longitude":4.44072}},"Address":{"Label":"Route du Centre, 6042 Charleroi, Belgique","Country":"BEL","State":"Wallonie","County":"Hainaut","City":"Charleroi","District":"Lodelinsart","Street":"Route du Centre","PostalCode":"6042","AdditionalData":[{"value":"Belgique","key":"CountryName"},{"value":"Wallonie","key":"StateName"},{"value":"Hainaut","key":"CountyName"}]},"MapReference":{"ReferenceId":"1073470038","Spot":0.73,"SideOfStreet":"left","CountryId":"20128886","StateId":"20205526","CountyId":"20205527","CityId":"20205614","DistrictId":"20205623"}}},{"Relevance":1.0,"Distance":31.3,"MatchLevel":"street","MatchQuality":{"Country":1.0,"State":1.0,"County":1.0,"City":1.0,"District":1.0,"Street":[1.0],"PostalCode":1.0},"Location":{"LocationId":"NT_3gRyciZJTdesIGqbtQiF8B_l_1162606850_L","LocationType":"point","DisplayPosition":{"Latitude":50.43017,"Longitude":4.44028},"MapView":{"TopLeft":{"Latitude":50.43023,"Longitude":4.44028},"BottomRight":{"Latitude":50.43017,"Longitude":4.44072}},"Address":{"Label":"N569, 6042 Charleroi, Belgique","Country":"BEL","State":"Wallonie","County":"Hainaut","City":"Charleroi","District":"Lodelinsart","Street":"N569","PostalCode":"6042","AdditionalData":[{"value":"Belgique","key":"CountryName"},{"value":"Wallonie","key":"StateName"},{"value":"Hainaut","key":"CountyName"}]},"MapReference":{"ReferenceId":"1162606850","Spot":0.0,"SideOfStreet":"left","CountryId":"20128886","StateId":"20205526","CountyId":"20205527","CityId":"20205614","DistrictId":"20205623"}}},{"Relevance":1.0,"Distance":31.6,"MatchLevel":"street","MatchQuality":{"Country":1.0,"State":1.0,"County":1.0,"City":1.0,"District":1.0,"Street":[1.0],"PostalCode":1.0},"Location":{"LocationId":"NT_3gRyciZJTdesIGqbtQiF8B_l_1162606849_L","LocationType":"point","DisplayPosition":{"Latitude":50.4301636,"Longitude":4.4402324},"MapView":{"TopLeft":{"Latitude":50.43017,"Longitude":4.43939},"BottomRight":{"Latitude":50.43005,"Longitude":4.44028}},"Address":{"Label":"N569, 6042 Charleroi, Belgique","Country":"BEL","State":"Wallonie","County":"Hainaut","City":"Charleroi","District":"Lodelinsart","Street":"N569","PostalCode":"6042","AdditionalData":[{"value":"Belgique","key":"CountryName"},{"value":"Wallonie","key":"StateName"},{"value":"Hainaut","key":"CountyName"}]},"MapReference":{"ReferenceId":"1162606849","Spot":0.95,"SideOfStreet":"left","CountryId":"20128886","StateId":"20205526","CountyId":"20205527","CityId":"20205614","DistrictId":"20205623"}}},{"Relevance":1.0,"Distance":40.2,"MatchLevel":"street","MatchQuality":{"Country":1.0,"State":1.0,"County":1.0,"City":1.0,"District":1.0,"Street":[1.0],"PostalCode":1.0},"Location":{"LocationId":"NT_UW2pqi8KFoOqI2tvIFyZ7A_l_1073470041_L","LocationType":"point","DisplayPosition":{"Latitude":50.43031,"Longitude":4.44072},"MapView":{"TopLeft":{"Latitude":50.43031,"Longitude":4.44072},"BottomRight":{"Latitude":50.43023,"Longitude":4.44072}},"Address":{"Label":"Chaussée de Bruxelles, 6042 Charleroi, Belgique","Country":"BEL","State":"Wallonie","County":"Hainaut","City":"Charleroi","District":"Lodelinsart","Street":"Chaussée de Bruxelles","PostalCode":"6042","AdditionalData":[{"value":"Belgique","key":"CountryName"},{"value":"Wallonie","key":"StateName"},{"value":"Hainaut","key":"CountyName"}]},"MapReference":{"ReferenceId":"1073470041","Spot":1.0,"SideOfStreet":"left","CountryId":"20128886","StateId":"20205526","CountyId":"20205527","CityId":"20205614","DistrictId":"20205623"}}},{"Relevance":1.0,"Distance":40.3,"MatchLevel":"street","MatchQuality":{"Country":1.0,"State":1.0,"County":1.0,"City":1.0,"District":1.0,"Street":[1.0],"PostalCode":1.0},"Location":{"LocationId":"NT_EAHjpZ4Vpa8fvlArcVUEVA_l_1073470035_L","LocationType":"point","DisplayPosition":{"Latitude":50.4300855,"Longitude":4.4402443},"MapView":{"TopLeft":{"Latitude":50.43015,"Longitude":4.43892},"BottomRight":{"Latitude":50.42995,"Longitude":4.44071}},"Address":{"Label":"Route du Centre, 6042 Charleroi, Belgique","Country":"BEL","State":"Wallonie","County":"Hainaut","City":"Charleroi","District":"Lodelinsart","Street":"Route du Centre","PostalCode":"6042","AdditionalData":[{"value":"Belgique","key":"CountryName"},{"value":"Wallonie","key":"StateName"},{"value":"Hainaut","key":"CountyName"}]},"MapReference":{"ReferenceId":"1073470035","Spot":0.74,"SideOfStreet":"left","CountryId":"20128886","StateId":"20205526","CountyId":"20205527","CityId":"20205614","DistrictId":"20205623"}}},{"Relevance":1.0,"Distance":40.8,"MatchLevel":"houseNumber","MatchQuality":{"Country":1.0,"State":1.0,"County":1.0,"City":1.0,"District":1.0,"Street":[1.0],"HouseNumber":1.0,"PostalCode":1.0},"MatchType":"interpolated","Location":{"LocationId":"NT_FOPPw7gTjYvLYvx5FXLnzB_l_998912115_L_xgDN","LocationType":"point","DisplayPosition":{"Latitude":50.4301267,"Longitude":4.4407092},"MapView":{"TopLeft":{"Latitude":50.4312508,"Longitude":4.4389445},"BottomRight":{"Latitude":50.4290025,"Longitude":4.4424739}},"Address":{"Label":"Chaussée de Bruxelles 184, 6042 Charleroi, Belgique","Country":"BEL","State":"Wallonie","County":"Hainaut","City":"Charleroi","District":"Lodelinsart","Street":"Chaussée de Bruxelles","HouseNumber":"184","PostalCode":"6042","AdditionalData":[{"value":"Belgique","key":"CountryName"},{"value":"Wallonie","key":"StateName"},{"value":"Hainaut","key":"CountyName"}]},"MapReference":{"ReferenceId":"998912115","Spot":0.92,"SideOfStreet":"left","CountryId":"20128886","StateId":"20205526","CountyId":"20205527","CityId":"20205614","DistrictId":"20205623"}}},{"Relevance":1.0,"Distance":44.3,"MatchLevel":"street","MatchQuality":{"Country":1.0,"State":1.0,"County":1.0,"City":1.0,"District":1.0,"Street":[1.0],"PostalCode":1.0},"Location":{"LocationId":"NT_3gRyciZJTdesIGqbtQiF8B_l_1162606852_L","LocationType":"point","DisplayPosition":{"Latitude":50.43023,"Longitude":4.44072},"MapView":{"TopLeft":{"Latitude":50.43025,"Longitude":4.44072},"BottomRight":{"Latitude":50.43023,"Longitude":4.44112}},"Address":{"Label":"N569, 6042 Charleroi, Belgique","Country":"BEL","State":"Wallonie","County":"Hainaut","City":"Charleroi","District":"Lodelinsart","Street":"N569","PostalCode":"6042","AdditionalData":[{"value":"Belgique","key":"CountryName"},{"value":"Wallonie","key":"StateName"},{"value":"Hainaut","key":"CountyName"}]},"MapReference":{"ReferenceId":"1162606852","Spot":0.0,"SideOfStreet":"left","CountryId":"20128886","StateId":"20205526","CountyId":"20205527","CityId":"20205614","DistrictId":"20205623"}}}]}]}}