{"Response":{"MetaInfo":{"Timestamp":"2020-03-28T11:49:21.177+0000","NextPageInformation":"2"},"View":[{"_type":"SearchResultsViewType","ViewId":0,"Result":[{"Relevance":1.0,"Distance":0.0,"Direction":0.0,"MatchLevel":"city","MatchQuality":{"Country":1.0,"State":1.0,"County":1.0,"City":1.0,"PostalCode":1.0},"Location":{"LocationId":"NT_HbB13s4nkvRuZ4UU4zdeWD","LocationType":"point","DisplayPosition":{"Latitude":50.475356,"Longitude":2.587192},"MapView":{"TopLeft":{"Latitude":50.48825,"Longitude":2.55387},"BottomRight":{"Latitude":50.46109,"Longitude":2.60518}},"Address":{"Label":"Haillicourt, Hauts-de-France, France","Country":"FRA","State":"Hauts-de-France","County":"Pas-de-Calais","City":"Haillicourt","PostalCode":"62940","AdditionalData":[{"value":"France","key":"CountryName"},{"value":"Hauts-de-France","key":"StateName"},{"value":"Pas-de-Calais","key":"CountyName"}]},"MapReference":{"ReferenceId":"58942122","SideOfStreet":"neither","CountryId":"20000001","StateId":"20000002","CountyId":"20030132","CityId":"20031314"}}},{"Relevance":1.0,"Distance":9.0,"MatchLevel":"houseNumber","MatchQuality":{"Country":1.0,"State":1.0,"County":1.0,"City":1.0,"Street":[1.0],"HouseNumber":1.0,"PostalCode":1.0},"MatchType":"interpolated","Location":{"LocationId":"NT_ilr-y9uICAQTBWas9NLCYB_0ED","LocationType":"point","DisplayPosition":{"Latitude":50.47525,"Longitude":2.58713},"MapView":{"TopLeft":{"Latitude":50.4763742,"Longitude":2.5853636},"BottomRight":{"Latitude":50.4741258,"Longitude":2.5888964}},"Address":{"Label":"41 Rue E. et L. Lesage, 62940 Haillicourt, France","Country":"FRA","State":"Hauts-de-France","County":"Pas-de-Calais","City":"Haillicourt","Street":"Rue E. et L. Lesage","HouseNumber":"41","PostalCode":"62940","AdditionalData":[{"value":"France","key":"CountryName"},{"value":"Hauts-de-France","key":"StateName"},{"value":"Pas-de-Calais","key":"CountyName"}]},"MapReference":{"ReferenceId":"884102516","Spot":0.44,"SideOfStreet":"right","CountryId":"20000001","StateId":"20000002","CountyId":"20030132","CityId":"20031314","AddressId":"572540759","RoadLinkId":"251244540"}}},{"Relevance":1.0,"Distance":78.1,"MatchLevel":"houseNumber","MatchQuality":{"Country":1.0,"State":1.0,"County":1.0,"City":1.0,"Street":[1.0],"HouseNumber":1.0,"PostalCode":1.0},"MatchType":"interpolated","Location":{"LocationId":"NT_30BJ26sS6fiPP9BPbG8RAC_4A","LocationType":"point","DisplayPosition":{"Latitude":50.47565,"Longitude":2.58614},"MapView":{"TopLeft":{"Latitude":50.4767742,"Longitude":2.5843736},"BottomRight":{"Latitude":50.4745258,"Longitude":2.5879064}},"Address":{"Label":"8 Rue Suzanne Blin, 62940 Haillicourt, France","Country":"FRA","State":"Hauts-de-France","County":"Pas-de-Calais","City":"Haillicourt","Street":"Rue Suzanne Blin","HouseNumber":"8","PostalCode":"62940","AdditionalData":[{"value":"France","key":"CountryName"},{"value":"Hauts-de-France","key":"StateName"},{"value":"Pas-de-Calais","key":"CountyName"}]},"MapReference":{"ReferenceId":"58934588","Spot":0.92,"SideOfStreet":"right","CountryId":"20000001","StateId":"20000002","CountyId":"20030132","CityId":"20031314","AddressId":"345204588","RoadLinkId":"44125567"}}},{"Relevance":1.0,"Distance":81.2,"MatchLevel":"houseNumber","MatchQuality":{"Country":1.0,"State":1.0,"County":1.0,"City":1.0,"Street":[1.0],"HouseNumber":1.0,"PostalCode":1.0},"MatchType":"interpolated","Location":{"LocationId":"NT_ilr-y9uICAQTBWas9NLCYB_zMjQ","LocationType":"point","DisplayPosition":{"Latitude":50.47575,"Longitude":2.58625},"MapView":{"TopLeft":{"Latitude":50.4768742,"Longitude":2.5844836},"BottomRight":{"Latitude":50.4746258,"Longitude":2.5880164}},"Address":{"Label":"33B Rue E. et L. Lesage, 62940 Haillicourt, France","Country":"FRA","State":"Hauts-de-France","County":"Pas-de-Calais","City":"Haillicourt","Street":"Rue E. et L. Lesage","HouseNumber":"33B","PostalCode":"62940","AdditionalData":[{"value":"France","key":"CountryName"},{"value":"Hauts-de-France","key":"StateName"},{"value":"Pas-de-Calais","key":"CountyName"}]},"MapReference":{"ReferenceId":"884102513","Spot":0.02,"SideOfStreet":"right","CountryId":"20000001","StateId":"20000002","CountyId":"20030132","CityId":"20031314","AddressId":"572573651","RoadLinkId":"251244535"}}},{"Relevance":1.0,"Distance":83.1,"MatchLevel":"houseNumber","MatchQuality":{"Country":1.0,"State":1.0,"County":1.0,"City":1.0,"Street":[1.0],"HouseNumber":1.0,"PostalCode":1.0},"MatchType":"interpolated","Location":{"LocationId":"NT_ilr-y9uICAQTBWas9NLCYB_1ED","LocationType":"point","DisplayPosition":{"Latitude":50.47486,"Longitude":2.58807},"MapView":{"TopLeft":{"Latitude":50.4759842,"Longitude":2.5863036},"BottomRight":{"Latitude":50.4737358,"Longitude":2.5898364}},"Address":{"Label":"51 Rue E. et L. Lesage, 62940 Haillicourt, France","Country":"FRA","State":"Hauts-de-France","County":"Pas-de-Calais","City":"Haillicourt","Street":"Rue E. et L. Lesage","HouseNumber":"51","PostalCode":"62940","AdditionalData":[{"value":"France","key":"CountryName"},{"value":"Hauts-de-France","key":"StateName"},{"value":"Pas-de-Calais","key":"CountyName"}]},"MapReference":{"ReferenceId":"967062566","Spot":0.66,"SideOfStreet":"right","CountryId":"20000001","StateId":"20000002","CountyId":"20030132","CityId":"20031314","AddressId":"590714956","RoadLinkId":"305427386"}}},{"Relevance":1.0,"Distance":128.5,"MatchLevel":"houseNumber","MatchQuality":{"Country":1.0,"State":1.0,"County":1.0,"City":1.0,"Street":[1.0],"HouseNumber":1.0,"PostalCode":1.0},"MatchType":"interpolated","Location":{"LocationId":"NT_ilr-y9uICAQTBWas9NLCYB_2ED","LocationType":"point","DisplayPosition":{"Latitude":50.47502,"Longitude":2.58893},"MapView":{"TopLeft":{"Latitude":50.4761442,"Longitude":2.5871636},"BottomRight":{"Latitude":50.4738958,"Longitude":2.5906964}},"Address":{"Label":"61 Rue E. et L. Lesage, 62940 Haillicourt, France","Country":"FRA","State":"Hauts-de-France","County":"Pas-de-Calais","City":"Haillicourt","Street":"Rue E. et L. Lesage","HouseNumber":"61","PostalCode":"62940","AdditionalData":[{"value":"France","key":"CountryName"},{"value":"Hauts-de-France","key":"StateName"},{"value":"Pas-de-Calais","key":"CountyName"}]},"MapReference":{"ReferenceId":"967062567","Spot":0.73,"SideOfStreet":"right","CountryId":"20000001","StateId":"20000002","CountyId":"20030132","CityId":"20031314","AddressId":"590711784","RoadLinkId":"305427389"}}},{"Relevance":1.0,"Distance":130.4,"MatchLevel":"houseNumber","MatchQuality":{"Country":1.0,"State":1.0,"County":1.0,"City":1.0,"Street":[1.0],"HouseNumber":1.0,"PostalCode":1.0},"MatchType":"interpolated","Location":{"LocationId":"NT_ilr-y9uICAQTBWas9NLCYB_1kD","LocationType":"point","DisplayPosition":{"Latitude":50.47463,"Longitude":2.58864},"MapView":{"TopLeft":{"Latitude":50.4757542,"Longitude":2.5868736},"BottomRight":{"Latitude":50.4735058,"Longitude":2.5904064}},"Address":{"Label":"59 Rue E. et L. Lesage, 62940 Haillicourt, France","Country":"FRA","State":"Hauts-de-France","County":"Pas-de-Calais","City":"Haillicourt","Street":"Rue E. et L. Lesage","HouseNumber":"59","PostalCode":"62940","AdditionalData":[{"value":"France","key":"CountryName"},{"value":"Hauts-de-France","key":"StateName"},{"value":"Pas-de-Calais","key":"CountyName"}]},"MapReference":{"ReferenceId":"967062565","Spot":0.79,"SideOfStreet":"right","CountryId":"20000001","StateId":"20000002","CountyId":"20030132","CityId":"20031314","AddressId":"572597042","RoadLinkId":"305427385"}}},{"Relevance":1.0,"Distance":140.0,"MatchLevel":"houseNumber","MatchQuality":{"Country":1.0,"State":1.0,"County":1.0,"City":1.0,"Street":[1.0],"HouseNumber":1.0,"PostalCode":1.0},"MatchType":"interpolated","Location":{"LocationId":"NT_ilr-y9uICAQTBWas9NLCYB_yMD","LocationType":"point","DisplayPosition":{"Latitude":50.4761,"Longitude":2.58559},"MapView":{"TopLeft":{"Latitude":50.4772242,"Longitude":2.5838236},"BottomRight":{"Latitude":50.4749758,"Longitude":2.5873564}},"Address":{"Label":"23 Rue E. et L. Lesage, 62940 Haillicourt, France","Country":"FRA","State":"Hauts-de-France","County":"Pas-de-Calais","City":"Haillicourt","Street":"Rue E. et L. Lesage","HouseNumber":"23","PostalCode":"62940","AdditionalData":[{"value":"France","key":"CountryName"},{"value":"Hauts-de-France","key":"StateName"},{"value":"Pas-de-Calais","key":"CountyName"}]},"MapReference":{"ReferenceId":"1214941185","Spot":0.2,"SideOfStreet":"right","CountryId":"20000001","StateId":"20000002","CountyId":"20030132","CityId":"20031314","AddressId":"572621859","RoadLinkId":"530960257"}}},{"Relevance":1.0,"Distance":162.2,"MatchLevel":"houseNumber","MatchQuality":{"Country":1.0,"State":1.0,"County":1.0,"City":1.0,"Street":[1.0],"HouseNumber":1.0,"PostalCode":1.0},"MatchType":"interpolated","Location":{"LocationId":"NT_L5oh6KqlP.F7mnQDYq8VIB_5IE","LocationType":"point","DisplayPosition":{"Latitude":50.47431,"Longitude":2.58539},"MapView":{"TopLeft":{"Latitude":50.4754342,"Longitude":2.5836236},"BottomRight":{"Latitude":50.4731858,"Longitude":2.5871564}},"Address":{"Label":"9B Rue du 8 Mai 1945, 62940 Haillicourt, France","Country":"FRA","State":"Hauts-de-France","County":"Pas-de-Calais","City":"Haillicourt","Street":"Rue du 8 Mai 1945","HouseNumber":"9B","PostalCode":"62940","AdditionalData":[{"value":"France","key":"CountryName"},{"value":"Hauts-de-France","key":"StateName"},{"value":"Pas-de-Calais","key":"CountyName"}]},"MapReference":{"ReferenceId":"58934602","Spot":0.25,"SideOfStreet":"right","CountryId":"20000001","StateId":"20000002","CountyId":"20030132","CityId":"20031314","AddressId":"379754864","RoadLinkId":"44318489"}}},{"Relevance":1.0,"Distance":173.8,"MatchLevel":"street","MatchQuality":{"Country":1.0,"State":1.0,"County":1.0,"City":1.0,"Street":[1.0],"PostalCode":1.0},"Location":{"LocationId":"NT_RQF92hQxPmMNK.IH2wtLeB_l_828946040_R","LocationType":"point","DisplayPosition":{"Latitude":50.47443,"Longitude":2.58917},"MapView":{"TopLeft":{"Latitude":50.47443,"Longitude":2.58917},"BottomRight":{"Latitude":50.47421,"Longitude":2.58976}},"Address":{"Label":"D86, 62620 Ruitz, France","Country":"FRA","State":"Hauts-de-France","County":"Pas-de-Calais","City":"Ruitz","Street":"D86","PostalCode":"62620","AdditionalData":[{"value":"France","key":"CountryName"},{"value":"Hauts-de-France","key":"StateName"},{"value":"Pas-de-Calais","key":"CountyName"}]},"MapReference":{"ReferenceId":"828946040","Spot":1.0,"SideOfStreet":"right","CountryId":"20000001","StateId":"20000002","CountyId":"20030132","CityId":"20032275"}}}]}]}}