{"Response":{"MetaInfo":{"Timestamp":"2020-03-28T11:08:12.534+0000","NextPageInformation":"2"},"View":[{"_type":"SearchResultsViewType","ViewId":0,"Result":[{"Relevance":1.0,"Distance":0.0,"Direction":0.0,"MatchLevel":"city","MatchQuality":{"Country":1.0,"State":1.0,"County":1.0,"City":1.0,"PostalCode":1.0},"Location":{"LocationId":"NT_OPt4moZ0cBoJJsLkyzRDHA","LocationType":"point","DisplayPosition":{"Latitude":50.4304078,"Longitude":2.9462342},"MapView":{"TopLeft":{"Latitude":50.46122,"Longitude":2.92234},"BottomRight":{"Latitude":50.37723,"Longitude":2.99508}},"Address":{"Label":"Hénin-Beaumont, Hauts-de-France, France","Country":"FRA","State":"Hauts-de-France","County":"Pas-de-Calais","City":"Hénin-Beaumont","PostalCode":"62110","AdditionalData":[{"value":"France","key":"CountryName"},{"value":"Hauts-de-France","key":"StateName"},{"value":"Pas-de-Calais","key":"CountyName"}]},"MapReference":{"ReferenceId":"58962189","SideOfStreet":"neither","CountryId":"20000001","StateId":"20000002","CountyId":"20030132","CityId":"20031389"}}},{"Relevance":1.0,"Distance":9.7,"MatchLevel":"street","MatchQuality":{"Country":1.0,"State":1.0,"County":1.0,"City":1.0,"Street":[1.0],"PostalCode":1.0},"Location":{"LocationId":"NT_V7jfczq8FrLcUpkUrJz2EA_l_887885291_L","LocationType":"point","DisplayPosition":{"Latitude":50.43034,"Longitude":2.94632},"MapView":{"TopLeft":{"Latitude":50.43034,"Longitude":2.94628},"BottomRight":{"Latitude":50.43015,"Longitude":2.94632}},"Address":{"Label":"Rue du Docteur Laennec, 62110 Hénin-Beaumont, France","Country":"FRA","State":"Hauts-de-France","County":"Pas-de-Calais","City":"Hénin-Beaumont","Street":"Rue du Docteur Laennec","PostalCode":"62110","AdditionalData":[{"value":"France","key":"CountryName"},{"value":"Hauts-de-France","key":"StateName"},{"value":"Pas-de-Calais","key":"CountyName"}]},"MapReference":{"ReferenceId":"887885291","Spot":1.0,"SideOfStreet":"left","CountryId":"20000001","StateId":"20000002","CountyId":"20030132","CityId":"20031389"}}},{"Relevance":1.0,"Distance":19.6,"MatchLevel":"houseNumber","MatchQuality":{"Country":1.0,"State":1.0,"County":1.0,"City":1.0,"Street":[1.0],"HouseNumber":1.0,"PostalCode":1.0},"MatchType":"interpolated","Location":{"LocationId":"NT_V7jfczq8FrLcUpkUrJz2EA_1MD","LocationType":"point","DisplayPosition":{"Latitude":50.43057,"Longitude":2.94634},"MapView":{"TopLeft":{"Latitude":50.4316942,"Longitude":2.9445753},"BottomRight":{"Latitude":50.4294458,"Longitude":2.9481047}},"Address":{"Label":"53 Rue du Docteur Laennec, 62110 Hénin-Beaumont, France","Country":"FRA","State":"Hauts-de-France","County":"Pas-de-Calais","City":"Hénin-Beaumont","Street":"Rue du Docteur Laennec","HouseNumber":"53","PostalCode":"62110","AdditionalData":[{"value":"France","key":"CountryName"},{"value":"Hauts-de-France","key":"StateName"},{"value":"Pas-de-Calais","key":"CountyName"}]},"MapReference":{"ReferenceId":"887885292","Spot":0.34,"SideOfStreet":"left","CountryId":"20000001","StateId":"20000002","CountyId":"20030132","CityId":"20031389","AddressId":"323171401","RoadLinkId":"254009412"}}},{"Relevance":1.0,"Distance":27.0,"MatchLevel":"houseNumber","MatchQuality":{"Country":1.0,"State":1.0,"County":1.0,"City":1.0,"Street":[1.0],"HouseNumber":1.0,"PostalCode":1.0},"MatchType":"interpolated","Location":{"LocationId":"NT_0h0ayG1VT72hXrCNa3axmA_l_887885290_L_1gTN","LocationType":"point","DisplayPosition":{"Latitude":50.4301158,"Longitude":2.9462672},"MapView":{"TopLeft":{"Latitude":50.43124,"Longitude":2.9445025},"BottomRight":{"Latitude":50.4289917,"Longitude":2.9480319}},"Address":{"Label":"585 Avenue des Déportés, 62110 Hénin-Beaumont, France","Country":"FRA","State":"Hauts-de-France","County":"Pas-de-Calais","City":"Hénin-Beaumont","Street":"Avenue des Déportés","HouseNumber":"585","PostalCode":"62110","AdditionalData":[{"value":"France","key":"CountryName"},{"value":"Hauts-de-France","key":"StateName"},{"value":"Pas-de-Calais","key":"CountyName"}]},"MapReference":{"ReferenceId":"887885290","Spot":0.8,"SideOfStreet":"left","CountryId":"20000001","StateId":"20000002","CountyId":"20030132","CityId":"20031389"}}},{"Relevance":1.0,"Distance":32.0,"MatchLevel":"houseNumber","MatchQuality":{"Country":1.0,"State":1.0,"County":1.0,"City":1.0,"Street":[1.0],"HouseNumber":1.0,"PostalCode":1.0},"MatchType":"interpolated","Location":{"LocationId":"NT_l0A.ys.mouRXJrP-rNJBFD_5EDM","LocationType":"point","DisplayPosition":{"Latitude":50.43014,"Longitude":2.94651},"MapView":{"TopLeft":{"Latitude":50.4312642,"Longitude":2.9447453},"BottomRight":{"Latitude":50.4290158,"Longitude":2.9482747}},"Address":{"Label":"910 Rue Léon Blum, 62110 Hénin-Beaumont, France","Country":"FRA","State":"Hauts-de-France","County":"Pas-de-Calais","City":"Hénin-Beaumont","Street":"Rue Léon Blum","HouseNumber":"910","PostalCode":"62110","AdditionalData":[{"value":"France","key":"CountryName"},{"value":"Hauts-de-France","key":"StateName"},{"value":"Pas-de-Calais","key":"CountyName"}]},"MapReference":{"ReferenceId":"887885293","Spot":0.21,"SideOfStreet":"left","CountryId":"20000001","StateId":"20000002","CountyId":"20030132","CityId":"20031389","AddressId":"572700753","RoadLinkId":"254009413"}}},{"Relevance":1.0,"Distance":66.3,"MatchLevel":"houseNumber","MatchQuality":{"Country":1.0,"State":1.0,"County":1.0,"City":1.0,"Street":[1.0],"HouseNumber":1.0,"PostalCode":1.0},"MatchType":"interpolated","Location":{"LocationId":"NT_SMd4QdlyxiIc3JRgy82.LB_xA","LocationType":"point","DisplayPosition":{"Latitude":50.43104,"Longitude":2.94613},"MapView":{"TopLeft":{"Latitude":50.4321642,"Longitude":2.9443653},"BottomRight":{"Latitude":50.4299158,"Longitude":2.9478947}},"Address":{"Label":"1 Rue Henri Dunant, 62110 Hénin-Beaumont, France","Country":"FRA","State":"Hauts-de-France","County":"Pas-de-Calais","City":"Hénin-Beaumont","Street":"Rue Henri Dunant","HouseNumber":"1","PostalCode":"62110","AdditionalData":[{"value":"France","key":"CountryName"},{"value":"Hauts-de-France","key":"StateName"},{"value":"Pas-de-Calais","key":"CountyName"}]},"MapReference":{"ReferenceId":"58961851","Spot":0.06,"SideOfStreet":"left","CountryId":"20000001","StateId":"20000002","CountyId":"20030132","CityId":"20031389","AddressId":"572559085","RoadLinkId":"45111572"}}},{"Relevance":1.0,"Distance":67.0,"MatchLevel":"street","MatchQuality":{"Country":1.0,"State":1.0,"County":1.0,"City":1.0,"Street":[1.0],"PostalCode":1.0},"Location":{"LocationId":"NT_myikdJssgdHTJUoIijibRD_l_887885297_L","LocationType":"point","DisplayPosition":{"Latitude":50.43101,"Longitude":2.94628},"MapView":{"TopLeft":{"Latitude":50.43129,"Longitude":2.94622},"BottomRight":{"Latitude":50.43101,"Longitude":2.94628}},"Address":{"Label":"Rue du Docteur Laennec, 62110 Hénin-Beaumont, France","Country":"FRA","State":"Hauts-de-France","County":"Pas-de-Calais","City":"Hénin-Beaumont","Street":"Rue du Docteur Laennec","PostalCode":"62110","AdditionalData":[{"value":"France","key":"CountryName"},{"value":"Hauts-de-France","key":"StateName"},{"value":"Pas-de-Calais","key":"CountyName"}]},"MapReference":{"ReferenceId":"887885297","Spot":0.0,"SideOfStreet":"left","CountryId":"20000001","StateId":"20000002","CountyId":"20030132","CityId":"20031389"}}},{"Relevance":1.0,"Distance":86.6,"MatchLevel":"houseNumber","MatchQuality":{"Country":1.0,"State":1.0,"County":1.0,"City":1.0,"Street":[1.0],"HouseNumber":1.0,"PostalCode":1.0},"MatchType":"interpolated","Location":{"LocationId":"NT_l0A.ys.mouRXJrP-rNJBFD_4QzN","LocationType":"point","DisplayPosition":{"Latitude":50.43028,"Longitude":2.94744},"MapView":{"TopLeft":{"Latitude":50.4314042,"Longitude":2.9456753},"BottomRight":{"Latitude":50.4291558,"Longitude":2.9492047}},"Address":{"Label":"847 Rue Léon Blum, 62110 Hénin-Beaumont, France","Country":"FRA","State":"Hauts-de-France","County":"Pas-de-Calais","City":"Hénin-Beaumont","Street":"Rue Léon Blum","HouseNumber":"847","PostalCode":"62110","AdditionalData":[{"value":"France","key":"CountryName"},{"value":"Hauts-de-France","key":"StateName"},{"value":"Pas-de-Calais","key":"CountyName"}]},"MapReference":{"ReferenceId":"887885294","Spot":0.12,"SideOfStreet":"right","CountryId":"20000001","StateId":"20000002","CountyId":"20030132","CityId":"20031389","AddressId":"345156274","RoadLinkId":"254009414"}}},{"Relevance":1.0,"Distance":96.9,"MatchLevel":"houseNumber","MatchQuality":{"Country":1.0,"State":1.0,"County":1.0,"City":1.0,"Street":[1.0],"HouseNumber":1.0,"PostalCode":1.0},"MatchType":"interpolated","Location":{"LocationId":"NT_0h0ayG1VT72hXrCNa3axmA_1gTN","LocationType":"point","DisplayPosition":{"Latitude":50.42953,"Longitude":2.9459},"MapView":{"TopLeft":{"Latitude":50.4306542,"Longitude":2.9441353},"BottomRight":{"Latitude":50.4284058,"Longitude":2.9476647}},"Address":{"Label":"585 Avenue des Déportés, 62110 Hénin-Beaumont, France","Country":"FRA","State":"Hauts-de-France","County":"Pas-de-Calais","City":"Hénin-Beaumont","Street":"Avenue des Déportés","HouseNumber":"585","PostalCode":"62110","AdditionalData":[{"value":"France","key":"CountryName"},{"value":"Hauts-de-France","key":"StateName"},{"value":"Pas-de-Calais","key":"CountyName"}]},"MapReference":{"ReferenceId":"888286089","Spot":0.17,"SideOfStreet":"left","CountryId":"20000001","StateId":"20000002","CountyId":"20030132","CityId":"20031389","AddressId":"322823558","RoadLinkId":"254419428"}}},{"Relevance":1.0,"Distance":107.0,"MatchLevel":"houseNumber","MatchQuality":{"Country":1.0,"State":1.0,"County":1.0,"City":1.0,"Street":[1.0],"HouseNumber":1.0,"PostalCode":1.0},"MatchType":"interpolated","Location":{"LocationId":"NT_V7jfczq8FrLcUpkUrJz2EA_xQTN","LocationType":"point","DisplayPosition":{"Latitude":50.43137,"Longitude":2.94619},"MapView":{"TopLeft":{"Latitude":50.4324942,"Longitude":2.9444252},"BottomRight":{"Latitude":50.4302458,"Longitude":2.9479548}},"Address":{"Label":"145 Rue du Docteur Laennec, 62110 Hénin-Beaumont, France","Country":"FRA","State":"Hauts-de-France","County":"Pas-de-Calais","City":"Hénin-Beaumont","Street":"Rue du Docteur Laennec","HouseNumber":"145","PostalCode":"62110","AdditionalData":[{"value":"France","key":"CountryName"},{"value":"Hauts-de-France","key":"StateName"},{"value":"Pas-de-Calais","key":"CountyName"}]},"MapReference":{"ReferenceId":"1202870532","Spot":0.19,"SideOfStreet":"left","CountryId":"20000001","StateId":"20000002","CountyId":"20030132","CityId":"20031389","AddressId":"322841602","RoadLinkId":"515787978"}}}]}]}}