{"Response":{"MetaInfo":{"Timestamp":"2020-03-28T09:49:13.961+0000","NextPageInformation":"2"},"View":[{"_type":"SearchResultsViewType","ViewId":0,"Result":[{"Relevance":1.0,"Distance":-2730.7,"MatchLevel":"landmark","MatchQuality":{"Country":1.0,"State":1.0,"County":1.0,"Name":1.0},"Location":{"LocationId":"NT_xdZ-lw2rnSLdf.UQl1kGtC","LocationType":"park","Name":"P.N.R. Scarpe-Escaut","DisplayPosition":{"Latitude":50.43674,"Longitude":3.48956},"MapView":{"TopLeft":{"Latitude":50.53362,"Longitude":3.06854},"BottomRight":{"Latitude":50.33986,"Longitude":3.67461}},"Address":{"Label":"France","Country":"FRA","State":"Hauts-de-France","County":"Nord","AdditionalData":[{"value":"France","key":"CountryName"},{"value":"Hauts-de-France","key":"StateName"},{"value":"Nord","key":"CountyName"}]},"MapReference":{"CountryId":"20000001","StateId":"20000002","CountyId":"20000003","PlaceId":"1509718131"}}},{"Relevance":1.0,"Distance":0.0,"Direction":0.0,"MatchLevel":"city","MatchQuality":{"Country":1.0,"State":1.0,"County":1.0,"City":1.0,"PostalCode":1.0},"Location":{"LocationId":"NT_p67ir0RGYJkIn1HRIeIBsD","LocationType":"point","DisplayPosition":{"Latitude":50.4054659,"Longitude":3.2904641},"MapView":{"TopLeft":{"Latitude":50.43798,"Longitude":3.18827},"BottomRight":{"Latitude":50.38777,"Longitude":3.30854}},"Address":{"Label":"Marchiennes, Hauts-de-France, France","Country":"FRA","State":"Hauts-de-France","County":"Nord","City":"Marchiennes","PostalCode":"59870","AdditionalData":[{"value":"France","key":"CountryName"},{"value":"Hauts-de-France","key":"StateName"},{"value":"Nord","key":"CountyName"}]},"MapReference":{"ReferenceId":"852647475","SideOfStreet":"neither","CountryId":"20000001","StateId":"20000002","CountyId":"20000003","CityId":"20027279"}}},{"Relevance":1.0,"Distance":8.3,"MatchLevel":"houseNumber","MatchQuality":{"Country":1.0,"State":1.0,"County":1.0,"City":1.0,"Street":[1.0],"HouseNumber":1.0,"PostalCode":1.0},"MatchType":"interpolated","Location":{"LocationId":"NT_uyudwhuD1Z8CoprRlU9x1A_0YD","LocationType":"point","DisplayPosition":{"Latitude":50.40554,"Longitude":3.29038},"MapView":{"TopLeft":{"Latitude":50.4066642,"Longitude":3.2886162},"BottomRight":{"Latitude":50.4044158,"Longitude":3.2921438}},"Address":{"Label":"46 Rue du Bois de La Motte, 59870 Marchiennes, France","Country":"FRA","State":"Hauts-de-France","County":"Nord","City":"Marchiennes","Street":"Rue du Bois de La Motte","HouseNumber":"46","PostalCode":"59870","AdditionalData":[{"value":"France","key":"CountryName"},{"value":"Hauts-de-France","key":"StateName"},{"value":"Nord","key":"CountyName"}]},"MapReference":{"ReferenceId":"542353821","Spot":0.65,"SideOfStreet":"left","CountryId":"20000001","StateId":"20000002","CountyId":"20000003","CityId":"20027279","AddressId":"345298267","RoadLinkId":"43941291"}}},{"Relevance":1.0,"Distance":178.7,"MatchLevel":"street","MatchQuality":{"Country":1.0,"State":1.0,"County":1.0,"City":1.0,"Street":[1.0],"PostalCode":1.0},"Location":{"LocationId":"NT_uyudwhuD1Z8CoprRlU9x1A_l_542336081_R","LocationType":"point","DisplayPosition":{"Latitude":50.40629,"Longitude":3.2883},"MapView":{"TopLeft":{"Latitude":50.40643,"Longitude":3.28794},"BottomRight":{"Latitude":50.40629,"Longitude":3.2883}},"Address":{"Label":"Rue du Bois de La Motte, 59870 Marchiennes, France","Country":"FRA","State":"Hauts-de-France","County":"Nord","City":"Marchiennes","Street":"Rue du Bois de La Motte","PostalCode":"59870","AdditionalData":[{"value":"France","key":"CountryName"},{"value":"Hauts-de-France","key":"StateName"},{"value":"Nord","key":"CountyName"}]},"MapReference":{"ReferenceId":"542336081","Spot":0.0,"SideOfStreet":"right","CountryId":"20000001","StateId":"20000002","CountyId":"20000003","CityId":"20027279"}}},{"Relevance":1.0,"Distance":211.2,"MatchLevel":"houseNumber","MatchQuality":{"Country":1.0,"State":1.0,"County":1.0,"City":1.0,"Street":[1.0],"HouseNumber":1.0,"PostalCode":1.0},"MatchType":"interpolated","Location":{"LocationId":"NT_TtBRpZ53WU0Ts0dkJAtVxD_0A","LocationType":"point","DisplayPosition":{"Latitude":50.40659,"Longitude":3.28801},"MapView":{"TopLeft":{"Latitude":50.4077142,"Longitude":3.2862462},"BottomRight":{"Latitude":50.4054658,"Longitude":3.2897738}},"Address":{"Label":"4 Rue du 8 Mai 1945, 59870 Marchiennes, France","Country":"FRA","State":"Hauts-de-France","County":"Nord","City":"Marchiennes","Street":"Rue du 8 Mai 1945","HouseNumber":"4","PostalCode":"59870","AdditionalData":[{"value":"France","key":"CountryName"},{"value":"Hauts-de-France","key":"StateName"},{"value":"Nord","key":"CountyName"}]},"MapReference":{"ReferenceId":"542353822","Spot":0.1,"SideOfStreet":"right","CountryId":"20000001","StateId":"20000002","CountyId":"20000003","CityId":"20027279","AddressId":"322778184","RoadLinkId":"44615335"}}},{"Relevance":1.0,"Distance":247.5,"MatchLevel":"houseNumber","MatchQuality":{"Country":1.0,"State":1.0,"County":1.0,"City":1.0,"Street":[1.0],"HouseNumber":1.0,"PostalCode":1.0},"MatchType":"interpolated","Location":{"LocationId":"NT_xb78WgVYHT1fN3tf-KPwKA_2kD","LocationType":"point","DisplayPosition":{"Latitude":50.40658,"Longitude":3.28744},"MapView":{"TopLeft":{"Latitude":50.4077042,"Longitude":3.2856762},"BottomRight":{"Latitude":50.4054558,"Longitude":3.2892038}},"Address":{"Label":"69 Rue d'Angleterre, 59870 Marchiennes, France","Country":"FRA","State":"Hauts-de-France","County":"Nord","City":"Marchiennes","Street":"Rue d'Angleterre","HouseNumber":"69","PostalCode":"59870","AdditionalData":[{"value":"France","key":"CountryName"},{"value":"Hauts-de-France","key":"StateName"},{"value":"Nord","key":"CountyName"}]},"MapReference":{"ReferenceId":"946576408","Spot":0.41,"SideOfStreet":"right","CountryId":"20000001","StateId":"20000002","CountyId":"20000003","CityId":"20027279","AddressId":"323233731","RoadLinkId":"294639867"}}},{"Relevance":1.0,"Distance":251.9,"MatchLevel":"houseNumber","MatchQuality":{"Country":1.0,"State":1.0,"County":1.0,"City":1.0,"Street":[1.0],"HouseNumber":1.0,"PostalCode":1.0},"MatchType":"interpolated","Location":{"LocationId":"NT_uyudwhuD1Z8CoprRlU9x1A_1AD","LocationType":"point","DisplayPosition":{"Latitude":50.40458,"Longitude":3.29428},"MapView":{"TopLeft":{"Latitude":50.4057042,"Longitude":3.2925162},"BottomRight":{"Latitude":50.4034558,"Longitude":3.2960438}},"Address":{"Label":"50 Rue du Bois de La Motte, 59870 Marchiennes, France","Country":"FRA","State":"Hauts-de-France","County":"Nord","City":"Marchiennes","Street":"Rue du Bois de La Motte","HouseNumber":"50","PostalCode":"59870","AdditionalData":[{"value":"France","key":"CountryName"},{"value":"Hauts-de-France","key":"StateName"},{"value":"Nord","key":"CountyName"}]},"MapReference":{"ReferenceId":"779366237","Spot":0.0,"SideOfStreet":"left","CountryId":"20000001","StateId":"20000002","CountyId":"20000003","CityId":"20027279","AddressId":"590716268","RoadLinkId":"172838807"}}},{"Relevance":1.0,"Distance":268.3,"MatchLevel":"houseNumber","MatchQuality":{"Country":1.0,"State":1.0,"County":1.0,"City":1.0,"Street":[1.0],"HouseNumber":1.0,"PostalCode":1.0},"MatchType":"interpolated","Location":{"LocationId":"NT_xb78WgVYHT1fN3tf-KPwKA_1ID","LocationType":"point","DisplayPosition":{"Latitude":50.40566,"Longitude":3.28669},"MapView":{"TopLeft":{"Latitude":50.4067842,"Longitude":3.2849262},"BottomRight":{"Latitude":50.4045358,"Longitude":3.2884538}},"Address":{"Label":"52 Rue d'Angleterre, 59870 Marchiennes, France","Country":"FRA","State":"Hauts-de-France","County":"Nord","City":"Marchiennes","Street":"Rue d'Angleterre","HouseNumber":"52","PostalCode":"59870","AdditionalData":[{"value":"France","key":"CountryName"},{"value":"Hauts-de-France","key":"StateName"},{"value":"Nord","key":"CountyName"}]},"MapReference":{"ReferenceId":"946576410","Spot":0.12,"SideOfStreet":"left","CountryId":"20000001","StateId":"20000002","CountyId":"20000003","CityId":"20027279","AddressId":"371520023","RoadLinkId":"294639869"}}},{"Relevance":1.0,"Distance":295.0,"MatchLevel":"landmark","MatchQuality":{"Country":1.0,"State":1.0,"County":1.0,"Name":1.0},"Location":{"LocationId":"NT_n7xZaYLulKpdYoy9Y56EVC","LocationType":"canalWaterChannel","Name":"La Scarpe","DisplayPosition":{"Latitude":50.40781,"Longitude":3.33124},"MapView":{"TopLeft":{"Latitude":50.42864,"Longitude":3.23558},"BottomRight":{"Latitude":50.38697,"Longitude":3.40966}},"Address":{"Label":"France","Country":"FRA","State":"Hauts-de-France","County":"Nord","AdditionalData":[{"value":"France","key":"CountryName"},{"value":"Hauts-de-France","key":"StateName"},{"value":"Nord","key":"CountyName"}]},"MapReference":{"CountryId":"20000001","StateId":"20000002","CountyId":"20000003","PlaceId":"1452986366"}}},{"Relevance":1.0,"Distance":302.2,"MatchLevel":"houseNumber","MatchQuality":{"Country":1.0,"State":1.0,"County":1.0,"City":1.0,"Street":[1.0],"HouseNumber":1.0,"PostalCode":1.0},"MatchType":"interpolated","Location":{"LocationId":"NT_xb78WgVYHT1fN3tf-KPwKA_1AD","LocationType":"point","DisplayPosition":{"Latitude":50.40652,"Longitude":3.28652},"MapView":{"TopLeft":{"Latitude":50.4076442,"Longitude":3.2847562},"BottomRight":{"Latitude":50.4053958,"Longitude":3.2882838}},"Address":{"Label":"50 Rue d'Angleterre, 59870 Marchiennes, France","Country":"FRA","State":"Hauts-de-France","County":"Nord","City":"Marchiennes","Street":"Rue d'Angleterre","HouseNumber":"50","PostalCode":"59870","AdditionalData":[{"value":"France","key":"CountryName"},{"value":"Hauts-de-France","key":"StateName"},{"value":"Nord","key":"CountyName"}]},"MapReference":{"ReferenceId":"946576409","Spot":0.06,"SideOfStreet":"left","CountryId":"20000001","StateId":"20000002","CountyId":"20000003","CityId":"20027279","AddressId":"323233716","RoadLinkId":"294639868"}}}]}]}}