{"Response":{"MetaInfo":{"Timestamp":"2020-03-28T10:57:50.107+0000","NextPageInformation":"2"},"View":[{"_type":"SearchResultsViewType","ViewId":0,"Result":[{"Relevance":1.0,"Distance":0.0,"Direction":0.0,"MatchLevel":"city","MatchQuality":{"Country":1.0,"State":1.0,"County":1.0,"City":1.0,"PostalCode":1.0},"Location":{"LocationId":"NT_809KLhgPLVyqgllODGZ18D","LocationType":"point","DisplayPosition":{"Latitude":50.4256323,"Longitude":7.4356126},"MapView":{"TopLeft":{"Latitude":50.4766,"Longitude":7.28681},"BottomRight":{"Latitude":50.38601,"Longitude":7.45078}},"Address":{"Label":"Andernach, Rheinland-Pfalz, Deutschland","Country":"DEU","State":"Rheinland-Pfalz","County":"Mayen-Koblenz","City":"Andernach","PostalCode":"56626","AdditionalData":[{"value":"Deutschland","key":"CountryName"},{"value":"Rheinland-Pfalz","key":"StateName"},{"value":"Mayen-Koblenz","key":"CountyName"}]},"MapReference":{"ReferenceId":"1154677664","SideOfStreet":"neither","CountryId":"20147700","StateId":"20164001","CountyId":"20165607","CityId":"20165611"}}},{"Relevance":1.0,"Distance":28.0,"MatchLevel":"street","MatchQuality":{"Country":1.0,"State":1.0,"County":1.0,"City":1.0,"Street":[1.0],"PostalCode":1.0},"Location":{"LocationId":"NT_jIyU9.8vQCY788s-0eeZyB_l_1221250857_R","LocationType":"point","DisplayPosition":{"Latitude":50.4258798,"Longitude":7.4355393},"MapView":{"TopLeft":{"Latitude":50.42591,"Longitude":7.43527},"BottomRight":{"Latitude":50.4258,"Longitude":7.43563}},"Address":{"Label":"K91, 56626 Andernach, Deutschland","Country":"DEU","State":"Rheinland-Pfalz","County":"Mayen-Koblenz","City":"Andernach","Street":"K91","PostalCode":"56626","AdditionalData":[{"value":"Deutschland","key":"CountryName"},{"value":"Rheinland-Pfalz","key":"StateName"},{"value":"Mayen-Koblenz","key":"CountyName"}]},"MapReference":{"ReferenceId":"1221250857","Spot":0.75,"SideOfStreet":"right","CountryId":"20147700","StateId":"20164001","CountyId":"20165607","CityId":"20165611"}}},{"Relevance":1.0,"Distance":30.6,"MatchLevel":"street","MatchQuality":{"Country":1.0,"State":1.0,"County":1.0,"City":1.0,"Street":[1.0],"PostalCode":1.0},"Location":{"LocationId":"NT_jIyU9.8vQCY788s-0eeZyB_l_1221250856_R","LocationType":"point","DisplayPosition":{"Latitude":50.4258,"Longitude":7.43527},"MapView":{"TopLeft":{"Latitude":50.4258,"Longitude":7.42992},"BottomRight":{"Latitude":50.42363,"Longitude":7.43527}},"Address":{"Label":"K91, 56626 Andernach, Deutschland","Country":"DEU","State":"Rheinland-Pfalz","County":"Mayen-Koblenz","City":"Andernach","Street":"K91","PostalCode":"56626","AdditionalData":[{"value":"Deutschland","key":"CountryName"},{"value":"Rheinland-Pfalz","key":"StateName"},{"value":"Mayen-Koblenz","key":"CountyName"}]},"MapReference":{"ReferenceId":"1221250856","Spot":1.0,"SideOfStreet":"right","CountryId":"20147700","StateId":"20164001","CountyId":"20165607","CityId":"20165611"}}},{"Relevance":1.0,"Distance":30.9,"MatchLevel":"street","MatchQuality":{"Country":1.0,"State":1.0,"County":1.0,"City":1.0,"Street":[1.0],"PostalCode":1.0},"Location":{"LocationId":"NT_jIyU9.8vQCY788s-0eeZyB_l_1199320347_R","LocationType":"point","DisplayPosition":{"Latitude":50.42591,"Longitude":7.43563},"MapView":{"TopLeft":{"Latitude":50.42622,"Longitude":7.43563},"BottomRight":{"Latitude":50.42591,"Longitude":7.43886}},"Address":{"Label":"K91, 56626 Andernach, Deutschland","Country":"DEU","State":"Rheinland-Pfalz","County":"Mayen-Koblenz","City":"Andernach","Street":"K91","PostalCode":"56626","AdditionalData":[{"value":"Deutschland","key":"CountryName"},{"value":"Rheinland-Pfalz","key":"StateName"},{"value":"Mayen-Koblenz","key":"CountyName"}]},"MapReference":{"ReferenceId":"1199320347","Spot":0.0,"SideOfStreet":"right","CountryId":"20147700","StateId":"20164001","CountyId":"20165607","CityId":"20165611"}}},{"Relevance":1.0,"Distance":228.1,"MatchLevel":"houseNumber","MatchQuality":{"Country":1.0,"State":1.0,"County":1.0,"City":1.0,"Street":[1.0],"HouseNumber":1.0,"PostalCode":1.0},"MatchType":"interpolated","Location":{"LocationId":"NT_eer0fPIOpfu1ME7tQnGZUB_xQDM","LocationType":"point","DisplayPosition":{"Latitude":50.42659,"Longitude":7.43846},"MapView":{"TopLeft":{"Latitude":50.4277142,"Longitude":7.4366954},"BottomRight":{"Latitude":50.4254658,"Longitude":7.4402246}},"Address":{"Label":"Koblenzer Straße 140, 56626 Andernach, Deutschland","Country":"DEU","State":"Rheinland-Pfalz","County":"Mayen-Koblenz","City":"Andernach","Street":"Koblenzer Straße","HouseNumber":"140","PostalCode":"56626","AdditionalData":[{"value":"Deutschland","key":"CountryName"},{"value":"Rheinland-Pfalz","key":"StateName"},{"value":"Mayen-Koblenz","key":"CountyName"}]},"MapReference":{"ReferenceId":"548340451","Spot":0.77,"SideOfStreet":"right","CountryId":"20147700","StateId":"20164001","CountyId":"20165607","CityId":"20165611","AddressId":"187973581","RoadLinkId":"194235231"}}},{"Relevance":1.0,"Distance":237.7,"MatchLevel":"street","MatchQuality":{"Country":1.0,"State":1.0,"County":1.0,"City":1.0,"Street":[1.0],"PostalCode":1.0},"Location":{"LocationId":"NT_jIyU9.8vQCY788s-0eeZyB_l_806548253_L","LocationType":"point","DisplayPosition":{"Latitude":50.42617,"Longitude":7.43886},"MapView":{"TopLeft":{"Latitude":50.42617,"Longitude":7.43886},"BottomRight":{"Latitude":50.42606,"Longitude":7.43952}},"Address":{"Label":"K91, 56626 Andernach, Deutschland","Country":"DEU","State":"Rheinland-Pfalz","County":"Mayen-Koblenz","City":"Andernach","Street":"K91","PostalCode":"56626","AdditionalData":[{"value":"Deutschland","key":"CountryName"},{"value":"Rheinland-Pfalz","key":"StateName"},{"value":"Mayen-Koblenz","key":"CountyName"}]},"MapReference":{"ReferenceId":"806548253","Spot":1.0,"SideOfStreet":"left","CountryId":"20147700","StateId":"20164001","CountyId":"20165607","CityId":"20165611"}}},{"Relevance":1.0,"Distance":280.9,"MatchLevel":"street","MatchQuality":{"Country":1.0,"State":1.0,"County":1.0,"City":1.0,"Street":[1.0],"PostalCode":1.0},"Location":{"LocationId":"NT_jIyU9.8vQCY788s-0eeZyB_l_806548252_L","LocationType":"point","DisplayPosition":{"Latitude":50.42606,"Longitude":7.43952},"MapView":{"TopLeft":{"Latitude":50.42606,"Longitude":7.43952},"BottomRight":{"Latitude":50.42587,"Longitude":7.44034}},"Address":{"Label":"K91, 56626 Andernach, Deutschland","Country":"DEU","State":"Rheinland-Pfalz","County":"Mayen-Koblenz","City":"Andernach","Street":"K91","PostalCode":"56626","AdditionalData":[{"value":"Deutschland","key":"CountryName"},{"value":"Rheinland-Pfalz","key":"StateName"},{"value":"Mayen-Koblenz","key":"CountyName"}]},"MapReference":{"ReferenceId":"806548252","Spot":1.0,"SideOfStreet":"left","CountryId":"20147700","StateId":"20164001","CountyId":"20165607","CityId":"20165611"}}},{"Relevance":1.0,"Distance":301.4,"MatchLevel":"street","MatchQuality":{"Country":1.0,"State":1.0,"County":1.0,"City":1.0,"Street":[1.0],"PostalCode":1.0},"Location":{"LocationId":"NT_Mg6Q0UDLPI9T307ssI.sVB_l_806543706_L","LocationType":"point","DisplayPosition":{"Latitude":50.42669,"Longitude":7.43953},"MapView":{"TopLeft":{"Latitude":50.42669,"Longitude":7.43953},"BottomRight":{"Latitude":50.42625,"Longitude":7.44027}},"Address":{"Label":"Koblenzer Straße, 56626 Andernach, Deutschland","Country":"DEU","State":"Rheinland-Pfalz","County":"Mayen-Koblenz","City":"Andernach","Street":"Koblenzer Straße","PostalCode":"56626","AdditionalData":[{"value":"Deutschland","key":"CountryName"},{"value":"Rheinland-Pfalz","key":"StateName"},{"value":"Mayen-Koblenz","key":"CountyName"}]},"MapReference":{"ReferenceId":"806543706","Spot":1.0,"SideOfStreet":"left","CountryId":"20147700","StateId":"20164001","CountyId":"20165607","CityId":"20165611"}}},{"Relevance":1.0,"Distance":303.6,"MatchLevel":"street","MatchQuality":{"Country":1.0,"State":1.0,"County":1.0,"City":1.0,"Street":[1.0],"PostalCode":1.0},"Location":{"LocationId":"NT_eer0fPIOpfu1ME7tQnGZUB_l_806543707_L","LocationType":"point","DisplayPosition":{"Latitude":50.42759,"Longitude":7.4386},"MapView":{"TopLeft":{"Latitude":50.42759,"Longitude":7.4386},"BottomRight":{"Latitude":50.42669,"Longitude":7.43953}},"Address":{"Label":"Koblenzer Straße, 56626 Andernach, Deutschland","Country":"DEU","State":"Rheinland-Pfalz","County":"Mayen-Koblenz","City":"Andernach","Street":"Koblenzer Straße","PostalCode":"56626","AdditionalData":[{"value":"Deutschland","key":"CountryName"},{"value":"Rheinland-Pfalz","key":"StateName"},{"value":"Mayen-Koblenz","key":"CountyName"}]},"MapReference":{"ReferenceId":"806543707","Spot":1.0,"SideOfStreet":"left","CountryId":"20147700","StateId":"20164001","CountyId":"20165607","CityId":"20165611"}}},{"Relevance":1.0,"Distance":315.5,"MatchLevel":"landmark","MatchQuality":{"Country":1.0,"State":1.0,"County":1.0,"Name":1.0},"Location":{"LocationId":"NT_wVqJMW81f22x1H6hElXzXB","LocationType":"river","Name":"Nette","DisplayPosition":{"Latitude":50.32484,"Longitude":7.28096},"MapView":{"TopLeft":{"Latitude":50.42805,"Longitude":7.1021},"BottomRight":{"Latitude":50.31083,"Longitude":7.44829}},"Address":{"Label":"Deutschland","Country":"DEU","State":"Rheinland-Pfalz","County":"Mayen-Koblenz","AdditionalData":[{"value":"Deutschland","key":"CountryName"},{"value":"Rheinland-Pfalz","key":"StateName"},{"value":"Mayen-Koblenz","key":"CountyName"}]},"MapReference":{"CountryId":"20147700","StateId":"20164001","CountyId":"20165607","PlaceId":"750611384"}}}]}]}}