{"Response":{"MetaInfo":{"Timestamp":"2020-03-28T11:54:12.535+0000","NextPageInformation":"2"},"View":[{"_type":"SearchResultsViewType","ViewId":0,"Result":[{"Relevance":1.0,"Distance":0.0,"Direction":0.0,"MatchLevel":"city","MatchQuality":{"Country":1.0,"State":1.0,"County":1.0,"City":1.0,"PostalCode":1.0},"Location":{"LocationId":"NT_tN2dqsFCAVGTOiQyk5vXsA","LocationType":"point","DisplayPosition":{"Latitude":50.472303,"Longitude":2.54379},"MapView":{"TopLeft":{"Latitude":50.51309,"Longitude":2.51114},"BottomRight":{"Latitude":50.46479,"Longitude":2.59022}},"Address":{"Label":"Bruay-la-Buissière, Hauts-de-France, France","Country":"FRA","State":"Hauts-de-France","County":"Pas-de-Calais","City":"Bruay-la-Buissière","PostalCode":"62700","AdditionalData":[{"value":"France","key":"CountryName"},{"value":"Hauts-de-France","key":"StateName"},{"value":"Pas-de-Calais","key":"CountyName"}]},"MapReference":{"ReferenceId":"58937319","SideOfStreet":"neither","CountryId":"20000001","StateId":"20000002","CountyId":"20030132","CityId":"20030655"}}},{"Relevance":1.0,"Distance":11.6,"MatchLevel":"houseNumber","MatchQuality":{"Country":1.0,"State":1.0,"County":1.0,"City":1.0,"Street":[1.0],"HouseNumber":1.0,"PostalCode":1.0},"MatchType":"interpolated","Location":{"LocationId":"NT_xdmzFX9TOtOVa6zzLMMbZA_ykTN","LocationType":"point","DisplayPosition":{"Latitude":50.4724,"Longitude":2.54361},"MapView":{"TopLeft":{"Latitude":50.4735242,"Longitude":2.5418437},"BottomRight":{"Latitude":50.4712758,"Longitude":2.5453763}},"Address":{"Label":"295 Rue Roger Salengro, 62700 Bruay-la-Buissière, France","Country":"FRA","State":"Hauts-de-France","County":"Pas-de-Calais","City":"Bruay-la-Buissière","Street":"Rue Roger Salengro","HouseNumber":"295","PostalCode":"62700","AdditionalData":[{"value":"France","key":"CountryName"},{"value":"Hauts-de-France","key":"StateName"},{"value":"Pas-de-Calais","key":"CountyName"}]},"MapReference":{"ReferenceId":"1214889401","Spot":0.37,"SideOfStreet":"right","CountryId":"20000001","StateId":"20000002","CountyId":"20030132","CityId":"20030655","AddressId":"323037928","RoadLinkId":"530893915"}}},{"Relevance":1.0,"Distance":19.5,"MatchLevel":"houseNumber","MatchQuality":{"Country":1.0,"State":1.0,"County":1.0,"City":1.0,"Street":[1.0],"HouseNumber":1.0,"PostalCode":1.0},"MatchType":"interpolated","Location":{"LocationId":"NT_xdmzFX9TOtOVa6zzLMMbZA_zETO","LocationType":"point","DisplayPosition":{"Latitude":50.47218,"Longitude":2.54352},"MapView":{"TopLeft":{"Latitude":50.4733042,"Longitude":2.5417537},"BottomRight":{"Latitude":50.4710558,"Longitude":2.5452863}},"Address":{"Label":"319 Rue Roger Salengro, 62700 Bruay-la-Buissière, France","Country":"FRA","State":"Hauts-de-France","County":"Pas-de-Calais","City":"Bruay-la-Buissière","Street":"Rue Roger Salengro","HouseNumber":"319","PostalCode":"62700","AdditionalData":[{"value":"France","key":"CountryName"},{"value":"Hauts-de-France","key":"StateName"},{"value":"Pas-de-Calais","key":"CountyName"}]},"MapReference":{"ReferenceId":"1214889400","Spot":0.62,"SideOfStreet":"right","CountryId":"20000001","StateId":"20000002","CountyId":"20030132","CityId":"20030655","AddressId":"323037930","RoadLinkId":"530893914"}}},{"Relevance":1.0,"Distance":36.5,"MatchLevel":"houseNumber","MatchQuality":{"Country":1.0,"State":1.0,"County":1.0,"City":1.0,"Street":[1.0],"HouseNumber":1.0,"PostalCode":1.0},"MatchType":"interpolated","Location":{"LocationId":"NT_xdmzFX9TOtOVa6zzLMMbZA_yYTM","LocationType":"point","DisplayPosition":{"Latitude":50.47264,"Longitude":2.54369},"MapView":{"TopLeft":{"Latitude":50.4737642,"Longitude":2.5419237},"BottomRight":{"Latitude":50.4715158,"Longitude":2.5454563}},"Address":{"Label":"261 Rue Roger Salengro, 62700 Bruay-la-Buissière, France","Country":"FRA","State":"Hauts-de-France","County":"Pas-de-Calais","City":"Bruay-la-Buissière","Street":"Rue Roger Salengro","HouseNumber":"261","PostalCode":"62700","AdditionalData":[{"value":"France","key":"CountryName"},{"value":"Hauts-de-France","key":"StateName"},{"value":"Pas-de-Calais","key":"CountyName"}]},"MapReference":{"ReferenceId":"58937681","Spot":0.25,"SideOfStreet":"right","CountryId":"20000001","StateId":"20000002","CountyId":"20030132","CityId":"20030655","AddressId":"322949159","RoadLinkId":"44991590"}}},{"Relevance":1.0,"Distance":40.0,"MatchLevel":"houseNumber","MatchQuality":{"Country":1.0,"State":1.0,"County":1.0,"City":1.0,"Street":[1.0],"HouseNumber":1.0,"PostalCode":1.0},"MatchType":"interpolated","Location":{"LocationId":"NT_VUaOwZocAxwYug.nqpRavD_xMD","LocationType":"point","DisplayPosition":{"Latitude":50.47189,"Longitude":2.54366},"MapView":{"TopLeft":{"Latitude":50.4730142,"Longitude":2.5418937},"BottomRight":{"Latitude":50.4707658,"Longitude":2.5454263}},"Address":{"Label":"13 Impasse Verbecq, 62700 Bruay-la-Buissière, France","Country":"FRA","State":"Hauts-de-France","County":"Pas-de-Calais","City":"Bruay-la-Buissière","Street":"Impasse Verbecq","HouseNumber":"13","PostalCode":"62700","AdditionalData":[{"value":"France","key":"CountryName"},{"value":"Hauts-de-France","key":"StateName"},{"value":"Pas-de-Calais","key":"CountyName"}]},"MapReference":{"ReferenceId":"58937722","Spot":0.9,"SideOfStreet":"right","CountryId":"20000001","StateId":"20000002","CountyId":"20030132","CityId":"20030655","AddressId":"322906058","RoadLinkId":"43997631"}}},{"Relevance":1.0,"Distance":52.9,"MatchLevel":"houseNumber","MatchQuality":{"Country":1.0,"State":1.0,"County":1.0,"City":1.0,"Street":[1.0],"HouseNumber":1.0,"PostalCode":1.0},"MatchType":"interpolated","Location":{"LocationId":"NT_xdmzFX9TOtOVa6zzLMMbZA_3MD","LocationType":"point","DisplayPosition":{"Latitude":50.47195,"Longitude":2.54342},"MapView":{"TopLeft":{"Latitude":50.4730742,"Longitude":2.5416537},"BottomRight":{"Latitude":50.4708258,"Longitude":2.5451863}},"Address":{"Label":"73 Rue Roger Salengro, 62700 Bruay-la-Buissière, France","Country":"FRA","State":"Hauts-de-France","County":"Pas-de-Calais","City":"Bruay-la-Buissière","Street":"Rue Roger Salengro","HouseNumber":"73","PostalCode":"62700","AdditionalData":[{"value":"France","key":"CountryName"},{"value":"Hauts-de-France","key":"StateName"},{"value":"Pas-de-Calais","key":"CountyName"}]},"MapReference":{"ReferenceId":"1069834747","Spot":0.97,"SideOfStreet":"right","CountryId":"20000001","StateId":"20000002","CountyId":"20030132","CityId":"20030655","AddressId":"322510157","RoadLinkId":"392033420"}}},{"Relevance":1.0,"Distance":63.2,"MatchLevel":"houseNumber","MatchQuality":{"Country":1.0,"State":1.0,"County":1.0,"City":1.0,"Street":[1.0],"HouseNumber":1.0,"PostalCode":1.0},"MatchType":"interpolated","Location":{"LocationId":"NT_mQXapa1m690OgLw5BwdACB_1gD","LocationType":"point","DisplayPosition":{"Latitude":50.47266,"Longitude":2.54451},"MapView":{"TopLeft":{"Latitude":50.4737842,"Longitude":2.5427437},"BottomRight":{"Latitude":50.4715358,"Longitude":2.5462763}},"Address":{"Label":"58 Rue Alexandre Grez, 62700 Bruay-la-Buissière, France","Country":"FRA","State":"Hauts-de-France","County":"Pas-de-Calais","City":"Bruay-la-Buissière","Street":"Rue Alexandre Grez","HouseNumber":"58","PostalCode":"62700","AdditionalData":[{"value":"France","key":"CountryName"},{"value":"Hauts-de-France","key":"StateName"},{"value":"Pas-de-Calais","key":"CountyName"}]},"MapReference":{"ReferenceId":"58937724","Spot":0.85,"SideOfStreet":"left","CountryId":"20000001","StateId":"20000002","CountyId":"20030132","CityId":"20030655","AddressId":"572671240","RoadLinkId":"44938336"}}},{"Relevance":1.0,"Distance":88.7,"MatchLevel":"houseNumber","MatchQuality":{"Country":1.0,"State":1.0,"County":1.0,"City":1.0,"Street":[1.0],"HouseNumber":1.0,"PostalCode":1.0},"MatchType":"interpolated","Location":{"LocationId":"NT_xdmzFX9TOtOVa6zzLMMbZA_yETN","LocationType":"point","DisplayPosition":{"Latitude":50.47311,"Longitude":2.54376},"MapView":{"TopLeft":{"Latitude":50.4742342,"Longitude":2.5419937},"BottomRight":{"Latitude":50.4719858,"Longitude":2.5455263}},"Address":{"Label":"215 Rue Roger Salengro, 62700 Bruay-la-Buissière, France","Country":"FRA","State":"Hauts-de-France","County":"Pas-de-Calais","City":"Bruay-la-Buissière","Street":"Rue Roger Salengro","HouseNumber":"215","PostalCode":"62700","AdditionalData":[{"value":"France","key":"CountryName"},{"value":"Hauts-de-France","key":"StateName"},{"value":"Pas-de-Calais","key":"CountyName"}]},"MapReference":{"ReferenceId":"591216532","Spot":0.18,"SideOfStreet":"right","CountryId":"20000001","StateId":"20000002","CountyId":"20030132","CityId":"20030655","AddressId":"323178881","RoadLinkId":"44243373"}}},{"Relevance":1.0,"Distance":97.6,"MatchLevel":"houseNumber","MatchQuality":{"Country":1.0,"State":1.0,"County":1.0,"City":1.0,"Street":[1.0],"HouseNumber":1.0,"PostalCode":1.0},"MatchType":"interpolated","Location":{"LocationId":"NT_xdmzFX9TOtOVa6zzLMMbZA_0AzM","LocationType":"point","DisplayPosition":{"Latitude":50.47151,"Longitude":2.54323},"MapView":{"TopLeft":{"Latitude":50.4726342,"Longitude":2.5414637},"BottomRight":{"Latitude":50.4703858,"Longitude":2.5449963}},"Address":{"Label":"403 Rue Roger Salengro, 62700 Bruay-la-Buissière, France","Country":"FRA","State":"Hauts-de-France","County":"Pas-de-Calais","City":"Bruay-la-Buissière","Street":"Rue Roger Salengro","HouseNumber":"403","PostalCode":"62700","AdditionalData":[{"value":"France","key":"CountryName"},{"value":"Hauts-de-France","key":"StateName"},{"value":"Pas-de-Calais","key":"CountyName"}]},"MapReference":{"ReferenceId":"1069834746","Spot":0.92,"SideOfStreet":"right","CountryId":"20000001","StateId":"20000002","CountyId":"20030132","CityId":"20030655","AddressId":"379738298","RoadLinkId":"392033419"}}},{"Relevance":1.0,"Distance":102.3,"MatchLevel":"houseNumber","MatchQuality":{"Country":1.0,"State":1.0,"County":1.0,"City":1.0,"Street":[1.0],"HouseNumber":1.0,"PostalCode":1.0},"MatchType":"interpolated","Location":{"LocationId":"NT_OS-WAs62tqpKHr2kYnBoKA_3cTO","LocationType":"point","DisplayPosition":{"Latitude":50.47286,"Longitude":2.54265},"MapView":{"TopLeft":{"Latitude":50.4739842,"Longitude":2.5408837},"BottomRight":{"Latitude":50.4717358,"Longitude":2.5444163}},"Address":{"Label":"779 Rue Augustin Caron, 62700 Bruay-la-Buissière, France","Country":"FRA","State":"Hauts-de-France","County":"Pas-de-Calais","City":"Bruay-la-Buissière","Street":"Rue Augustin Caron","HouseNumber":"779","PostalCode":"62700","AdditionalData":[{"value":"France","key":"CountryName"},{"value":"Hauts-de-France","key":"StateName"},{"value":"Pas-de-Calais","key":"CountyName"}]},"MapReference":{"ReferenceId":"1243451286","Spot":0.64,"SideOfStreet":"right","CountryId":"20000001","StateId":"20000002","CountyId":"20030132","CityId":"20030655","AddressId":"323052368","RoadLinkId":"564766445"}}}]}]}}