{"Response":{"MetaInfo":{"Timestamp":"2020-03-28T11:38:40.849+0000","NextPageInformation":"2"},"View":[{"_type":"SearchResultsViewType","ViewId":0,"Result":[{"Relevance":1.0,"Distance":0.0,"Direction":0.0,"MatchLevel":"city","MatchQuality":{"Country":1.0,"State":1.0,"County":1.0,"City":1.0,"PostalCode":1.0},"Location":{"LocationId":"NT_-OqzJR95LjFkgXF6qy5RnA","LocationType":"point","DisplayPosition":{"Latitude":50.474615,"Longitude":5.6756564},"MapView":{"TopLeft":{"Latitude":50.5213,"Longitude":5.62391},"BottomRight":{"Latitude":50.39543,"Longitude":5.79397}},"Address":{"Label":"Aywaille, Wallonie, Belgique","Country":"BEL","State":"Wallonie","County":"Liège","City":"Aywaille","PostalCode":"4920","AdditionalData":[{"value":"Belgique","key":"CountryName"},{"value":"Wallonie","key":"StateName"},{"value":"Liège","key":"CountyName"}]},"MapReference":{"ReferenceId":"843998729","SideOfStreet":"neither","CountryId":"20128886","StateId":"20205526","CountyId":"20206134","CityId":"20206257"}}},{"Relevance":1.0,"Distance":8.0,"MatchLevel":"houseNumber","MatchQuality":{"Country":1.0,"State":1.0,"County":1.0,"City":1.0,"Street":[1.0],"HouseNumber":1.0,"PostalCode":1.0},"MatchType":"interpolated","Location":{"LocationId":"NT_IVzJyRKcoI-eBjl6y-H3sA_zgD","LocationType":"point","DisplayPosition":{"Latitude":50.4746,"Longitude":5.67532},"MapView":{"TopLeft":{"Latitude":50.4757242,"Longitude":5.6735536},"BottomRight":{"Latitude":50.4734758,"Longitude":5.6770864}},"Address":{"Label":"Place Joseph Thiry 38, 4920 Aywaille, Belgique","Country":"BEL","State":"Wallonie","County":"Liège","City":"Aywaille","Street":"Place Joseph Thiry","HouseNumber":"38","PostalCode":"4920","AdditionalData":[{"value":"Belgique","key":"CountryName"},{"value":"Wallonie","key":"StateName"},{"value":"Liège","key":"CountyName"}]},"MapReference":{"ReferenceId":"60094817","Spot":0.38,"SideOfStreet":"right","CountryId":"20128886","StateId":"20205526","CountyId":"20206134","CityId":"20206257","AddressId":"673839634","RoadLinkId":"30399270"}}},{"Relevance":1.0,"Distance":14.7,"MatchLevel":"houseNumber","MatchQuality":{"Country":1.0,"State":1.0,"County":1.0,"City":1.0,"Street":[1.0],"HouseNumber":1.0,"PostalCode":1.0},"MatchType":"interpolated","Location":{"LocationId":"NT_IVzJyRKcoI-eBjl6y-H3sA_zQD","LocationType":"point","DisplayPosition":{"Latitude":50.47452,"Longitude":5.67531},"MapView":{"TopLeft":{"Latitude":50.4756442,"Longitude":5.6735436},"BottomRight":{"Latitude":50.4733958,"Longitude":5.6770764}},"Address":{"Label":"Place Joseph Thiry 34, 4920 Aywaille, Belgique","Country":"BEL","State":"Wallonie","County":"Liège","City":"Aywaille","Street":"Place Joseph Thiry","HouseNumber":"34","PostalCode":"4920","AdditionalData":[{"value":"Belgique","key":"CountryName"},{"value":"Wallonie","key":"StateName"},{"value":"Liège","key":"CountyName"}]},"MapReference":{"ReferenceId":"60094850","Spot":0.97,"SideOfStreet":"right","CountryId":"20128886","StateId":"20205526","CountyId":"20206134","CityId":"20206257","AddressId":"673839653","RoadLinkId":"30478854"}}},{"Relevance":1.0,"Distance":25.1,"MatchLevel":"houseNumber","MatchQuality":{"Country":1.0,"State":1.0,"County":1.0,"City":1.0,"Street":[1.0],"HouseNumber":1.0,"PostalCode":1.0},"MatchType":"interpolated","Location":{"LocationId":"NT_-ZNux2BT.xTnLSwBVoSNTC_3A","LocationType":"point","DisplayPosition":{"Latitude":50.4747,"Longitude":5.67602},"MapView":{"TopLeft":{"Latitude":50.4758242,"Longitude":5.6742536},"BottomRight":{"Latitude":50.4735758,"Longitude":5.6777864}},"Address":{"Label":"Rue Saint-Pierre 7, 4920 Aywaille, Belgique","Country":"BEL","State":"Wallonie","County":"Liège","City":"Aywaille","Street":"Rue Saint-Pierre","HouseNumber":"7","PostalCode":"4920","AdditionalData":[{"value":"Belgique","key":"CountryName"},{"value":"Wallonie","key":"StateName"},{"value":"Liège","key":"CountyName"}]},"MapReference":{"ReferenceId":"800017668","Spot":0.48,"SideOfStreet":"left","CountryId":"20128886","StateId":"20205526","CountyId":"20206134","CityId":"20206257","AddressId":"673905830","RoadLinkId":"190848978"}}},{"Relevance":1.0,"Distance":32.7,"MatchLevel":"houseNumber","MatchQuality":{"Country":1.0,"State":1.0,"County":1.0,"City":1.0,"Street":[1.0],"HouseNumber":1.0,"PostalCode":1.0},"MatchType":"interpolated","Location":{"LocationId":"NT_IVzJyRKcoI-eBjl6y-H3sA_0ID","LocationType":"point","DisplayPosition":{"Latitude":50.47491,"Longitude":5.67537},"MapView":{"TopLeft":{"Latitude":50.4760342,"Longitude":5.6736036},"BottomRight":{"Latitude":50.4737858,"Longitude":5.6771364}},"Address":{"Label":"Place Joseph Thiry 42, 4920 Aywaille, Belgique","Country":"BEL","State":"Wallonie","County":"Liège","City":"Aywaille","Street":"Place Joseph Thiry","HouseNumber":"42","PostalCode":"4920","AdditionalData":[{"value":"Belgique","key":"CountryName"},{"value":"Wallonie","key":"StateName"},{"value":"Liège","key":"CountyName"}]},"MapReference":{"ReferenceId":"60094855","Spot":0.44,"SideOfStreet":"right","CountryId":"20128886","StateId":"20205526","CountyId":"20206134","CityId":"20206257","AddressId":"673834926","RoadLinkId":"30941270"}}},{"Relevance":1.0,"Distance":51.4,"MatchLevel":"houseNumber","MatchQuality":{"Country":1.0,"State":1.0,"County":1.0,"City":1.0,"Street":[1.0],"HouseNumber":1.0,"PostalCode":1.0},"MatchType":"interpolated","Location":{"LocationId":"NT_txkF6gJKchCGQ0Y37UTz9A_yA","LocationType":"point","DisplayPosition":{"Latitude":50.47459,"Longitude":5.67491},"MapView":{"TopLeft":{"Latitude":50.4757142,"Longitude":5.6731436},"BottomRight":{"Latitude":50.4734658,"Longitude":5.6766764}},"Address":{"Label":"Avenue François Cornesse 2, 4920 Aywaille, Belgique","Country":"BEL","State":"Wallonie","County":"Liège","City":"Aywaille","Street":"Avenue François Cornesse","HouseNumber":"2","PostalCode":"4920","AdditionalData":[{"value":"Belgique","key":"CountryName"},{"value":"Wallonie","key":"StateName"},{"value":"Liège","key":"CountyName"}]},"MapReference":{"ReferenceId":"53770224","Spot":0.85,"SideOfStreet":"right","CountryId":"20128886","StateId":"20205526","CountyId":"20206134","CityId":"20206257","AddressId":"673705058","RoadLinkId":"30925750"}}},{"Relevance":1.0,"Distance":53.6,"MatchLevel":"houseNumber","MatchQuality":{"Country":1.0,"State":1.0,"County":1.0,"City":1.0,"Street":[1.0],"HouseNumber":1.0,"PostalCode":1.0},"MatchType":"interpolated","Location":{"LocationId":"NT_4W4mPEzLecwHbP3wDGsUoB_4A","LocationType":"point","DisplayPosition":{"Latitude":50.47445,"Longitude":5.67481},"MapView":{"TopLeft":{"Latitude":50.4755742,"Longitude":5.6730436},"BottomRight":{"Latitude":50.4733258,"Longitude":5.6765764}},"Address":{"Label":"Rue Sur les Cours 8, 4920 Aywaille, Belgique","Country":"BEL","State":"Wallonie","County":"Liège","City":"Aywaille","Street":"Rue Sur les Cours","HouseNumber":"8","PostalCode":"4920","AdditionalData":[{"value":"Belgique","key":"CountryName"},{"value":"Wallonie","key":"StateName"},{"value":"Liège","key":"CountyName"}]},"MapReference":{"ReferenceId":"53770328","Spot":0.77,"SideOfStreet":"right","CountryId":"20128886","StateId":"20205526","CountyId":"20206134","CityId":"20206257","AddressId":"673707319","RoadLinkId":"30567520"}}},{"Relevance":1.0,"Distance":63.1,"MatchLevel":"street","MatchQuality":{"Country":1.0,"State":1.0,"County":1.0,"City":1.0,"PostalCode":1.0},"Location":{"LocationId":"NT_ZrnqToWJbNY3qJBs9ZS8fD_l_800017665_L","LocationType":"point","DisplayPosition":{"Latitude":50.47421,"Longitude":5.67628},"MapView":{"TopLeft":{"Latitude":50.47422,"Longitude":5.67628},"BottomRight":{"Latitude":50.47421,"Longitude":5.67688}},"Address":{"Label":"4920 Aywaille, Belgique","Country":"BEL","State":"Wallonie","County":"Liège","City":"Aywaille","PostalCode":"4920","AdditionalData":[{"value":"Belgique","key":"CountryName"},{"value":"Wallonie","key":"StateName"},{"value":"Liège","key":"CountyName"}]},"MapReference":{"ReferenceId":"800017665","Spot":0.0,"SideOfStreet":"left","CountryId":"20128886","StateId":"20205526","CountyId":"20206134","CityId":"20206257"}}},{"Relevance":1.0,"Distance":65.2,"MatchLevel":"street","MatchQuality":{"Country":1.0,"State":1.0,"County":1.0,"City":1.0,"Street":[1.0],"PostalCode":1.0},"Location":{"LocationId":"NT_Yfw8lM9lJ-4L0WZHJNfyOD_l_60094856_R","LocationType":"point","DisplayPosition":{"Latitude":50.47518,"Longitude":5.67541},"MapView":{"TopLeft":{"Latitude":50.47553,"Longitude":5.67541},"BottomRight":{"Latitude":50.47518,"Longitude":5.67546}},"Address":{"Label":"Avenue de la Libération, 4920 Aywaille, Belgique","Country":"BEL","State":"Wallonie","County":"Liège","City":"Aywaille","Street":"Avenue de la Libération","PostalCode":"4920","AdditionalData":[{"value":"Belgique","key":"CountryName"},{"value":"Wallonie","key":"StateName"},{"value":"Liège","key":"CountyName"}]},"MapReference":{"ReferenceId":"60094856","Spot":0.0,"SideOfStreet":"right","CountryId":"20128886","StateId":"20205526","CountyId":"20206134","CityId":"20206257"}}},{"Relevance":1.0,"Distance":73.1,"MatchLevel":"houseNumber","MatchQuality":{"Country":1.0,"State":1.0,"County":1.0,"City":1.0,"Street":[1.0],"HouseNumber":1.0,"PostalCode":1.0},"MatchType":"interpolated","Location":{"LocationId":"NT_-ZNux2BT.xTnLSwBVoSNTC_xEE","LocationType":"point","DisplayPosition":{"Latitude":50.47407,"Longitude":5.67632},"MapView":{"TopLeft":{"Latitude":50.4751942,"Longitude":5.6745537},"BottomRight":{"Latitude":50.4729458,"Longitude":5.6780863}},"Address":{"Label":"Rue Saint-Pierre 1A, 4920 Aywaille, Belgique","Country":"BEL","State":"Wallonie","County":"Liège","City":"Aywaille","Street":"Rue Saint-Pierre","HouseNumber":"1A","PostalCode":"4920","AdditionalData":[{"value":"Belgique","key":"CountryName"},{"value":"Wallonie","key":"StateName"},{"value":"Liège","key":"CountyName"}]},"MapReference":{"ReferenceId":"800017667","Spot":0.69,"SideOfStreet":"left","CountryId":"20128886","StateId":"20205526","CountyId":"20206134","CityId":"20206257","AddressId":"673905822","RoadLinkId":"190848977"}}}]}]}}