{"Response":{"MetaInfo":{"Timestamp":"2020-03-28T10:23:34.079+0000","NextPageInformation":"2"},"View":[{"_type":"SearchResultsViewType","ViewId":0,"Result":[{"Relevance":1.0,"Distance":0.0,"Direction":0.0,"MatchLevel":"district","MatchQuality":{"Country":1.0,"State":1.0,"County":1.0,"City":1.0,"District":1.0,"PostalCode":1.0},"Location":{"LocationId":"NT_ZZSSRmbKusEtEYEIscivGA","LocationType":"point","DisplayPosition":{"Latitude":50.4966431,"Longitude":8.6678183},"MapView":{"TopLeft":{"Latitude":50.50429,"Longitude":8.64426},"BottomRight":{"Latitude":50.48685,"Longitude":8.68193}},"Address":{"Label":"Langgöns, Hessen, Deutschland","Country":"DEU","State":"Hessen","County":"Gießen","City":"Langgöns","District":"Langgöns","PostalCode":"35428","AdditionalData":[{"value":"Deutschland","key":"CountryName"},{"value":"Hessen","key":"StateName"},{"value":"Gießen","key":"CountyName"}]},"MapReference":{"ReferenceId":"567306612","SideOfStreet":"neither","CountryId":"20147700","StateId":"20160993","CountyId":"20162154","CityId":"20162217","DistrictId":"20162222"}}},{"Relevance":1.0,"Distance":10.3,"MatchLevel":"houseNumber","MatchQuality":{"Country":1.0,"State":1.0,"County":1.0,"City":1.0,"District":1.0,"Street":[1.0],"HouseNumber":1.0,"PostalCode":1.0},"MatchType":"interpolated","Location":{"LocationId":"NT_cT.49aCFCt9vNNyTWMAdYA_xA","LocationType":"point","DisplayPosition":{"Latitude":50.49672,"Longitude":8.66767},"MapView":{"TopLeft":{"Latitude":50.4978442,"Longitude":8.6659028},"BottomRight":{"Latitude":50.4955958,"Longitude":8.6694372}},"Address":{"Label":"Holzheimer Straße 1, 35428 Langgöns, Deutschland","Country":"DEU","State":"Hessen","County":"Gießen","City":"Langgöns","District":"Langgöns","Street":"Holzheimer Straße","HouseNumber":"1","PostalCode":"35428","AdditionalData":[{"value":"Deutschland","key":"CountryName"},{"value":"Hessen","key":"StateName"},{"value":"Gießen","key":"CountyName"}]},"MapReference":{"ReferenceId":"52684609","Spot":0.05,"SideOfStreet":"right","CountryId":"20147700","StateId":"20160993","CountyId":"20162154","CityId":"20162217","DistrictId":"20162222","AddressId":"732663986","RoadLinkId":"34918825"}}},{"Relevance":1.0,"Distance":16.4,"MatchLevel":"street","MatchQuality":{"Country":1.0,"State":1.0,"County":1.0,"City":1.0,"District":1.0,"Street":[1.0],"PostalCode":1.0},"Location":{"LocationId":"NT_yk7XfpdDaK5vHx-A51NcAC_l_52684504_R","LocationType":"point","DisplayPosition":{"Latitude":50.49672,"Longitude":8.66762},"MapView":{"TopLeft":{"Latitude":50.49672,"Longitude":8.66744},"BottomRight":{"Latitude":50.49671,"Longitude":8.66762}},"Address":{"Label":"Holzheimer Straße, 35428 Langgöns, Deutschland","Country":"DEU","State":"Hessen","County":"Gießen","City":"Langgöns","District":"Langgöns","Street":"Holzheimer Straße","PostalCode":"35428","AdditionalData":[{"value":"Deutschland","key":"CountryName"},{"value":"Hessen","key":"StateName"},{"value":"Gießen","key":"CountyName"}]},"MapReference":{"ReferenceId":"52684504","Spot":1.0,"SideOfStreet":"right","CountryId":"20147700","StateId":"20160993","CountyId":"20162154","CityId":"20162217","DistrictId":"20162222"}}},{"Relevance":1.0,"Distance":16.4,"MatchLevel":"street","MatchQuality":{"Country":1.0,"State":1.0,"County":1.0,"City":1.0,"District":1.0,"Street":[1.0],"PostalCode":1.0},"Location":{"LocationId":"NT_OsWzImRXKeGqCUwOIo-r5D_l_809320087_R","LocationType":"point","DisplayPosition":{"Latitude":50.49672,"Longitude":8.66762},"MapView":{"TopLeft":{"Latitude":50.49692,"Longitude":8.66753},"BottomRight":{"Latitude":50.49672,"Longitude":8.66762}},"Address":{"Label":"Leihgesterner Straße, 35428 Langgöns, Deutschland","Country":"DEU","State":"Hessen","County":"Gießen","City":"Langgöns","District":"Langgöns","Street":"Leihgesterner Straße","PostalCode":"35428","AdditionalData":[{"value":"Deutschland","key":"CountryName"},{"value":"Hessen","key":"StateName"},{"value":"Gießen","key":"CountyName"}]},"MapReference":{"ReferenceId":"809320087","Spot":0.0,"SideOfStreet":"right","CountryId":"20147700","StateId":"20160993","CountyId":"20162154","CityId":"20162217","DistrictId":"20162222"}}},{"Relevance":1.0,"Distance":27.8,"MatchLevel":"street","MatchQuality":{"Country":1.0,"State":1.0,"County":1.0,"City":1.0,"District":1.0,"Street":[1.0],"PostalCode":1.0},"Location":{"LocationId":"NT_cT.49aCFCt9vNNyTWMAdYA_l_52684503_R","LocationType":"point","DisplayPosition":{"Latitude":50.49671,"Longitude":8.66744},"MapView":{"TopLeft":{"Latitude":50.49671,"Longitude":8.66712},"BottomRight":{"Latitude":50.49669,"Longitude":8.66744}},"Address":{"Label":"Holzheimer Straße, 35428 Langgöns, Deutschland","Country":"DEU","State":"Hessen","County":"Gießen","City":"Langgöns","District":"Langgöns","Street":"Holzheimer Straße","PostalCode":"35428","AdditionalData":[{"value":"Deutschland","key":"CountryName"},{"value":"Hessen","key":"StateName"},{"value":"Gießen","key":"CountyName"}]},"MapReference":{"ReferenceId":"52684503","Spot":1.0,"SideOfStreet":"right","CountryId":"20147700","StateId":"20160993","CountyId":"20162154","CityId":"20162217","DistrictId":"20162222"}}},{"Relevance":1.0,"Distance":36.9,"MatchLevel":"street","MatchQuality":{"Country":1.0,"State":1.0,"County":1.0,"City":1.0,"District":1.0,"Street":[1.0],"PostalCode":1.0},"Location":{"LocationId":"NT_tnnMX9mpaK-eDJ9v7cGXhC_l_809320088_R","LocationType":"point","DisplayPosition":{"Latitude":50.49692,"Longitude":8.66753},"MapView":{"TopLeft":{"Latitude":50.49782,"Longitude":8.66734},"BottomRight":{"Latitude":50.49692,"Longitude":8.66753}},"Address":{"Label":"Leihgesterner Straße, 35428 Langgöns, Deutschland","Country":"DEU","State":"Hessen","County":"Gießen","City":"Langgöns","District":"Langgöns","Street":"Leihgesterner Straße","PostalCode":"35428","AdditionalData":[{"value":"Deutschland","key":"CountryName"},{"value":"Hessen","key":"StateName"},{"value":"Gießen","key":"CountyName"}]},"MapReference":{"ReferenceId":"809320088","Spot":0.0,"SideOfStreet":"right","CountryId":"20147700","StateId":"20160993","CountyId":"20162154","CityId":"20162217","DistrictId":"20162222"}}},{"Relevance":1.0,"Distance":49.7,"MatchLevel":"street","MatchQuality":{"Country":1.0,"State":1.0,"County":1.0,"City":1.0,"District":1.0,"Street":[1.0],"PostalCode":1.0},"Location":{"LocationId":"NT_yk7XfpdDaK5vHx-A51NcAC_l_52684404_R","LocationType":"point","DisplayPosition":{"Latitude":50.49669,"Longitude":8.66712},"MapView":{"TopLeft":{"Latitude":50.49669,"Longitude":8.6667},"BottomRight":{"Latitude":50.49667,"Longitude":8.66712}},"Address":{"Label":"Am Mühlberg, 35428 Langgöns, Deutschland","Country":"DEU","State":"Hessen","County":"Gießen","City":"Langgöns","District":"Langgöns","Street":"Am Mühlberg","PostalCode":"35428","AdditionalData":[{"value":"Deutschland","key":"CountryName"},{"value":"Hessen","key":"StateName"},{"value":"Gießen","key":"CountyName"}]},"MapReference":{"ReferenceId":"52684404","Spot":1.0,"SideOfStreet":"right","CountryId":"20147700","StateId":"20160993","CountyId":"20162154","CityId":"20162217","DistrictId":"20162222"}}},{"Relevance":1.0,"Distance":62.2,"MatchLevel":"houseNumber","MatchQuality":{"Country":1.0,"State":1.0,"County":1.0,"City":1.0,"District":1.0,"Street":[1.0],"HouseNumber":1.0,"PostalCode":1.0},"MatchType":"interpolated","Location":{"LocationId":"NT_cT.49aCFCt9vNNyTWMAdYA_5A","LocationType":"point","DisplayPosition":{"Latitude":50.49678,"Longitude":8.66872},"MapView":{"TopLeft":{"Latitude":50.4979042,"Longitude":8.6669528},"BottomRight":{"Latitude":50.4956558,"Longitude":8.6704872}},"Address":{"Label":"Holzheimer Straße 9, 35428 Langgöns, Deutschland","Country":"DEU","State":"Hessen","County":"Gießen","City":"Langgöns","District":"Langgöns","Street":"Holzheimer Straße","HouseNumber":"9","PostalCode":"35428","AdditionalData":[{"value":"Deutschland","key":"CountryName"},{"value":"Hessen","key":"StateName"},{"value":"Gießen","key":"CountyName"}]},"MapReference":{"ReferenceId":"52684610","Spot":0.0,"SideOfStreet":"right","CountryId":"20147700","StateId":"20160993","CountyId":"20162154","CityId":"20162217","DistrictId":"20162222","AddressId":"186561614","RoadLinkId":"34328598"}}},{"Relevance":1.0,"Distance":65.6,"MatchLevel":"street","MatchQuality":{"Country":1.0,"State":1.0,"County":1.0,"City":1.0,"District":1.0,"PostalCode":1.0},"Location":{"LocationId":"NT_X0WtuFxkVISpvicO4hUjKC_l_52684611_L","LocationType":"point","DisplayPosition":{"Latitude":50.49678,"Longitude":8.66872},"MapView":{"TopLeft":{"Latitude":50.49784,"Longitude":8.6687},"BottomRight":{"Latitude":50.49678,"Longitude":8.66872}},"Address":{"Label":"35428 Langgöns, Deutschland","Country":"DEU","State":"Hessen","County":"Gießen","City":"Langgöns","District":"Langgöns","PostalCode":"35428","AdditionalData":[{"value":"Deutschland","key":"CountryName"},{"value":"Hessen","key":"StateName"},{"value":"Gießen","key":"CountyName"}]},"MapReference":{"ReferenceId":"52684611","Spot":0.0,"SideOfStreet":"left","CountryId":"20147700","StateId":"20160993","CountyId":"20162154","CityId":"20162217","DistrictId":"20162222"}}},{"Relevance":1.0,"Distance":85.9,"MatchLevel":"landmark","MatchQuality":{"Country":1.0,"State":1.0,"County":1.0,"City":1.0,"District":1.0,"PostalCode":1.0,"Name":1.0},"Location":{"LocationId":"NT_USxVkBp63a2HryfJWY53KC","LocationType":"industrialComplex","Name":"Gewerbegebiet Am Wingert","DisplayPosition":{"Latitude":50.49377,"Longitude":8.66314},"MapView":{"TopLeft":{"Latitude":50.49609,"Longitude":8.66207},"BottomRight":{"Latitude":50.49144,"Longitude":8.66697}},"Address":{"Label":"35428 Langgöns, Deutschland","Country":"DEU","State":"Hessen","County":"Gießen","City":"Langgöns","District":"Langgöns","PostalCode":"35428","AdditionalData":[{"value":"Deutschland","key":"CountryName"},{"value":"Hessen","key":"StateName"},{"value":"Gießen","key":"CountyName"}]},"MapReference":{"CountryId":"20147700","StateId":"20160993","CountyId":"20162154","CityId":"20162217","DistrictId":"20162222","PlaceId":"1410286331"}}}]}]}}