{"Response":{"MetaInfo":{"Timestamp":"2020-03-28T09:33:52.953+0000","NextPageInformation":"2"},"View":[{"_type":"SearchResultsViewType","ViewId":0,"Result":[{"Relevance":1.0,"Distance":0.0,"Direction":0.0,"MatchLevel":"city","MatchQuality":{"Country":1.0,"State":1.0,"County":1.0,"City":1.0,"PostalCode":1.0},"Location":{"LocationId":"NT_7c2hdPcXB3l-DUPob2CFXA","LocationType":"point","DisplayPosition":{"Latitude":50.4666834,"Longitude":3.9405722},"MapView":{"TopLeft":{"Latitude":50.51383,"Longitude":3.8541},"BottomRight":{"Latitude":50.37783,"Longitude":4.08533}},"Address":{"Label":"Mons, Wallonie, Belgique","Country":"BEL","State":"Wallonie","County":"Hainaut","City":"Mons","PostalCode":"7000","AdditionalData":[{"value":"Belgique","key":"CountryName"},{"value":"Wallonie","key":"StateName"},{"value":"Hainaut","key":"CountyName"}]},"MapReference":{"ReferenceId":"53776514","SideOfStreet":"neither","CountryId":"20128886","StateId":"20205526","CountyId":"20205527","CityId":"20205750"}}},{"Relevance":1.0,"Distance":105.8,"MatchLevel":"houseNumber","MatchQuality":{"Country":1.0,"State":1.0,"County":1.0,"City":1.0,"Street":[1.0],"HouseNumber":1.0,"PostalCode":1.0},"MatchType":"interpolated","Location":{"LocationId":"NT_Cx1vjeNab0L6rSRRCly1sD_zA","LocationType":"point","DisplayPosition":{"Latitude":50.46754,"Longitude":3.93956},"MapView":{"TopLeft":{"Latitude":50.4686642,"Longitude":3.9377939},"BottomRight":{"Latitude":50.4664158,"Longitude":3.9413261}},"Address":{"Label":"Avenue de la Sapinette 3, 7000 Mons, Belgique","Country":"BEL","State":"Wallonie","County":"Hainaut","City":"Mons","Street":"Avenue de la Sapinette","HouseNumber":"3","PostalCode":"7000","AdditionalData":[{"value":"Belgique","key":"CountryName"},{"value":"Wallonie","key":"StateName"},{"value":"Hainaut","key":"CountyName"}]},"MapReference":{"ReferenceId":"1156174967","Spot":1.0,"SideOfStreet":"right","CountryId":"20128886","StateId":"20205526","CountyId":"20205527","CityId":"20205750","AddressId":"709076350","RoadLinkId":"462416969"}}},{"Relevance":1.0,"Distance":117.7,"MatchLevel":"houseNumber","MatchQuality":{"Country":1.0,"State":1.0,"County":1.0,"City":1.0,"Street":[1.0],"HouseNumber":1.0,"PostalCode":1.0},"MatchType":"interpolated","Location":{"LocationId":"NT_Cx1vjeNab0L6rSRRCly1sD_yA","LocationType":"point","DisplayPosition":{"Latitude":50.46703,"Longitude":3.94207},"MapView":{"TopLeft":{"Latitude":50.4681542,"Longitude":3.9403039},"BottomRight":{"Latitude":50.4659058,"Longitude":3.9438361}},"Address":{"Label":"Avenue de la Sapinette 2, 7000 Mons, Belgique","Country":"BEL","State":"Wallonie","County":"Hainaut","City":"Mons","Street":"Avenue de la Sapinette","HouseNumber":"2","PostalCode":"7000","AdditionalData":[{"value":"Belgique","key":"CountryName"},{"value":"Wallonie","key":"StateName"},{"value":"Hainaut","key":"CountyName"}]},"MapReference":{"ReferenceId":"60850287","Spot":0.74,"SideOfStreet":"left","CountryId":"20128886","StateId":"20205526","CountyId":"20205527","CityId":"20205750","AddressId":"368966199","RoadLinkId":"30474546"}}},{"Relevance":1.0,"Distance":185.7,"MatchLevel":"street","MatchQuality":{"Country":1.0,"State":1.0,"County":1.0,"City":1.0,"Street":[1.0],"PostalCode":1.0},"Location":{"LocationId":"NT_eVyeT-u2NbxQ8.Tz28LjkA_l_1156174966_R","LocationType":"point","DisplayPosition":{"Latitude":50.46673,"Longitude":3.93795},"MapView":{"TopLeft":{"Latitude":50.46831,"Longitude":3.93717},"BottomRight":{"Latitude":50.46673,"Longitude":3.93795}},"Address":{"Label":"Avenue de la Sapinette, 7000 Mons, Belgique","Country":"BEL","State":"Wallonie","County":"Hainaut","City":"Mons","Street":"Avenue de la Sapinette","PostalCode":"7000","AdditionalData":[{"value":"Belgique","key":"CountryName"},{"value":"Wallonie","key":"StateName"},{"value":"Hainaut","key":"CountyName"}]},"MapReference":{"ReferenceId":"1156174966","Spot":0.0,"SideOfStreet":"right","CountryId":"20128886","StateId":"20205526","CountyId":"20205527","CityId":"20205750"}}},{"Relevance":1.0,"Distance":186.5,"MatchLevel":"street","MatchQuality":{"Country":1.0,"State":1.0,"County":1.0,"City":1.0,"Street":[1.0],"PostalCode":1.0},"Location":{"LocationId":"NT_eVyeT-u2NbxQ8.Tz28LjkA_l_1156174965_R","LocationType":"point","DisplayPosition":{"Latitude":50.4657087,"Longitude":3.9384279},"MapView":{"TopLeft":{"Latitude":50.46673,"Longitude":3.93795},"BottomRight":{"Latitude":50.46566,"Longitude":3.93845}},"Address":{"Label":"Avenue de la Sapinette, 7000 Mons, Belgique","Country":"BEL","State":"Wallonie","County":"Hainaut","City":"Mons","Street":"Avenue de la Sapinette","PostalCode":"7000","AdditionalData":[{"value":"Belgique","key":"CountryName"},{"value":"Wallonie","key":"StateName"},{"value":"Hainaut","key":"CountyName"}]},"MapReference":{"ReferenceId":"1156174965","Spot":0.05,"SideOfStreet":"right","CountryId":"20128886","StateId":"20205526","CountyId":"20205527","CityId":"20205750"}}},{"Relevance":1.0,"Distance":188.4,"MatchLevel":"street","MatchQuality":{"Country":1.0,"State":1.0,"County":1.0,"City":1.0,"Street":[1.0],"PostalCode":1.0},"Location":{"LocationId":"NT_eVyeT-u2NbxQ8.Tz28LjkA_l_993417567_R","LocationType":"point","DisplayPosition":{"Latitude":50.46566,"Longitude":3.93845},"MapView":{"TopLeft":{"Latitude":50.46566,"Longitude":3.93845},"BottomRight":{"Latitude":50.46472,"Longitude":3.93876}},"Address":{"Label":"Rue du Grand Large, 7000 Mons, Belgique","Country":"BEL","State":"Wallonie","County":"Hainaut","City":"Mons","Street":"Rue du Grand Large","PostalCode":"7000","AdditionalData":[{"value":"Belgique","key":"CountryName"},{"value":"Wallonie","key":"StateName"},{"value":"Hainaut","key":"CountyName"}]},"MapReference":{"ReferenceId":"993417567","Spot":1.0,"SideOfStreet":"right","CountryId":"20128886","StateId":"20205526","CountyId":"20205527","CityId":"20205750"}}},{"Relevance":1.0,"Distance":218.3,"MatchLevel":"street","MatchQuality":{"Country":1.0,"State":1.0,"County":1.0,"City":1.0,"Street":[1.0],"PostalCode":1.0},"Location":{"LocationId":"NT_Cx1vjeNab0L6rSRRCly1sD_l_993619220_L","LocationType":"point","DisplayPosition":{"Latitude":50.46751,"Longitude":3.94337},"MapView":{"TopLeft":{"Latitude":50.46805,"Longitude":3.94337},"BottomRight":{"Latitude":50.46751,"Longitude":3.94478}},"Address":{"Label":"Avenue de la Sapinette, 7000 Mons, Belgique","Country":"BEL","State":"Wallonie","County":"Hainaut","City":"Mons","Street":"Avenue de la Sapinette","PostalCode":"7000","AdditionalData":[{"value":"Belgique","key":"CountryName"},{"value":"Wallonie","key":"StateName"},{"value":"Hainaut","key":"CountyName"}]},"MapReference":{"ReferenceId":"993619220","Spot":0.0,"SideOfStreet":"left","CountryId":"20128886","StateId":"20205526","CountyId":"20205527","CityId":"20205750"}}},{"Relevance":1.0,"Distance":218.3,"MatchLevel":"street","MatchQuality":{"Country":1.0,"State":1.0,"County":1.0,"City":1.0,"Street":[1.0],"PostalCode":1.0},"Location":{"LocationId":"NT_7gYTvJbDdNtKs95Xzum4yB_l_79534709_L","LocationType":"point","DisplayPosition":{"Latitude":50.46751,"Longitude":3.94337},"MapView":{"TopLeft":{"Latitude":50.46751,"Longitude":3.94337},"BottomRight":{"Latitude":50.46551,"Longitude":3.94652}},"Address":{"Label":"Chemin Rive Droite du Canal du Centre, 7000 Mons, Belgique","Country":"BEL","State":"Wallonie","County":"Hainaut","City":"Mons","Street":"Chemin Rive Droite du Canal du Centre","PostalCode":"7000","AdditionalData":[{"value":"Belgique","key":"CountryName"},{"value":"Wallonie","key":"StateName"},{"value":"Hainaut","key":"CountyName"}]},"MapReference":{"ReferenceId":"79534709","Spot":1.0,"SideOfStreet":"left","CountryId":"20128886","StateId":"20205526","CountyId":"20205527","CityId":"20205750"}}},{"Relevance":1.0,"Distance":254.3,"MatchLevel":"street","MatchQuality":{"Country":1.0,"State":1.0,"County":1.0,"City":1.0,"Street":[1.0],"PostalCode":1.0},"Location":{"LocationId":"NT_eVyeT-u2NbxQ8.Tz28LjkA_l_993417566_R","LocationType":"point","DisplayPosition":{"Latitude":50.46472,"Longitude":3.93873},"MapView":{"TopLeft":{"Latitude":50.46472,"Longitude":3.93864},"BottomRight":{"Latitude":50.46421,"Longitude":3.93873}},"Address":{"Label":"Rue du Grand Large, 7000 Mons, Belgique","Country":"BEL","State":"Wallonie","County":"Hainaut","City":"Mons","Street":"Rue du Grand Large","PostalCode":"7000","AdditionalData":[{"value":"Belgique","key":"CountryName"},{"value":"Wallonie","key":"StateName"},{"value":"Hainaut","key":"CountyName"}]},"MapReference":{"ReferenceId":"993417566","Spot":1.0,"SideOfStreet":"right","CountryId":"20128886","StateId":"20205526","CountyId":"20205527","CityId":"20205750"}}},{"Relevance":1.0,"Distance":255.0,"MatchLevel":"houseNumber","MatchQuality":{"Country":1.0,"State":1.0,"County":1.0,"City":1.0,"Street":[1.0],"HouseNumber":1.0,"PostalCode":1.0},"MatchType":"interpolated","Location":{"LocationId":"NT_MhBDkPItJk1cMBscewP10A_0gD","LocationType":"point","DisplayPosition":{"Latitude":50.46442,"Longitude":3.93911},"MapView":{"TopLeft":{"Latitude":50.4655442,"Longitude":3.937344},"BottomRight":{"Latitude":50.4632958,"Longitude":3.940876}},"Address":{"Label":"Chaussée de Ghlin 48, 7000 Mons, Belgique","Country":"BEL","State":"Wallonie","County":"Hainaut","City":"Mons","Street":"Chaussée de Ghlin","HouseNumber":"48","PostalCode":"7000","AdditionalData":[{"value":"Belgique","key":"CountryName"},{"value":"Wallonie","key":"StateName"},{"value":"Hainaut","key":"CountyName"}]},"MapReference":{"ReferenceId":"993625374","Spot":0.6,"SideOfStreet":"right","CountryId":"20128886","StateId":"20205526","CountyId":"20205527","CityId":"20205750","AddressId":"455902243","RoadLinkId":"322158800"}}}]}]}}