{"Response":{"MetaInfo":{"Timestamp":"2020-03-28T11:43:18.420+0000","NextPageInformation":"2"},"View":[{"_type":"SearchResultsViewType","ViewId":0,"Result":[{"Relevance":1.0,"Distance":0.0,"Direction":0.0,"MatchLevel":"district","MatchQuality":{"Country":1.0,"State":1.0,"County":1.0,"City":1.0,"District":1.0,"PostalCode":1.0},"Location":{"LocationId":"NT_6kXOzMWq39rYZdY6RrbyGA","LocationType":"point","DisplayPosition":{"Latitude":50.4331683,"Longitude":8.4998159},"MapView":{"TopLeft":{"Latitude":50.43879,"Longitude":8.4839},"BottomRight":{"Latitude":50.42558,"Longitude":8.50929}},"Address":{"Label":"Brandoberndorf, Waldsolms, Hessen, Deutschland","Country":"DEU","State":"Hessen","County":"Lahn-Dill-Kreis","City":"Waldsolms","District":"Brandoberndorf","PostalCode":"35647","AdditionalData":[{"value":"Deutschland","key":"CountryName"},{"value":"Hessen","key":"StateName"},{"value":"Lahn-Dill-Kreis","key":"CountyName"}]},"MapReference":{"ReferenceId":"807462350","SideOfStreet":"neither","CountryId":"20147700","StateId":"20160993","CountyId":"20162290","CityId":"20162455","DistrictId":"20162461"}}},{"Relevance":1.0,"Distance":8.3,"MatchLevel":"houseNumber","MatchQuality":{"Country":1.0,"State":1.0,"County":1.0,"City":1.0,"District":1.0,"Street":[1.0],"HouseNumber":1.0,"PostalCode":1.0},"MatchType":"interpolated","Location":{"LocationId":"NT_2MimSBtYXpxNIHpWN.yt6C_yED","LocationType":"point","DisplayPosition":{"Latitude":50.43303,"Longitude":8.49981},"MapView":{"TopLeft":{"Latitude":50.4341542,"Longitude":8.4980452},"BottomRight":{"Latitude":50.4319058,"Longitude":8.5015748}},"Address":{"Label":"Cleeberger Straße 21, 35647 Waldsolms, Deutschland","Country":"DEU","State":"Hessen","County":"Lahn-Dill-Kreis","City":"Waldsolms","District":"Brandoberndorf","Street":"Cleeberger Straße","HouseNumber":"21","PostalCode":"35647","AdditionalData":[{"value":"Deutschland","key":"CountryName"},{"value":"Hessen","key":"StateName"},{"value":"Lahn-Dill-Kreis","key":"CountyName"}]},"MapReference":{"ReferenceId":"807462114","Spot":0.19,"SideOfStreet":"left","CountryId":"20147700","StateId":"20160993","CountyId":"20162290","CityId":"20162455","DistrictId":"20162461","AddressId":"186669897","RoadLinkId":"195124911"}}},{"Relevance":1.0,"Distance":16.1,"MatchLevel":"street","MatchQuality":{"Country":1.0,"State":1.0,"County":1.0,"City":1.0,"District":1.0,"Street":[1.0],"PostalCode":1.0},"Location":{"LocationId":"NT_uc1JEazFmqec3-JB74FDMA_l_61547352_R","LocationType":"point","DisplayPosition":{"Latitude":50.4331119,"Longitude":8.4996071},"MapView":{"TopLeft":{"Latitude":50.43336,"Longitude":8.49954},"BottomRight":{"Latitude":50.43299,"Longitude":8.49964}},"Address":{"Label":"Forsthausstraße, 35647 Waldsolms, Deutschland","Country":"DEU","State":"Hessen","County":"Lahn-Dill-Kreis","City":"Waldsolms","District":"Brandoberndorf","Street":"Forsthausstraße","PostalCode":"35647","AdditionalData":[{"value":"Deutschland","key":"CountryName"},{"value":"Hessen","key":"StateName"},{"value":"Lahn-Dill-Kreis","key":"CountyName"}]},"MapReference":{"ReferenceId":"61547352","Spot":0.33,"SideOfStreet":"right","CountryId":"20147700","StateId":"20160993","CountyId":"20162290","CityId":"20162455","DistrictId":"20162461"}}},{"Relevance":1.0,"Distance":23.4,"MatchLevel":"street","MatchQuality":{"Country":1.0,"State":1.0,"County":1.0,"City":1.0,"District":1.0,"Street":[1.0],"PostalCode":1.0},"Location":{"LocationId":"NT_2MimSBtYXpxNIHpWN.yt6C_l_61547351_L","LocationType":"point","DisplayPosition":{"Latitude":50.43299,"Longitude":8.49964},"MapView":{"TopLeft":{"Latitude":50.43299,"Longitude":8.49954},"BottomRight":{"Latitude":50.43297,"Longitude":8.49964}},"Address":{"Label":"Cleeberger Straße, 35647 Waldsolms, Deutschland","Country":"DEU","State":"Hessen","County":"Lahn-Dill-Kreis","City":"Waldsolms","District":"Brandoberndorf","Street":"Cleeberger Straße","PostalCode":"35647","AdditionalData":[{"value":"Deutschland","key":"CountryName"},{"value":"Hessen","key":"StateName"},{"value":"Lahn-Dill-Kreis","key":"CountyName"}]},"MapReference":{"ReferenceId":"61547351","Spot":1.0,"SideOfStreet":"left","CountryId":"20147700","StateId":"20160993","CountyId":"20162290","CityId":"20162455","DistrictId":"20162461"}}},{"Relevance":1.0,"Distance":30.4,"MatchLevel":"houseNumber","MatchQuality":{"Country":1.0,"State":1.0,"County":1.0,"City":1.0,"District":1.0,"Street":[1.0],"HouseNumber":1.0,"PostalCode":1.0},"MatchType":"interpolated","Location":{"LocationId":"NT_2MimSBtYXpxNIHpWN.yt6C_xkD","LocationType":"point","DisplayPosition":{"Latitude":50.43297,"Longitude":8.49952},"MapView":{"TopLeft":{"Latitude":50.4340942,"Longitude":8.4977552},"BottomRight":{"Latitude":50.4318458,"Longitude":8.5012848}},"Address":{"Label":"Cleeberger Straße 19, 35647 Waldsolms, Deutschland","Country":"DEU","State":"Hessen","County":"Lahn-Dill-Kreis","City":"Waldsolms","District":"Brandoberndorf","Street":"Cleeberger Straße","HouseNumber":"19","PostalCode":"35647","AdditionalData":[{"value":"Deutschland","key":"CountryName"},{"value":"Hessen","key":"StateName"},{"value":"Lahn-Dill-Kreis","key":"CountyName"}]},"MapReference":{"ReferenceId":"807462099","Spot":0.97,"SideOfStreet":"left","CountryId":"20147700","StateId":"20160993","CountyId":"20162290","CityId":"20162455","DistrictId":"20162461","AddressId":"187425046","RoadLinkId":"195124888"}}},{"Relevance":1.0,"Distance":58.4,"MatchLevel":"houseNumber","MatchQuality":{"Country":1.0,"State":1.0,"County":1.0,"City":1.0,"District":1.0,"Street":[1.0],"HouseNumber":1.0,"PostalCode":1.0},"MatchType":"interpolated","Location":{"LocationId":"NT_2MimSBtYXpxNIHpWN.yt6C_yUD","LocationType":"point","DisplayPosition":{"Latitude":50.43322,"Longitude":8.50066},"MapView":{"TopLeft":{"Latitude":50.4343442,"Longitude":8.4988952},"BottomRight":{"Latitude":50.4320958,"Longitude":8.5024248}},"Address":{"Label":"Cleeberger Straße 25, 35647 Waldsolms, Deutschland","Country":"DEU","State":"Hessen","County":"Lahn-Dill-Kreis","City":"Waldsolms","District":"Brandoberndorf","Street":"Cleeberger Straße","HouseNumber":"25","PostalCode":"35647","AdditionalData":[{"value":"Deutschland","key":"CountryName"},{"value":"Hessen","key":"StateName"},{"value":"Lahn-Dill-Kreis","key":"CountyName"}]},"MapReference":{"ReferenceId":"807462115","Spot":0.15,"SideOfStreet":"left","CountryId":"20147700","StateId":"20160993","CountyId":"20162290","CityId":"20162455","DistrictId":"20162461","AddressId":"187645096","RoadLinkId":"195124912"}}},{"Relevance":1.0,"Distance":65.2,"MatchLevel":"houseNumber","MatchQuality":{"Country":1.0,"State":1.0,"County":1.0,"City":1.0,"District":1.0,"Street":[1.0],"HouseNumber":1.0,"PostalCode":1.0},"MatchType":"interpolated","Location":{"LocationId":"NT_2JIGNJDVAR.6WvD9rJgf6A_zA","LocationType":"point","DisplayPosition":{"Latitude":50.43323,"Longitude":8.4989},"MapView":{"TopLeft":{"Latitude":50.4343542,"Longitude":8.4971352},"BottomRight":{"Latitude":50.4321058,"Longitude":8.5006648}},"Address":{"Label":"Tränkwasser 3, 35647 Waldsolms, Deutschland","Country":"DEU","State":"Hessen","County":"Lahn-Dill-Kreis","City":"Waldsolms","District":"Brandoberndorf","Street":"Tränkwasser","HouseNumber":"3","PostalCode":"35647","AdditionalData":[{"value":"Deutschland","key":"CountryName"},{"value":"Hessen","key":"StateName"},{"value":"Lahn-Dill-Kreis","key":"CountyName"}]},"MapReference":{"ReferenceId":"61547263","Spot":0.54,"SideOfStreet":"left","CountryId":"20147700","StateId":"20160993","CountyId":"20162290","CityId":"20162455","DistrictId":"20162461","AddressId":"186817613","RoadLinkId":"33891950"}}},{"Relevance":1.0,"Distance":67.6,"MatchLevel":"street","MatchQuality":{"Country":1.0,"State":1.0,"County":1.0,"City":1.0,"District":1.0,"PostalCode":1.0},"Location":{"LocationId":"NT_T.O1iIVa3PhSgkpHZEkH9A_l_61547383_L","LocationType":"point","DisplayPosition":{"Latitude":50.43257,"Longitude":8.49965},"MapView":{"TopLeft":{"Latitude":50.43257,"Longitude":8.4995},"BottomRight":{"Latitude":50.43226,"Longitude":8.49965}},"Address":{"Label":"35647 Waldsolms, Deutschland","Country":"DEU","State":"Hessen","County":"Lahn-Dill-Kreis","City":"Waldsolms","District":"Brandoberndorf","PostalCode":"35647","AdditionalData":[{"value":"Deutschland","key":"CountryName"},{"value":"Hessen","key":"StateName"},{"value":"Lahn-Dill-Kreis","key":"CountyName"}]},"MapReference":{"ReferenceId":"61547383","Spot":1.0,"SideOfStreet":"left","CountryId":"20147700","StateId":"20160993","CountyId":"20162290","CityId":"20162455","DistrictId":"20162461"}}},{"Relevance":1.0,"Distance":73.3,"MatchLevel":"houseNumber","MatchQuality":{"Country":1.0,"State":1.0,"County":1.0,"City":1.0,"District":1.0,"Street":[1.0],"HouseNumber":1.0,"PostalCode":1.0},"MatchType":"interpolated","Location":{"LocationId":"NT_2MimSBtYXpxNIHpWN.yt6C_xED","LocationType":"point","DisplayPosition":{"Latitude":50.43285,"Longitude":8.49888},"MapView":{"TopLeft":{"Latitude":50.4339742,"Longitude":8.4971152},"BottomRight":{"Latitude":50.4317258,"Longitude":8.5006448}},"Address":{"Label":"Cleeberger Straße 11, 35647 Waldsolms, Deutschland","Country":"DEU","State":"Hessen","County":"Lahn-Dill-Kreis","City":"Waldsolms","District":"Brandoberndorf","Street":"Cleeberger Straße","HouseNumber":"11","PostalCode":"35647","AdditionalData":[{"value":"Deutschland","key":"CountryName"},{"value":"Hessen","key":"StateName"},{"value":"Lahn-Dill-Kreis","key":"CountyName"}]},"MapReference":{"ReferenceId":"807462098","Spot":0.11,"SideOfStreet":"right","CountryId":"20147700","StateId":"20160993","CountyId":"20162290","CityId":"20162455","DistrictId":"20162461","AddressId":"187602547","RoadLinkId":"195124887"}}},{"Relevance":1.0,"Distance":78.1,"MatchLevel":"houseNumber","MatchQuality":{"Country":1.0,"State":1.0,"County":1.0,"City":1.0,"District":1.0,"Street":[1.0],"HouseNumber":1.0,"PostalCode":1.0},"MatchType":"interpolated","Location":{"LocationId":"NT_2MimSBtYXpxNIHpWN.yt6C_zcD","LocationType":"point","DisplayPosition":{"Latitude":50.43358,"Longitude":8.50071},"MapView":{"TopLeft":{"Latitude":50.4347042,"Longitude":8.4989452},"BottomRight":{"Latitude":50.4324558,"Longitude":8.5024748}},"Address":{"Label":"Cleeberger Straße 37, 35647 Waldsolms, Deutschland","Country":"DEU","State":"Hessen","County":"Lahn-Dill-Kreis","City":"Waldsolms","District":"Brandoberndorf","Street":"Cleeberger Straße","HouseNumber":"37","PostalCode":"35647","AdditionalData":[{"value":"Deutschland","key":"CountryName"},{"value":"Hessen","key":"StateName"},{"value":"Lahn-Dill-Kreis","key":"CountyName"}]},"MapReference":{"ReferenceId":"61547370","Spot":0.63,"SideOfStreet":"right","CountryId":"20147700","StateId":"20160993","CountyId":"20162290","CityId":"20162455","DistrictId":"20162461","AddressId":"187330286","RoadLinkId":"34568098"}}}]}]}}