{"Response":{"MetaInfo":{"Timestamp":"2020-03-28T10:51:47.103+0000","NextPageInformation":"2"},"View":[{"_type":"SearchResultsViewType","ViewId":0,"Result":[{"Relevance":1.0,"Distance":0.0,"Direction":0.0,"MatchLevel":"city","MatchQuality":{"Country":1.0,"State":1.0,"County":1.0,"City":1.0,"PostalCode":1.0},"Location":{"LocationId":"NT_99-KDxCybSQCIJET0PG0lC","LocationType":"point","DisplayPosition":{"Latitude":50.5322087,"Longitude":5.5770286},"MapView":{"TopLeft":{"Latitude":50.58065,"Longitude":5.49744},"BottomRight":{"Latitude":50.50319,"Longitude":5.61676}},"Address":{"Label":"Esneux, Wallonie, Belgique","Country":"BEL","State":"Wallonie","County":"Liège","City":"Esneux","PostalCode":"4130","AdditionalData":[{"value":"Belgique","key":"CountryName"},{"value":"Wallonie","key":"StateName"},{"value":"Liège","key":"CountyName"}]},"MapReference":{"ReferenceId":"60057916","SideOfStreet":"neither","CountryId":"20128886","StateId":"20205526","CountyId":"20206134","CityId":"20206296"}}},{"Relevance":1.0,"Distance":65.0,"MatchLevel":"houseNumber","MatchQuality":{"Country":1.0,"State":1.0,"County":1.0,"City":1.0,"Street":[1.0],"HouseNumber":1.0,"PostalCode":1.0},"MatchType":"interpolated","Location":{"LocationId":"NT_zzfy3pkAz-u2j2HU5HxZTC_yUzLycD","LocationType":"point","DisplayPosition":{"Latitude":50.53168,"Longitude":5.57626},"MapView":{"TopLeft":{"Latitude":50.5328042,"Longitude":5.5744915},"BottomRight":{"Latitude":50.5305558,"Longitude":5.5780285}},"Address":{"Label":"Rue Grandfosse 25/27, 4130 Esneux, Belgique","Country":"BEL","State":"Wallonie","County":"Liège","City":"Esneux","Street":"Rue Grandfosse","HouseNumber":"25/27","PostalCode":"4130","AdditionalData":[{"value":"Belgique","key":"CountryName"},{"value":"Wallonie","key":"StateName"},{"value":"Liège","key":"CountyName"}]},"MapReference":{"ReferenceId":"773816078","Spot":0.1,"SideOfStreet":"left","CountryId":"20128886","StateId":"20205526","CountyId":"20206134","CityId":"20206296","AddressId":"368776674","RoadLinkId":"167512310"}}},{"Relevance":1.0,"Distance":152.1,"MatchLevel":"houseNumber","MatchQuality":{"Country":1.0,"State":1.0,"County":1.0,"City":1.0,"Street":[1.0],"HouseNumber":1.0,"PostalCode":1.0},"MatchType":"interpolated","Location":{"LocationId":"NT_zzfy3pkAz-u2j2HU5HxZTC_yMD","LocationType":"point","DisplayPosition":{"Latitude":50.53154,"Longitude":5.57507},"MapView":{"TopLeft":{"Latitude":50.5326642,"Longitude":5.5733015},"BottomRight":{"Latitude":50.5304158,"Longitude":5.5768385}},"Address":{"Label":"Rue Grandfosse 23, 4130 Esneux, Belgique","Country":"BEL","State":"Wallonie","County":"Liège","City":"Esneux","Street":"Rue Grandfosse","HouseNumber":"23","PostalCode":"4130","AdditionalData":[{"value":"Belgique","key":"CountryName"},{"value":"Wallonie","key":"StateName"},{"value":"Liège","key":"CountyName"}]},"MapReference":{"ReferenceId":"854500491","Spot":0.31,"SideOfStreet":"left","CountryId":"20128886","StateId":"20205526","CountyId":"20206134","CityId":"20206296","AddressId":"368769353","RoadLinkId":"232748464"}}},{"Relevance":1.0,"Distance":171.5,"MatchLevel":"houseNumber","MatchQuality":{"Country":1.0,"State":1.0,"County":1.0,"City":1.0,"Street":[1.0],"HouseNumber":1.0,"PostalCode":1.0},"MatchType":"interpolated","Location":{"LocationId":"NT_tl3NxBxtKSOnP98c6VDa6C_xUD","LocationType":"point","DisplayPosition":{"Latitude":50.53415,"Longitude":5.57618},"MapView":{"TopLeft":{"Latitude":50.5352742,"Longitude":5.5744114},"BottomRight":{"Latitude":50.5330258,"Longitude":5.5779486}},"Address":{"Label":"Résidence Bois-Madame 15, 4130 Esneux, Belgique","Country":"BEL","State":"Wallonie","County":"Liège","City":"Esneux","Street":"Résidence Bois-Madame","HouseNumber":"15","PostalCode":"4130","AdditionalData":[{"value":"Belgique","key":"CountryName"},{"value":"Wallonie","key":"StateName"},{"value":"Liège","key":"CountyName"}]},"MapReference":{"ReferenceId":"79496910","Spot":0.22,"SideOfStreet":"right","CountryId":"20128886","StateId":"20205526","CountyId":"20206134","CityId":"20206296","AddressId":"455867503","RoadLinkId":"31019858"}}},{"Relevance":1.0,"Distance":175.6,"MatchLevel":"houseNumber","MatchQuality":{"Country":1.0,"State":1.0,"County":1.0,"City":1.0,"Street":[1.0],"HouseNumber":1.0,"PostalCode":1.0},"MatchType":"interpolated","Location":{"LocationId":"NT_.VW9GrG0ZHzIm.9YD9Ul3A_zA","LocationType":"point","DisplayPosition":{"Latitude":50.53147,"Longitude":5.57514},"MapView":{"TopLeft":{"Latitude":50.5325942,"Longitude":5.5733715},"BottomRight":{"Latitude":50.5303458,"Longitude":5.5769085}},"Address":{"Label":"Rue des Carrières 3, 4130 Esneux, Belgique","Country":"BEL","State":"Wallonie","County":"Liège","City":"Esneux","Street":"Rue des Carrières","HouseNumber":"3","PostalCode":"4130","AdditionalData":[{"value":"Belgique","key":"CountryName"},{"value":"Wallonie","key":"StateName"},{"value":"Liège","key":"CountyName"}]},"MapReference":{"ReferenceId":"567257527","Spot":0.95,"SideOfStreet":"right","CountryId":"20128886","StateId":"20205526","CountyId":"20206134","CityId":"20206296","AddressId":"767425314","RoadLinkId":"30797180"}}},{"Relevance":1.0,"Distance":195.3,"MatchLevel":"houseNumber","MatchQuality":{"Country":1.0,"State":1.0,"County":1.0,"City":1.0,"Street":[1.0],"HouseNumber":1.0,"PostalCode":1.0},"MatchType":"interpolated","Location":{"LocationId":"NT_zzfy3pkAz-u2j2HU5HxZTC_yED","LocationType":"point","DisplayPosition":{"Latitude":50.5315,"Longitude":5.5745},"MapView":{"TopLeft":{"Latitude":50.5326242,"Longitude":5.5727315},"BottomRight":{"Latitude":50.5303758,"Longitude":5.5762685}},"Address":{"Label":"Rue Grandfosse 21, 4130 Esneux, Belgique","Country":"BEL","State":"Wallonie","County":"Liège","City":"Esneux","Street":"Rue Grandfosse","HouseNumber":"21","PostalCode":"4130","AdditionalData":[{"value":"Belgique","key":"CountryName"},{"value":"Wallonie","key":"StateName"},{"value":"Liège","key":"CountyName"}]},"MapReference":{"ReferenceId":"854500490","Spot":0.38,"SideOfStreet":"left","CountryId":"20128886","StateId":"20205526","CountyId":"20206134","CityId":"20206296","AddressId":"368390865","RoadLinkId":"232748463"}}},{"Relevance":1.0,"Distance":220.2,"MatchLevel":"street","MatchQuality":{"Country":1.0,"State":1.0,"County":1.0,"City":1.0,"District":1.0,"Street":[1.0],"PostalCode":1.0},"Location":{"LocationId":"NT_ps4dwfL2ipMjQuVbs3dv0A_l_79496916_R","LocationType":"point","DisplayPosition":{"Latitude":50.53065,"Longitude":5.57895},"MapView":{"TopLeft":{"Latitude":50.53075,"Longitude":5.57895},"BottomRight":{"Latitude":50.52963,"Longitude":5.58059}},"Address":{"Label":"Rue Général Bonnet, 4130 Esneux, Belgique","Country":"BEL","State":"Wallonie","County":"Liège","City":"Esneux","District":"Fontin-la-Hâze","Street":"Rue Général Bonnet","PostalCode":"4130","AdditionalData":[{"value":"Belgique","key":"CountryName"},{"value":"Wallonie","key":"StateName"},{"value":"Liège","key":"CountyName"}]},"MapReference":{"ReferenceId":"79496916","Spot":1.0,"SideOfStreet":"right","CountryId":"20128886","StateId":"20205526","CountyId":"20206134","CityId":"20206296","DistrictId":"20412253"}}},{"Relevance":1.0,"Distance":227.2,"MatchLevel":"houseNumber","MatchQuality":{"Country":1.0,"State":1.0,"County":1.0,"City":1.0,"Street":[1.0],"HouseNumber":1.0,"PostalCode":1.0},"MatchType":"interpolated","Location":{"LocationId":"NT_zzfy3pkAz-u2j2HU5HxZTC_xUD","LocationType":"point","DisplayPosition":{"Latitude":50.53144,"Longitude":5.57405},"MapView":{"TopLeft":{"Latitude":50.5325642,"Longitude":5.5722815},"BottomRight":{"Latitude":50.5303158,"Longitude":5.5758185}},"Address":{"Label":"Rue Grandfosse 15, 4130 Esneux, Belgique","Country":"BEL","State":"Wallonie","County":"Liège","City":"Esneux","Street":"Rue Grandfosse","HouseNumber":"15","PostalCode":"4130","AdditionalData":[{"value":"Belgique","key":"CountryName"},{"value":"Wallonie","key":"StateName"},{"value":"Liège","key":"CountyName"}]},"MapReference":{"ReferenceId":"854141610","Spot":0.88,"SideOfStreet":"left","CountryId":"20128886","StateId":"20205526","CountyId":"20206134","CityId":"20206296","AddressId":"368440410","RoadLinkId":"232538465"}}},{"Relevance":1.0,"Distance":265.0,"MatchLevel":"houseNumber","MatchQuality":{"Country":1.0,"State":1.0,"County":1.0,"City":1.0,"District":1.0,"Street":[1.0],"HouseNumber":1.0,"PostalCode":1.0},"MatchType":"interpolated","Location":{"LocationId":"NT_JD72IxFnUBsSasuYuQ-pQB_2ID","LocationType":"point","DisplayPosition":{"Latitude":50.52995,"Longitude":5.57867},"MapView":{"TopLeft":{"Latitude":50.5310742,"Longitude":5.5769016},"BottomRight":{"Latitude":50.5288258,"Longitude":5.5804384}},"Address":{"Label":"Rue du 18 Septembre 1794 62, 4130 Esneux, Belgique","Country":"BEL","State":"Wallonie","County":"Liège","City":"Esneux","District":"Fontin-la-Hâze","Street":"Rue du 18 Septembre 1794","HouseNumber":"62","PostalCode":"4130","AdditionalData":[{"value":"Belgique","key":"CountryName"},{"value":"Wallonie","key":"StateName"},{"value":"Liège","key":"CountyName"}]},"MapReference":{"ReferenceId":"60057731","Spot":0.52,"SideOfStreet":"left","CountryId":"20128886","StateId":"20205526","CountyId":"20206134","CityId":"20206296","DistrictId":"20412253","AddressId":"368399229","RoadLinkId":"219874313"}}},{"Relevance":1.0,"Distance":271.1,"MatchLevel":"street","MatchQuality":{"Country":1.0,"State":1.0,"County":1.0,"City":1.0,"District":1.0,"PostalCode":1.0},"Location":{"LocationId":"NT_eJSB2xmLbcDsAX04GdashB_l_79496919_L","LocationType":"point","DisplayPosition":{"Latitude":50.52986,"Longitude":5.57806},"MapView":{"TopLeft":{"Latitude":50.5299,"Longitude":5.5778},"BottomRight":{"Latitude":50.52964,"Longitude":5.57834}},"Address":{"Label":"4130 Esneux, Belgique","Country":"BEL","State":"Wallonie","County":"Liège","City":"Esneux","District":"Fontin-la-Hâze","PostalCode":"4130","AdditionalData":[{"value":"Belgique","key":"CountryName"},{"value":"Wallonie","key":"StateName"},{"value":"Liège","key":"CountyName"}]},"MapReference":{"ReferenceId":"79496919","Spot":0.55,"SideOfStreet":"left","CountryId":"20128886","StateId":"20205526","CountyId":"20206134","CityId":"20206296","DistrictId":"20412253"}}}]}]}}