{"Response":{"MetaInfo":{"Timestamp":"2020-03-28T10:48:32.568+0000","NextPageInformation":"2"},"View":[{"_type":"SearchResultsViewType","ViewId":0,"Result":[{"Relevance":1.0,"Distance":0.0,"Direction":0.0,"MatchLevel":"district","MatchQuality":{"Country":1.0,"State":1.0,"County":1.0,"City":1.0,"District":1.0,"PostalCode":1.0},"Location":{"LocationId":"NT_RyB7T72fLuwsDmSfRkIVQC","LocationType":"point","DisplayPosition":{"Latitude":50.5246069,"Longitude":19.4373944},"MapView":{"TopLeft":{"Latitude":50.5268,"Longitude":19.40933},"BottomRight":{"Latitude":50.51737,"Longitude":19.44515}},"Address":{"Label":"Rudniki, Włodowice, Woj. Śląskie, Polska","Country":"POL","State":"Woj. Śląskie","County":"Powiat Zawierciański","City":"Włodowice","District":"Rudniki","PostalCode":"42-421","AdditionalData":[{"value":"Polska","key":"CountryName"},{"value":"Woj. Śląskie","key":"StateName"},{"value":"Powiat Zawierciański","key":"CountyName"}]},"MapReference":{"ReferenceId":"594313653","SideOfStreet":"neither","CountryId":"20624059","StateId":"20629003","CountyId":"20629326","CityId":"20629343","DistrictId":"20694076"}}},{"Relevance":1.0,"Distance":8.5,"MatchLevel":"houseNumber","MatchQuality":{"Country":1.0,"State":1.0,"County":1.0,"City":1.0,"District":1.0,"Street":[1.0],"HouseNumber":1.0,"PostalCode":1.0},"MatchType":"interpolated","Location":{"LocationId":"NT_2mCmgXyc0HHyg26xkhzwJC_yA","LocationType":"point","DisplayPosition":{"Latitude":50.52467,"Longitude":19.43706},"MapView":{"TopLeft":{"Latitude":50.5257942,"Longitude":19.4352918},"BottomRight":{"Latitude":50.5235458,"Longitude":19.4388282}},"Address":{"Label":"ulica Strażacka 2, 42-421 Rudniki, Polska","Country":"POL","State":"Woj. Śląskie","County":"Powiat Zawierciański","City":"Włodowice","District":"Rudniki","Street":"ulica Strażacka","HouseNumber":"2","PostalCode":"42-421","AdditionalData":[{"value":"Polska","key":"CountryName"},{"value":"Woj. Śląskie","key":"StateName"},{"value":"Powiat Zawierciański","key":"CountyName"}]},"MapReference":{"ReferenceId":"594313161","Spot":0.18,"SideOfStreet":"right","CountryId":"20624059","StateId":"20629003","CountyId":"20629326","CityId":"20629343","DistrictId":"20694076","AddressId":"367147622","RoadLinkId":"96347239"}}},{"Relevance":1.0,"Distance":35.6,"MatchLevel":"houseNumber","MatchQuality":{"Country":1.0,"State":1.0,"County":1.0,"City":1.0,"District":1.0,"Street":[1.0],"HouseNumber":1.0,"PostalCode":1.0},"MatchType":"interpolated","Location":{"LocationId":"NT_2mCmgXyc0HHyg26xkhzwJC_zA","LocationType":"point","DisplayPosition":{"Latitude":50.5245,"Longitude":19.43692},"MapView":{"TopLeft":{"Latitude":50.5256242,"Longitude":19.4351518},"BottomRight":{"Latitude":50.5233758,"Longitude":19.4386882}},"Address":{"Label":"ulica Strażacka 3, 42-421 Rudniki, Polska","Country":"POL","State":"Woj. Śląskie","County":"Powiat Zawierciański","City":"Włodowice","District":"Rudniki","Street":"ulica Strażacka","HouseNumber":"3","PostalCode":"42-421","AdditionalData":[{"value":"Polska","key":"CountryName"},{"value":"Woj. Śląskie","key":"StateName"},{"value":"Powiat Zawierciański","key":"CountyName"}]},"MapReference":{"ReferenceId":"594313265","Spot":0.95,"SideOfStreet":"left","CountryId":"20624059","StateId":"20629003","CountyId":"20629326","CityId":"20629343","DistrictId":"20694076","AddressId":"701965364","RoadLinkId":"96383867"}}},{"Relevance":1.0,"Distance":40.0,"MatchLevel":"houseNumber","MatchQuality":{"Country":1.0,"State":1.0,"County":1.0,"City":1.0,"District":1.0,"Street":[1.0],"HouseNumber":1.0,"PostalCode":1.0},"MatchType":"interpolated","Location":{"LocationId":"NT_gDOjApQtxCSCFvlAuiyFiD_yA","LocationType":"point","DisplayPosition":{"Latitude":50.5243,"Longitude":19.43769},"MapView":{"TopLeft":{"Latitude":50.5254242,"Longitude":19.4359218},"BottomRight":{"Latitude":50.5231758,"Longitude":19.4394582}},"Address":{"Label":"ulica Skarżycka 2, 42-421 Rudniki, Polska","Country":"POL","State":"Woj. Śląskie","County":"Powiat Zawierciański","City":"Włodowice","District":"Rudniki","Street":"ulica Skarżycka","HouseNumber":"2","PostalCode":"42-421","AdditionalData":[{"value":"Polska","key":"CountryName"},{"value":"Woj. Śląskie","key":"StateName"},{"value":"Powiat Zawierciański","key":"CountyName"}]},"MapReference":{"ReferenceId":"1166678040","Spot":0.54,"SideOfStreet":"left","CountryId":"20624059","StateId":"20629003","CountyId":"20629326","CityId":"20629343","DistrictId":"20694076","AddressId":"367085505","RoadLinkId":"473223974"}}},{"Relevance":1.0,"Distance":79.4,"MatchLevel":"street","MatchQuality":{"Country":1.0,"State":1.0,"County":1.0,"City":1.0,"PostalCode":1.0},"Location":{"LocationId":"NT_M7FdE7LYkPFEUTfj26ApwD_l_594313038_R","LocationType":"point","DisplayPosition":{"Latitude":50.52532,"Longitude":19.43746},"MapView":{"TopLeft":{"Latitude":50.53142,"Longitude":19.43746},"BottomRight":{"Latitude":50.52532,"Longitude":19.44736}},"Address":{"Label":"42-421, Polska","Country":"POL","State":"Woj. Śląskie","County":"Powiat Zawierciański","City":"Włodowice","PostalCode":"42-421","AdditionalData":[{"value":"Polska","key":"CountryName"},{"value":"Woj. Śląskie","key":"StateName"},{"value":"Powiat Zawierciański","key":"CountyName"}]},"MapReference":{"ReferenceId":"594313038","Spot":0.0,"SideOfStreet":"right","CountryId":"20624059","StateId":"20629003","CountyId":"20629326","CityId":"20629343"}}},{"Relevance":1.0,"Distance":103.6,"MatchLevel":"street","MatchQuality":{"Country":1.0,"State":1.0,"County":1.0,"City":1.0,"District":1.0,"PostalCode":1.0},"Location":{"LocationId":"NT_y01ZUQ3GoKJ1Y2KucVJckC_l_1166678043_L","LocationType":"point","DisplayPosition":{"Latitude":50.52401,"Longitude":19.43852},"MapView":{"TopLeft":{"Latitude":50.52401,"Longitude":19.43807},"BottomRight":{"Latitude":50.52303,"Longitude":19.43852}},"Address":{"Label":"42-421 Rudniki, Polska","Country":"POL","State":"Woj. Śląskie","County":"Powiat Zawierciański","City":"Włodowice","District":"Rudniki","PostalCode":"42-421","AdditionalData":[{"value":"Polska","key":"CountryName"},{"value":"Woj. Śląskie","key":"StateName"},{"value":"Powiat Zawierciański","key":"CountyName"}]},"MapReference":{"ReferenceId":"1166678043","Spot":1.0,"SideOfStreet":"left","CountryId":"20624059","StateId":"20629003","CountyId":"20629326","CityId":"20629343","DistrictId":"20694076"}}},{"Relevance":1.0,"Distance":114.4,"MatchLevel":"houseNumber","MatchQuality":{"Country":1.0,"State":1.0,"County":1.0,"City":1.0,"District":1.0,"Street":[1.0],"HouseNumber":1.0,"PostalCode":1.0},"MatchType":"interpolated","Location":{"LocationId":"NT_gDOjApQtxCSCFvlAuiyFiD_2A","LocationType":"point","DisplayPosition":{"Latitude":50.52396,"Longitude":19.43863},"MapView":{"TopLeft":{"Latitude":50.5250842,"Longitude":19.4368618},"BottomRight":{"Latitude":50.5228358,"Longitude":19.4403982}},"Address":{"Label":"ulica Skarżycka 6, 42-421 Rudniki, Polska","Country":"POL","State":"Woj. Śląskie","County":"Powiat Zawierciański","City":"Włodowice","District":"Rudniki","Street":"ulica Skarżycka","HouseNumber":"6","PostalCode":"42-421","AdditionalData":[{"value":"Polska","key":"CountryName"},{"value":"Woj. Śląskie","key":"StateName"},{"value":"Powiat Zawierciański","key":"CountyName"}]},"MapReference":{"ReferenceId":"1166678039","Spot":0.81,"SideOfStreet":"left","CountryId":"20624059","StateId":"20629003","CountyId":"20629326","CityId":"20629343","DistrictId":"20694076","AddressId":"701965355","RoadLinkId":"473223973"}}},{"Relevance":1.0,"Distance":124.8,"MatchLevel":"houseNumber","MatchQuality":{"Country":1.0,"State":1.0,"County":1.0,"City":1.0,"District":1.0,"Street":[1.0],"HouseNumber":1.0,"PostalCode":1.0},"MatchType":"interpolated","Location":{"LocationId":"NT_m2Uhmh90Qky9t1LzLPQfUA_xIzM","LocationType":"point","DisplayPosition":{"Latitude":50.52349,"Longitude":19.43757},"MapView":{"TopLeft":{"Latitude":50.5246142,"Longitude":19.4358018},"BottomRight":{"Latitude":50.5223658,"Longitude":19.4393382}},"Address":{"Label":"ulica Górnicza 123, 42-421 Rudniki, Polska","Country":"POL","State":"Woj. Śląskie","County":"Powiat Zawierciański","City":"Włodowice","District":"Rudniki","Street":"ulica Górnicza","HouseNumber":"123","PostalCode":"42-421","AdditionalData":[{"value":"Polska","key":"CountryName"},{"value":"Woj. Śląskie","key":"StateName"},{"value":"Powiat Zawierciański","key":"CountyName"}]},"MapReference":{"ReferenceId":"1166678042","Spot":0.29,"SideOfStreet":"right","CountryId":"20624059","StateId":"20629003","CountyId":"20629326","CityId":"20629343","DistrictId":"20694076","AddressId":"403670217","RoadLinkId":"473223976"}}},{"Relevance":1.0,"Distance":132.5,"MatchLevel":"houseNumber","MatchQuality":{"Country":1.0,"State":1.0,"County":1.0,"City":1.0,"District":1.0,"Street":[1.0],"HouseNumber":1.0,"PostalCode":1.0},"MatchType":"interpolated","Location":{"LocationId":"NT_L1BFEB0JAGawBWuw-353yD_xEzN","LocationType":"point","DisplayPosition":{"Latitude":50.52395,"Longitude":19.43583},"MapView":{"TopLeft":{"Latitude":50.5250742,"Longitude":19.4340618},"BottomRight":{"Latitude":50.5228258,"Longitude":19.4375982}},"Address":{"Label":"ulica Strażacka 117, 42-421 Rudniki, Polska","Country":"POL","State":"Woj. Śląskie","County":"Powiat Zawierciański","City":"Włodowice","District":"Rudniki","Street":"ulica Strażacka","HouseNumber":"117","PostalCode":"42-421","AdditionalData":[{"value":"Polska","key":"CountryName"},{"value":"Woj. Śląskie","key":"StateName"},{"value":"Powiat Zawierciański","key":"CountyName"}]},"MapReference":{"ReferenceId":"594313433","Spot":0.91,"SideOfStreet":"left","CountryId":"20624059","StateId":"20629003","CountyId":"20629326","CityId":"20629343","DistrictId":"20694076","AddressId":"766206426","RoadLinkId":"541192408"}}},{"Relevance":1.0,"Distance":176.5,"MatchLevel":"houseNumber","MatchQuality":{"Country":1.0,"State":1.0,"County":1.0,"City":1.0,"District":1.0,"Street":[1.0],"HouseNumber":1.0,"PostalCode":1.0},"MatchType":"interpolated","Location":{"LocationId":"NT_m2Uhmh90Qky9t1LzLPQfUA_xITN","LocationType":"point","DisplayPosition":{"Latitude":50.52301,"Longitude":19.43809},"MapView":{"TopLeft":{"Latitude":50.5241342,"Longitude":19.4363218},"BottomRight":{"Latitude":50.5218858,"Longitude":19.4398582}},"Address":{"Label":"ulica Górnicza 125, 42-421 Rudniki, Polska","Country":"POL","State":"Woj. Śląskie","County":"Powiat Zawierciański","City":"Włodowice","District":"Rudniki","Street":"ulica Górnicza","HouseNumber":"125","PostalCode":"42-421","AdditionalData":[{"value":"Polska","key":"CountryName"},{"value":"Woj. Śląskie","key":"StateName"},{"value":"Powiat Zawierciański","key":"CountyName"}]},"MapReference":{"ReferenceId":"1166678041","Spot":0.97,"SideOfStreet":"right","CountryId":"20624059","StateId":"20629003","CountyId":"20629326","CityId":"20629343","DistrictId":"20694076","AddressId":"367146664","RoadLinkId":"473223975"}}}]}]}}