{"Response":{"MetaInfo":{"Timestamp":"2020-03-28T10:49:29.072+0000","NextPageInformation":"2"},"View":[{"_type":"SearchResultsViewType","ViewId":0,"Result":[{"Relevance":1.0,"Distance":0.0,"Direction":0.0,"MatchLevel":"district","MatchQuality":{"Country":1.0,"State":1.0,"County":1.0,"City":1.0,"District":1.0,"PostalCode":1.0},"Location":{"LocationId":"NT_2MTfpBmTVSjPVhz0DMod3B","LocationType":"point","DisplayPosition":{"Latitude":50.5412749,"Longitude":19.3674275},"MapView":{"TopLeft":{"Latitude":50.61062,"Longitude":19.267},"BottomRight":{"Latitude":50.52096,"Longitude":19.38792}},"Address":{"Label":"Myszków, Woj. Śląskie, Polska","Country":"POL","State":"Woj. Śląskie","County":"Powiat Myszkowski","City":"Myszków","District":"Myszków","PostalCode":"42-300","AdditionalData":[{"value":"Polska","key":"CountryName"},{"value":"Woj. Śląskie","key":"StateName"},{"value":"Powiat Myszkowski","key":"CountyName"}]},"MapReference":{"ReferenceId":"1070822735","SideOfStreet":"neither","CountryId":"20624059","StateId":"20629003","CountyId":"20629224","CityId":"20629227","DistrictId":"20693784"}}},{"Relevance":1.0,"Distance":10.6,"MatchLevel":"houseNumber","MatchQuality":{"Country":1.0,"State":1.0,"County":1.0,"City":1.0,"District":1.0,"Street":[1.0],"HouseNumber":1.0,"PostalCode":1.0},"MatchType":"interpolated","Location":{"LocationId":"NT_E7azPzv.-D7YoxEB5FEXdA_0ED","LocationType":"point","DisplayPosition":{"Latitude":50.54119,"Longitude":19.36735},"MapView":{"TopLeft":{"Latitude":50.5423142,"Longitude":19.3655811},"BottomRight":{"Latitude":50.5400658,"Longitude":19.3691189}},"Address":{"Label":"ulica Romualda Traugutta 41, 42-300 Myszków, Polska","Country":"POL","State":"Woj. Śląskie","County":"Powiat Myszkowski","City":"Myszków","District":"Myszków","Street":"ulica Romualda Traugutta","HouseNumber":"41","PostalCode":"42-300","AdditionalData":[{"value":"Polska","key":"CountryName"},{"value":"Woj. Śląskie","key":"StateName"},{"value":"Powiat Myszkowski","key":"CountyName"}]},"MapReference":{"ReferenceId":"1016454399","Spot":0.74,"SideOfStreet":"right","CountryId":"20624059","StateId":"20629003","CountyId":"20629224","CityId":"20629227","DistrictId":"20693784","AddressId":"701995467","RoadLinkId":"340769938"}}},{"Relevance":1.0,"Distance":49.5,"MatchLevel":"houseNumber","MatchQuality":{"Country":1.0,"State":1.0,"County":1.0,"City":1.0,"District":1.0,"Street":[1.0],"HouseNumber":1.0,"PostalCode":1.0},"MatchType":"interpolated","Location":{"LocationId":"NT_E7azPzv.-D7YoxEB5FEXdA_zMD","LocationType":"point","DisplayPosition":{"Latitude":50.54172,"Longitude":19.36741},"MapView":{"TopLeft":{"Latitude":50.5428442,"Longitude":19.3656411},"BottomRight":{"Latitude":50.5405958,"Longitude":19.3691789}},"Address":{"Label":"ulica Romualda Traugutta 33, 42-300 Myszków, Polska","Country":"POL","State":"Woj. Śląskie","County":"Powiat Myszkowski","City":"Myszków","District":"Myszków","Street":"ulica Romualda Traugutta","HouseNumber":"33","PostalCode":"42-300","AdditionalData":[{"value":"Polska","key":"CountryName"},{"value":"Woj. Śląskie","key":"StateName"},{"value":"Powiat Myszkowski","key":"CountyName"}]},"MapReference":{"ReferenceId":"1016454400","Spot":0.02,"SideOfStreet":"right","CountryId":"20624059","StateId":"20629003","CountyId":"20629224","CityId":"20629227","DistrictId":"20693784","AddressId":"701995487","RoadLinkId":"340769939"}}},{"Relevance":1.0,"Distance":123.3,"MatchLevel":"houseNumber","MatchQuality":{"Country":1.0,"State":1.0,"County":1.0,"City":1.0,"District":1.0,"Street":[1.0],"HouseNumber":1.0,"PostalCode":1.0},"MatchType":"interpolated","Location":{"LocationId":"NT_JnEkx1Cvvnct.BqYD8tOGD_2A","LocationType":"point","DisplayPosition":{"Latitude":50.54096,"Longitude":19.36553},"MapView":{"TopLeft":{"Latitude":50.5420842,"Longitude":19.3637611},"BottomRight":{"Latitude":50.5398358,"Longitude":19.3672989}},"Address":{"Label":"ulica Jana Kilińskiego 6, 42-300 Myszków, Polska","Country":"POL","State":"Woj. Śląskie","County":"Powiat Myszkowski","City":"Myszków","District":"Myszków","Street":"ulica Jana Kilińskiego","HouseNumber":"6","PostalCode":"42-300","AdditionalData":[{"value":"Polska","key":"CountryName"},{"value":"Woj. Śląskie","key":"StateName"},{"value":"Powiat Myszkowski","key":"CountyName"}]},"MapReference":{"ReferenceId":"594309898","Spot":0.7,"SideOfStreet":"right","CountryId":"20624059","StateId":"20629003","CountyId":"20629224","CityId":"20629227","DistrictId":"20693784","AddressId":"222384764","RoadLinkId":"96438129"}}},{"Relevance":1.0,"Distance":126.3,"MatchLevel":"houseNumber","MatchQuality":{"Country":1.0,"State":1.0,"County":1.0,"City":1.0,"District":1.0,"Street":[1.0],"HouseNumber":1.0,"PostalCode":1.0},"MatchType":"interpolated","Location":{"LocationId":"NT_JnEkx1Cvvnct.BqYD8tOGD_xAD","LocationType":"point","DisplayPosition":{"Latitude":50.54128,"Longitude":19.36542},"MapView":{"TopLeft":{"Latitude":50.5424042,"Longitude":19.3636511},"BottomRight":{"Latitude":50.5401558,"Longitude":19.3671889}},"Address":{"Label":"ulica Jana Kilińskiego 10, 42-300 Myszków, Polska","Country":"POL","State":"Woj. Śląskie","County":"Powiat Myszkowski","City":"Myszków","District":"Myszków","Street":"ulica Jana Kilińskiego","HouseNumber":"10","PostalCode":"42-300","AdditionalData":[{"value":"Polska","key":"CountryName"},{"value":"Woj. Śląskie","key":"StateName"},{"value":"Powiat Myszkowski","key":"CountyName"}]},"MapReference":{"ReferenceId":"1016219108","Spot":0.05,"SideOfStreet":"right","CountryId":"20624059","StateId":"20629003","CountyId":"20629224","CityId":"20629227","DistrictId":"20693784","AddressId":"222406957","RoadLinkId":"340489744"}}},{"Relevance":1.0,"Distance":135.5,"MatchLevel":"houseNumber","MatchQuality":{"Country":1.0,"State":1.0,"County":1.0,"City":1.0,"District":1.0,"Street":[1.0],"HouseNumber":1.0,"PostalCode":1.0},"MatchType":"interpolated","Location":{"LocationId":"NT_H7KuaXDQdRay1zH6hPDcrD_ycD","LocationType":"point","DisplayPosition":{"Latitude":50.53997,"Longitude":19.36691},"MapView":{"TopLeft":{"Latitude":50.5410942,"Longitude":19.3651412},"BottomRight":{"Latitude":50.5388458,"Longitude":19.3686788}},"Address":{"Label":"ulica Krakowska 27, 42-300 Myszków, Polska","Country":"POL","State":"Woj. Śląskie","County":"Powiat Myszkowski","City":"Myszków","District":"Myszków","Street":"ulica Krakowska","HouseNumber":"27","PostalCode":"42-300","AdditionalData":[{"value":"Polska","key":"CountryName"},{"value":"Woj. Śląskie","key":"StateName"},{"value":"Powiat Myszkowski","key":"CountyName"}]},"MapReference":{"ReferenceId":"594309969","Spot":0.28,"SideOfStreet":"right","CountryId":"20624059","StateId":"20629003","CountyId":"20629224","CityId":"20629227","DistrictId":"20693784","AddressId":"701965758","RoadLinkId":"96550020"}}},{"Relevance":1.0,"Distance":143.1,"MatchLevel":"houseNumber","MatchQuality":{"Country":1.0,"State":1.0,"County":1.0,"City":1.0,"District":1.0,"Street":[1.0],"HouseNumber":1.0,"PostalCode":1.0},"MatchType":"interpolated","Location":{"LocationId":"NT_H7KuaXDQdRay1zH6hPDcrD_xkD","LocationType":"point","DisplayPosition":{"Latitude":50.54014,"Longitude":19.36619},"MapView":{"TopLeft":{"Latitude":50.5412642,"Longitude":19.3644212},"BottomRight":{"Latitude":50.5390158,"Longitude":19.3679588}},"Address":{"Label":"ulica Krakowska 19, 42-300 Myszków, Polska","Country":"POL","State":"Woj. Śląskie","County":"Powiat Myszkowski","City":"Myszków","District":"Myszków","Street":"ulica Krakowska","HouseNumber":"19","PostalCode":"42-300","AdditionalData":[{"value":"Polska","key":"CountryName"},{"value":"Woj. Śląskie","key":"StateName"},{"value":"Powiat Myszkowski","key":"CountyName"}]},"MapReference":{"ReferenceId":"1070577128","Spot":0.11,"SideOfStreet":"right","CountryId":"20624059","StateId":"20629003","CountyId":"20629224","CityId":"20629227","DistrictId":"20693784","AddressId":"702001769","RoadLinkId":"392680870"}}},{"Relevance":1.0,"Distance":154.0,"MatchLevel":"street","MatchQuality":{"Country":1.0,"State":1.0,"County":1.0,"City":1.0,"District":1.0,"Street":[1.0],"PostalCode":1.0},"Location":{"LocationId":"NT_H7KuaXDQdRay1zH6hPDcrD_l_594309946_R","LocationType":"point","DisplayPosition":{"Latitude":50.54011,"Longitude":19.36625},"MapView":{"TopLeft":{"Latitude":50.54011,"Longitude":19.36625},"BottomRight":{"Latitude":50.53998,"Longitude":19.36633}},"Address":{"Label":"ulica Krakowska, 42-300 Myszków, Polska","Country":"POL","State":"Woj. Śląskie","County":"Powiat Myszkowski","City":"Myszków","District":"Myszków","Street":"ulica Krakowska","PostalCode":"42-300","AdditionalData":[{"value":"Polska","key":"CountryName"},{"value":"Woj. Śląskie","key":"StateName"},{"value":"Powiat Myszkowski","key":"CountyName"}]},"MapReference":{"ReferenceId":"594309946","Spot":1.0,"SideOfStreet":"right","CountryId":"20624059","StateId":"20629003","CountyId":"20629224","CityId":"20629227","DistrictId":"20693784"}}},{"Relevance":1.0,"Distance":154.0,"MatchLevel":"street","MatchQuality":{"Country":1.0,"State":1.0,"County":1.0,"City":1.0,"District":1.0,"Street":[1.0],"PostalCode":1.0},"Location":{"LocationId":"NT_9Mb1JDmhBj-C7KCEpTMLsD_l_778992387_L","LocationType":"point","DisplayPosition":{"Latitude":50.54011,"Longitude":19.36625},"MapView":{"TopLeft":{"Latitude":50.54011,"Longitude":19.3661},"BottomRight":{"Latitude":50.53995,"Longitude":19.36625}},"Address":{"Label":"ulica Krzywa, 42-300 Myszków, Polska","Country":"POL","State":"Woj. Śląskie","County":"Powiat Myszkowski","City":"Myszków","District":"Myszków","Street":"ulica Krzywa","PostalCode":"42-300","AdditionalData":[{"value":"Polska","key":"CountryName"},{"value":"Woj. Śląskie","key":"StateName"},{"value":"Powiat Myszkowski","key":"CountyName"}]},"MapReference":{"ReferenceId":"778992387","Spot":1.0,"SideOfStreet":"left","CountryId":"20624059","StateId":"20629003","CountyId":"20629224","CityId":"20629227","DistrictId":"20693784"}}},{"Relevance":1.0,"Distance":163.5,"MatchLevel":"street","MatchQuality":{"Country":1.0,"State":1.0,"County":1.0,"City":1.0,"District":1.0,"Street":[1.0],"PostalCode":1.0},"Location":{"LocationId":"NT_WHcks74-1efC5LajZeMl.B_l_778992390_R","LocationType":"point","DisplayPosition":{"Latitude":50.53998,"Longitude":19.36633},"MapView":{"TopLeft":{"Latitude":50.53998,"Longitude":19.36633},"BottomRight":{"Latitude":50.53991,"Longitude":19.36634}},"Address":{"Label":"ulica Zawiercka, 42-300 Myszków, Polska","Country":"POL","State":"Woj. Śląskie","County":"Powiat Myszkowski","City":"Myszków","District":"Myszków","Street":"ulica Zawiercka","PostalCode":"42-300","AdditionalData":[{"value":"Polska","key":"CountryName"},{"value":"Woj. Śląskie","key":"StateName"},{"value":"Powiat Myszkowski","key":"CountyName"}]},"MapReference":{"ReferenceId":"778992390","Spot":1.0,"SideOfStreet":"right","CountryId":"20624059","StateId":"20629003","CountyId":"20629224","CityId":"20629227","DistrictId":"20693784"}}}]}]}}