{"Response":{"MetaInfo":{"Timestamp":"2020-03-28T11:32:05.174+0000","NextPageInformation":"2"},"View":[{"_type":"SearchResultsViewType","ViewId":0,"Result":[{"Relevance":1.0,"Distance":0.0,"Direction":0.0,"MatchLevel":"district","MatchQuality":{"Country":1.0,"State":1.0,"County":1.0,"City":1.0,"District":1.0,"PostalCode":1.0},"Location":{"LocationId":"NT_strrDYl-a9mRzAFPxMISvB","LocationType":"point","DisplayPosition":{"Latitude":50.5875696,"Longitude":16.8171632},"MapView":{"TopLeft":{"Latitude":50.60649,"Longitude":16.79124},"BottomRight":{"Latitude":50.57353,"Longitude":16.83933}},"Address":{"Label":"Ząbkowice Śląskie, Woj. Dolnośląskie, Polska","Country":"POL","State":"Woj. Dolnośląskie","County":"Powiat Ząbkowicki","City":"Ząbkowice Śląskie","District":"Ząbkowice Śląskie","PostalCode":"57-200","AdditionalData":[{"value":"Polska","key":"CountryName"},{"value":"Woj. Dolnośląskie","key":"StateName"},{"value":"Powiat Ząbkowicki","key":"CountyName"}]},"MapReference":{"ReferenceId":"1239380016","SideOfStreet":"neither","CountryId":"20624059","StateId":"20625002","CountyId":"20625344","CityId":"20625355","DistrictId":"20681210"}}},{"Relevance":1.0,"Distance":8.4,"MatchLevel":"houseNumber","MatchQuality":{"Country":1.0,"State":1.0,"County":1.0,"City":1.0,"District":1.0,"Street":[1.0],"HouseNumber":1.0,"PostalCode":1.0},"MatchType":"interpolated","Location":{"LocationId":"NT_2Oto2KM.j4ZgEKR768U2aB_1A","LocationType":"point","DisplayPosition":{"Latitude":50.58768,"Longitude":16.81683},"MapView":{"TopLeft":{"Latitude":50.5888042,"Longitude":16.8150594},"BottomRight":{"Latitude":50.5865558,"Longitude":16.8186006}},"Address":{"Label":"ulica Bolesława Chrobrego 5, 57-200 Ząbkowice Śląskie, Polska","Country":"POL","State":"Woj. Dolnośląskie","County":"Powiat Ząbkowicki","City":"Ząbkowice Śląskie","District":"Ząbkowice Śląskie","Street":"ulica Bolesława Chrobrego","HouseNumber":"5","PostalCode":"57-200","AdditionalData":[{"value":"Polska","key":"CountryName"},{"value":"Woj. Dolnośląskie","key":"StateName"},{"value":"Powiat Ząbkowicki","key":"CountyName"}]},"MapReference":{"ReferenceId":"1115347651","Spot":0.65,"SideOfStreet":"right","CountryId":"20624059","StateId":"20625002","CountyId":"20625344","CityId":"20625355","DistrictId":"20681210","AddressId":"732035901","RoadLinkId":"425453407"}}},{"Relevance":1.0,"Distance":55.7,"MatchLevel":"houseNumber","MatchQuality":{"Country":1.0,"State":1.0,"County":1.0,"City":1.0,"District":1.0,"Street":[1.0],"HouseNumber":1.0,"PostalCode":1.0},"MatchType":"interpolated","Location":{"LocationId":"NT_2Oto2KM.j4ZgEKR768U2aB_1cE","LocationType":"point","DisplayPosition":{"Latitude":50.58771,"Longitude":16.81792},"MapView":{"TopLeft":{"Latitude":50.5888342,"Longitude":16.8161494},"BottomRight":{"Latitude":50.5865858,"Longitude":16.8196906}},"Address":{"Label":"ulica Bolesława Chrobrego 5G, 57-200 Ząbkowice Śląskie, Polska","Country":"POL","State":"Woj. Dolnośląskie","County":"Powiat Ząbkowicki","City":"Ząbkowice Śląskie","District":"Ząbkowice Śląskie","Street":"ulica Bolesława Chrobrego","HouseNumber":"5G","PostalCode":"57-200","AdditionalData":[{"value":"Polska","key":"CountryName"},{"value":"Woj. Dolnośląskie","key":"StateName"},{"value":"Powiat Ząbkowicki","key":"CountyName"}]},"MapReference":{"ReferenceId":"594291805","Spot":0.0,"SideOfStreet":"left","CountryId":"20624059","StateId":"20625002","CountyId":"20625344","CityId":"20625355","DistrictId":"20681210","AddressId":"209567037","RoadLinkId":"96134698"}}},{"Relevance":1.0,"Distance":88.2,"MatchLevel":"houseNumber","MatchQuality":{"Country":1.0,"State":1.0,"County":1.0,"City":1.0,"District":1.0,"Street":[1.0],"HouseNumber":1.0,"PostalCode":1.0},"MatchType":"interpolated","Location":{"LocationId":"NT_2Oto2KM.j4ZgEKR768U2aB_zA","LocationType":"point","DisplayPosition":{"Latitude":50.58832,"Longitude":16.81757},"MapView":{"TopLeft":{"Latitude":50.5894442,"Longitude":16.8157994},"BottomRight":{"Latitude":50.5871958,"Longitude":16.8193406}},"Address":{"Label":"ulica Bolesława Chrobrego 3, 57-200 Ząbkowice Śląskie, Polska","Country":"POL","State":"Woj. Dolnośląskie","County":"Powiat Ząbkowicki","City":"Ząbkowice Śląskie","District":"Ząbkowice Śląskie","Street":"ulica Bolesława Chrobrego","HouseNumber":"3","PostalCode":"57-200","AdditionalData":[{"value":"Polska","key":"CountryName"},{"value":"Woj. Dolnośląskie","key":"StateName"},{"value":"Powiat Ząbkowicki","key":"CountyName"}]},"MapReference":{"ReferenceId":"594291729","Spot":0.39,"SideOfStreet":"right","CountryId":"20624059","StateId":"20625002","CountyId":"20625344","CityId":"20625355","DistrictId":"20681210","AddressId":"211027934","RoadLinkId":"96051941"}}},{"Relevance":1.0,"Distance":102.9,"MatchLevel":"houseNumber","MatchQuality":{"Country":1.0,"State":1.0,"County":1.0,"City":1.0,"District":1.0,"Street":[1.0],"HouseNumber":1.0,"PostalCode":1.0},"MatchType":"interpolated","Location":{"LocationId":"NT_2Oto2KM.j4ZgEKR768U2aB_1UE","LocationType":"point","DisplayPosition":{"Latitude":50.58669,"Longitude":16.81671},"MapView":{"TopLeft":{"Latitude":50.5878142,"Longitude":16.8149394},"BottomRight":{"Latitude":50.5855658,"Longitude":16.8184806}},"Address":{"Label":"ulica Bolesława Chrobrego 5E, 57-200 Ząbkowice Śląskie, Polska","Country":"POL","State":"Woj. Dolnośląskie","County":"Powiat Ząbkowicki","City":"Ząbkowice Śląskie","District":"Ząbkowice Śląskie","Street":"ulica Bolesława Chrobrego","HouseNumber":"5E","PostalCode":"57-200","AdditionalData":[{"value":"Polska","key":"CountryName"},{"value":"Woj. Dolnośląskie","key":"StateName"},{"value":"Powiat Ząbkowicki","key":"CountyName"}]},"MapReference":{"ReferenceId":"1058369238","Spot":0.57,"SideOfStreet":"left","CountryId":"20624059","StateId":"20625002","CountyId":"20625344","CityId":"20625355","DistrictId":"20681210","AddressId":"209941637","RoadLinkId":"381268631"}}},{"Relevance":1.0,"Distance":112.6,"MatchLevel":"houseNumber","MatchQuality":{"Country":1.0,"State":1.0,"County":1.0,"City":1.0,"District":1.0,"Street":[1.0],"HouseNumber":1.0,"PostalCode":1.0},"MatchType":"interpolated","Location":{"LocationId":"NT_2Oto2KM.j4ZgEKR768U2aB_1EE","LocationType":"point","DisplayPosition":{"Latitude":50.58692,"Longitude":16.81585},"MapView":{"TopLeft":{"Latitude":50.5880442,"Longitude":16.8140794},"BottomRight":{"Latitude":50.5857958,"Longitude":16.8176206}},"Address":{"Label":"ulica Bolesława Chrobrego 5A, 57-200 Ząbkowice Śląskie, Polska","Country":"POL","State":"Woj. Dolnośląskie","County":"Powiat Ząbkowicki","City":"Ząbkowice Śląskie","District":"Ząbkowice Śląskie","Street":"ulica Bolesława Chrobrego","HouseNumber":"5A","PostalCode":"57-200","AdditionalData":[{"value":"Polska","key":"CountryName"},{"value":"Woj. Dolnośląskie","key":"StateName"},{"value":"Powiat Ząbkowicki","key":"CountyName"}]},"MapReference":{"ReferenceId":"1115347650","Spot":0.8,"SideOfStreet":"right","CountryId":"20624059","StateId":"20625002","CountyId":"20625344","CityId":"20625355","DistrictId":"20681210","AddressId":"210928870","RoadLinkId":"425453406"}}},{"Relevance":1.0,"Distance":128.5,"MatchLevel":"houseNumber","MatchQuality":{"Country":1.0,"State":1.0,"County":1.0,"City":1.0,"District":1.0,"Street":[1.0],"HouseNumber":1.0,"PostalCode":1.0},"MatchType":"interpolated","Location":{"LocationId":"NT_HJA1u7yds2XPjBWjxP4lHC_zA","LocationType":"point","DisplayPosition":{"Latitude":50.58655,"Longitude":16.81802},"MapView":{"TopLeft":{"Latitude":50.5876742,"Longitude":16.8162494},"BottomRight":{"Latitude":50.5854258,"Longitude":16.8197906}},"Address":{"Label":"ulica Parkowa 3, 57-200 Ząbkowice Śląskie, Polska","Country":"POL","State":"Woj. Dolnośląskie","County":"Powiat Ząbkowicki","City":"Ząbkowice Śląskie","District":"Ząbkowice Śląskie","Street":"ulica Parkowa","HouseNumber":"3","PostalCode":"57-200","AdditionalData":[{"value":"Polska","key":"CountryName"},{"value":"Woj. Dolnośląskie","key":"StateName"},{"value":"Powiat Ząbkowicki","key":"CountyName"}]},"MapReference":{"ReferenceId":"1239213928","Spot":0.31,"SideOfStreet":"right","CountryId":"20624059","StateId":"20625002","CountyId":"20625344","CityId":"20625355","DistrictId":"20681210","AddressId":"731898720","RoadLinkId":"560144046"}}},{"Relevance":1.0,"Distance":132.4,"MatchLevel":"houseNumber","MatchQuality":{"Country":1.0,"State":1.0,"County":1.0,"City":1.0,"District":1.0,"Street":[1.0],"HouseNumber":1.0,"PostalCode":1.0},"MatchType":"interpolated","Location":{"LocationId":"NT_RgzzfmrEXjM1OV.uXyyjDD_zQD","LocationType":"point","DisplayPosition":{"Latitude":50.58884,"Longitude":16.81722},"MapView":{"TopLeft":{"Latitude":50.5899642,"Longitude":16.8154494},"BottomRight":{"Latitude":50.5877158,"Longitude":16.8189906}},"Address":{"Label":"ulica Ziębicka 34, 57-200 Ząbkowice Śląskie, Polska","Country":"POL","State":"Woj. Dolnośląskie","County":"Powiat Ząbkowicki","City":"Ząbkowice Śląskie","District":"Ząbkowice Śląskie","Street":"ulica Ziębicka","HouseNumber":"34","PostalCode":"57-200","AdditionalData":[{"value":"Polska","key":"CountryName"},{"value":"Woj. Dolnośląskie","key":"StateName"},{"value":"Powiat Ząbkowicki","key":"CountyName"}]},"MapReference":{"ReferenceId":"1113312339","Spot":0.71,"SideOfStreet":"left","CountryId":"20624059","StateId":"20625002","CountyId":"20625344","CityId":"20625355","DistrictId":"20681210","AddressId":"210097824","RoadLinkId":"423373851"}}},{"Relevance":1.0,"Distance":143.3,"MatchLevel":"street","MatchQuality":{"Country":1.0,"State":1.0,"County":1.0,"City":1.0,"District":1.0,"Street":[1.0],"PostalCode":1.0},"Location":{"LocationId":"NT_RgzzfmrEXjM1OV.uXyyjDD_l_1113312335_R","LocationType":"point","DisplayPosition":{"Latitude":50.58885,"Longitude":16.81693},"MapView":{"TopLeft":{"Latitude":50.58885,"Longitude":16.81666},"BottomRight":{"Latitude":50.58885,"Longitude":16.81693}},"Address":{"Label":"ulica Ziębicka, 57-200 Ząbkowice Śląskie, Polska","Country":"POL","State":"Woj. Dolnośląskie","County":"Powiat Ząbkowicki","City":"Ząbkowice Śląskie","District":"Ząbkowice Śląskie","Street":"ulica Ziębicka","PostalCode":"57-200","AdditionalData":[{"value":"Polska","key":"CountryName"},{"value":"Woj. Dolnośląskie","key":"StateName"},{"value":"Powiat Ząbkowicki","key":"CountyName"}]},"MapReference":{"ReferenceId":"1113312335","Spot":1.0,"SideOfStreet":"right","CountryId":"20624059","StateId":"20625002","CountyId":"20625344","CityId":"20625355","DistrictId":"20681210"}}},{"Relevance":1.0,"Distance":145.1,"MatchLevel":"street","MatchQuality":{"Country":1.0,"State":1.0,"County":1.0,"City":1.0,"District":1.0,"Street":[1.0],"PostalCode":1.0},"Location":{"LocationId":"NT_RgzzfmrEXjM1OV.uXyyjDD_l_1113312338_L","LocationType":"point","DisplayPosition":{"Latitude":50.58878,"Longitude":16.81793},"MapView":{"TopLeft":{"Latitude":50.58878,"Longitude":16.81793},"BottomRight":{"Latitude":50.58876,"Longitude":16.81804}},"Address":{"Label":"ulica Ziębicka, 57-200 Ząbkowice Śląskie, Polska","Country":"POL","State":"Woj. Dolnośląskie","County":"Powiat Ząbkowicki","City":"Ząbkowice Śląskie","District":"Ząbkowice Śląskie","Street":"ulica Ziębicka","PostalCode":"57-200","AdditionalData":[{"value":"Polska","key":"CountryName"},{"value":"Woj. Dolnośląskie","key":"StateName"},{"value":"Powiat Ząbkowicki","key":"CountyName"}]},"MapReference":{"ReferenceId":"1113312338","Spot":1.0,"SideOfStreet":"left","CountryId":"20624059","StateId":"20625002","CountyId":"20625344","CityId":"20625355","DistrictId":"20681210"}}}]}]}}