{"Response":{"MetaInfo":{"Timestamp":"2020-03-28T10:56:04.433+0000","NextPageInformation":"2"},"View":[{"_type":"SearchResultsViewType","ViewId":0,"Result":[{"Relevance":1.0,"Distance":0.0,"Direction":0.0,"MatchLevel":"district","MatchQuality":{"Country":1.0,"State":1.0,"County":1.0,"City":1.0,"District":1.0,"PostalCode":1.0},"Location":{"LocationId":"NT_UzHcDXxTbfG8jCagSrWHHD","LocationType":"point","DisplayPosition":{"Latitude":50.5477795,"Longitude":7.6622276},"MapView":{"TopLeft":{"Latitude":50.55307,"Longitude":7.63299},"BottomRight":{"Latitude":50.5424,"Longitude":7.66708}},"Address":{"Label":"Dierdorf, Rheinland-Pfalz, Deutschland","Country":"DEU","State":"Rheinland-Pfalz","County":"Neuwied","City":"Dierdorf","District":"Dierdorf","PostalCode":"56269","AdditionalData":[{"value":"Deutschland","key":"CountryName"},{"value":"Rheinland-Pfalz","key":"StateName"},{"value":"Neuwied","key":"CountyName"}]},"MapReference":{"ReferenceId":"761213995","SideOfStreet":"neither","CountryId":"20147700","StateId":"20164001","CountyId":"20165887","CityId":"20165929","DistrictId":"20165935"}}},{"Relevance":1.0,"Distance":16.3,"MatchLevel":"houseNumber","MatchQuality":{"Country":1.0,"State":1.0,"County":1.0,"City":1.0,"District":1.0,"Street":[1.0],"HouseNumber":1.0,"PostalCode":1.0},"MatchType":"interpolated","Location":{"LocationId":"NT_xLhFH-NfhBVp4o-RRP-oPB_yED","LocationType":"point","DisplayPosition":{"Latitude":50.54741,"Longitude":7.66244},"MapView":{"TopLeft":{"Latitude":50.5485342,"Longitude":7.6606709},"BottomRight":{"Latitude":50.5462858,"Longitude":7.6642091}},"Address":{"Label":"Johanniterstraße 21, 56269 Dierdorf, Deutschland","Country":"DEU","State":"Rheinland-Pfalz","County":"Neuwied","City":"Dierdorf","District":"Dierdorf","Street":"Johanniterstraße","HouseNumber":"21","PostalCode":"56269","AdditionalData":[{"value":"Deutschland","key":"CountryName"},{"value":"Rheinland-Pfalz","key":"StateName"},{"value":"Neuwied","key":"CountyName"}]},"MapReference":{"ReferenceId":"765841899","Spot":0.65,"SideOfStreet":"left","CountryId":"20147700","StateId":"20164001","CountyId":"20165887","CityId":"20165929","DistrictId":"20165935","AddressId":"187901366","RoadLinkId":"159706312"}}},{"Relevance":1.0,"Distance":68.2,"MatchLevel":"street","MatchQuality":{"Country":1.0,"State":1.0,"County":1.0,"City":1.0,"District":1.0,"Street":[1.0],"PostalCode":1.0},"Location":{"LocationId":"NT_yHRVSIBqgdceS0WjshO8BD_l_548288741_L","LocationType":"point","DisplayPosition":{"Latitude":50.54743,"Longitude":7.66302},"MapView":{"TopLeft":{"Latitude":50.54743,"Longitude":7.66302},"BottomRight":{"Latitude":50.54718,"Longitude":7.66338}},"Address":{"Label":"Gymnasialstraße, 56269 Dierdorf, Deutschland","Country":"DEU","State":"Rheinland-Pfalz","County":"Neuwied","City":"Dierdorf","District":"Dierdorf","Street":"Gymnasialstraße","PostalCode":"56269","AdditionalData":[{"value":"Deutschland","key":"CountryName"},{"value":"Rheinland-Pfalz","key":"StateName"},{"value":"Neuwied","key":"CountyName"}]},"MapReference":{"ReferenceId":"548288741","Spot":1.0,"SideOfStreet":"left","CountryId":"20147700","StateId":"20164001","CountyId":"20165887","CityId":"20165929","DistrictId":"20165935"}}},{"Relevance":1.0,"Distance":68.2,"MatchLevel":"street","MatchQuality":{"Country":1.0,"State":1.0,"County":1.0,"City":1.0,"District":1.0,"Street":[1.0],"PostalCode":1.0},"Location":{"LocationId":"NT_xLhFH-NfhBVp4o-RRP-oPB_l_548289534_R","LocationType":"point","DisplayPosition":{"Latitude":50.54743,"Longitude":7.66302},"MapView":{"TopLeft":{"Latitude":50.54743,"Longitude":7.66302},"BottomRight":{"Latitude":50.54741,"Longitude":7.66339}},"Address":{"Label":"Johanniterstraße, 56269 Dierdorf, Deutschland","Country":"DEU","State":"Rheinland-Pfalz","County":"Neuwied","City":"Dierdorf","District":"Dierdorf","Street":"Johanniterstraße","PostalCode":"56269","AdditionalData":[{"value":"Deutschland","key":"CountryName"},{"value":"Rheinland-Pfalz","key":"StateName"},{"value":"Neuwied","key":"CountyName"}]},"MapReference":{"ReferenceId":"548289534","Spot":1.0,"SideOfStreet":"right","CountryId":"20147700","StateId":"20164001","CountyId":"20165887","CityId":"20165929","DistrictId":"20165935"}}},{"Relevance":1.0,"Distance":88.1,"MatchLevel":"houseNumber","MatchQuality":{"Country":1.0,"State":1.0,"County":1.0,"City":1.0,"District":1.0,"Street":[1.0],"HouseNumber":1.0,"PostalCode":1.0},"MatchType":"interpolated","Location":{"LocationId":"NT_.LqNCFJUlU9EaagavmYjEA_xgD","LocationType":"point","DisplayPosition":{"Latitude":50.54874,"Longitude":7.66227},"MapView":{"TopLeft":{"Latitude":50.5498642,"Longitude":7.6605009},"BottomRight":{"Latitude":50.5476158,"Longitude":7.6640391}},"Address":{"Label":"Hachenburger Straße 18, 56269 Dierdorf, Deutschland","Country":"DEU","State":"Rheinland-Pfalz","County":"Neuwied","City":"Dierdorf","District":"Dierdorf","Street":"Hachenburger Straße","HouseNumber":"18","PostalCode":"56269","AdditionalData":[{"value":"Deutschland","key":"CountryName"},{"value":"Rheinland-Pfalz","key":"StateName"},{"value":"Neuwied","key":"CountyName"}]},"MapReference":{"ReferenceId":"1221230429","Spot":0.93,"SideOfStreet":"right","CountryId":"20147700","StateId":"20164001","CountyId":"20165887","CityId":"20165929","DistrictId":"20165935","AddressId":"187893813","RoadLinkId":"538586593"}}},{"Relevance":1.0,"Distance":90.4,"MatchLevel":"houseNumber","MatchQuality":{"Country":1.0,"State":1.0,"County":1.0,"City":1.0,"District":1.0,"Street":[1.0],"HouseNumber":1.0,"PostalCode":1.0},"MatchType":"interpolated","Location":{"LocationId":"NT_HVopgRJEIqbupQCd8v5tAA_xA","LocationType":"point","DisplayPosition":{"Latitude":50.54756,"Longitude":7.66355},"MapView":{"TopLeft":{"Latitude":50.5486842,"Longitude":7.6617809},"BottomRight":{"Latitude":50.5464358,"Longitude":7.6653191}},"Address":{"Label":"Pfaffenweg 1, 56269 Dierdorf, Deutschland","Country":"DEU","State":"Rheinland-Pfalz","County":"Neuwied","City":"Dierdorf","District":"Dierdorf","Street":"Pfaffenweg","HouseNumber":"1","PostalCode":"56269","AdditionalData":[{"value":"Deutschland","key":"CountryName"},{"value":"Rheinland-Pfalz","key":"StateName"},{"value":"Neuwied","key":"CountyName"}]},"MapReference":{"ReferenceId":"548289535","Spot":0.08,"SideOfStreet":"left","CountryId":"20147700","StateId":"20164001","CountyId":"20165887","CityId":"20165929","DistrictId":"20165935","AddressId":"188403470","RoadLinkId":"34732020"}}},{"Relevance":1.0,"Distance":93.0,"MatchLevel":"houseNumber","MatchQuality":{"Country":1.0,"State":1.0,"County":1.0,"City":1.0,"District":1.0,"Street":[1.0],"HouseNumber":1.0,"PostalCode":1.0},"MatchType":"interpolated","Location":{"LocationId":"NT_.LqNCFJUlU9EaagavmYjEA_xUD","LocationType":"point","DisplayPosition":{"Latitude":50.54843,"Longitude":7.6614},"MapView":{"TopLeft":{"Latitude":50.5495542,"Longitude":7.6596309},"BottomRight":{"Latitude":50.5473058,"Longitude":7.6631691}},"Address":{"Label":"Hachenburger Straße 15, 56269 Dierdorf, Deutschland","Country":"DEU","State":"Rheinland-Pfalz","County":"Neuwied","City":"Dierdorf","District":"Dierdorf","Street":"Hachenburger Straße","HouseNumber":"15","PostalCode":"56269","AdditionalData":[{"value":"Deutschland","key":"CountryName"},{"value":"Rheinland-Pfalz","key":"StateName"},{"value":"Neuwied","key":"CountyName"}]},"MapReference":{"ReferenceId":"1221230428","Spot":0.3,"SideOfStreet":"left","CountryId":"20147700","StateId":"20164001","CountyId":"20165887","CityId":"20165929","DistrictId":"20165935","AddressId":"188449865","RoadLinkId":"538586592"}}},{"Relevance":1.0,"Distance":93.7,"MatchLevel":"houseNumber","MatchQuality":{"Country":1.0,"State":1.0,"County":1.0,"City":1.0,"District":1.0,"Street":[1.0],"HouseNumber":1.0,"PostalCode":1.0},"MatchType":"interpolated","Location":{"LocationId":"NT_HJyAG0dyXCOtIV0n-cyWsD_xYD","LocationType":"point","DisplayPosition":{"Latitude":50.54844,"Longitude":7.66305},"MapView":{"TopLeft":{"Latitude":50.5495642,"Longitude":7.6612809},"BottomRight":{"Latitude":50.5473158,"Longitude":7.6648191}},"Address":{"Label":"Sternenweg 16, 56269 Dierdorf, Deutschland","Country":"DEU","State":"Rheinland-Pfalz","County":"Neuwied","City":"Dierdorf","District":"Dierdorf","Street":"Sternenweg","HouseNumber":"16","PostalCode":"56269","AdditionalData":[{"value":"Deutschland","key":"CountryName"},{"value":"Rheinland-Pfalz","key":"StateName"},{"value":"Neuwied","key":"CountyName"}]},"MapReference":{"ReferenceId":"548310348","Spot":0.45,"SideOfStreet":"right","CountryId":"20147700","StateId":"20164001","CountyId":"20165887","CityId":"20165929","DistrictId":"20165935","AddressId":"188165312","RoadLinkId":"33926227"}}},{"Relevance":1.0,"Distance":102.5,"MatchLevel":"houseNumber","MatchQuality":{"Country":1.0,"State":1.0,"County":1.0,"City":1.0,"District":1.0,"Street":[1.0],"HouseNumber":1.0,"PostalCode":1.0},"MatchType":"interpolated","Location":{"LocationId":"NT_.LqNCFJUlU9EaagavmYjEA_xQD","LocationType":"point","DisplayPosition":{"Latitude":50.54823,"Longitude":7.66078},"MapView":{"TopLeft":{"Latitude":50.5493542,"Longitude":7.6590109},"BottomRight":{"Latitude":50.5471058,"Longitude":7.6625491}},"Address":{"Label":"Hachenburger Straße 14, 56269 Dierdorf, Deutschland","Country":"DEU","State":"Rheinland-Pfalz","County":"Neuwied","City":"Dierdorf","District":"Dierdorf","Street":"Hachenburger Straße","HouseNumber":"14","PostalCode":"56269","AdditionalData":[{"value":"Deutschland","key":"CountryName"},{"value":"Rheinland-Pfalz","key":"StateName"},{"value":"Neuwied","key":"CountyName"}]},"MapReference":{"ReferenceId":"548289537","Spot":0.71,"SideOfStreet":"right","CountryId":"20147700","StateId":"20164001","CountyId":"20165887","CityId":"20165929","DistrictId":"20165935","AddressId":"188576884","RoadLinkId":"34562581"}}},{"Relevance":1.0,"Distance":105.9,"MatchLevel":"houseNumber","MatchQuality":{"Country":1.0,"State":1.0,"County":1.0,"City":1.0,"District":1.0,"Street":[1.0],"HouseNumber":1.0,"PostalCode":1.0},"MatchType":"interpolated","Location":{"LocationId":"NT_Rd8eas95GgAHLGDKolTbaD_yED","LocationType":"point","DisplayPosition":{"Latitude":50.54683,"Longitude":7.66278},"MapView":{"TopLeft":{"Latitude":50.5479542,"Longitude":7.6610109},"BottomRight":{"Latitude":50.5457058,"Longitude":7.6645491}},"Address":{"Label":"Schulstraße 21, 56269 Dierdorf, Deutschland","Country":"DEU","State":"Rheinland-Pfalz","County":"Neuwied","City":"Dierdorf","District":"Dierdorf","Street":"Schulstraße","HouseNumber":"21","PostalCode":"56269","AdditionalData":[{"value":"Deutschland","key":"CountryName"},{"value":"Rheinland-Pfalz","key":"StateName"},{"value":"Neuwied","key":"CountyName"}]},"MapReference":{"ReferenceId":"548288743","Spot":0.33,"SideOfStreet":"left","CountryId":"20147700","StateId":"20164001","CountyId":"20165887","CityId":"20165929","DistrictId":"20165935","AddressId":"188744151","RoadLinkId":"34347440"}}}]}]}}