{"Response":{"MetaInfo":{"Timestamp":"2020-03-28T11:02:42.056+0000","NextPageInformation":"2"},"View":[{"_type":"SearchResultsViewType","ViewId":0,"Result":[{"Relevance":1.0,"Distance":0.0,"Direction":0.0,"MatchLevel":"district","MatchQuality":{"Country":1.0,"State":1.0,"County":1.0,"City":1.0,"District":1.0,"PostalCode":1.0},"Location":{"LocationId":"NT_p6mC5u73a3sF.iOnq638mA","LocationType":"point","DisplayPosition":{"Latitude":50.5693552,"Longitude":8.6683845},"MapView":{"TopLeft":{"Latitude":50.61655,"Longitude":8.64307},"BottomRight":{"Latitude":50.55965,"Longitude":8.7414}},"Address":{"Label":"Gießen, Hessen, Deutschland","Country":"DEU","State":"Hessen","County":"Gießen","City":"Gießen","District":"Gießen","PostalCode":"35390","AdditionalData":[{"value":"Deutschland","key":"CountryName"},{"value":"Hessen","key":"StateName"},{"value":"Gießen","key":"CountyName"}]},"MapReference":{"ReferenceId":"52618114","SideOfStreet":"neither","CountryId":"20147700","StateId":"20160993","CountyId":"20162154","CityId":"20162180","DistrictId":"20162186"}}},{"Relevance":1.0,"Distance":8.0,"MatchLevel":"street","MatchQuality":{"Country":1.0,"State":1.0,"County":1.0,"City":1.0,"District":1.0,"PostalCode":1.0},"Location":{"LocationId":"NT_WM4xJdow-UDBWUEeNrdC6C_l_1156561852_R","LocationType":"point","DisplayPosition":{"Latitude":50.5694271,"Longitude":8.6683762},"MapView":{"TopLeft":{"Latitude":50.56954,"Longitude":8.66814},"BottomRight":{"Latitude":50.5694,"Longitude":8.66936}},"Address":{"Label":"35392 Gießen, Deutschland","Country":"DEU","State":"Hessen","County":"Gießen","City":"Gießen","District":"Gießen","PostalCode":"35392","AdditionalData":[{"value":"Deutschland","key":"CountryName"},{"value":"Hessen","key":"StateName"},{"value":"Gießen","key":"CountyName"}]},"MapReference":{"ReferenceId":"1156561852","Spot":0.19,"SideOfStreet":"right","CountryId":"20147700","StateId":"20160993","CountyId":"20162154","CityId":"20162180","DistrictId":"20162186"}}},{"Relevance":1.0,"Distance":18.0,"MatchLevel":"street","MatchQuality":{"Country":1.0,"State":1.0,"County":1.0,"City":1.0,"District":1.0,"Street":[1.0],"PostalCode":1.0},"Location":{"LocationId":"NT_qRDvjbExDICsTad0Si5ZBD_l_1147123483_R","LocationType":"point","DisplayPosition":{"Latitude":50.5694,"Longitude":8.66814},"MapView":{"TopLeft":{"Latitude":50.5695,"Longitude":8.66812},"BottomRight":{"Latitude":50.5694,"Longitude":8.66814}},"Address":{"Label":"Paul-Meimberg-Straße, 35392 Gießen, Deutschland","Country":"DEU","State":"Hessen","County":"Gießen","City":"Gießen","District":"Gießen","Street":"Paul-Meimberg-Straße","PostalCode":"35392","AdditionalData":[{"value":"Deutschland","key":"CountryName"},{"value":"Hessen","key":"StateName"},{"value":"Gießen","key":"CountyName"}]},"MapReference":{"ReferenceId":"1147123483","Spot":0.0,"SideOfStreet":"right","CountryId":"20147700","StateId":"20160993","CountyId":"20162154","CityId":"20162180","DistrictId":"20162186"}}},{"Relevance":1.0,"Distance":19.6,"MatchLevel":"street","MatchQuality":{"Country":1.0,"State":1.0,"County":1.0,"City":1.0,"District":1.0,"PostalCode":1.0},"Location":{"LocationId":"NT_WM4xJdow-UDBWUEeNrdC6C_l_1146836932_L","LocationType":"point","DisplayPosition":{"Latitude":50.56953,"Longitude":8.66835},"MapView":{"TopLeft":{"Latitude":50.57035,"Longitude":8.66814},"BottomRight":{"Latitude":50.56953,"Longitude":8.66839}},"Address":{"Label":"35392 Gießen, Deutschland","Country":"DEU","State":"Hessen","County":"Gießen","City":"Gießen","District":"Gießen","PostalCode":"35392","AdditionalData":[{"value":"Deutschland","key":"CountryName"},{"value":"Hessen","key":"StateName"},{"value":"Gießen","key":"CountyName"}]},"MapReference":{"ReferenceId":"1146836932","Spot":0.0,"SideOfStreet":"left","CountryId":"20147700","StateId":"20160993","CountyId":"20162154","CityId":"20162180","DistrictId":"20162186"}}},{"Relevance":1.0,"Distance":19.6,"MatchLevel":"street","MatchQuality":{"Country":1.0,"State":1.0,"County":1.0,"City":1.0,"District":1.0,"PostalCode":1.0},"Location":{"LocationId":"NT_WM4xJdow-UDBWUEeNrdC6C_l_1146835157_R","LocationType":"point","DisplayPosition":{"Latitude":50.56953,"Longitude":8.66835},"MapView":{"TopLeft":{"Latitude":50.56953,"Longitude":8.66812},"BottomRight":{"Latitude":50.5695,"Longitude":8.66835}},"Address":{"Label":"35392 Gießen, Deutschland","Country":"DEU","State":"Hessen","County":"Gießen","City":"Gießen","District":"Gießen","PostalCode":"35392","AdditionalData":[{"value":"Deutschland","key":"CountryName"},{"value":"Hessen","key":"StateName"},{"value":"Gießen","key":"CountyName"}]},"MapReference":{"ReferenceId":"1146835157","Spot":1.0,"SideOfStreet":"right","CountryId":"20147700","StateId":"20160993","CountyId":"20162154","CityId":"20162180","DistrictId":"20162186"}}},{"Relevance":1.0,"Distance":19.7,"MatchLevel":"street","MatchQuality":{"Country":1.0,"State":1.0,"County":1.0,"City":1.0,"District":1.0,"PostalCode":1.0},"Location":{"LocationId":"NT_WM4xJdow-UDBWUEeNrdC6C_l_1146838826_R","LocationType":"point","DisplayPosition":{"Latitude":50.5695317,"Longitude":8.6683649},"MapView":{"TopLeft":{"Latitude":50.56956,"Longitude":8.66835},"BottomRight":{"Latitude":50.56953,"Longitude":8.66862}},"Address":{"Label":"35392 Gießen, Deutschland","Country":"DEU","State":"Hessen","County":"Gießen","City":"Gießen","District":"Gießen","PostalCode":"35392","AdditionalData":[{"value":"Deutschland","key":"CountryName"},{"value":"Hessen","key":"StateName"},{"value":"Gießen","key":"CountyName"}]},"MapReference":{"ReferenceId":"1146838826","Spot":0.06,"SideOfStreet":"right","CountryId":"20147700","StateId":"20160993","CountyId":"20162154","CityId":"20162180","DistrictId":"20162186"}}},{"Relevance":1.0,"Distance":28.2,"MatchLevel":"street","MatchQuality":{"Country":1.0,"State":1.0,"County":1.0,"City":1.0,"District":1.0,"PostalCode":1.0},"Location":{"LocationId":"NT_WM4xJdow-UDBWUEeNrdC6C_l_1146841114_L","LocationType":"point","DisplayPosition":{"Latitude":50.56956,"Longitude":8.66862},"MapView":{"TopLeft":{"Latitude":50.57035,"Longitude":8.66839},"BottomRight":{"Latitude":50.56956,"Longitude":8.66862}},"Address":{"Label":"35392 Gießen, Deutschland","Country":"DEU","State":"Hessen","County":"Gießen","City":"Gießen","District":"Gießen","PostalCode":"35392","AdditionalData":[{"value":"Deutschland","key":"CountryName"},{"value":"Hessen","key":"StateName"},{"value":"Gießen","key":"CountyName"}]},"MapReference":{"ReferenceId":"1146841114","Spot":0.0,"SideOfStreet":"left","CountryId":"20147700","StateId":"20160993","CountyId":"20162154","CityId":"20162180","DistrictId":"20162186"}}},{"Relevance":1.0,"Distance":28.2,"MatchLevel":"street","MatchQuality":{"Country":1.0,"State":1.0,"County":1.0,"City":1.0,"District":1.0,"PostalCode":1.0},"Location":{"LocationId":"NT_WM4xJdow-UDBWUEeNrdC6C_l_1146847681_R","LocationType":"point","DisplayPosition":{"Latitude":50.56956,"Longitude":8.66862},"MapView":{"TopLeft":{"Latitude":50.56958,"Longitude":8.66862},"BottomRight":{"Latitude":50.56956,"Longitude":8.66886}},"Address":{"Label":"35392 Gießen, Deutschland","Country":"DEU","State":"Hessen","County":"Gießen","City":"Gießen","District":"Gießen","PostalCode":"35392","AdditionalData":[{"value":"Deutschland","key":"CountryName"},{"value":"Hessen","key":"StateName"},{"value":"Gießen","key":"CountyName"}]},"MapReference":{"ReferenceId":"1146847681","Spot":0.0,"SideOfStreet":"right","CountryId":"20147700","StateId":"20160993","CountyId":"20162154","CityId":"20162180","DistrictId":"20162186"}}},{"Relevance":1.0,"Distance":41.9,"MatchLevel":"street","MatchQuality":{"Country":1.0,"State":1.0,"County":1.0,"City":1.0,"District":1.0,"PostalCode":1.0},"Location":{"LocationId":"NT_WM4xJdow-UDBWUEeNrdC6C_l_1146847721_L","LocationType":"point","DisplayPosition":{"Latitude":50.56958,"Longitude":8.66886},"MapView":{"TopLeft":{"Latitude":50.57038,"Longitude":8.66863},"BottomRight":{"Latitude":50.56958,"Longitude":8.66886}},"Address":{"Label":"35392 Gießen, Deutschland","Country":"DEU","State":"Hessen","County":"Gießen","City":"Gießen","District":"Gießen","PostalCode":"35392","AdditionalData":[{"value":"Deutschland","key":"CountryName"},{"value":"Hessen","key":"StateName"},{"value":"Gießen","key":"CountyName"}]},"MapReference":{"ReferenceId":"1146847721","Spot":0.0,"SideOfStreet":"left","CountryId":"20147700","StateId":"20160993","CountyId":"20162154","CityId":"20162180","DistrictId":"20162186"}}},{"Relevance":1.0,"Distance":41.9,"MatchLevel":"street","MatchQuality":{"Country":1.0,"State":1.0,"County":1.0,"City":1.0,"District":1.0,"PostalCode":1.0},"Location":{"LocationId":"NT_WM4xJdow-UDBWUEeNrdC6C_l_1147114826_R","LocationType":"point","DisplayPosition":{"Latitude":50.56958,"Longitude":8.66886},"MapView":{"TopLeft":{"Latitude":50.57037,"Longitude":8.66886},"BottomRight":{"Latitude":50.56958,"Longitude":8.66909}},"Address":{"Label":"35392 Gießen, Deutschland","Country":"DEU","State":"Hessen","County":"Gießen","City":"Gießen","District":"Gießen","PostalCode":"35392","AdditionalData":[{"value":"Deutschland","key":"CountryName"},{"value":"Hessen","key":"StateName"},{"value":"Gießen","key":"CountyName"}]},"MapReference":{"ReferenceId":"1147114826","Spot":0.0,"SideOfStreet":"right","CountryId":"20147700","StateId":"20160993","CountyId":"20162154","CityId":"20162180","DistrictId":"20162186"}}}]}]}}