{"Response":{"MetaInfo":{"Timestamp":"2020-03-28T10:58:51.013+0000","NextPageInformation":"2"},"View":[{"_type":"SearchResultsViewType","ViewId":0,"Result":[{"Relevance":1.0,"Distance":0.0,"Direction":0.0,"MatchLevel":"district","MatchQuality":{"Country":1.0,"State":1.0,"County":1.0,"City":1.0,"District":1.0,"PostalCode":1.0},"Location":{"LocationId":"NT_GmAfRn4sIqDeYfZX88OzMB","LocationType":"point","DisplayPosition":{"Latitude":50.5023874,"Longitude":12.122195},"MapView":{"TopLeft":{"Latitude":50.52095,"Longitude":12.08862},"BottomRight":{"Latitude":50.4729,"Longitude":12.18721}},"Address":{"Label":"Plauen, Sachsen, Deutschland","Country":"DEU","State":"Sachsen","County":"Vogtlandkreis","City":"Plauen","District":"Plauen","PostalCode":"08523","AdditionalData":[{"value":"Deutschland","key":"CountryName"},{"value":"Sachsen","key":"StateName"},{"value":"Vogtlandkreis","key":"CountyName"}]},"MapReference":{"ReferenceId":"53626274","SideOfStreet":"neither","CountryId":"20147700","StateId":"20191185","CountyId":"20210203","CityId":"20191461","DistrictId":"20191463"}}},{"Relevance":1.0,"Distance":19.3,"MatchLevel":"houseNumber","MatchQuality":{"Country":1.0,"State":1.0,"County":1.0,"City":1.0,"District":1.0,"Street":[1.0],"HouseNumber":1.0,"PostalCode":1.0},"MatchType":"interpolated","Location":{"LocationId":"NT_3G0eOQoNe3CSSUO7WT9bDC_yA","LocationType":"point","DisplayPosition":{"Latitude":50.50256,"Longitude":12.12222},"MapView":{"TopLeft":{"Latitude":50.5036842,"Longitude":12.1204526},"BottomRight":{"Latitude":50.5014358,"Longitude":12.1239874}},"Address":{"Label":"Stadtparkring 2, 08523 Plauen, Deutschland","Country":"DEU","State":"Sachsen","County":"Vogtlandkreis","City":"Plauen","District":"Plauen","Street":"Stadtparkring","HouseNumber":"2","PostalCode":"08523","AdditionalData":[{"value":"Deutschland","key":"CountryName"},{"value":"Sachsen","key":"StateName"},{"value":"Vogtlandkreis","key":"CountyName"}]},"MapReference":{"ReferenceId":"53625809","Spot":0.16,"SideOfStreet":"right","CountryId":"20147700","StateId":"20191185","CountyId":"20210203","CityId":"20191461","DistrictId":"20191463","AddressId":"189864368","RoadLinkId":"39862496"}}},{"Relevance":1.0,"Distance":31.2,"MatchLevel":"houseNumber","MatchQuality":{"Country":1.0,"State":1.0,"County":1.0,"City":1.0,"District":1.0,"Street":[1.0],"HouseNumber":1.0,"PostalCode":1.0},"MatchType":"interpolated","Location":{"LocationId":"NT_6LX3276bcnJljE65JOKbjC_xMjM","LocationType":"point","DisplayPosition":{"Latitude":50.50212,"Longitude":12.12206},"MapView":{"TopLeft":{"Latitude":50.5032442,"Longitude":12.1202926},"BottomRight":{"Latitude":50.5009958,"Longitude":12.1238274}},"Address":{"Label":"Dobenaustraße 132, 08523 Plauen, Deutschland","Country":"DEU","State":"Sachsen","County":"Vogtlandkreis","City":"Plauen","District":"Plauen","Street":"Dobenaustraße","HouseNumber":"132","PostalCode":"08523","AdditionalData":[{"value":"Deutschland","key":"CountryName"},{"value":"Sachsen","key":"StateName"},{"value":"Vogtlandkreis","key":"CountyName"}]},"MapReference":{"ReferenceId":"53625850","Spot":0.8,"SideOfStreet":"right","CountryId":"20147700","StateId":"20191185","CountyId":"20210203","CityId":"20191461","DistrictId":"20191463","AddressId":"189864228","RoadLinkId":"39641553"}}},{"Relevance":1.0,"Distance":56.0,"MatchLevel":"houseNumber","MatchQuality":{"Country":1.0,"State":1.0,"County":1.0,"City":1.0,"District":1.0,"Street":[1.0],"HouseNumber":1.0,"PostalCode":1.0},"MatchType":"interpolated","Location":{"LocationId":"NT_Eqf4sC.hpifXcls6-ZHmeD_l_53625810_L_zA","LocationType":"point","DisplayPosition":{"Latitude":50.5024746,"Longitude":12.1214157},"MapView":{"TopLeft":{"Latitude":50.5035988,"Longitude":12.1196483},"BottomRight":{"Latitude":50.5013505,"Longitude":12.1231831}},"Address":{"Label":"Tennera 3, 08525 Plauen, Deutschland","Country":"DEU","State":"Sachsen","County":"Vogtlandkreis","City":"Plauen","District":"Plauen","Street":"Tennera","HouseNumber":"3","PostalCode":"08525","AdditionalData":[{"value":"Deutschland","key":"CountryName"},{"value":"Sachsen","key":"StateName"},{"value":"Vogtlandkreis","key":"CountyName"}]},"MapReference":{"ReferenceId":"53625810","Spot":0.55,"SideOfStreet":"left","CountryId":"20147700","StateId":"20191185","CountyId":"20210203","CityId":"20191461","DistrictId":"20191463"}}},{"Relevance":1.0,"Distance":116.3,"MatchLevel":"houseNumber","MatchQuality":{"Country":1.0,"State":1.0,"County":1.0,"City":1.0,"District":1.0,"Street":[1.0],"HouseNumber":1.0,"PostalCode":1.0},"MatchType":"interpolated","Location":{"LocationId":"NT_Eqf4sC.hpifXcls6-ZHmeD_xYD","LocationType":"point","DisplayPosition":{"Latitude":50.50304,"Longitude":12.1208},"MapView":{"TopLeft":{"Latitude":50.5041642,"Longitude":12.1190326},"BottomRight":{"Latitude":50.5019158,"Longitude":12.1225674}},"Address":{"Label":"Tennera 16, 08525 Plauen, Deutschland","Country":"DEU","State":"Sachsen","County":"Vogtlandkreis","City":"Plauen","District":"Plauen","Street":"Tennera","HouseNumber":"16","PostalCode":"08525","AdditionalData":[{"value":"Deutschland","key":"CountryName"},{"value":"Sachsen","key":"StateName"},{"value":"Vogtlandkreis","key":"CountyName"}]},"MapReference":{"ReferenceId":"53625793","Spot":0.24,"SideOfStreet":"right","CountryId":"20147700","StateId":"20191185","CountyId":"20210203","CityId":"20191461","DistrictId":"20191463","AddressId":"190150229","RoadLinkId":"39765515"}}},{"Relevance":1.0,"Distance":127.5,"MatchLevel":"houseNumber","MatchQuality":{"Country":1.0,"State":1.0,"County":1.0,"City":1.0,"District":1.0,"Street":[1.0],"HouseNumber":1.0,"PostalCode":1.0},"MatchType":"interpolated","Location":{"LocationId":"NT_cmdts9Aur-vADYkwkfqf.A_0A","LocationType":"point","DisplayPosition":{"Latitude":50.50161,"Longitude":12.12352},"MapView":{"TopLeft":{"Latitude":50.5027342,"Longitude":12.1217526},"BottomRight":{"Latitude":50.5004858,"Longitude":12.1252874}},"Address":{"Label":"Markus-Stübner-Straße 4, 08523 Plauen, Deutschland","Country":"DEU","State":"Sachsen","County":"Vogtlandkreis","City":"Plauen","District":"Plauen","Street":"Markus-Stübner-Straße","HouseNumber":"4","PostalCode":"08523","AdditionalData":[{"value":"Deutschland","key":"CountryName"},{"value":"Sachsen","key":"StateName"},{"value":"Vogtlandkreis","key":"CountyName"}]},"MapReference":{"ReferenceId":"53625857","Spot":0.46,"SideOfStreet":"right","CountryId":"20147700","StateId":"20191185","CountyId":"20210203","CityId":"20191461","DistrictId":"20191463","AddressId":"190216201","RoadLinkId":"39863461"}}},{"Relevance":1.0,"Distance":132.7,"MatchLevel":"houseNumber","MatchQuality":{"Country":1.0,"State":1.0,"County":1.0,"City":1.0,"District":1.0,"Street":[1.0],"HouseNumber":1.0,"PostalCode":1.0},"MatchType":"interpolated","Location":{"LocationId":"NT_6LX3276bcnJljE65JOKbjC_xITM","LocationType":"point","DisplayPosition":{"Latitude":50.50121,"Longitude":12.1225},"MapView":{"TopLeft":{"Latitude":50.5023342,"Longitude":12.1207326},"BottomRight":{"Latitude":50.5000858,"Longitude":12.1242674}},"Address":{"Label":"Dobenaustraße 121, 08523 Plauen, Deutschland","Country":"DEU","State":"Sachsen","County":"Vogtlandkreis","City":"Plauen","District":"Plauen","Street":"Dobenaustraße","HouseNumber":"121","PostalCode":"08523","AdditionalData":[{"value":"Deutschland","key":"CountryName"},{"value":"Sachsen","key":"StateName"},{"value":"Vogtlandkreis","key":"CountyName"}]},"MapReference":{"ReferenceId":"53625876","Spot":0.93,"SideOfStreet":"left","CountryId":"20147700","StateId":"20191185","CountyId":"20210203","CityId":"20191461","DistrictId":"20191463","AddressId":"190129030","RoadLinkId":"39999303"}}},{"Relevance":1.0,"Distance":151.1,"MatchLevel":"landmark","MatchQuality":{"Country":1.0,"State":1.0,"County":1.0,"City":1.0,"District":1.0,"PostalCode":1.0,"Name":1.0},"Location":{"LocationId":"NT_GkhBIFosrouXWsh5uQ7U9B","LocationType":"park","Name":"Stadtpark Plauen","DisplayPosition":{"Latitude":50.50615,"Longitude":12.12025},"MapView":{"TopLeft":{"Latitude":50.50855,"Longitude":12.11638},"BottomRight":{"Latitude":50.50374,"Longitude":12.12455}},"Address":{"Label":"08523 Plauen, Deutschland","Country":"DEU","State":"Sachsen","County":"Vogtlandkreis","City":"Plauen","District":"Plauen","PostalCode":"08523","AdditionalData":[{"value":"Deutschland","key":"CountryName"},{"value":"Sachsen","key":"StateName"},{"value":"Vogtlandkreis","key":"CountyName"}]},"MapReference":{"CountryId":"20147700","StateId":"20191185","CountyId":"20210203","CityId":"20191461","DistrictId":"20191463","PlaceId":"69509578"}}},{"Relevance":1.0,"Distance":151.1,"MatchLevel":"street","MatchQuality":{"Country":1.0,"State":1.0,"County":1.0,"City":1.0,"District":1.0,"PostalCode":1.0},"Location":{"LocationId":"NT_xpeVoS5Mfd0lagIzZlwRnA_l_53625762_L","LocationType":"point","DisplayPosition":{"Latitude":50.50374,"Longitude":12.12199},"MapView":{"TopLeft":{"Latitude":50.50447,"Longitude":12.12167},"BottomRight":{"Latitude":50.50374,"Longitude":12.12199}},"Address":{"Label":"08525 Plauen, Deutschland","Country":"DEU","State":"Sachsen","County":"Vogtlandkreis","City":"Plauen","District":"Plauen","PostalCode":"08525","AdditionalData":[{"value":"Deutschland","key":"CountryName"},{"value":"Sachsen","key":"StateName"},{"value":"Vogtlandkreis","key":"CountyName"}]},"MapReference":{"ReferenceId":"53625762","Spot":0.0,"SideOfStreet":"left","CountryId":"20147700","StateId":"20191185","CountyId":"20210203","CityId":"20191461","DistrictId":"20191463"}}},{"Relevance":1.0,"Distance":155.1,"MatchLevel":"houseNumber","MatchQuality":{"Country":1.0,"State":1.0,"County":1.0,"City":1.0,"District":1.0,"Street":[1.0],"HouseNumber":1.0,"PostalCode":1.0},"MatchType":"interpolated","Location":{"LocationId":"NT_QYPhp2UhUOE4a14W1f.4aB_ykD","LocationType":"point","DisplayPosition":{"Latitude":50.5011,"Longitude":12.12304},"MapView":{"TopLeft":{"Latitude":50.5022242,"Longitude":12.1212726},"BottomRight":{"Latitude":50.4999758,"Longitude":12.1248074}},"Address":{"Label":"Schmidstraße 29, 08523 Plauen, Deutschland","Country":"DEU","State":"Sachsen","County":"Vogtlandkreis","City":"Plauen","District":"Plauen","Street":"Schmidstraße","HouseNumber":"29","PostalCode":"08523","AdditionalData":[{"value":"Deutschland","key":"CountryName"},{"value":"Sachsen","key":"StateName"},{"value":"Vogtlandkreis","key":"CountyName"}]},"MapReference":{"ReferenceId":"1073811782","Spot":0.14,"SideOfStreet":"left","CountryId":"20147700","StateId":"20191185","CountyId":"20210203","CityId":"20191461","DistrictId":"20191463","AddressId":"189872343","RoadLinkId":"394125259"}}}]}]}}