{"Response":{"MetaInfo":{"Timestamp":"2020-03-28T12:05:10.661+0000","NextPageInformation":"2"},"View":[{"_type":"SearchResultsViewType","ViewId":0,"Result":[{"Relevance":1.0,"Distance":0.0,"Direction":0.0,"MatchLevel":"district","MatchQuality":{"Country":1.0,"State":1.0,"County":1.0,"City":1.0,"District":1.0,"PostalCode":1.0},"Location":{"LocationId":"NT_2MTfpBmTVSjPVhz0DMod3B","LocationType":"point","DisplayPosition":{"Latitude":50.5773762,"Longitude":19.3416954},"MapView":{"TopLeft":{"Latitude":50.61062,"Longitude":19.267},"BottomRight":{"Latitude":50.52096,"Longitude":19.38792}},"Address":{"Label":"Myszków, Woj. Śląskie, Polska","Country":"POL","State":"Woj. Śląskie","County":"Powiat Myszkowski","City":"Myszków","District":"Myszków","PostalCode":"42-300","AdditionalData":[{"value":"Polska","key":"CountryName"},{"value":"Woj. Śląskie","key":"StateName"},{"value":"Powiat Myszkowski","key":"CountyName"}]},"MapReference":{"ReferenceId":"1070822735","SideOfStreet":"neither","CountryId":"20624059","StateId":"20629003","CountyId":"20629224","CityId":"20629227","DistrictId":"20693784"}}},{"Relevance":1.0,"Distance":10.2,"MatchLevel":"houseNumber","MatchQuality":{"Country":1.0,"State":1.0,"County":1.0,"City":1.0,"District":1.0,"Street":[1.0],"HouseNumber":1.0,"PostalCode":1.0},"MatchType":"interpolated","Location":{"LocationId":"NT_nzIUZNj4lXBkU20VuAdadD_1UTQ","LocationType":"point","DisplayPosition":{"Latitude":50.57738,"Longitude":19.34184},"MapView":{"TopLeft":{"Latitude":50.5785042,"Longitude":19.3400698},"BottomRight":{"Latitude":50.5762558,"Longitude":19.3436102}},"Address":{"Label":"ulica gen. Władysława Sikorskiego 55A, 42-300 Myszków, Polska","Country":"POL","State":"Woj. Śląskie","County":"Powiat Myszkowski","City":"Myszków","District":"Myszków","Street":"ulica gen. Władysława Sikorskiego","HouseNumber":"55A","PostalCode":"42-300","AdditionalData":[{"value":"Polska","key":"CountryName"},{"value":"Woj. Śląskie","key":"StateName"},{"value":"Powiat Myszkowski","key":"CountyName"}]},"MapReference":{"ReferenceId":"778876031","Spot":0.77,"SideOfStreet":"right","CountryId":"20624059","StateId":"20629003","CountyId":"20629224","CityId":"20629227","DistrictId":"20693784","AddressId":"301941941","RoadLinkId":"172401826"}}},{"Relevance":1.0,"Distance":11.9,"MatchLevel":"houseNumber","MatchQuality":{"Country":1.0,"State":1.0,"County":1.0,"City":1.0,"District":1.0,"Street":[1.0],"HouseNumber":1.0,"PostalCode":1.0},"MatchType":"interpolated","Location":{"LocationId":"NT_nzIUZNj4lXBkU20VuAdadD_1MDR","LocationType":"point","DisplayPosition":{"Latitude":50.57714,"Longitude":19.34141},"MapView":{"TopLeft":{"Latitude":50.5782642,"Longitude":19.3396398},"BottomRight":{"Latitude":50.5760158,"Longitude":19.3431802}},"Address":{"Label":"ulica gen. Władysława Sikorskiego 53D, 42-300 Myszków, Polska","Country":"POL","State":"Woj. Śląskie","County":"Powiat Myszkowski","City":"Myszków","District":"Myszków","Street":"ulica gen. Władysława Sikorskiego","HouseNumber":"53D","PostalCode":"42-300","AdditionalData":[{"value":"Polska","key":"CountryName"},{"value":"Woj. Śląskie","key":"StateName"},{"value":"Powiat Myszkowski","key":"CountyName"}]},"MapReference":{"ReferenceId":"778905234","Spot":0.72,"SideOfStreet":"right","CountryId":"20624059","StateId":"20629003","CountyId":"20629224","CityId":"20629227","DistrictId":"20693784","AddressId":"701987833","RoadLinkId":"172401826"}}},{"Relevance":1.0,"Distance":40.4,"MatchLevel":"houseNumber","MatchQuality":{"Country":1.0,"State":1.0,"County":1.0,"City":1.0,"District":1.0,"Street":[1.0],"HouseNumber":1.0,"PostalCode":1.0},"MatchType":"interpolated","Location":{"LocationId":"NT_nzIUZNj4lXBkU20VuAdadD_1MzLzA","LocationType":"point","DisplayPosition":{"Latitude":50.5774,"Longitude":19.341},"MapView":{"TopLeft":{"Latitude":50.5785242,"Longitude":19.3392298},"BottomRight":{"Latitude":50.5762758,"Longitude":19.3427702}},"Address":{"Label":"ulica gen. Władysława Sikorskiego 53/3, 42-300 Myszków, Polska","Country":"POL","State":"Woj. Śląskie","County":"Powiat Myszkowski","City":"Myszków","District":"Myszków","Street":"ulica gen. Władysława Sikorskiego","HouseNumber":"53/3","PostalCode":"42-300","AdditionalData":[{"value":"Polska","key":"CountryName"},{"value":"Woj. Śląskie","key":"StateName"},{"value":"Powiat Myszkowski","key":"CountyName"}]},"MapReference":{"ReferenceId":"778905235","Spot":0.08,"SideOfStreet":"right","CountryId":"20624059","StateId":"20629003","CountyId":"20629224","CityId":"20629227","DistrictId":"20693784","AddressId":"701987812","RoadLinkId":"172401827"}}},{"Relevance":1.0,"Distance":46.5,"MatchLevel":"houseNumber","MatchQuality":{"Country":1.0,"State":1.0,"County":1.0,"City":1.0,"District":1.0,"Street":[1.0],"HouseNumber":1.0,"PostalCode":1.0},"MatchType":"interpolated","Location":{"LocationId":"NT_nzIUZNj4lXBkU20VuAdadD_1UjQ","LocationType":"point","DisplayPosition":{"Latitude":50.57812,"Longitude":19.34267},"MapView":{"TopLeft":{"Latitude":50.5792442,"Longitude":19.3408998},"BottomRight":{"Latitude":50.5769958,"Longitude":19.3444402}},"Address":{"Label":"ulica gen. Władysława Sikorskiego 55B, 42-300 Myszków, Polska","Country":"POL","State":"Woj. Śląskie","County":"Powiat Myszkowski","City":"Myszków","District":"Myszków","Street":"ulica gen. Władysława Sikorskiego","HouseNumber":"55B","PostalCode":"42-300","AdditionalData":[{"value":"Polska","key":"CountryName"},{"value":"Woj. Śląskie","key":"StateName"},{"value":"Powiat Myszkowski","key":"CountyName"}]},"MapReference":{"ReferenceId":"778876017","Spot":0.18,"SideOfStreet":"left","CountryId":"20624059","StateId":"20629003","CountyId":"20629224","CityId":"20629227","DistrictId":"20693784","AddressId":"701986884","RoadLinkId":"172368378"}}},{"Relevance":1.0,"Distance":50.2,"MatchLevel":"street","MatchQuality":{"Country":1.0,"State":1.0,"County":1.0,"City":1.0,"District":1.0,"PostalCode":1.0},"Location":{"LocationId":"NT_yENZrIMP.sZyRQu.Lx0pqC_l_778876029_L","LocationType":"point","DisplayPosition":{"Latitude":50.57711,"Longitude":19.34227},"MapView":{"TopLeft":{"Latitude":50.57711,"Longitude":19.34227},"BottomRight":{"Latitude":50.57656,"Longitude":19.34267}},"Address":{"Label":"42-300 Myszków, Polska","Country":"POL","State":"Woj. Śląskie","County":"Powiat Myszkowski","City":"Myszków","District":"Myszków","PostalCode":"42-300","AdditionalData":[{"value":"Polska","key":"CountryName"},{"value":"Woj. Śląskie","key":"StateName"},{"value":"Powiat Myszkowski","key":"CountyName"}]},"MapReference":{"ReferenceId":"778876029","Spot":1.0,"SideOfStreet":"left","CountryId":"20624059","StateId":"20629003","CountyId":"20629224","CityId":"20629227","DistrictId":"20693784"}}},{"Relevance":1.0,"Distance":50.2,"MatchLevel":"street","MatchQuality":{"Country":1.0,"State":1.0,"County":1.0,"City":1.0,"District":1.0,"PostalCode":1.0},"Location":{"LocationId":"NT_yENZrIMP.sZyRQu.Lx0pqC_l_778876030_L","LocationType":"point","DisplayPosition":{"Latitude":50.57711,"Longitude":19.34227},"MapView":{"TopLeft":{"Latitude":50.5779,"Longitude":19.34227},"BottomRight":{"Latitude":50.57711,"Longitude":19.34304}},"Address":{"Label":"42-300 Myszków, Polska","Country":"POL","State":"Woj. Śląskie","County":"Powiat Myszkowski","City":"Myszków","District":"Myszków","PostalCode":"42-300","AdditionalData":[{"value":"Polska","key":"CountryName"},{"value":"Woj. Śląskie","key":"StateName"},{"value":"Powiat Myszkowski","key":"CountyName"}]},"MapReference":{"ReferenceId":"778876030","Spot":0.0,"SideOfStreet":"left","CountryId":"20624059","StateId":"20629003","CountyId":"20629224","CityId":"20629227","DistrictId":"20693784"}}},{"Relevance":1.0,"Distance":70.7,"MatchLevel":"street","MatchQuality":{"Country":1.0,"State":1.0,"County":1.0,"City":1.0,"District":1.0,"Street":[1.0],"PostalCode":1.0},"Location":{"LocationId":"NT_0ky4QmarjjIFbrWrl5qKvA_l_778876015_R","LocationType":"point","DisplayPosition":{"Latitude":50.578,"Longitude":19.3415},"MapView":{"TopLeft":{"Latitude":50.57839,"Longitude":19.3415},"BottomRight":{"Latitude":50.578,"Longitude":19.34222}},"Address":{"Label":"ulica mjr. Henryka Sucharskiego, 42-300 Myszków, Polska","Country":"POL","State":"Woj. Śląskie","County":"Powiat Myszkowski","City":"Myszków","District":"Myszków","Street":"ulica mjr. Henryka Sucharskiego","PostalCode":"42-300","AdditionalData":[{"value":"Polska","key":"CountryName"},{"value":"Woj. Śląskie","key":"StateName"},{"value":"Powiat Myszkowski","key":"CountyName"}]},"MapReference":{"ReferenceId":"778876015","Spot":0.0,"SideOfStreet":"right","CountryId":"20624059","StateId":"20629003","CountyId":"20629224","CityId":"20629227","DistrictId":"20693784"}}},{"Relevance":1.0,"Distance":70.7,"MatchLevel":"street","MatchQuality":{"Country":1.0,"State":1.0,"County":1.0,"City":1.0,"District":1.0,"Street":[1.0],"PostalCode":1.0},"Location":{"LocationId":"NT_0ky4QmarjjIFbrWrl5qKvA_l_778876002_R","LocationType":"point","DisplayPosition":{"Latitude":50.578,"Longitude":19.3415},"MapView":{"TopLeft":{"Latitude":50.578,"Longitude":19.34045},"BottomRight":{"Latitude":50.57774,"Longitude":19.3415}},"Address":{"Label":"ulica mjr. Henryka Sucharskiego, 42-300 Myszków, Polska","Country":"POL","State":"Woj. Śląskie","County":"Powiat Myszkowski","City":"Myszków","District":"Myszków","Street":"ulica mjr. Henryka Sucharskiego","PostalCode":"42-300","AdditionalData":[{"value":"Polska","key":"CountryName"},{"value":"Woj. Śląskie","key":"StateName"},{"value":"Powiat Myszkowski","key":"CountyName"}]},"MapReference":{"ReferenceId":"778876002","Spot":1.0,"SideOfStreet":"right","CountryId":"20624059","StateId":"20629003","CountyId":"20629224","CityId":"20629227","DistrictId":"20693784"}}},{"Relevance":1.0,"Distance":86.0,"MatchLevel":"houseNumber","MatchQuality":{"Country":1.0,"State":1.0,"County":1.0,"City":1.0,"District":1.0,"Street":[1.0],"HouseNumber":1.0,"PostalCode":1.0},"MatchType":"interpolated","Location":{"LocationId":"NT_nzIUZNj4lXBkU20VuAdadD_1UzQ","LocationType":"point","DisplayPosition":{"Latitude":50.57802,"Longitude":19.34283},"MapView":{"TopLeft":{"Latitude":50.5791442,"Longitude":19.3410598},"BottomRight":{"Latitude":50.5768958,"Longitude":19.3446002}},"Address":{"Label":"ulica gen. Władysława Sikorskiego 55C, 42-300 Myszków, Polska","Country":"POL","State":"Woj. Śląskie","County":"Powiat Myszkowski","City":"Myszków","District":"Myszków","Street":"ulica gen. Władysława Sikorskiego","HouseNumber":"55C","PostalCode":"42-300","AdditionalData":[{"value":"Polska","key":"CountryName"},{"value":"Woj. Śląskie","key":"StateName"},{"value":"Powiat Myszkowski","key":"CountyName"}]},"MapReference":{"ReferenceId":"778876028","Spot":0.77,"SideOfStreet":"left","CountryId":"20624059","StateId":"20629003","CountyId":"20629224","CityId":"20629227","DistrictId":"20693784","AddressId":"701986885","RoadLinkId":"336631008"}}}]}]}}