{"Response":{"MetaInfo":{"Timestamp":"2020-03-28T11:31:03.881+0000","NextPageInformation":"2"},"View":[{"_type":"SearchResultsViewType","ViewId":0,"Result":[{"Relevance":1.0,"Distance":-4.4,"MatchLevel":"landmark","MatchQuality":{"Country":1.0,"State":1.0,"County":1.0,"City":1.0,"District":1.0,"Street":[1.0],"HouseNumber":1.0,"PostalCode":1.0,"Name":1.0},"Location":{"LocationId":"NT_2AGga8cioZLZQamh4q8yeD_p_CggvmsRViOj3Sjc-sPeLjA","LocationType":"hospital","Name":"Powiatowy Szpital Specjalistyczny","DisplayPosition":{"Latitude":50.56326,"Longitude":22.06871},"MapView":{"TopLeft":{"Latitude":50.5643842,"Longitude":22.0669403},"BottomRight":{"Latitude":50.5621358,"Longitude":22.0704797}},"Address":{"Label":"ulica Stanisława Staszica 4, 37-450 Stalowa Wola, Polska","Country":"POL","State":"Woj. Podkarpackie","County":"Powiat Stalowowolski","City":"Stalowa Wola","District":"Stalowa Wola","Street":"ulica Stanisława Staszica","HouseNumber":"4","PostalCode":"37-450","AdditionalData":[{"value":"Polska","key":"CountryName"},{"value":"Woj. Podkarpackie","key":"StateName"},{"value":"Powiat Stalowowolski","key":"CountyName"}]},"MapReference":{"CountryId":"20624059","StateId":"20628101","CountyId":"20628418","CityId":"20628427","DistrictId":"20691844","PlaceId":"996958366"}}},{"Relevance":1.0,"Distance":0.0,"Direction":0.0,"MatchLevel":"district","MatchQuality":{"Country":1.0,"State":1.0,"County":1.0,"City":1.0,"District":1.0,"PostalCode":1.0},"Location":{"LocationId":"NT_rFDyeFojqPuoq1vGFzj0LA","LocationType":"point","DisplayPosition":{"Latitude":50.563739,"Longitude":22.0676054},"MapView":{"TopLeft":{"Latitude":50.63345,"Longitude":21.99079},"BottomRight":{"Latitude":50.52546,"Longitude":22.0993}},"Address":{"Label":"Stalowa Wola, Woj. Podkarpackie, Polska","Country":"POL","State":"Woj. Podkarpackie","County":"Powiat Stalowowolski","City":"Stalowa Wola","District":"Stalowa Wola","PostalCode":"37-450","AdditionalData":[{"value":"Polska","key":"CountryName"},{"value":"Woj. Podkarpackie","key":"StateName"},{"value":"Powiat Stalowowolski","key":"CountyName"}]},"MapReference":{"ReferenceId":"716105427","SideOfStreet":"neither","CountryId":"20624059","StateId":"20628101","CountyId":"20628418","CityId":"20628427","DistrictId":"20691844"}}},{"Relevance":1.0,"Distance":16.8,"MatchLevel":"street","MatchQuality":{"Country":1.0,"State":1.0,"County":1.0,"City":1.0,"District":1.0,"Street":[1.0],"PostalCode":1.0},"Location":{"LocationId":"NT_t2JIuJgqX82L6.spb-0WgD_l_762857373_R","LocationType":"point","DisplayPosition":{"Latitude":50.56372,"Longitude":22.06737},"MapView":{"TopLeft":{"Latitude":50.56398,"Longitude":22.06729},"BottomRight":{"Latitude":50.56372,"Longitude":22.06737}},"Address":{"Label":"ulica Stanisława Staszica, 37-450 Stalowa Wola, Polska","Country":"POL","State":"Woj. Podkarpackie","County":"Powiat Stalowowolski","City":"Stalowa Wola","District":"Stalowa Wola","Street":"ulica Stanisława Staszica","PostalCode":"37-450","AdditionalData":[{"value":"Polska","key":"CountryName"},{"value":"Woj. Podkarpackie","key":"StateName"},{"value":"Powiat Stalowowolski","key":"CountyName"}]},"MapReference":{"ReferenceId":"762857373","Spot":0.0,"SideOfStreet":"right","CountryId":"20624059","StateId":"20628101","CountyId":"20628418","CityId":"20628427","DistrictId":"20691844"}}},{"Relevance":1.0,"Distance":17.3,"MatchLevel":"street","MatchQuality":{"Country":1.0,"State":1.0,"County":1.0,"City":1.0,"District":1.0,"Street":[1.0],"PostalCode":1.0},"Location":{"LocationId":"NT_-aHHJfTCycpqjra.EseebA_l_1159876383_R","LocationType":"point","DisplayPosition":{"Latitude":50.5636698,"Longitude":22.0673864},"MapView":{"TopLeft":{"Latitude":50.56372,"Longitude":22.06737},"BottomRight":{"Latitude":50.56331,"Longitude":22.0675}},"Address":{"Label":"ulica Stanisława Staszica, 37-450 Stalowa Wola, Polska","Country":"POL","State":"Woj. Podkarpackie","County":"Powiat Stalowowolski","City":"Stalowa Wola","District":"Stalowa Wola","Street":"ulica Stanisława Staszica","PostalCode":"37-450","AdditionalData":[{"value":"Polska","key":"CountryName"},{"value":"Woj. Podkarpackie","key":"StateName"},{"value":"Powiat Stalowowolski","key":"CountyName"}]},"MapReference":{"ReferenceId":"1159876383","Spot":0.88,"SideOfStreet":"right","CountryId":"20624059","StateId":"20628101","CountyId":"20628418","CityId":"20628427","DistrictId":"20691844"}}},{"Relevance":1.0,"Distance":20.9,"MatchLevel":"houseNumber","MatchQuality":{"Country":1.0,"State":1.0,"County":1.0,"City":1.0,"District":1.0,"Street":[1.0],"HouseNumber":1.0,"PostalCode":1.0},"MatchType":"interpolated","Location":{"LocationId":"NT_9i1VdXx3YNAlkX6l4ELJzA_l_1045148979_R_xED","LocationType":"point","DisplayPosition":{"Latitude":50.5640315,"Longitude":22.067398},"MapView":{"TopLeft":{"Latitude":50.5651556,"Longitude":22.0656283},"BottomRight":{"Latitude":50.5629073,"Longitude":22.0691678}},"Address":{"Label":"ulica Adama Mickiewicza 11, 37-450 Stalowa Wola, Polska","Country":"POL","State":"Woj. Podkarpackie","County":"Powiat Stalowowolski","City":"Stalowa Wola","District":"Stalowa Wola","Street":"ulica Adama Mickiewicza","HouseNumber":"11","PostalCode":"37-450","AdditionalData":[{"value":"Polska","key":"CountryName"},{"value":"Woj. Podkarpackie","key":"StateName"},{"value":"Powiat Stalowowolski","key":"CountyName"}]},"MapReference":{"ReferenceId":"1045148979","Spot":0.51,"SideOfStreet":"right","CountryId":"20624059","StateId":"20628101","CountyId":"20628418","CityId":"20628427","DistrictId":"20691844"}}},{"Relevance":1.0,"Distance":24.4,"MatchLevel":"houseNumber","MatchQuality":{"Country":1.0,"State":1.0,"County":1.0,"City":1.0,"District":1.0,"Street":[1.0],"HouseNumber":1.0,"PostalCode":1.0},"MatchType":"interpolated","Location":{"LocationId":"NT_t2JIuJgqX82L6.spb-0WgD_0EE","LocationType":"point","DisplayPosition":{"Latitude":50.56364,"Longitude":22.06784},"MapView":{"TopLeft":{"Latitude":50.5647642,"Longitude":22.0660703},"BottomRight":{"Latitude":50.5625158,"Longitude":22.0696097}},"Address":{"Label":"ulica Stanisława Staszica 4A, 37-450 Stalowa Wola, Polska","Country":"POL","State":"Woj. Podkarpackie","County":"Powiat Stalowowolski","City":"Stalowa Wola","District":"Stalowa Wola","Street":"ulica Stanisława Staszica","HouseNumber":"4A","PostalCode":"37-450","AdditionalData":[{"value":"Polska","key":"CountryName"},{"value":"Woj. Podkarpackie","key":"StateName"},{"value":"Powiat Stalowowolski","key":"CountyName"}]},"MapReference":{"ReferenceId":"762857374","Spot":0.0,"SideOfStreet":"right","CountryId":"20624059","StateId":"20628101","CountyId":"20628418","CityId":"20628427","DistrictId":"20691844","AddressId":"701895792","RoadLinkId":"158559740"}}},{"Relevance":1.0,"Distance":30.3,"MatchLevel":"street","MatchQuality":{"Country":1.0,"State":1.0,"County":1.0,"City":1.0,"District":1.0,"Street":[1.0],"PostalCode":1.0},"Location":{"LocationId":"NT_-aHHJfTCycpqjra.EseebA_l_762857368_R","LocationType":"point","DisplayPosition":{"Latitude":50.56367,"Longitude":22.06719},"MapView":{"TopLeft":{"Latitude":50.5639,"Longitude":22.0671},"BottomRight":{"Latitude":50.56367,"Longitude":22.06719}},"Address":{"Label":"ulica Stanisława Staszica, 37-450 Stalowa Wola, Polska","Country":"POL","State":"Woj. Podkarpackie","County":"Powiat Stalowowolski","City":"Stalowa Wola","District":"Stalowa Wola","Street":"ulica Stanisława Staszica","PostalCode":"37-450","AdditionalData":[{"value":"Polska","key":"CountryName"},{"value":"Woj. Podkarpackie","key":"StateName"},{"value":"Powiat Stalowowolski","key":"CountyName"}]},"MapReference":{"ReferenceId":"762857368","Spot":0.0,"SideOfStreet":"right","CountryId":"20624059","StateId":"20628101","CountyId":"20628418","CityId":"20628427","DistrictId":"20691844"}}},{"Relevance":1.0,"Distance":30.3,"MatchLevel":"street","MatchQuality":{"Country":1.0,"State":1.0,"County":1.0,"City":1.0,"District":1.0,"PostalCode":1.0},"Location":{"LocationId":"NT_K22v44n4h08oNUpzajvr6D_l_762857369_R","LocationType":"point","DisplayPosition":{"Latitude":50.56367,"Longitude":22.06719},"MapView":{"TopLeft":{"Latitude":50.56378,"Longitude":22.06683},"BottomRight":{"Latitude":50.56367,"Longitude":22.06719}},"Address":{"Label":"37-450 Stalowa Wola, Polska","Country":"POL","State":"Woj. Podkarpackie","County":"Powiat Stalowowolski","City":"Stalowa Wola","District":"Stalowa Wola","PostalCode":"37-450","AdditionalData":[{"value":"Polska","key":"CountryName"},{"value":"Woj. Podkarpackie","key":"StateName"},{"value":"Powiat Stalowowolski","key":"CountyName"}]},"MapReference":{"ReferenceId":"762857369","Spot":0.0,"SideOfStreet":"right","CountryId":"20624059","StateId":"20628101","CountyId":"20628418","CityId":"20628427","DistrictId":"20691844"}}},{"Relevance":1.0,"Distance":31.7,"MatchLevel":"street","MatchQuality":{"Country":1.0,"State":1.0,"County":1.0,"City":1.0,"District":1.0,"Street":[1.0],"PostalCode":1.0},"Location":{"LocationId":"NT_t2JIuJgqX82L6.spb-0WgD_l_762857367_R","LocationType":"point","DisplayPosition":{"Latitude":50.5635975,"Longitude":22.0672164},"MapView":{"TopLeft":{"Latitude":50.56367,"Longitude":22.06719},"BottomRight":{"Latitude":50.56308,"Longitude":22.0674}},"Address":{"Label":"ulica Stanisława Staszica, 37-450 Stalowa Wola, Polska","Country":"POL","State":"Woj. Podkarpackie","County":"Powiat Stalowowolski","City":"Stalowa Wola","District":"Stalowa Wola","Street":"ulica Stanisława Staszica","PostalCode":"37-450","AdditionalData":[{"value":"Polska","key":"CountryName"},{"value":"Woj. Podkarpackie","key":"StateName"},{"value":"Powiat Stalowowolski","key":"CountyName"}]},"MapReference":{"ReferenceId":"762857367","Spot":0.88,"SideOfStreet":"right","CountryId":"20624059","StateId":"20628101","CountyId":"20628418","CityId":"20628427","DistrictId":"20691844"}}},{"Relevance":1.0,"Distance":34.8,"MatchLevel":"street","MatchQuality":{"Country":1.0,"State":1.0,"County":1.0,"City":1.0,"District":1.0,"Street":[1.0],"PostalCode":1.0},"Location":{"LocationId":"NT_t2JIuJgqX82L6.spb-0WgD_l_762857364_R","LocationType":"point","DisplayPosition":{"Latitude":50.56398,"Longitude":22.06729},"MapView":{"TopLeft":{"Latitude":50.56408,"Longitude":22.06725},"BottomRight":{"Latitude":50.56398,"Longitude":22.06729}},"Address":{"Label":"ulica Stanisława Staszica, 37-450 Stalowa Wola, Polska","Country":"POL","State":"Woj. Podkarpackie","County":"Powiat Stalowowolski","City":"Stalowa Wola","District":"Stalowa Wola","Street":"ulica Stanisława Staszica","PostalCode":"37-450","AdditionalData":[{"value":"Polska","key":"CountryName"},{"value":"Woj. Podkarpackie","key":"StateName"},{"value":"Powiat Stalowowolski","key":"CountyName"}]},"MapReference":{"ReferenceId":"762857364","Spot":0.0,"SideOfStreet":"right","CountryId":"20624059","StateId":"20628101","CountyId":"20628418","CityId":"20628427","DistrictId":"20691844"}}}]}]}}