{"Response":{"MetaInfo":{"Timestamp":"2020-03-28T11:32:01.835+0000","NextPageInformation":"2"},"View":[{"_type":"SearchResultsViewType","ViewId":0,"Result":[{"Relevance":1.0,"Distance":0.0,"Direction":0.0,"MatchLevel":"district","MatchQuality":{"Country":1.0,"State":1.0,"County":1.0,"City":1.0,"District":1.0,"PostalCode":1.0},"Location":{"LocationId":"NT_uqZ6FLiDuSZJS.v7sr1vyC","LocationType":"point","DisplayPosition":{"Latitude":50.5181714,"Longitude":20.5298184},"MapView":{"TopLeft":{"Latitude":50.53415,"Longitude":20.50463},"BottomRight":{"Latitude":50.5079,"Longitude":20.55976}},"Address":{"Label":"Pińczów, Woj. Świętokrzyskie, Polska","Country":"POL","State":"Woj. Świętokrzyskie","County":"Powiat Pińczowski","City":"Pińczów","District":"Pińczów","PostalCode":"28-400","AdditionalData":[{"value":"Polska","key":"CountryName"},{"value":"Woj. Świętokrzyskie","key":"StateName"},{"value":"Powiat Pińczowski","key":"CountyName"}]},"MapReference":{"ReferenceId":"1242006253","SideOfStreet":"neither","CountryId":"20624059","StateId":"20629406","CountyId":"20629557","CityId":"20629564","DistrictId":"20695014"}}},{"Relevance":1.0,"Distance":5.5,"MatchLevel":"street","MatchQuality":{"Country":1.0,"State":1.0,"County":1.0,"City":1.0,"District":1.0,"Street":[1.0],"PostalCode":1.0},"Location":{"LocationId":"NT_.pSKziHSEe1TLiBeSx0J9D_l_1242170758_R","LocationType":"point","DisplayPosition":{"Latitude":50.51821,"Longitude":20.52977},"MapView":{"TopLeft":{"Latitude":50.51821,"Longitude":20.52956},"BottomRight":{"Latitude":50.51798,"Longitude":20.52977}},"Address":{"Label":"ulica Armii Krajowej, 28-400 Pińczów, Polska","Country":"POL","State":"Woj. Świętokrzyskie","County":"Powiat Pińczowski","City":"Pińczów","District":"Pińczów","Street":"ulica Armii Krajowej","PostalCode":"28-400","AdditionalData":[{"value":"Polska","key":"CountryName"},{"value":"Woj. Świętokrzyskie","key":"StateName"},{"value":"Powiat Pińczowski","key":"CountyName"}]},"MapReference":{"ReferenceId":"1242170758","Spot":1.0,"SideOfStreet":"right","CountryId":"20624059","StateId":"20629406","CountyId":"20629557","CityId":"20629564","DistrictId":"20695014"}}},{"Relevance":1.0,"Distance":5.6,"MatchLevel":"street","MatchQuality":{"Country":1.0,"State":1.0,"County":1.0,"City":1.0,"District":1.0,"Street":[1.0],"PostalCode":1.0},"Location":{"LocationId":"NT_.pSKziHSEe1TLiBeSx0J9D_l_1242170759_R","LocationType":"point","DisplayPosition":{"Latitude":50.5182117,"Longitude":20.5297714},"MapView":{"TopLeft":{"Latitude":50.51828,"Longitude":20.52977},"BottomRight":{"Latitude":50.51821,"Longitude":20.52983}},"Address":{"Label":"ulica Armii Krajowej, 28-400 Pińczów, Polska","Country":"POL","State":"Woj. Świętokrzyskie","County":"Powiat Pińczowski","City":"Pińczów","District":"Pińczów","Street":"ulica Armii Krajowej","PostalCode":"28-400","AdditionalData":[{"value":"Polska","key":"CountryName"},{"value":"Woj. Świętokrzyskie","key":"StateName"},{"value":"Powiat Pińczowski","key":"CountyName"}]},"MapReference":{"ReferenceId":"1242170759","Spot":0.02,"SideOfStreet":"right","CountryId":"20624059","StateId":"20629406","CountyId":"20629557","CityId":"20629564","DistrictId":"20695014"}}},{"Relevance":1.0,"Distance":12.1,"MatchLevel":"street","MatchQuality":{"Country":1.0,"State":1.0,"County":1.0,"City":1.0,"District":1.0,"PostalCode":1.0},"Location":{"LocationId":"NT_yiSNgmxI8EjV7CaAe1.uwB_l_1242170746_R","LocationType":"point","DisplayPosition":{"Latitude":50.51828,"Longitude":20.52983},"MapView":{"TopLeft":{"Latitude":50.51836,"Longitude":20.52983},"BottomRight":{"Latitude":50.51828,"Longitude":20.5299}},"Address":{"Label":"28-400 Pińczów, Polska","Country":"POL","State":"Woj. Świętokrzyskie","County":"Powiat Pińczowski","City":"Pińczów","District":"Pińczów","PostalCode":"28-400","AdditionalData":[{"value":"Polska","key":"CountryName"},{"value":"Woj. Świętokrzyskie","key":"StateName"},{"value":"Powiat Pińczowski","key":"CountyName"}]},"MapReference":{"ReferenceId":"1242170746","Spot":0.0,"SideOfStreet":"right","CountryId":"20624059","StateId":"20629406","CountyId":"20629557","CityId":"20629564","DistrictId":"20695014"}}},{"Relevance":1.0,"Distance":21.8,"MatchLevel":"street","MatchQuality":{"Country":1.0,"State":1.0,"County":1.0,"City":1.0,"District":1.0,"PostalCode":1.0},"Location":{"LocationId":"NT_yiSNgmxI8EjV7CaAe1.uwB_l_1242170747_R","LocationType":"point","DisplayPosition":{"Latitude":50.51836,"Longitude":20.5299},"MapView":{"TopLeft":{"Latitude":50.51872,"Longitude":20.5299},"BottomRight":{"Latitude":50.51836,"Longitude":20.53018}},"Address":{"Label":"28-400 Pińczów, Polska","Country":"POL","State":"Woj. Świętokrzyskie","County":"Powiat Pińczowski","City":"Pińczów","District":"Pińczów","PostalCode":"28-400","AdditionalData":[{"value":"Polska","key":"CountryName"},{"value":"Woj. Świętokrzyskie","key":"StateName"},{"value":"Powiat Pińczowski","key":"CountyName"}]},"MapReference":{"ReferenceId":"1242170747","Spot":0.0,"SideOfStreet":"right","CountryId":"20624059","StateId":"20629406","CountyId":"20629557","CityId":"20629564","DistrictId":"20695014"}}},{"Relevance":1.0,"Distance":22.0,"MatchLevel":"houseNumber","MatchQuality":{"Country":1.0,"State":1.0,"County":1.0,"City":1.0,"District":1.0,"Street":[1.0],"HouseNumber":1.0,"PostalCode":1.0},"MatchType":"interpolated","Location":{"LocationId":"NT_f2qidA9qSbi4muQNQgN95A_zkD","LocationType":"point","DisplayPosition":{"Latitude":50.51817,"Longitude":20.53013},"MapView":{"TopLeft":{"Latitude":50.5192942,"Longitude":20.528362},"BottomRight":{"Latitude":50.5170458,"Longitude":20.531898}},"Address":{"Label":"ulica Klasztorna 39, 28-400 Pińczów, Polska","Country":"POL","State":"Woj. Świętokrzyskie","County":"Powiat Pińczowski","City":"Pińczów","District":"Pińczów","Street":"ulica Klasztorna","HouseNumber":"39","PostalCode":"28-400","AdditionalData":[{"value":"Polska","key":"CountryName"},{"value":"Woj. Świętokrzyskie","key":"StateName"},{"value":"Powiat Pińczowski","key":"CountyName"}]},"MapReference":{"ReferenceId":"1242170748","Spot":0.28,"SideOfStreet":"right","CountryId":"20624059","StateId":"20629406","CountyId":"20629557","CityId":"20629564","DistrictId":"20695014","AddressId":"210837361","RoadLinkId":"563203061"}}},{"Relevance":1.0,"Distance":29.1,"MatchLevel":"houseNumber","MatchQuality":{"Country":1.0,"State":1.0,"County":1.0,"City":1.0,"District":1.0,"Street":[1.0],"HouseNumber":1.0,"PostalCode":1.0},"MatchType":"interpolated","Location":{"LocationId":"NT_f2qidA9qSbi4muQNQgN95A_zUD","LocationType":"point","DisplayPosition":{"Latitude":50.51837,"Longitude":20.52955},"MapView":{"TopLeft":{"Latitude":50.5194942,"Longitude":20.527782},"BottomRight":{"Latitude":50.5172458,"Longitude":20.531318}},"Address":{"Label":"ulica Klasztorna 35, 28-400 Pińczów, Polska","Country":"POL","State":"Woj. Świętokrzyskie","County":"Powiat Pińczowski","City":"Pińczów","District":"Pińczów","Street":"ulica Klasztorna","HouseNumber":"35","PostalCode":"28-400","AdditionalData":[{"value":"Polska","key":"CountryName"},{"value":"Woj. Świętokrzyskie","key":"StateName"},{"value":"Powiat Pińczowski","key":"CountyName"}]},"MapReference":{"ReferenceId":"810588055","Spot":0.43,"SideOfStreet":"right","CountryId":"20624059","StateId":"20629406","CountyId":"20629557","CityId":"20629564","DistrictId":"20695014","AddressId":"210486025","RoadLinkId":"197873540"}}},{"Relevance":1.0,"Distance":29.4,"MatchLevel":"street","MatchQuality":{"Country":1.0,"State":1.0,"County":1.0,"City":1.0,"District":1.0,"PostalCode":1.0},"Location":{"LocationId":"NT_yiSNgmxI8EjV7CaAe1.uwB_l_1242170751_L","LocationType":"point","DisplayPosition":{"Latitude":50.51804,"Longitude":20.53018},"MapView":{"TopLeft":{"Latitude":50.51813,"Longitude":20.53018},"BottomRight":{"Latitude":50.51804,"Longitude":20.53025}},"Address":{"Label":"28-400 Pińczów, Polska","Country":"POL","State":"Woj. Świętokrzyskie","County":"Powiat Pińczowski","City":"Pińczów","District":"Pińczów","PostalCode":"28-400","AdditionalData":[{"value":"Polska","key":"CountryName"},{"value":"Woj. Świętokrzyskie","key":"StateName"},{"value":"Powiat Pińczowski","key":"CountyName"}]},"MapReference":{"ReferenceId":"1242170751","Spot":0.0,"SideOfStreet":"left","CountryId":"20624059","StateId":"20629406","CountyId":"20629557","CityId":"20629564","DistrictId":"20695014"}}},{"Relevance":1.0,"Distance":32.4,"MatchLevel":"street","MatchQuality":{"Country":1.0,"State":1.0,"County":1.0,"City":1.0,"District":1.0,"PostalCode":1.0},"Location":{"LocationId":"NT_yiSNgmxI8EjV7CaAe1.uwB_l_1242170750_L","LocationType":"point","DisplayPosition":{"Latitude":50.5179409,"Longitude":20.5300983},"MapView":{"TopLeft":{"Latitude":50.51804,"Longitude":20.53004},"BottomRight":{"Latitude":50.51754,"Longitude":20.53064}},"Address":{"Label":"28-400 Pińczów, Polska","Country":"POL","State":"Woj. Świętokrzyskie","County":"Powiat Pińczowski","City":"Pińczów","District":"Pińczów","PostalCode":"28-400","AdditionalData":[{"value":"Polska","key":"CountryName"},{"value":"Woj. Świętokrzyskie","key":"StateName"},{"value":"Powiat Pińczowski","key":"CountyName"}]},"MapReference":{"ReferenceId":"1242170750","Spot":0.87,"SideOfStreet":"left","CountryId":"20624059","StateId":"20629406","CountyId":"20629557","CityId":"20629564","DistrictId":"20695014"}}},{"Relevance":1.0,"Distance":33.1,"MatchLevel":"houseNumber","MatchQuality":{"Country":1.0,"State":1.0,"County":1.0,"City":1.0,"District":1.0,"Street":[1.0],"HouseNumber":1.0,"PostalCode":1.0},"MatchType":"interpolated","Location":{"LocationId":"NT_R8t2-2fz3m3lw9E7XZd95A_yAD","LocationType":"point","DisplayPosition":{"Latitude":50.51811,"Longitude":20.52923},"MapView":{"TopLeft":{"Latitude":50.5192342,"Longitude":20.527462},"BottomRight":{"Latitude":50.5169858,"Longitude":20.530998}},"Address":{"Label":"ulica Armii Krajowej 20, 28-400 Pińczów, Polska","Country":"POL","State":"Woj. Świętokrzyskie","County":"Powiat Pińczowski","City":"Pińczów","District":"Pińczów","Street":"ulica Armii Krajowej","HouseNumber":"20","PostalCode":"28-400","AdditionalData":[{"value":"Polska","key":"CountryName"},{"value":"Woj. Świętokrzyskie","key":"StateName"},{"value":"Powiat Pińczowski","key":"CountyName"}]},"MapReference":{"ReferenceId":"595830518","Spot":0.78,"SideOfStreet":"left","CountryId":"20624059","StateId":"20629406","CountyId":"20629557","CityId":"20629564","DistrictId":"20695014","AddressId":"209904397","RoadLinkId":"172985554"}}}]}]}}