{"Response":{"MetaInfo":{"Timestamp":"2020-03-28T11:42:26.686+0000","NextPageInformation":"2"},"View":[{"_type":"SearchResultsViewType","ViewId":0,"Result":[{"Relevance":1.0,"Distance":0.0,"Direction":0.0,"MatchLevel":"district","MatchQuality":{"Country":1.0,"State":1.0,"County":1.0,"City":1.0,"District":1.0,"PostalCode":1.0},"Location":{"LocationId":"NT_rLWEGBPWl3YfmBO.lAMwRA","LocationType":"point","DisplayPosition":{"Latitude":50.5190227,"Longitude":8.8190893},"MapView":{"TopLeft":{"Latitude":50.52775,"Longitude":8.79969},"BottomRight":{"Latitude":50.50335,"Longitude":8.8344}},"Address":{"Label":"Lich, Hessen, Deutschland","Country":"DEU","State":"Hessen","County":"Gießen","City":"Lich","District":"Lich","PostalCode":"35423","AdditionalData":[{"value":"Deutschland","key":"CountryName"},{"value":"Hessen","key":"StateName"},{"value":"Gießen","key":"CountyName"}]},"MapReference":{"ReferenceId":"1201344039","SideOfStreet":"neither","CountryId":"20147700","StateId":"20160993","CountyId":"20162154","CityId":"20162235","DistrictId":"20162241"}}},{"Relevance":1.0,"Distance":2.3,"MatchLevel":"houseNumber","MatchQuality":{"Country":1.0,"State":1.0,"County":1.0,"City":1.0,"District":1.0,"Street":[1.0],"HouseNumber":1.0,"PostalCode":1.0},"MatchType":"interpolated","Location":{"LocationId":"NT_oYpsqLzGILnhCopvGTc5JA_yED","LocationType":"point","DisplayPosition":{"Latitude":50.519,"Longitude":8.81921},"MapView":{"TopLeft":{"Latitude":50.5201242,"Longitude":8.817442},"BottomRight":{"Latitude":50.5178758,"Longitude":8.820978}},"Address":{"Label":"Unterstadt 21, 35423 Lich, Deutschland","Country":"DEU","State":"Hessen","County":"Gießen","City":"Lich","District":"Lich","Street":"Unterstadt","HouseNumber":"21","PostalCode":"35423","AdditionalData":[{"value":"Deutschland","key":"CountryName"},{"value":"Hessen","key":"StateName"},{"value":"Gießen","key":"CountyName"}]},"MapReference":{"ReferenceId":"706759075","Spot":0.81,"SideOfStreet":"left","CountryId":"20147700","StateId":"20160993","CountyId":"20162154","CityId":"20162235","DistrictId":"20162241","AddressId":"187676952","RoadLinkId":"112559972"}}},{"Relevance":1.0,"Distance":17.2,"MatchLevel":"houseNumber","MatchQuality":{"Country":1.0,"State":1.0,"County":1.0,"City":1.0,"District":1.0,"Street":[1.0],"HouseNumber":1.0,"PostalCode":1.0},"MatchType":"interpolated","Location":{"LocationId":"NT_oYpsqLzGILnhCopvGTc5JA_xkD","LocationType":"point","DisplayPosition":{"Latitude":50.5191,"Longitude":8.8193},"MapView":{"TopLeft":{"Latitude":50.5202242,"Longitude":8.817532},"BottomRight":{"Latitude":50.5179758,"Longitude":8.821068}},"Address":{"Label":"Unterstadt 19, 35423 Lich, Deutschland","Country":"DEU","State":"Hessen","County":"Gießen","City":"Lich","District":"Lich","Street":"Unterstadt","HouseNumber":"19","PostalCode":"35423","AdditionalData":[{"value":"Deutschland","key":"CountryName"},{"value":"Hessen","key":"StateName"},{"value":"Gießen","key":"CountyName"}]},"MapReference":{"ReferenceId":"52689150","Spot":0.48,"SideOfStreet":"left","CountryId":"20147700","StateId":"20160993","CountyId":"20162154","CityId":"20162235","DistrictId":"20162241","AddressId":"187050090","RoadLinkId":"34250168"}}},{"Relevance":1.0,"Distance":24.9,"MatchLevel":"houseNumber","MatchQuality":{"Country":1.0,"State":1.0,"County":1.0,"City":1.0,"District":1.0,"Street":[1.0],"HouseNumber":1.0,"PostalCode":1.0},"MatchType":"interpolated","Location":{"LocationId":"NT_J1JpCQcy1tY6ORseDMXASC_yA","LocationType":"point","DisplayPosition":{"Latitude":50.51908,"Longitude":8.81943},"MapView":{"TopLeft":{"Latitude":50.5202042,"Longitude":8.817662},"BottomRight":{"Latitude":50.5179558,"Longitude":8.821198}},"Address":{"Label":"Heinrich-Neeb-Straße 2, 35423 Lich, Deutschland","Country":"DEU","State":"Hessen","County":"Gießen","City":"Lich","District":"Lich","Street":"Heinrich-Neeb-Straße","HouseNumber":"2","PostalCode":"35423","AdditionalData":[{"value":"Deutschland","key":"CountryName"},{"value":"Hessen","key":"StateName"},{"value":"Gießen","key":"CountyName"}]},"MapReference":{"ReferenceId":"52689209","Spot":0.86,"SideOfStreet":"right","CountryId":"20147700","StateId":"20160993","CountyId":"20162154","CityId":"20162235","DistrictId":"20162241","AddressId":"186982769","RoadLinkId":"34602268"}}},{"Relevance":1.0,"Distance":27.1,"MatchLevel":"houseNumber","MatchQuality":{"Country":1.0,"State":1.0,"County":1.0,"City":1.0,"District":1.0,"Street":[1.0],"HouseNumber":1.0,"PostalCode":1.0},"MatchType":"interpolated","Location":{"LocationId":"NT_QA9qgDqqPTpeuQuKEfz77B_yA","LocationType":"point","DisplayPosition":{"Latitude":50.51919,"Longitude":8.81881},"MapView":{"TopLeft":{"Latitude":50.5203142,"Longitude":8.817042},"BottomRight":{"Latitude":50.5180658,"Longitude":8.820578}},"Address":{"Label":"Kohlgasse 2, 35423 Lich, Deutschland","Country":"DEU","State":"Hessen","County":"Gießen","City":"Lich","District":"Lich","Street":"Kohlgasse","HouseNumber":"2","PostalCode":"35423","AdditionalData":[{"value":"Deutschland","key":"CountryName"},{"value":"Hessen","key":"StateName"},{"value":"Gießen","key":"CountyName"}]},"MapReference":{"ReferenceId":"52689182","Spot":0.32,"SideOfStreet":"left","CountryId":"20147700","StateId":"20160993","CountyId":"20162154","CityId":"20162235","DistrictId":"20162241","AddressId":"187605452","RoadLinkId":"34838171"}}},{"Relevance":1.0,"Distance":30.3,"MatchLevel":"houseNumber","MatchQuality":{"Country":1.0,"State":1.0,"County":1.0,"City":1.0,"District":1.0,"Street":[1.0],"HouseNumber":1.0,"PostalCode":1.0},"MatchType":"interpolated","Location":{"LocationId":"NT_oYpsqLzGILnhCopvGTc5JA_xcD","LocationType":"point","DisplayPosition":{"Latitude":50.51922,"Longitude":8.81939},"MapView":{"TopLeft":{"Latitude":50.5203442,"Longitude":8.817622},"BottomRight":{"Latitude":50.5180958,"Longitude":8.821158}},"Address":{"Label":"Unterstadt 17, 35423 Lich, Deutschland","Country":"DEU","State":"Hessen","County":"Gießen","City":"Lich","District":"Lich","Street":"Unterstadt","HouseNumber":"17","PostalCode":"35423","AdditionalData":[{"value":"Deutschland","key":"CountryName"},{"value":"Hessen","key":"StateName"},{"value":"Gießen","key":"CountyName"}]},"MapReference":{"ReferenceId":"52689125","Spot":0.43,"SideOfStreet":"left","CountryId":"20147700","StateId":"20160993","CountyId":"20162154","CityId":"20162235","DistrictId":"20162241","AddressId":"187381658","RoadLinkId":"34668136"}}},{"Relevance":1.0,"Distance":42.6,"MatchLevel":"houseNumber","MatchQuality":{"Country":1.0,"State":1.0,"County":1.0,"City":1.0,"District":1.0,"Street":[1.0],"HouseNumber":1.0,"PostalCode":1.0},"MatchType":"interpolated","Location":{"LocationId":"NT_sBK2dPI5qDaTJsjgXigP-D_zA","LocationType":"point","DisplayPosition":{"Latitude":50.51875,"Longitude":8.81837},"MapView":{"TopLeft":{"Latitude":50.5198742,"Longitude":8.816602},"BottomRight":{"Latitude":50.5176258,"Longitude":8.820138}},"Address":{"Label":"Schloßgasse 3, 35423 Lich, Deutschland","Country":"DEU","State":"Hessen","County":"Gießen","City":"Lich","District":"Lich","Street":"Schloßgasse","HouseNumber":"3","PostalCode":"35423","AdditionalData":[{"value":"Deutschland","key":"CountryName"},{"value":"Hessen","key":"StateName"},{"value":"Gießen","key":"CountyName"}]},"MapReference":{"ReferenceId":"999237864","Spot":0.64,"SideOfStreet":"right","CountryId":"20147700","StateId":"20160993","CountyId":"20162154","CityId":"20162235","DistrictId":"20162241","AddressId":"186714498","RoadLinkId":"325526893"}}},{"Relevance":1.0,"Distance":45.6,"MatchLevel":"houseNumber","MatchQuality":{"Country":1.0,"State":1.0,"County":1.0,"City":1.0,"District":1.0,"Street":[1.0],"HouseNumber":1.0,"PostalCode":1.0},"MatchType":"interpolated","Location":{"LocationId":"NT_HXZyD4BNAYTu.2F5tBFNAA_yA","LocationType":"point","DisplayPosition":{"Latitude":50.51949,"Longitude":8.81896},"MapView":{"TopLeft":{"Latitude":50.5206142,"Longitude":8.817192},"BottomRight":{"Latitude":50.5183658,"Longitude":8.820728}},"Address":{"Label":"Braugasse 2, 35423 Lich, Deutschland","Country":"DEU","State":"Hessen","County":"Gießen","City":"Lich","District":"Lich","Street":"Braugasse","HouseNumber":"2","PostalCode":"35423","AdditionalData":[{"value":"Deutschland","key":"CountryName"},{"value":"Hessen","key":"StateName"},{"value":"Gießen","key":"CountyName"}]},"MapReference":{"ReferenceId":"52689265","Spot":0.3,"SideOfStreet":"left","CountryId":"20147700","StateId":"20160993","CountyId":"20162154","CityId":"20162235","DistrictId":"20162241","AddressId":"187629052","RoadLinkId":"34269126"}}},{"Relevance":1.0,"Distance":55.6,"MatchLevel":"houseNumber","MatchQuality":{"Country":1.0,"State":1.0,"County":1.0,"City":1.0,"District":1.0,"Street":[1.0],"HouseNumber":1.0,"PostalCode":1.0},"MatchType":"interpolated","Location":{"LocationId":"NT_oYpsqLzGILnhCopvGTc5JA_xUD","LocationType":"point","DisplayPosition":{"Latitude":50.51945,"Longitude":8.81956},"MapView":{"TopLeft":{"Latitude":50.5205742,"Longitude":8.817792},"BottomRight":{"Latitude":50.5183258,"Longitude":8.821328}},"Address":{"Label":"Unterstadt 15, 35423 Lich, Deutschland","Country":"DEU","State":"Hessen","County":"Gießen","City":"Lich","District":"Lich","Street":"Unterstadt","HouseNumber":"15","PostalCode":"35423","AdditionalData":[{"value":"Deutschland","key":"CountryName"},{"value":"Hessen","key":"StateName"},{"value":"Gießen","key":"CountyName"}]},"MapReference":{"ReferenceId":"52689319","Spot":0.43,"SideOfStreet":"left","CountryId":"20147700","StateId":"20160993","CountyId":"20162154","CityId":"20162235","DistrictId":"20162241","AddressId":"186546010","RoadLinkId":"33902384"}}},{"Relevance":1.0,"Distance":63.4,"MatchLevel":"houseNumber","MatchQuality":{"Country":1.0,"State":1.0,"County":1.0,"City":1.0,"District":1.0,"Street":[1.0],"HouseNumber":1.0,"PostalCode":1.0},"MatchType":"interpolated","Location":{"LocationId":"NT_J1JpCQcy1tY6ORseDMXASC_xAD","LocationType":"point","DisplayPosition":{"Latitude":50.51872,"Longitude":8.81985},"MapView":{"TopLeft":{"Latitude":50.5198442,"Longitude":8.818082},"BottomRight":{"Latitude":50.5175958,"Longitude":8.821618}},"Address":{"Label":"Heinrich-Neeb-Straße 10, 35423 Lich, Deutschland","Country":"DEU","State":"Hessen","County":"Gießen","City":"Lich","District":"Lich","Street":"Heinrich-Neeb-Straße","HouseNumber":"10","PostalCode":"35423","AdditionalData":[{"value":"Deutschland","key":"CountryName"},{"value":"Hessen","key":"StateName"},{"value":"Gießen","key":"CountyName"}]},"MapReference":{"ReferenceId":"52689344","Spot":0.91,"SideOfStreet":"right","CountryId":"20147700","StateId":"20160993","CountyId":"20162154","CityId":"20162235","DistrictId":"20162241","AddressId":"187294152","RoadLinkId":"33886573"}}}]}]}}