{"Response":{"MetaInfo":{"Timestamp":"2020-03-28T10:17:08.221+0000","NextPageInformation":"2"},"View":[{"_type":"SearchResultsViewType","ViewId":0,"Result":[{"Relevance":1.0,"Distance":0.0,"Direction":0.0,"MatchLevel":"district","MatchQuality":{"Country":1.0,"State":1.0,"County":1.0,"City":1.0,"District":1.0,"PostalCode":1.0},"Location":{"LocationId":"NT_PMSgEnV576JA516Axf0c-C","LocationType":"point","DisplayPosition":{"Latitude":50.5343197,"Longitude":9.3905203},"MapView":{"TopLeft":{"Latitude":50.53751,"Longitude":9.38275},"BottomRight":{"Latitude":50.53207,"Longitude":9.39441}},"Address":{"Label":"Altenschlirf, Herbstein, Hessen, Deutschland","Country":"DEU","State":"Hessen","County":"Vogelsbergkreis","City":"Herbstein","District":"Altenschlirf","PostalCode":"36358","AdditionalData":[{"value":"Deutschland","key":"CountryName"},{"value":"Hessen","key":"StateName"},{"value":"Vogelsbergkreis","key":"CountyName"}]},"MapReference":{"ReferenceId":"62102132","SideOfStreet":"neither","CountryId":"20147700","StateId":"20160993","CountyId":"20162799","CityId":"20162860","DistrictId":"20162868"}}},{"Relevance":1.0,"Distance":5.6,"MatchLevel":"houseNumber","MatchQuality":{"Country":1.0,"State":1.0,"County":1.0,"City":1.0,"District":1.0,"Street":[1.0],"HouseNumber":1.0,"PostalCode":1.0},"MatchType":"interpolated","Location":{"LocationId":"NT_DimcjXnbXyTQwXGgXnsyrB_4A","LocationType":"point","DisplayPosition":{"Latitude":50.53435,"Longitude":9.39071},"MapView":{"TopLeft":{"Latitude":50.5354742,"Longitude":9.3889414},"BottomRight":{"Latitude":50.5332258,"Longitude":9.3924786}},"Address":{"Label":"Am Scherzacker 8, 36358 Herbstein, Deutschland","Country":"DEU","State":"Hessen","County":"Vogelsbergkreis","City":"Herbstein","District":"Altenschlirf","Street":"Am Scherzacker","HouseNumber":"8","PostalCode":"36358","AdditionalData":[{"value":"Deutschland","key":"CountryName"},{"value":"Hessen","key":"StateName"},{"value":"Vogelsbergkreis","key":"CountyName"}]},"MapReference":{"ReferenceId":"62102856","Spot":0.91,"SideOfStreet":"left","CountryId":"20147700","StateId":"20160993","CountyId":"20162799","CityId":"20162860","DistrictId":"20162868","AddressId":"186737789","RoadLinkId":"34713182"}}},{"Relevance":1.0,"Distance":14.5,"MatchLevel":"street","MatchQuality":{"Country":1.0,"State":1.0,"County":1.0,"City":1.0,"District":1.0,"Street":[1.0],"PostalCode":1.0},"Location":{"LocationId":"NT_DimcjXnbXyTQwXGgXnsyrB_l_62102857_L","LocationType":"point","DisplayPosition":{"Latitude":50.5344297,"Longitude":9.3906303},"MapView":{"TopLeft":{"Latitude":50.53443,"Longitude":9.39063},"BottomRight":{"Latitude":50.53437,"Longitude":9.39069}},"Address":{"Label":"Am Scherzacker, 36358 Herbstein, Deutschland","Country":"DEU","State":"Hessen","County":"Vogelsbergkreis","City":"Herbstein","District":"Altenschlirf","Street":"Am Scherzacker","PostalCode":"36358","AdditionalData":[{"value":"Deutschland","key":"CountryName"},{"value":"Hessen","key":"StateName"},{"value":"Vogelsbergkreis","key":"CountyName"}]},"MapReference":{"ReferenceId":"62102857","Spot":0.99,"SideOfStreet":"left","CountryId":"20147700","StateId":"20160993","CountyId":"20162799","CityId":"20162860","DistrictId":"20162868"}}},{"Relevance":1.0,"Distance":15.1,"MatchLevel":"houseNumber","MatchQuality":{"Country":1.0,"State":1.0,"County":1.0,"City":1.0,"District":1.0,"Street":[1.0],"HouseNumber":1.0,"PostalCode":1.0},"MatchType":"interpolated","Location":{"LocationId":"NT_DimcjXnbXyTQwXGgXnsyrB_zA","LocationType":"point","DisplayPosition":{"Latitude":50.53444,"Longitude":9.39062},"MapView":{"TopLeft":{"Latitude":50.5355642,"Longitude":9.3888514},"BottomRight":{"Latitude":50.5333158,"Longitude":9.3923886}},"Address":{"Label":"Am Scherzacker 3, 36358 Herbstein, Deutschland","Country":"DEU","State":"Hessen","County":"Vogelsbergkreis","City":"Herbstein","District":"Altenschlirf","Street":"Am Scherzacker","HouseNumber":"3","PostalCode":"36358","AdditionalData":[{"value":"Deutschland","key":"CountryName"},{"value":"Hessen","key":"StateName"},{"value":"Vogelsbergkreis","key":"CountyName"}]},"MapReference":{"ReferenceId":"62102854","Spot":0.08,"SideOfStreet":"right","CountryId":"20147700","StateId":"20160993","CountyId":"20162799","CityId":"20162860","DistrictId":"20162868","AddressId":"186978480","RoadLinkId":"34192672"}}},{"Relevance":1.0,"Distance":31.6,"MatchLevel":"houseNumber","MatchQuality":{"Country":1.0,"State":1.0,"County":1.0,"City":1.0,"District":1.0,"Street":[1.0],"HouseNumber":1.0,"PostalCode":1.0},"MatchType":"interpolated","Location":{"LocationId":"NT_DimcjXnbXyTQwXGgXnsyrB_xAD","LocationType":"point","DisplayPosition":{"Latitude":50.5346,"Longitude":9.39045},"MapView":{"TopLeft":{"Latitude":50.5357242,"Longitude":9.3886814},"BottomRight":{"Latitude":50.5334758,"Longitude":9.3922186}},"Address":{"Label":"Am Scherzacker 10, 36358 Herbstein, Deutschland","Country":"DEU","State":"Hessen","County":"Vogelsbergkreis","City":"Herbstein","District":"Altenschlirf","Street":"Am Scherzacker","HouseNumber":"10","PostalCode":"36358","AdditionalData":[{"value":"Deutschland","key":"CountryName"},{"value":"Hessen","key":"StateName"},{"value":"Vogelsbergkreis","key":"CountyName"}]},"MapReference":{"ReferenceId":"62102853","Spot":0.08,"SideOfStreet":"left","CountryId":"20147700","StateId":"20160993","CountyId":"20162799","CityId":"20162860","DistrictId":"20162868","AddressId":"186916876","RoadLinkId":"34760902"}}},{"Relevance":1.0,"Distance":34.7,"MatchLevel":"houseNumber","MatchQuality":{"Country":1.0,"State":1.0,"County":1.0,"City":1.0,"District":1.0,"Street":[1.0],"HouseNumber":1.0,"PostalCode":1.0},"MatchType":"interpolated","Location":{"LocationId":"NT_iYwdH7gejSY4DSmx6jtHQA_yA","LocationType":"point","DisplayPosition":{"Latitude":50.53426,"Longitude":9.39002},"MapView":{"TopLeft":{"Latitude":50.5353842,"Longitude":9.3882514},"BottomRight":{"Latitude":50.5331358,"Longitude":9.3917886}},"Address":{"Label":"Scherzwiesenweg 2, 36358 Herbstein, Deutschland","Country":"DEU","State":"Hessen","County":"Vogelsbergkreis","City":"Herbstein","District":"Altenschlirf","Street":"Scherzwiesenweg","HouseNumber":"2","PostalCode":"36358","AdditionalData":[{"value":"Deutschland","key":"CountryName"},{"value":"Hessen","key":"StateName"},{"value":"Vogelsbergkreis","key":"CountyName"}]},"MapReference":{"ReferenceId":"62102703","Spot":0.6,"SideOfStreet":"right","CountryId":"20147700","StateId":"20160993","CountyId":"20162799","CityId":"20162860","DistrictId":"20162868","AddressId":"187230800","RoadLinkId":"34382044"}}},{"Relevance":1.0,"Distance":49.7,"MatchLevel":"houseNumber","MatchQuality":{"Country":1.0,"State":1.0,"County":1.0,"City":1.0,"District":1.0,"Street":[1.0],"HouseNumber":1.0,"PostalCode":1.0},"MatchType":"interpolated","Location":{"LocationId":"NT_DimcjXnbXyTQwXGgXnsyrB_0A","LocationType":"point","DisplayPosition":{"Latitude":50.53402,"Longitude":9.39106},"MapView":{"TopLeft":{"Latitude":50.5351442,"Longitude":9.3892914},"BottomRight":{"Latitude":50.5328958,"Longitude":9.3928286}},"Address":{"Label":"Am Scherzacker 4, 36358 Herbstein, Deutschland","Country":"DEU","State":"Hessen","County":"Vogelsbergkreis","City":"Herbstein","District":"Altenschlirf","Street":"Am Scherzacker","HouseNumber":"4","PostalCode":"36358","AdditionalData":[{"value":"Deutschland","key":"CountryName"},{"value":"Hessen","key":"StateName"},{"value":"Vogelsbergkreis","key":"CountyName"}]},"MapReference":{"ReferenceId":"62102697","Spot":0.83,"SideOfStreet":"left","CountryId":"20147700","StateId":"20160993","CountyId":"20162799","CityId":"20162860","DistrictId":"20162868","AddressId":"187308803","RoadLinkId":"34424041"}}},{"Relevance":1.0,"Distance":59.6,"MatchLevel":"houseNumber","MatchQuality":{"Country":1.0,"State":1.0,"County":1.0,"City":1.0,"District":1.0,"Street":[1.0],"HouseNumber":1.0,"PostalCode":1.0},"MatchType":"interpolated","Location":{"LocationId":"NT_2vOorBwakf9kaYh-1zcE4D_0A","LocationType":"point","DisplayPosition":{"Latitude":50.5342,"Longitude":9.39138},"MapView":{"TopLeft":{"Latitude":50.5353242,"Longitude":9.3896114},"BottomRight":{"Latitude":50.5330758,"Longitude":9.3931486}},"Address":{"Label":"Lagerstraße 4, 36358 Herbstein, Deutschland","Country":"DEU","State":"Hessen","County":"Vogelsbergkreis","City":"Herbstein","District":"Altenschlirf","Street":"Lagerstraße","HouseNumber":"4","PostalCode":"36358","AdditionalData":[{"value":"Deutschland","key":"CountryName"},{"value":"Hessen","key":"StateName"},{"value":"Vogelsbergkreis","key":"CountyName"}]},"MapReference":{"ReferenceId":"62102858","Spot":0.56,"SideOfStreet":"left","CountryId":"20147700","StateId":"20160993","CountyId":"20162799","CityId":"20162860","DistrictId":"20162868","AddressId":"186879209","RoadLinkId":"34763324"}}},{"Relevance":1.0,"Distance":78.2,"MatchLevel":"houseNumber","MatchQuality":{"Country":1.0,"State":1.0,"County":1.0,"City":1.0,"Street":[1.0],"HouseNumber":1.0,"PostalCode":1.0},"MatchType":"interpolated","Location":{"LocationId":"NT_3I8dCu.mr4M4eT4.eI4zwB_xcD","LocationType":"point","DisplayPosition":{"Latitude":50.53513,"Longitude":9.39031},"MapView":{"TopLeft":{"Latitude":50.5362542,"Longitude":9.3885414},"BottomRight":{"Latitude":50.5340058,"Longitude":9.3920786}},"Address":{"Label":"Mühlgasse 17, 36358 Herbstein, Deutschland","Country":"DEU","State":"Hessen","County":"Vogelsbergkreis","City":"Herbstein","Street":"Mühlgasse","HouseNumber":"17","PostalCode":"36358","AdditionalData":[{"value":"Deutschland","key":"CountryName"},{"value":"Hessen","key":"StateName"},{"value":"Vogelsbergkreis","key":"CountyName"}]},"MapReference":{"ReferenceId":"576402624","Spot":0.72,"SideOfStreet":"left","CountryId":"20147700","StateId":"20160993","CountyId":"20162799","CityId":"20162860","AddressId":"186981811","RoadLinkId":"34275412"}}},{"Relevance":1.0,"Distance":99.8,"MatchLevel":"street","MatchQuality":{"Country":1.0,"State":1.0,"County":1.0,"City":1.0,"District":1.0,"Street":[1.0],"PostalCode":1.0},"Location":{"LocationId":"NT_EkH2otnUHCEI0PhFUi2BTC_l_62102852_R","LocationType":"point","DisplayPosition":{"Latitude":50.53512,"Longitude":9.38988},"MapView":{"TopLeft":{"Latitude":50.53512,"Longitude":9.38939},"BottomRight":{"Latitude":50.53503,"Longitude":9.38988}},"Address":{"Label":"Mühlgasse, 36358 Herbstein, Deutschland","Country":"DEU","State":"Hessen","County":"Vogelsbergkreis","City":"Herbstein","District":"Altenschlirf","Street":"Mühlgasse","PostalCode":"36358","AdditionalData":[{"value":"Deutschland","key":"CountryName"},{"value":"Hessen","key":"StateName"},{"value":"Vogelsbergkreis","key":"CountyName"}]},"MapReference":{"ReferenceId":"62102852","Spot":1.0,"SideOfStreet":"right","CountryId":"20147700","StateId":"20160993","CountyId":"20162799","CityId":"20162860","DistrictId":"20162868"}}}]}]}}