{"Response":{"MetaInfo":{"Timestamp":"2020-03-28T11:00:35.451+0000","NextPageInformation":"2"},"View":[{"_type":"SearchResultsViewType","ViewId":0,"Result":[{"Relevance":1.0,"Distance":0.0,"Direction":0.0,"MatchLevel":"city","MatchQuality":{"Country":1.0,"State":1.0,"County":1.0,"City":1.0,"PostalCode":1.0},"Location":{"LocationId":"NT_s32nuvfo.MFh1sC-Ph0TLB","LocationType":"point","DisplayPosition":{"Latitude":50.6306005,"Longitude":9.391771},"MapView":{"TopLeft":{"Latitude":50.70417,"Longitude":9.28459},"BottomRight":{"Latitude":50.5771,"Longitude":9.45379}},"Address":{"Label":"Lauterbach (Hessen), Hessen, Deutschland","Country":"DEU","State":"Hessen","County":"Vogelsbergkreis","City":"Lauterbach (Hessen)","PostalCode":"36341","AdditionalData":[{"value":"Deutschland","key":"CountryName"},{"value":"Hessen","key":"StateName"},{"value":"Vogelsbergkreis","key":"CountyName"}]},"MapReference":{"ReferenceId":"62051308","SideOfStreet":"neither","CountryId":"20147700","StateId":"20160993","CountyId":"20162799","CityId":"20162886"}}},{"Relevance":1.0,"Distance":29.6,"MatchLevel":"street","MatchQuality":{"Country":1.0,"State":1.0,"County":1.0,"City":1.0,"District":1.0,"PostalCode":1.0},"Location":{"LocationId":"NT_EdUAQyJmOc5XI7zHD3efOD_l_62051463_L","LocationType":"point","DisplayPosition":{"Latitude":50.6306,"Longitude":9.39219},"MapView":{"TopLeft":{"Latitude":50.6306,"Longitude":9.39219},"BottomRight":{"Latitude":50.63039,"Longitude":9.39269}},"Address":{"Label":"36341 Lauterbach (Hessen), Deutschland","Country":"DEU","State":"Hessen","County":"Vogelsbergkreis","City":"Lauterbach (Hessen)","District":"Lauterbach (Hessen)","PostalCode":"36341","AdditionalData":[{"value":"Deutschland","key":"CountryName"},{"value":"Hessen","key":"StateName"},{"value":"Vogelsbergkreis","key":"CountyName"}]},"MapReference":{"ReferenceId":"62051463","Spot":1.0,"SideOfStreet":"left","CountryId":"20147700","StateId":"20160993","CountyId":"20162799","CityId":"20162886","DistrictId":"20162890"}}},{"Relevance":1.0,"Distance":31.9,"MatchLevel":"houseNumber","MatchQuality":{"Country":1.0,"State":1.0,"County":1.0,"City":1.0,"District":1.0,"Street":[1.0],"HouseNumber":1.0,"PostalCode":1.0},"MatchType":"interpolated","Location":{"LocationId":"NT_MqB.fmjBB-l3o0ix-Mn4IA_xA","LocationType":"point","DisplayPosition":{"Latitude":50.63034,"Longitude":9.39196},"MapView":{"TopLeft":{"Latitude":50.6314642,"Longitude":9.3901878},"BottomRight":{"Latitude":50.6292158,"Longitude":9.3937322}},"Address":{"Label":"Eichhofstraße 1, 36341 Lauterbach (Hessen), Deutschland","Country":"DEU","State":"Hessen","County":"Vogelsbergkreis","City":"Lauterbach (Hessen)","District":"Lauterbach (Hessen)","Street":"Eichhofstraße","HouseNumber":"1","PostalCode":"36341","AdditionalData":[{"value":"Deutschland","key":"CountryName"},{"value":"Hessen","key":"StateName"},{"value":"Vogelsbergkreis","key":"CountyName"}]},"MapReference":{"ReferenceId":"915230054","Spot":0.43,"SideOfStreet":"right","CountryId":"20147700","StateId":"20160993","CountyId":"20162799","CityId":"20162886","DistrictId":"20162890","AddressId":"341555862","RoadLinkId":"273031260"}}},{"Relevance":1.0,"Distance":40.3,"MatchLevel":"street","MatchQuality":{"Country":1.0,"State":1.0,"County":1.0,"City":1.0,"District":1.0,"Street":[1.0],"PostalCode":1.0},"Location":{"LocationId":"NT_surCTE3Hhy1P-lsr81E0gC_l_576400949_L","LocationType":"point","DisplayPosition":{"Latitude":50.63024,"Longitude":9.39171},"MapView":{"TopLeft":{"Latitude":50.63024,"Longitude":9.38972},"BottomRight":{"Latitude":50.62923,"Longitude":9.39171}},"Address":{"Label":"Eichhofstarsse, 36341 Lauterbach (Hessen), Deutschland","Country":"DEU","State":"Hessen","County":"Vogelsbergkreis","City":"Lauterbach (Hessen)","District":"Lauterbach (Hessen)","Street":"Eichhofstarsse","PostalCode":"36341","AdditionalData":[{"value":"Deutschland","key":"CountryName"},{"value":"Hessen","key":"StateName"},{"value":"Vogelsbergkreis","key":"CountyName"}]},"MapReference":{"ReferenceId":"576400949","Spot":1.0,"SideOfStreet":"left","CountryId":"20147700","StateId":"20160993","CountyId":"20162799","CityId":"20162886","DistrictId":"20162890"}}},{"Relevance":1.0,"Distance":62.2,"MatchLevel":"houseNumber","MatchQuality":{"Country":1.0,"State":1.0,"County":1.0,"City":1.0,"District":1.0,"Street":[1.0],"HouseNumber":1.0,"PostalCode":1.0},"MatchType":"interpolated","Location":{"LocationId":"NT_99iZx1RfDsGo45gF7jReiD_zcD","LocationType":"point","DisplayPosition":{"Latitude":50.63076,"Longitude":9.39289},"MapView":{"TopLeft":{"Latitude":50.6318842,"Longitude":9.3911178},"BottomRight":{"Latitude":50.6296358,"Longitude":9.3946622}},"Address":{"Label":"Am Eichberg 37, 36341 Lauterbach (Hessen), Deutschland","Country":"DEU","State":"Hessen","County":"Vogelsbergkreis","City":"Lauterbach (Hessen)","District":"Lauterbach (Hessen)","Street":"Am Eichberg","HouseNumber":"37","PostalCode":"36341","AdditionalData":[{"value":"Deutschland","key":"CountryName"},{"value":"Hessen","key":"StateName"},{"value":"Vogelsbergkreis","key":"CountyName"}]},"MapReference":{"ReferenceId":"1105408900","Spot":0.13,"SideOfStreet":"left","CountryId":"20147700","StateId":"20160993","CountyId":"20162799","CityId":"20162886","DistrictId":"20162890","AddressId":"341558249","RoadLinkId":"417286081"}}},{"Relevance":1.0,"Distance":62.4,"MatchLevel":"houseNumber","MatchQuality":{"Country":1.0,"State":1.0,"County":1.0,"City":1.0,"District":1.0,"Street":[1.0],"HouseNumber":1.0,"PostalCode":1.0},"MatchType":"interpolated","Location":{"LocationId":"NT_8KYUFJUMsHFlHhbOuSfs1D_zMD","LocationType":"point","DisplayPosition":{"Latitude":50.63121,"Longitude":9.39206},"MapView":{"TopLeft":{"Latitude":50.6323342,"Longitude":9.3902878},"BottomRight":{"Latitude":50.6300858,"Longitude":9.3938322}},"Address":{"Label":"An der Ritsch 33, 36341 Lauterbach (Hessen), Deutschland","Country":"DEU","State":"Hessen","County":"Vogelsbergkreis","City":"Lauterbach (Hessen)","District":"Lauterbach (Hessen)","Street":"An der Ritsch","HouseNumber":"33","PostalCode":"36341","AdditionalData":[{"value":"Deutschland","key":"CountryName"},{"value":"Hessen","key":"StateName"},{"value":"Vogelsbergkreis","key":"CountyName"}]},"MapReference":{"ReferenceId":"62051457","Spot":0.79,"SideOfStreet":"left","CountryId":"20147700","StateId":"20160993","CountyId":"20162799","CityId":"20162886","DistrictId":"20162890","AddressId":"187410103","RoadLinkId":"34104828"}}},{"Relevance":1.0,"Distance":68.9,"MatchLevel":"street","MatchQuality":{"Country":1.0,"State":1.0,"County":1.0,"City":1.0,"District":1.0,"PostalCode":1.0},"Location":{"LocationId":"NT_EdUAQyJmOc5XI7zHD3efOD_l_62051465_L","LocationType":"point","DisplayPosition":{"Latitude":50.63039,"Longitude":9.39269},"MapView":{"TopLeft":{"Latitude":50.63039,"Longitude":9.39269},"BottomRight":{"Latitude":50.63032,"Longitude":9.39271}},"Address":{"Label":"36341 Lauterbach (Hessen), Deutschland","Country":"DEU","State":"Hessen","County":"Vogelsbergkreis","City":"Lauterbach (Hessen)","District":"Lauterbach (Hessen)","PostalCode":"36341","AdditionalData":[{"value":"Deutschland","key":"CountryName"},{"value":"Hessen","key":"StateName"},{"value":"Vogelsbergkreis","key":"CountyName"}]},"MapReference":{"ReferenceId":"62051465","Spot":1.0,"SideOfStreet":"left","CountryId":"20147700","StateId":"20160993","CountyId":"20162799","CityId":"20162886","DistrictId":"20162890"}}},{"Relevance":1.0,"Distance":73.2,"MatchLevel":"street","MatchQuality":{"Country":1.0,"State":1.0,"County":1.0,"City":1.0,"District":1.0,"PostalCode":1.0},"Location":{"LocationId":"NT_EdUAQyJmOc5XI7zHD3efOD_l_590222878_R","LocationType":"point","DisplayPosition":{"Latitude":50.63032,"Longitude":9.39271},"MapView":{"TopLeft":{"Latitude":50.63044,"Longitude":9.39271},"BottomRight":{"Latitude":50.63019,"Longitude":9.3932}},"Address":{"Label":"36341 Lauterbach (Hessen), Deutschland","Country":"DEU","State":"Hessen","County":"Vogelsbergkreis","City":"Lauterbach (Hessen)","District":"Lauterbach (Hessen)","PostalCode":"36341","AdditionalData":[{"value":"Deutschland","key":"CountryName"},{"value":"Hessen","key":"StateName"},{"value":"Vogelsbergkreis","key":"CountyName"}]},"MapReference":{"ReferenceId":"590222878","Spot":0.0,"SideOfStreet":"right","CountryId":"20147700","StateId":"20160993","CountyId":"20162799","CityId":"20162886","DistrictId":"20162890"}}},{"Relevance":1.0,"Distance":91.9,"MatchLevel":"street","MatchQuality":{"Country":1.0,"State":1.0,"County":1.0,"City":1.0,"District":1.0,"Street":[1.0],"PostalCode":1.0},"Location":{"LocationId":"NT_99iZx1RfDsGo45gF7jReiD_l_62051460_L","LocationType":"point","DisplayPosition":{"Latitude":50.62978,"Longitude":9.39162},"MapView":{"TopLeft":{"Latitude":50.62978,"Longitude":9.39136},"BottomRight":{"Latitude":50.62964,"Longitude":9.39162}},"Address":{"Label":"Am Eichberg, 36341 Lauterbach (Hessen), Deutschland","Country":"DEU","State":"Hessen","County":"Vogelsbergkreis","City":"Lauterbach (Hessen)","District":"Lauterbach (Hessen)","Street":"Am Eichberg","PostalCode":"36341","AdditionalData":[{"value":"Deutschland","key":"CountryName"},{"value":"Hessen","key":"StateName"},{"value":"Vogelsbergkreis","key":"CountyName"}]},"MapReference":{"ReferenceId":"62051460","Spot":1.0,"SideOfStreet":"left","CountryId":"20147700","StateId":"20160993","CountyId":"20162799","CityId":"20162886","DistrictId":"20162890"}}},{"Relevance":1.0,"Distance":110.7,"MatchLevel":"street","MatchQuality":{"Country":1.0,"State":1.0,"County":1.0,"City":1.0,"District":1.0,"PostalCode":1.0},"Location":{"LocationId":"NT_EdUAQyJmOc5XI7zHD3efOD_l_62121725_R","LocationType":"point","DisplayPosition":{"Latitude":50.62964,"Longitude":9.39136},"MapView":{"TopLeft":{"Latitude":50.62964,"Longitude":9.39136},"BottomRight":{"Latitude":50.62878,"Longitude":9.39162}},"Address":{"Label":"36341 Lauterbach (Hessen), Deutschland","Country":"DEU","State":"Hessen","County":"Vogelsbergkreis","City":"Lauterbach (Hessen)","District":"Lauterbach (Hessen)","PostalCode":"36341","AdditionalData":[{"value":"Deutschland","key":"CountryName"},{"value":"Hessen","key":"StateName"},{"value":"Vogelsbergkreis","key":"CountyName"}]},"MapReference":{"ReferenceId":"62121725","Spot":1.0,"SideOfStreet":"right","CountryId":"20147700","StateId":"20160993","CountyId":"20162799","CityId":"20162886","DistrictId":"20162890"}}}]}]}}