{"Response":{"MetaInfo":{"Timestamp":"2020-03-28T11:39:18.100+0000","NextPageInformation":"2"},"View":[{"_type":"SearchResultsViewType","ViewId":0,"Result":[{"Relevance":1.0,"Distance":0.0,"Direction":0.0,"MatchLevel":"district","MatchQuality":{"Country":1.0,"State":1.0,"County":1.0,"City":1.0,"District":1.0,"PostalCode":1.0},"Location":{"LocationId":"NT_6l0b7FHmfNPUQqVXv7Y09A","LocationType":"point","DisplayPosition":{"Latitude":50.6188988,"Longitude":4.6956496},"MapView":{"TopLeft":{"Latitude":50.63409,"Longitude":4.68162},"BottomRight":{"Latitude":50.60832,"Longitude":4.70661}},"Address":{"Label":"Walhain-Saint-Paul, Walhain, Wallonie, Belgique","Country":"BEL","State":"Wallonie","County":"Brabant Wallon","City":"Walhain","District":"Walhain-Saint-Paul","PostalCode":"1457","AdditionalData":[{"value":"Belgique","key":"CountryName"},{"value":"Wallonie","key":"StateName"},{"value":"Brabant Wallon","key":"CountyName"}]},"MapReference":{"ReferenceId":"916115089","SideOfStreet":"neither","CountryId":"20128886","StateId":"20205526","CountyId":"20208226","CityId":"20208398","DistrictId":"20208402"}}},{"Relevance":1.0,"Distance":4.4,"MatchLevel":"houseNumber","MatchQuality":{"Country":1.0,"State":1.0,"County":1.0,"City":1.0,"District":1.0,"Street":[1.0],"HouseNumber":1.0,"PostalCode":1.0},"MatchType":"interpolated","Location":{"LocationId":"NT_tFT6kbjfQhaD3tOoEAZW7D_xAD","LocationType":"point","DisplayPosition":{"Latitude":50.61887,"Longitude":4.69589},"MapView":{"TopLeft":{"Latitude":50.6199942,"Longitude":4.6941182},"BottomRight":{"Latitude":50.6177458,"Longitude":4.6976618}},"Address":{"Label":"Rue des Combattants 10, 1457 Walhain, Belgique","Country":"BEL","State":"Wallonie","County":"Brabant Wallon","City":"Walhain","District":"Walhain-Saint-Paul","Street":"Rue des Combattants","HouseNumber":"10","PostalCode":"1457","AdditionalData":[{"value":"Belgique","key":"CountryName"},{"value":"Wallonie","key":"StateName"},{"value":"Brabant Wallon","key":"CountyName"}]},"MapReference":{"ReferenceId":"1234643879","Spot":0.57,"SideOfStreet":"left","CountryId":"20128886","StateId":"20205526","CountyId":"20208226","CityId":"20208398","DistrictId":"20208402","AddressId":"369087331","RoadLinkId":"555042048"}}},{"Relevance":1.0,"Distance":30.3,"MatchLevel":"street","MatchQuality":{"Country":1.0,"State":1.0,"County":1.0,"City":1.0,"District":1.0,"Street":[1.0],"PostalCode":1.0},"Location":{"LocationId":"NT_x2.LyQXF1wv271UmzLi0qC_l_1234643884_L","LocationType":"point","DisplayPosition":{"Latitude":50.61912,"Longitude":4.6959},"MapView":{"TopLeft":{"Latitude":50.61912,"Longitude":4.6959},"BottomRight":{"Latitude":50.61898,"Longitude":4.69715}},"Address":{"Label":"Chemin du Saule, 1457 Walhain, Belgique","Country":"BEL","State":"Wallonie","County":"Brabant Wallon","City":"Walhain","District":"Walhain-Saint-Paul","Street":"Chemin du Saule","PostalCode":"1457","AdditionalData":[{"value":"Belgique","key":"CountryName"},{"value":"Wallonie","key":"StateName"},{"value":"Brabant Wallon","key":"CountyName"}]},"MapReference":{"ReferenceId":"1234643884","Spot":1.0,"SideOfStreet":"left","CountryId":"20128886","StateId":"20205526","CountyId":"20208226","CityId":"20208398","DistrictId":"20208402"}}},{"Relevance":1.0,"Distance":38.3,"MatchLevel":"houseNumber","MatchQuality":{"Country":1.0,"State":1.0,"County":1.0,"City":1.0,"District":1.0,"Street":[1.0],"HouseNumber":1.0,"PostalCode":1.0},"MatchType":"interpolated","Location":{"LocationId":"NT_ZlCVzCyVrgWRL0zDNLXeRD_0A","LocationType":"point","DisplayPosition":{"Latitude":50.61911,"Longitude":4.69522},"MapView":{"TopLeft":{"Latitude":50.6202342,"Longitude":4.6934482},"BottomRight":{"Latitude":50.6179858,"Longitude":4.6969918}},"Address":{"Label":"Rue d'Acremont 4, 1457 Walhain, Belgique","Country":"BEL","State":"Wallonie","County":"Brabant Wallon","City":"Walhain","District":"Walhain-Saint-Paul","Street":"Rue d'Acremont","HouseNumber":"4","PostalCode":"1457","AdditionalData":[{"value":"Belgique","key":"CountryName"},{"value":"Wallonie","key":"StateName"},{"value":"Brabant Wallon","key":"CountyName"}]},"MapReference":{"ReferenceId":"60827928","Spot":0.69,"SideOfStreet":"left","CountryId":"20128886","StateId":"20205526","CountyId":"20208226","CityId":"20208398","DistrictId":"20208402","AddressId":"369266511","RoadLinkId":"30363403"}}},{"Relevance":1.0,"Distance":43.9,"MatchLevel":"houseNumber","MatchQuality":{"Country":1.0,"State":1.0,"County":1.0,"City":1.0,"District":1.0,"Street":[1.0],"HouseNumber":1.0,"PostalCode":1.0},"MatchType":"interpolated","Location":{"LocationId":"NT_tFT6kbjfQhaD3tOoEAZW7D_zMzLxA","LocationType":"point","DisplayPosition":{"Latitude":50.61851,"Longitude":4.69576},"MapView":{"TopLeft":{"Latitude":50.6196342,"Longitude":4.6939882},"BottomRight":{"Latitude":50.6173858,"Longitude":4.6975318}},"Address":{"Label":"Rue des Combattants 33/1, 1457 Walhain, Belgique","Country":"BEL","State":"Wallonie","County":"Brabant Wallon","City":"Walhain","District":"Walhain-Saint-Paul","Street":"Rue des Combattants","HouseNumber":"33/1","PostalCode":"1457","AdditionalData":[{"value":"Belgique","key":"CountryName"},{"value":"Wallonie","key":"StateName"},{"value":"Brabant Wallon","key":"CountyName"}]},"MapReference":{"ReferenceId":"916227165","Spot":0.71,"SideOfStreet":"right","CountryId":"20128886","StateId":"20205526","CountyId":"20208226","CityId":"20208398","DistrictId":"20208402","AddressId":"369046535","RoadLinkId":"273774592"}}},{"Relevance":1.0,"Distance":66.6,"MatchLevel":"houseNumber","MatchQuality":{"Country":1.0,"State":1.0,"County":1.0,"City":1.0,"District":1.0,"Street":[1.0],"HouseNumber":1.0,"PostalCode":1.0},"MatchType":"interpolated","Location":{"LocationId":"NT_tFT6kbjfQhaD3tOoEAZW7D_zED","LocationType":"point","DisplayPosition":{"Latitude":50.6183,"Longitude":4.69567},"MapView":{"TopLeft":{"Latitude":50.6194242,"Longitude":4.6938982},"BottomRight":{"Latitude":50.6171758,"Longitude":4.6974418}},"Address":{"Label":"Rue des Combattants 31, 1457 Walhain, Belgique","Country":"BEL","State":"Wallonie","County":"Brabant Wallon","City":"Walhain","District":"Walhain-Saint-Paul","Street":"Rue des Combattants","HouseNumber":"31","PostalCode":"1457","AdditionalData":[{"value":"Belgique","key":"CountryName"},{"value":"Wallonie","key":"StateName"},{"value":"Brabant Wallon","key":"CountyName"}]},"MapReference":{"ReferenceId":"916227164","Spot":0.8,"SideOfStreet":"right","CountryId":"20128886","StateId":"20205526","CountyId":"20208226","CityId":"20208398","DistrictId":"20208402","AddressId":"369003062","RoadLinkId":"273774591"}}},{"Relevance":1.0,"Distance":87.2,"MatchLevel":"houseNumber","MatchQuality":{"Country":1.0,"State":1.0,"County":1.0,"City":1.0,"District":1.0,"Street":[1.0],"HouseNumber":1.0,"PostalCode":1.0},"MatchType":"interpolated","Location":{"LocationId":"NT_OKVJQnUaK-kwr-rg5.EZ8C_xA","LocationType":"point","DisplayPosition":{"Latitude":50.61856,"Longitude":4.69441},"MapView":{"TopLeft":{"Latitude":50.6196842,"Longitude":4.6926382},"BottomRight":{"Latitude":50.6174358,"Longitude":4.6961818}},"Address":{"Label":"Chemin dit de la Commune 1, 1457 Walhain, Belgique","Country":"BEL","State":"Wallonie","County":"Brabant Wallon","City":"Walhain","District":"Walhain-Saint-Paul","Street":"Chemin dit de la Commune","HouseNumber":"1","PostalCode":"1457","AdditionalData":[{"value":"Belgique","key":"CountryName"},{"value":"Wallonie","key":"StateName"},{"value":"Brabant Wallon","key":"CountyName"}]},"MapReference":{"ReferenceId":"60827929","Spot":0.19,"SideOfStreet":"right","CountryId":"20128886","StateId":"20205526","CountyId":"20208226","CityId":"20208398","DistrictId":"20208402","AddressId":"767397799","RoadLinkId":"30925659"}}},{"Relevance":1.0,"Distance":94.0,"MatchLevel":"houseNumber","MatchQuality":{"Country":1.0,"State":1.0,"County":1.0,"City":1.0,"District":1.0,"Street":[1.0],"HouseNumber":1.0,"PostalCode":1.0},"MatchType":"interpolated","Location":{"LocationId":"NT_NWpYFYztERrZDLVkEfiYEC_xA","LocationType":"point","DisplayPosition":{"Latitude":50.61799,"Longitude":4.69525},"MapView":{"TopLeft":{"Latitude":50.6191142,"Longitude":4.6934783},"BottomRight":{"Latitude":50.6168658,"Longitude":4.6970217}},"Address":{"Label":"Place Communale 1, 1457 Walhain, Belgique","Country":"BEL","State":"Wallonie","County":"Brabant Wallon","City":"Walhain","District":"Walhain-Saint-Paul","Street":"Place Communale","HouseNumber":"1","PostalCode":"1457","AdditionalData":[{"value":"Belgique","key":"CountryName"},{"value":"Wallonie","key":"StateName"},{"value":"Brabant Wallon","key":"CountyName"}]},"MapReference":{"ReferenceId":"801199412","Spot":0.21,"SideOfStreet":"right","CountryId":"20128886","StateId":"20205526","CountyId":"20208226","CityId":"20208398","DistrictId":"20208402","AddressId":"369303309","RoadLinkId":"190979652"}}},{"Relevance":1.0,"Distance":112.7,"MatchLevel":"houseNumber","MatchQuality":{"Country":1.0,"State":1.0,"County":1.0,"City":1.0,"District":1.0,"Street":[1.0],"HouseNumber":1.0,"PostalCode":1.0},"MatchType":"interpolated","Location":{"LocationId":"NT_tFT6kbjfQhaD3tOoEAZW7D_yUD","LocationType":"point","DisplayPosition":{"Latitude":50.61789,"Longitude":4.6955},"MapView":{"TopLeft":{"Latitude":50.6190142,"Longitude":4.6937283},"BottomRight":{"Latitude":50.6167658,"Longitude":4.6972717}},"Address":{"Label":"Rue des Combattants 25, 1457 Walhain, Belgique","Country":"BEL","State":"Wallonie","County":"Brabant Wallon","City":"Walhain","District":"Walhain-Saint-Paul","Street":"Rue des Combattants","HouseNumber":"25","PostalCode":"1457","AdditionalData":[{"value":"Belgique","key":"CountryName"},{"value":"Wallonie","key":"StateName"},{"value":"Brabant Wallon","key":"CountyName"}]},"MapReference":{"ReferenceId":"801199413","Spot":0.3,"SideOfStreet":"right","CountryId":"20128886","StateId":"20205526","CountyId":"20208226","CityId":"20208398","DistrictId":"20208402","AddressId":"368965727","RoadLinkId":"190979653"}}},{"Relevance":1.0,"Distance":112.8,"MatchLevel":"houseNumber","MatchQuality":{"Country":1.0,"State":1.0,"County":1.0,"City":1.0,"District":1.0,"Street":[1.0],"HouseNumber":1.0,"PostalCode":1.0},"MatchType":"interpolated","Location":{"LocationId":"NT_NWpYFYztERrZDLVkEfiYEC_3A","LocationType":"point","DisplayPosition":{"Latitude":50.6179,"Longitude":4.69537},"MapView":{"TopLeft":{"Latitude":50.6190242,"Longitude":4.6935983},"BottomRight":{"Latitude":50.6167758,"Longitude":4.6971417}},"Address":{"Label":"Place Communale 7, 1457 Walhain, Belgique","Country":"BEL","State":"Wallonie","County":"Brabant Wallon","City":"Walhain","District":"Walhain-Saint-Paul","Street":"Place Communale","HouseNumber":"7","PostalCode":"1457","AdditionalData":[{"value":"Belgique","key":"CountryName"},{"value":"Wallonie","key":"StateName"},{"value":"Brabant Wallon","key":"CountyName"}]},"MapReference":{"ReferenceId":"801199411","Spot":1.0,"SideOfStreet":"left","CountryId":"20128886","StateId":"20205526","CountyId":"20208226","CityId":"20208398","DistrictId":"20208402","AddressId":"455897414","RoadLinkId":"190979651"}}}]}]}}