{"Response":{"MetaInfo":{"Timestamp":"2020-03-28T10:29:16.616+0000","NextPageInformation":"2"},"View":[{"_type":"SearchResultsViewType","ViewId":0,"Result":[{"Relevance":1.0,"Distance":0.0,"Direction":0.0,"MatchLevel":"district","MatchQuality":{"Country":1.0,"State":1.0,"County":1.0,"City":1.0,"District":1.0,"PostalCode":1.0},"Location":{"LocationId":"NT_rRvCROl4kX.56uGe69kYHB","LocationType":"point","DisplayPosition":{"Latitude":50.62693,"Longitude":3.1494756},"MapView":{"TopLeft":{"Latitude":50.63226,"Longitude":3.13844},"BottomRight":{"Latitude":50.62072,"Longitude":3.16978}},"Address":{"Label":"Annappes, Villeneuve-d'Ascq, Hauts-de-France, France","Country":"FRA","State":"Hauts-de-France","County":"Nord","City":"Villeneuve-d'Ascq","District":"Annappes","PostalCode":"59650","AdditionalData":[{"value":"France","key":"CountryName"},{"value":"Hauts-de-France","key":"StateName"},{"value":"Nord","key":"CountyName"}]},"MapReference":{"ReferenceId":"822666167","SideOfStreet":"neither","CountryId":"20000001","StateId":"20000002","CountyId":"20000003","CityId":"20026302"}}},{"Relevance":1.0,"Distance":9.8,"MatchLevel":"houseNumber","MatchQuality":{"Country":1.0,"State":1.0,"County":1.0,"City":1.0,"District":1.0,"Street":[1.0],"HouseNumber":1.0,"PostalCode":1.0},"MatchType":"interpolated","Location":{"LocationId":"NT_tXM9nuh7TO-bL6Nc5jlz6D_3A","LocationType":"point","DisplayPosition":{"Latitude":50.62687,"Longitude":3.14967},"MapView":{"TopLeft":{"Latitude":50.6279942,"Longitude":3.1478979},"BottomRight":{"Latitude":50.6257458,"Longitude":3.1514421}},"Address":{"Label":"7 Rue Saint-Jean-Baptiste de la Salle, 59650 Villeneuve-d'Ascq, France","Country":"FRA","State":"Hauts-de-France","County":"Nord","City":"Villeneuve-d'Ascq","District":"Annappes","Street":"Rue Saint-Jean-Baptiste de la Salle","HouseNumber":"7","PostalCode":"59650","AdditionalData":[{"value":"France","key":"CountryName"},{"value":"Hauts-de-France","key":"StateName"},{"value":"Nord","key":"CountyName"}]},"MapReference":{"ReferenceId":"1250672613","Spot":0.45,"SideOfStreet":"left","CountryId":"20000001","StateId":"20000002","CountyId":"20000003","CityId":"20026302","AddressId":"777278853","RoadLinkId":"573580248"}}},{"Relevance":1.0,"Distance":24.8,"MatchLevel":"landmark","MatchQuality":{"Country":1.0,"State":1.0,"County":1.0,"City":1.0,"PostalCode":1.0,"Name":1.0},"Location":{"LocationId":"NT_v9ydqBu1qSK97vRQdjf9XD","LocationType":"cemetery","Name":"Cimetière d'Annappes","DisplayPosition":{"Latitude":50.62788,"Longitude":3.15002},"MapView":{"TopLeft":{"Latitude":50.62871,"Longitude":3.14927},"BottomRight":{"Latitude":50.62705,"Longitude":3.15099}},"Address":{"Label":"59650 Villeneuve-d'Ascq, France","Country":"FRA","State":"Hauts-de-France","County":"Nord","City":"Villeneuve-d'Ascq","PostalCode":"59650","AdditionalData":[{"value":"France","key":"CountryName"},{"value":"Hauts-de-France","key":"StateName"},{"value":"Nord","key":"CountyName"}]},"MapReference":{"CountryId":"20000001","StateId":"20000002","CountyId":"20000003","CityId":"20026302","PlaceId":"1451917005"}}},{"Relevance":1.0,"Distance":26.0,"MatchLevel":"street","MatchQuality":{"Country":1.0,"State":1.0,"County":1.0,"City":1.0,"District":1.0,"Street":[1.0],"PostalCode":1.0},"Location":{"LocationId":"NT_tXM9nuh7TO-bL6Nc5jlz6D_l_1250672616_L","LocationType":"point","DisplayPosition":{"Latitude":50.62671,"Longitude":3.1496},"MapView":{"TopLeft":{"Latitude":50.62671,"Longitude":3.14952},"BottomRight":{"Latitude":50.62663,"Longitude":3.1496}},"Address":{"Label":"Rue Saint-Jean-Baptiste de la Salle, 59650 Villeneuve-d'Ascq, France","Country":"FRA","State":"Hauts-de-France","County":"Nord","City":"Villeneuve-d'Ascq","District":"Annappes","Street":"Rue Saint-Jean-Baptiste de la Salle","PostalCode":"59650","AdditionalData":[{"value":"France","key":"CountryName"},{"value":"Hauts-de-France","key":"StateName"},{"value":"Nord","key":"CountyName"}]},"MapReference":{"ReferenceId":"1250672616","Spot":1.0,"SideOfStreet":"left","CountryId":"20000001","StateId":"20000002","CountyId":"20000003","CityId":"20026302"}}},{"Relevance":1.0,"Distance":26.0,"MatchLevel":"street","MatchQuality":{"Country":1.0,"State":1.0,"County":1.0,"City":1.0,"District":1.0,"Street":[1.0],"PostalCode":1.0},"Location":{"LocationId":"NT_TnE1uivprz6ler-IrLvmFB_l_1250672614_L","LocationType":"point","DisplayPosition":{"Latitude":50.62671,"Longitude":3.1496},"MapView":{"TopLeft":{"Latitude":50.62671,"Longitude":3.1496},"BottomRight":{"Latitude":50.6265,"Longitude":3.14975}},"Address":{"Label":"Place de la République, 59650 Villeneuve-d'Ascq, France","Country":"FRA","State":"Hauts-de-France","County":"Nord","City":"Villeneuve-d'Ascq","District":"Annappes","Street":"Place de la République","PostalCode":"59650","AdditionalData":[{"value":"France","key":"CountryName"},{"value":"Hauts-de-France","key":"StateName"},{"value":"Nord","key":"CountyName"}]},"MapReference":{"ReferenceId":"1250672614","Spot":1.0,"SideOfStreet":"left","CountryId":"20000001","StateId":"20000002","CountyId":"20000003","CityId":"20026302"}}},{"Relevance":1.0,"Distance":32.0,"MatchLevel":"street","MatchQuality":{"Country":1.0,"State":1.0,"County":1.0,"City":1.0,"District":1.0,"Street":[1.0],"PostalCode":1.0},"Location":{"LocationId":"NT_CEZog3ZjZstYJWs2EukGWC_l_1250672617_R","LocationType":"point","DisplayPosition":{"Latitude":50.6266436,"Longitude":3.1494315},"MapView":{"TopLeft":{"Latitude":50.6267,"Longitude":3.14882},"BottomRight":{"Latitude":50.62663,"Longitude":3.14952}},"Address":{"Label":"Rue de la Liberté, 59650 Villeneuve-d'Ascq, France","Country":"FRA","State":"Hauts-de-France","County":"Nord","City":"Villeneuve-d'Ascq","District":"Annappes","Street":"Rue de la Liberté","PostalCode":"59650","AdditionalData":[{"value":"France","key":"CountryName"},{"value":"Hauts-de-France","key":"StateName"},{"value":"Nord","key":"CountyName"}]},"MapReference":{"ReferenceId":"1250672617","Spot":0.13,"SideOfStreet":"right","CountryId":"20000001","StateId":"20000002","CountyId":"20000003","CityId":"20026302"}}},{"Relevance":1.0,"Distance":33.5,"MatchLevel":"street","MatchQuality":{"Country":1.0,"State":1.0,"County":1.0,"City":1.0,"District":1.0,"Street":[1.0],"PostalCode":1.0},"Location":{"LocationId":"NT_tXM9nuh7TO-bL6Nc5jlz6D_l_1250672615_L","LocationType":"point","DisplayPosition":{"Latitude":50.62663,"Longitude":3.14952},"MapView":{"TopLeft":{"Latitude":50.62663,"Longitude":3.14932},"BottomRight":{"Latitude":50.6265,"Longitude":3.14952}},"Address":{"Label":"Rue Saint-Jean-Baptiste de la Salle, 59650 Villeneuve-d'Ascq, France","Country":"FRA","State":"Hauts-de-France","County":"Nord","City":"Villeneuve-d'Ascq","District":"Annappes","Street":"Rue Saint-Jean-Baptiste de la Salle","PostalCode":"59650","AdditionalData":[{"value":"France","key":"CountryName"},{"value":"Hauts-de-France","key":"StateName"},{"value":"Nord","key":"CountyName"}]},"MapReference":{"ReferenceId":"1250672615","Spot":1.0,"SideOfStreet":"left","CountryId":"20000001","StateId":"20000002","CountyId":"20000003","CityId":"20026302"}}},{"Relevance":1.0,"Distance":38.4,"MatchLevel":"houseNumber","MatchQuality":{"Country":1.0,"State":1.0,"County":1.0,"City":1.0,"District":1.0,"Street":[1.0],"HouseNumber":1.0,"PostalCode":1.0},"MatchType":"interpolated","Location":{"LocationId":"NT_TnE1uivprz6ler-IrLvmFB_yYD","LocationType":"point","DisplayPosition":{"Latitude":50.62654,"Longitude":3.1492},"MapView":{"TopLeft":{"Latitude":50.6276642,"Longitude":3.1474279},"BottomRight":{"Latitude":50.6254158,"Longitude":3.1509721}},"Address":{"Label":"26 Place de la République, 59650 Villeneuve-d'Ascq, France","Country":"FRA","State":"Hauts-de-France","County":"Nord","City":"Villeneuve-d'Ascq","District":"Annappes","Street":"Place de la République","HouseNumber":"26","PostalCode":"59650","AdditionalData":[{"value":"France","key":"CountryName"},{"value":"Hauts-de-France","key":"StateName"},{"value":"Nord","key":"CountyName"}]},"MapReference":{"ReferenceId":"973325972","Spot":0.4,"SideOfStreet":"right","CountryId":"20000001","StateId":"20000002","CountyId":"20000003","CityId":"20026302","AddressId":"376284677","RoadLinkId":"309743218"}}},{"Relevance":1.0,"Distance":51.6,"MatchLevel":"street","MatchQuality":{"Country":1.0,"State":1.0,"County":1.0,"City":1.0,"District":1.0,"Street":[1.0],"PostalCode":1.0},"Location":{"LocationId":"NT_uXNRS9hjYrastiDJ-sF3oB_l_1088521326_L","LocationType":"point","DisplayPosition":{"Latitude":50.6265,"Longitude":3.14975},"MapView":{"TopLeft":{"Latitude":50.62651,"Longitude":3.14975},"BottomRight":{"Latitude":50.6265,"Longitude":3.14998}},"Address":{"Label":"Rue Pasteur, 59650 Villeneuve-d'Ascq, France","Country":"FRA","State":"Hauts-de-France","County":"Nord","City":"Villeneuve-d'Ascq","District":"Annappes","Street":"Rue Pasteur","PostalCode":"59650","AdditionalData":[{"value":"France","key":"CountryName"},{"value":"Hauts-de-France","key":"StateName"},{"value":"Nord","key":"CountyName"}]},"MapReference":{"ReferenceId":"1088521326","Spot":0.0,"SideOfStreet":"left","CountryId":"20000001","StateId":"20000002","CountyId":"20000003","CityId":"20026302"}}},{"Relevance":1.0,"Distance":52.4,"MatchLevel":"houseNumber","MatchQuality":{"Country":1.0,"State":1.0,"County":1.0,"City":1.0,"District":1.0,"Street":[1.0],"HouseNumber":1.0,"PostalCode":1.0},"MatchType":"interpolated","Location":{"LocationId":"NT_TnE1uivprz6ler-IrLvmFB_l_58780929_R_xAD","LocationType":"point","DisplayPosition":{"Latitude":50.62646,"Longitude":3.1495258},"MapView":{"TopLeft":{"Latitude":50.6275842,"Longitude":3.1477537},"BottomRight":{"Latitude":50.6253358,"Longitude":3.1512979}},"Address":{"Label":"10 Place de la République, 59650 Villeneuve-d'Ascq, France","Country":"FRA","State":"Hauts-de-France","County":"Nord","City":"Villeneuve-d'Ascq","District":"Annappes","Street":"Place de la République","HouseNumber":"10","PostalCode":"59650","AdditionalData":[{"value":"France","key":"CountryName"},{"value":"Hauts-de-France","key":"StateName"},{"value":"Nord","key":"CountyName"}]},"MapReference":{"ReferenceId":"58780929","Spot":0.48,"SideOfStreet":"right","CountryId":"20000001","StateId":"20000002","CountyId":"20000003","CityId":"20026302"}}}]}]}}