{"Response":{"MetaInfo":{"Timestamp":"2020-03-28T11:39:06.494+0000","NextPageInformation":"2"},"View":[{"_type":"SearchResultsViewType","ViewId":0,"Result":[{"Relevance":1.0,"Distance":0.0,"Direction":0.0,"MatchLevel":"city","MatchQuality":{"Country":1.0,"State":1.0,"County":1.0,"City":1.0,"PostalCode":1.0},"Location":{"LocationId":"NT_IMD5ApIcDb-K2XYu6Q0yqD","LocationType":"point","DisplayPosition":{"Latitude":50.6701813,"Longitude":5.0812669},"MapView":{"TopLeft":{"Latitude":50.71626,"Longitude":4.98706},"BottomRight":{"Latitude":50.59839,"Longitude":5.16266}},"Address":{"Label":"Hannut, Wallonie, Belgique","Country":"BEL","State":"Wallonie","County":"Liège","City":"Hannut","PostalCode":"4280","AdditionalData":[{"value":"Belgique","key":"CountryName"},{"value":"Wallonie","key":"StateName"},{"value":"Liège","key":"CountyName"}]},"MapReference":{"ReferenceId":"53747230","SideOfStreet":"neither","CountryId":"20128886","StateId":"20205526","CountyId":"20206134","CityId":"20206610"}}},{"Relevance":1.0,"Distance":6.5,"MatchLevel":"houseNumber","MatchQuality":{"Country":1.0,"State":1.0,"County":1.0,"City":1.0,"Street":[1.0],"HouseNumber":1.0,"PostalCode":1.0},"MatchType":"interpolated","Location":{"LocationId":"NT_Cgtt1bcVIE24VTU66CyFjD_0ED","LocationType":"point","DisplayPosition":{"Latitude":50.67024,"Longitude":5.08127},"MapView":{"TopLeft":{"Latitude":50.6713642,"Longitude":5.0794963},"BottomRight":{"Latitude":50.6691158,"Longitude":5.0830437}},"Address":{"Label":"Rue Albert 1er 41, 4280 Hannut, Belgique","Country":"BEL","State":"Wallonie","County":"Liège","City":"Hannut","Street":"Rue Albert 1er","HouseNumber":"41","PostalCode":"4280","AdditionalData":[{"value":"Belgique","key":"CountryName"},{"value":"Wallonie","key":"StateName"},{"value":"Liège","key":"CountyName"}]},"MapReference":{"ReferenceId":"53747488","Spot":0.08,"SideOfStreet":"left","CountryId":"20128886","StateId":"20205526","CountyId":"20206134","CityId":"20206610","AddressId":"368568969","RoadLinkId":"30996273"}}},{"Relevance":1.0,"Distance":17.6,"MatchLevel":"houseNumber","MatchQuality":{"Country":1.0,"State":1.0,"County":1.0,"City":1.0,"Street":[1.0],"HouseNumber":1.0,"PostalCode":1.0},"MatchType":"interpolated","Location":{"LocationId":"NT_Cgtt1bcVIE24VTU66CyFjD_0MD","LocationType":"point","DisplayPosition":{"Latitude":50.67013,"Longitude":5.08148},"MapView":{"TopLeft":{"Latitude":50.6712542,"Longitude":5.0797063},"BottomRight":{"Latitude":50.6690058,"Longitude":5.0832537}},"Address":{"Label":"Rue Albert 1er 43, 4280 Hannut, Belgique","Country":"BEL","State":"Wallonie","County":"Liège","City":"Hannut","Street":"Rue Albert 1er","HouseNumber":"43","PostalCode":"4280","AdditionalData":[{"value":"Belgique","key":"CountryName"},{"value":"Wallonie","key":"StateName"},{"value":"Liège","key":"CountyName"}]},"MapReference":{"ReferenceId":"53747507","Spot":0.87,"SideOfStreet":"left","CountryId":"20128886","StateId":"20205526","CountyId":"20206134","CityId":"20206610","AddressId":"368568967","RoadLinkId":"30814707"}}},{"Relevance":1.0,"Distance":22.6,"MatchLevel":"houseNumber","MatchQuality":{"Country":1.0,"State":1.0,"County":1.0,"City":1.0,"Street":[1.0],"HouseNumber":1.0,"PostalCode":1.0},"MatchType":"interpolated","Location":{"LocationId":"NT_ORdrNz.kjZOgMd8n0fkhlC_xMD","LocationType":"point","DisplayPosition":{"Latitude":50.66999,"Longitude":5.08116},"MapView":{"TopLeft":{"Latitude":50.6711142,"Longitude":5.0793863},"BottomRight":{"Latitude":50.6688658,"Longitude":5.0829337}},"Address":{"Label":"Impasse Martin 13, 4280 Hannut, Belgique","Country":"BEL","State":"Wallonie","County":"Liège","City":"Hannut","Street":"Impasse Martin","HouseNumber":"13","PostalCode":"4280","AdditionalData":[{"value":"Belgique","key":"CountryName"},{"value":"Wallonie","key":"StateName"},{"value":"Liège","key":"CountyName"}]},"MapReference":{"ReferenceId":"68205165","Spot":0.74,"SideOfStreet":"right","CountryId":"20128886","StateId":"20205526","CountyId":"20206134","CityId":"20206610","AddressId":"455899870","RoadLinkId":"30244648"}}},{"Relevance":1.0,"Distance":38.5,"MatchLevel":"houseNumber","MatchQuality":{"Country":1.0,"State":1.0,"County":1.0,"City":1.0,"Street":[1.0],"HouseNumber":1.0,"PostalCode":1.0},"MatchType":"interpolated","Location":{"LocationId":"NT_Cgtt1bcVIE24VTU66CyFjD_1QD","LocationType":"point","DisplayPosition":{"Latitude":50.67022,"Longitude":5.08207},"MapView":{"TopLeft":{"Latitude":50.6713442,"Longitude":5.0802963},"BottomRight":{"Latitude":50.6690958,"Longitude":5.0838437}},"Address":{"Label":"Rue Albert 1er 54, 4280 Hannut, Belgique","Country":"BEL","State":"Wallonie","County":"Liège","City":"Hannut","Street":"Rue Albert 1er","HouseNumber":"54","PostalCode":"4280","AdditionalData":[{"value":"Belgique","key":"CountryName"},{"value":"Wallonie","key":"StateName"},{"value":"Liège","key":"CountyName"}]},"MapReference":{"ReferenceId":"59718268","Spot":0.44,"SideOfStreet":"left","CountryId":"20128886","StateId":"20205526","CountyId":"20206134","CityId":"20206610","AddressId":"368574173","RoadLinkId":"30834415"}}},{"Relevance":1.0,"Distance":47.9,"MatchLevel":"houseNumber","MatchQuality":{"Country":1.0,"State":1.0,"County":1.0,"City":1.0,"Street":[1.0],"HouseNumber":1.0,"PostalCode":1.0},"MatchType":"interpolated","Location":{"LocationId":"NT_Cgtt1bcVIE24VTU66CyFjD_1MD","LocationType":"point","DisplayPosition":{"Latitude":50.66994,"Longitude":5.08183},"MapView":{"TopLeft":{"Latitude":50.6710642,"Longitude":5.0800563},"BottomRight":{"Latitude":50.6688158,"Longitude":5.0836037}},"Address":{"Label":"Rue Albert 1er 53, 4280 Hannut, Belgique","Country":"BEL","State":"Wallonie","County":"Liège","City":"Hannut","Street":"Rue Albert 1er","HouseNumber":"53","PostalCode":"4280","AdditionalData":[{"value":"Belgique","key":"CountryName"},{"value":"Wallonie","key":"StateName"},{"value":"Liège","key":"CountyName"}]},"MapReference":{"ReferenceId":"854383848","Spot":0.88,"SideOfStreet":"left","CountryId":"20128886","StateId":"20205526","CountyId":"20206134","CityId":"20206610","AddressId":"368354841","RoadLinkId":"232664603"}}},{"Relevance":1.0,"Distance":82.5,"MatchLevel":"houseNumber","MatchQuality":{"Country":1.0,"State":1.0,"County":1.0,"City":1.0,"Street":[1.0],"HouseNumber":1.0,"PostalCode":1.0},"MatchType":"interpolated","Location":{"LocationId":"NT_Cgtt1bcVIE24VTU66CyFjD_3AD","LocationType":"point","DisplayPosition":{"Latitude":50.67058,"Longitude":5.08236},"MapView":{"TopLeft":{"Latitude":50.6717042,"Longitude":5.0805863},"BottomRight":{"Latitude":50.6694558,"Longitude":5.0841337}},"Address":{"Label":"Rue Albert 1er 70, 4280 Hannut, Belgique","Country":"BEL","State":"Wallonie","County":"Liège","City":"Hannut","Street":"Rue Albert 1er","HouseNumber":"70","PostalCode":"4280","AdditionalData":[{"value":"Belgique","key":"CountryName"},{"value":"Wallonie","key":"StateName"},{"value":"Liège","key":"CountyName"}]},"MapReference":{"ReferenceId":"59718269","Spot":0.38,"SideOfStreet":"left","CountryId":"20128886","StateId":"20205526","CountyId":"20206134","CityId":"20206610","AddressId":"368716023","RoadLinkId":"30483278"}}},{"Relevance":1.0,"Distance":94.8,"MatchLevel":"street","MatchQuality":{"Country":1.0,"State":1.0,"County":1.0,"City":1.0,"Street":[1.0],"PostalCode":1.0},"Location":{"LocationId":"NT_HwExLBS1ZxsLlkm32W2uJB_l_68205166_L","LocationType":"point","DisplayPosition":{"Latitude":50.66957,"Longitude":5.08033},"MapView":{"TopLeft":{"Latitude":50.66957,"Longitude":5.07931},"BottomRight":{"Latitude":50.66927,"Longitude":5.08033}},"Address":{"Label":"Place Maquet, 4280 Hannut, Belgique","Country":"BEL","State":"Wallonie","County":"Liège","City":"Hannut","Street":"Place Maquet","PostalCode":"4280","AdditionalData":[{"value":"Belgique","key":"CountryName"},{"value":"Wallonie","key":"StateName"},{"value":"Liège","key":"CountyName"}]},"MapReference":{"ReferenceId":"68205166","Spot":1.0,"SideOfStreet":"left","CountryId":"20128886","StateId":"20205526","CountyId":"20206134","CityId":"20206610"}}},{"Relevance":1.0,"Distance":96.3,"MatchLevel":"houseNumber","MatchQuality":{"Country":1.0,"State":1.0,"County":1.0,"City":1.0,"Street":[1.0],"HouseNumber":1.0,"PostalCode":1.0},"MatchType":"interpolated","Location":{"LocationId":"NT_ORdrNz.kjZOgMd8n0fkhlC_xID","LocationType":"point","DisplayPosition":{"Latitude":50.66934,"Longitude":5.0806},"MapView":{"TopLeft":{"Latitude":50.6704642,"Longitude":5.0788263},"BottomRight":{"Latitude":50.6682158,"Longitude":5.0823737}},"Address":{"Label":"Impasse Martin 12, 4280 Hannut, Belgique","Country":"BEL","State":"Wallonie","County":"Liège","City":"Hannut","Street":"Impasse Martin","HouseNumber":"12","PostalCode":"4280","AdditionalData":[{"value":"Belgique","key":"CountryName"},{"value":"Wallonie","key":"StateName"},{"value":"Liège","key":"CountyName"}]},"MapReference":{"ReferenceId":"59719608","Spot":0.8,"SideOfStreet":"right","CountryId":"20128886","StateId":"20205526","CountyId":"20206134","CityId":"20206610","AddressId":"368604610","RoadLinkId":"30717880"}}},{"Relevance":1.0,"Distance":107.3,"MatchLevel":"houseNumber","MatchQuality":{"Country":1.0,"State":1.0,"County":1.0,"City":1.0,"Street":[1.0],"HouseNumber":1.0,"PostalCode":1.0},"MatchType":"interpolated","Location":{"LocationId":"NT_Cgtt1bcVIE24VTU66CyFjD_3ID","LocationType":"point","DisplayPosition":{"Latitude":50.67037,"Longitude":5.08276},"MapView":{"TopLeft":{"Latitude":50.6714942,"Longitude":5.0809863},"BottomRight":{"Latitude":50.6692458,"Longitude":5.0845337}},"Address":{"Label":"Rue Albert 1er 72, 4280 Hannut, Belgique","Country":"BEL","State":"Wallonie","County":"Liège","City":"Hannut","Street":"Rue Albert 1er","HouseNumber":"72","PostalCode":"4280","AdditionalData":[{"value":"Belgique","key":"CountryName"},{"value":"Wallonie","key":"StateName"},{"value":"Liège","key":"CountyName"}]},"MapReference":{"ReferenceId":"53747505","Spot":0.71,"SideOfStreet":"right","CountryId":"20128886","StateId":"20205526","CountyId":"20206134","CityId":"20206610","AddressId":"455886206","RoadLinkId":"30789233"}}}]}]}}