{"Response":{"MetaInfo":{"Timestamp":"2020-03-28T11:53:44.592+0000","NextPageInformation":"2"},"View":[{"_type":"SearchResultsViewType","ViewId":0,"Result":[{"Relevance":1.0,"Distance":0.0,"Direction":0.0,"MatchLevel":"city","MatchQuality":{"Country":1.0,"State":1.0,"County":1.0,"City":1.0,"PostalCode":1.0},"Location":{"LocationId":"NT_hxrn7ve.QbiN1B6SW-7JMC","LocationType":"point","DisplayPosition":{"Latitude":50.6150537,"Longitude":3.1144643},"MapView":{"TopLeft":{"Latitude":50.62059,"Longitude":3.09671},"BottomRight":{"Latitude":50.59942,"Longitude":3.13808}},"Address":{"Label":"Lezennes, Hauts-de-France, France","Country":"FRA","State":"Hauts-de-France","County":"Nord","City":"Lezennes","PostalCode":"59260","AdditionalData":[{"value":"France","key":"CountryName"},{"value":"Hauts-de-France","key":"StateName"},{"value":"Nord","key":"CountyName"}]},"MapReference":{"ReferenceId":"58783198","SideOfStreet":"neither","CountryId":"20000001","StateId":"20000002","CountyId":"20000003","CityId":"20027207"}}},{"Relevance":1.0,"Distance":13.6,"MatchLevel":"houseNumber","MatchQuality":{"Country":1.0,"State":1.0,"County":1.0,"City":1.0,"Street":[1.0],"HouseNumber":1.0,"PostalCode":1.0},"MatchType":"interpolated","Location":{"LocationId":"NT_1MmohYmXadEkaq4gP-m4DC_2A","LocationType":"point","DisplayPosition":{"Latitude":50.61519,"Longitude":3.11434},"MapView":{"TopLeft":{"Latitude":50.6163142,"Longitude":3.1125684},"BottomRight":{"Latitude":50.6140658,"Longitude":3.1161116}},"Address":{"Label":"6 Rue Faidherbe, 59260 Lezennes, France","Country":"FRA","State":"Hauts-de-France","County":"Nord","City":"Lezennes","Street":"Rue Faidherbe","HouseNumber":"6","PostalCode":"59260","AdditionalData":[{"value":"France","key":"CountryName"},{"value":"Hauts-de-France","key":"StateName"},{"value":"Nord","key":"CountyName"}]},"MapReference":{"ReferenceId":"58783135","Spot":0.67,"SideOfStreet":"right","CountryId":"20000001","StateId":"20000002","CountyId":"20000003","CityId":"20027207","AddressId":"345271802","RoadLinkId":"44238489"}}},{"Relevance":1.0,"Distance":14.1,"MatchLevel":"houseNumber","MatchQuality":{"Country":1.0,"State":1.0,"County":1.0,"City":1.0,"Street":[1.0],"HouseNumber":1.0,"PostalCode":1.0},"MatchType":"interpolated","Location":{"LocationId":"NT_CS3UB3eTAgbhOmYEni7I6A_zID","LocationType":"point","DisplayPosition":{"Latitude":50.61488,"Longitude":3.11437},"MapView":{"TopLeft":{"Latitude":50.6160042,"Longitude":3.1125984},"BottomRight":{"Latitude":50.6137558,"Longitude":3.1161416}},"Address":{"Label":"32 Rue Gambetta, 59260 Lezennes, France","Country":"FRA","State":"Hauts-de-France","County":"Nord","City":"Lezennes","Street":"Rue Gambetta","HouseNumber":"32","PostalCode":"59260","AdditionalData":[{"value":"France","key":"CountryName"},{"value":"Hauts-de-France","key":"StateName"},{"value":"Nord","key":"CountyName"}]},"MapReference":{"ReferenceId":"58798220","Spot":0.62,"SideOfStreet":"right","CountryId":"20000001","StateId":"20000002","CountyId":"20000003","CityId":"20027207","AddressId":"674360424","RoadLinkId":"43975350"}}},{"Relevance":1.0,"Distance":30.1,"MatchLevel":"houseNumber","MatchQuality":{"Country":1.0,"State":1.0,"County":1.0,"City":1.0,"Street":[1.0],"HouseNumber":1.0,"PostalCode":1.0},"MatchType":"interpolated","Location":{"LocationId":"NT_1MmohYmXadEkaq4gP-m4DC_xID","LocationType":"point","DisplayPosition":{"Latitude":50.61535,"Longitude":3.11456},"MapView":{"TopLeft":{"Latitude":50.6164742,"Longitude":3.1127884},"BottomRight":{"Latitude":50.6142258,"Longitude":3.1163316}},"Address":{"Label":"12 Rue Faidherbe, 59260 Lezennes, France","Country":"FRA","State":"Hauts-de-France","County":"Nord","City":"Lezennes","Street":"Rue Faidherbe","HouseNumber":"12","PostalCode":"59260","AdditionalData":[{"value":"France","key":"CountryName"},{"value":"Hauts-de-France","key":"StateName"},{"value":"Nord","key":"CountyName"}]},"MapReference":{"ReferenceId":"58798247","Spot":0.29,"SideOfStreet":"right","CountryId":"20000001","StateId":"20000002","CountyId":"20000003","CityId":"20027207","AddressId":"345273238","RoadLinkId":"44838724"}}},{"Relevance":1.0,"Distance":32.4,"MatchLevel":"street","MatchQuality":{"Country":1.0,"State":1.0,"County":1.0,"City":1.0,"Street":[1.0],"PostalCode":1.0},"Location":{"LocationId":"NT_X9GDUabIcnri1TLSROROdD_l_1007313928_R","LocationType":"point","DisplayPosition":{"Latitude":50.61496,"Longitude":3.11403},"MapView":{"TopLeft":{"Latitude":50.61501,"Longitude":3.11376},"BottomRight":{"Latitude":50.61496,"Longitude":3.11403}},"Address":{"Label":"Rue Jean-Baptiste Defaux, 59260 Lezennes, France","Country":"FRA","State":"Hauts-de-France","County":"Nord","City":"Lezennes","Street":"Rue Jean-Baptiste Defaux","PostalCode":"59260","AdditionalData":[{"value":"France","key":"CountryName"},{"value":"Hauts-de-France","key":"StateName"},{"value":"Nord","key":"CountyName"}]},"MapReference":{"ReferenceId":"1007313928","Spot":0.0,"SideOfStreet":"right","CountryId":"20000001","StateId":"20000002","CountyId":"20000003","CityId":"20027207"}}},{"Relevance":1.0,"Distance":38.3,"MatchLevel":"houseNumber","MatchQuality":{"Country":1.0,"State":1.0,"County":1.0,"City":1.0,"Street":[1.0],"HouseNumber":1.0,"PostalCode":1.0},"MatchType":"interpolated","Location":{"LocationId":"NT_yHhIe7t7Ks8APrUggbQj5A_l_841323136_L_yA","LocationType":"point","DisplayPosition":{"Latitude":50.6149096,"Longitude":3.1139705},"MapView":{"TopLeft":{"Latitude":50.6160338,"Longitude":3.1121988},"BottomRight":{"Latitude":50.6137855,"Longitude":3.1157421}},"Address":{"Label":"2 Rue Sadi Carnot, 59260 Lezennes, France","Country":"FRA","State":"Hauts-de-France","County":"Nord","City":"Lezennes","Street":"Rue Sadi Carnot","HouseNumber":"2","PostalCode":"59260","AdditionalData":[{"value":"France","key":"CountryName"},{"value":"Hauts-de-France","key":"StateName"},{"value":"Nord","key":"CountyName"}]},"MapReference":{"ReferenceId":"841323136","Spot":0.54,"SideOfStreet":"left","CountryId":"20000001","StateId":"20000002","CountyId":"20000003","CityId":"20027207"}}},{"Relevance":1.0,"Distance":39.4,"MatchLevel":"houseNumber","MatchQuality":{"Country":1.0,"State":1.0,"County":1.0,"City":1.0,"Street":[1.0],"HouseNumber":1.0,"PostalCode":1.0},"MatchType":"interpolated","Location":{"LocationId":"NT_mLvpErCekcR7eFWT7EoO3D_yA","LocationType":"point","DisplayPosition":{"Latitude":50.61524,"Longitude":3.11393},"MapView":{"TopLeft":{"Latitude":50.6163642,"Longitude":3.1121584},"BottomRight":{"Latitude":50.6141158,"Longitude":3.1157016}},"Address":{"Label":"2 Cour Delerue, 59260 Lezennes, France","Country":"FRA","State":"Hauts-de-France","County":"Nord","City":"Lezennes","Street":"Cour Delerue","HouseNumber":"2","PostalCode":"59260","AdditionalData":[{"value":"France","key":"CountryName"},{"value":"Hauts-de-France","key":"StateName"},{"value":"Nord","key":"CountyName"}]},"MapReference":{"ReferenceId":"1007313927","Spot":0.56,"SideOfStreet":"right","CountryId":"20000001","StateId":"20000002","CountyId":"20000003","CityId":"20027207","AddressId":"572709150","RoadLinkId":"332042853"}}},{"Relevance":1.0,"Distance":46.5,"MatchLevel":"houseNumber","MatchQuality":{"Country":1.0,"State":1.0,"County":1.0,"City":1.0,"Street":[1.0],"HouseNumber":1.0,"PostalCode":1.0},"MatchType":"interpolated","Location":{"LocationId":"NT_lFWnQqy5OBxyVidwQUEN6C_xQF","LocationType":"point","DisplayPosition":{"Latitude":50.61484,"Longitude":3.11389},"MapView":{"TopLeft":{"Latitude":50.6159642,"Longitude":3.1121184},"BottomRight":{"Latitude":50.6137158,"Longitude":3.1156616}},"Address":{"Label":"1T Rue Sadi Carnot, 59260 Lezennes, France","Country":"FRA","State":"Hauts-de-France","County":"Nord","City":"Lezennes","Street":"Rue Sadi Carnot","HouseNumber":"1T","PostalCode":"59260","AdditionalData":[{"value":"France","key":"CountryName"},{"value":"Hauts-de-France","key":"StateName"},{"value":"Nord","key":"CountyName"}]},"MapReference":{"ReferenceId":"841333133","Spot":0.97,"SideOfStreet":"right","CountryId":"20000001","StateId":"20000002","CountyId":"20000003","CityId":"20027207","AddressId":"572523003","RoadLinkId":"223202123"}}},{"Relevance":1.0,"Distance":52.3,"MatchLevel":"houseNumber","MatchQuality":{"Country":1.0,"State":1.0,"County":1.0,"City":1.0,"Street":[1.0],"HouseNumber":1.0,"PostalCode":1.0},"MatchType":"interpolated","Location":{"LocationId":"NT_1MmohYmXadEkaq4gP-m4DC_yAD","LocationType":"point","DisplayPosition":{"Latitude":50.6155,"Longitude":3.11478},"MapView":{"TopLeft":{"Latitude":50.6166242,"Longitude":3.1130083},"BottomRight":{"Latitude":50.6143758,"Longitude":3.1165517}},"Address":{"Label":"20 Rue Faidherbe, 59260 Lezennes, France","Country":"FRA","State":"Hauts-de-France","County":"Nord","City":"Lezennes","Street":"Rue Faidherbe","HouseNumber":"20","PostalCode":"59260","AdditionalData":[{"value":"France","key":"CountryName"},{"value":"Hauts-de-France","key":"StateName"},{"value":"Nord","key":"CountyName"}]},"MapReference":{"ReferenceId":"58783039","Spot":0.11,"SideOfStreet":"right","CountryId":"20000001","StateId":"20000002","CountyId":"20000003","CityId":"20027207","AddressId":"345163589","RoadLinkId":"44976679"}}},{"Relevance":1.0,"Distance":62.2,"MatchLevel":"houseNumber","MatchQuality":{"Country":1.0,"State":1.0,"County":1.0,"City":1.0,"Street":[1.0],"HouseNumber":1.0,"PostalCode":1.0},"MatchType":"interpolated","Location":{"LocationId":"NT_CS3UB3eTAgbhOmYEni7I6A_yAD","LocationType":"point","DisplayPosition":{"Latitude":50.61461,"Longitude":3.115},"MapView":{"TopLeft":{"Latitude":50.6157342,"Longitude":3.1132284},"BottomRight":{"Latitude":50.6134858,"Longitude":3.1167716}},"Address":{"Label":"20 Rue Gambetta, 59260 Lezennes, France","Country":"FRA","State":"Hauts-de-France","County":"Nord","City":"Lezennes","Street":"Rue Gambetta","HouseNumber":"20","PostalCode":"59260","AdditionalData":[{"value":"France","key":"CountryName"},{"value":"Hauts-de-France","key":"StateName"},{"value":"Nord","key":"CountyName"}]},"MapReference":{"ReferenceId":"58798222","Spot":0.13,"SideOfStreet":"right","CountryId":"20000001","StateId":"20000002","CountyId":"20000003","CityId":"20027207","AddressId":"322620256","RoadLinkId":"45051723"}}}]}]}}