{"Response":{"MetaInfo":{"Timestamp":"2020-03-28T11:30:49.640+0000","NextPageInformation":"2"},"View":[{"_type":"SearchResultsViewType","ViewId":0,"Result":[{"Relevance":1.0,"Distance":-16.9,"MatchLevel":"landmark","MatchQuality":{"Country":1.0,"State":1.0,"County":1.0,"City":1.0,"District":1.0,"Street":[1.0],"PostalCode":1.0,"Name":1.0},"Location":{"LocationId":"NT_RKD5tovkRZImaGFr3Pvz-C_p_Sz9qhG5hocbS-ANjGgG6iC","LocationType":"hospital","Name":"Zakład Opieki Zdrowotnej MSWiA","DisplayPosition":{"Latitude":50.66292,"Longitude":17.92518},"MapView":{"TopLeft":{"Latitude":50.66395,"Longitude":17.92361},"BottomRight":{"Latitude":50.66272,"Longitude":17.92588}},"Address":{"Label":"ulica Wojciecha Korfantego, 45-077 Opole, Polska","Country":"POL","State":"Woj. Opolskie","County":"Opole","City":"Opole","District":"Opole","Street":"ulica Wojciecha Korfantego","PostalCode":"45-077","AdditionalData":[{"value":"Polska","key":"CountryName"},{"value":"Woj. Opolskie","key":"StateName"},{"value":"Opole","key":"CountyName"}]},"MapReference":{"CountryId":"20624059","StateId":"20627925","CountyId":"20627926","CityId":"20627927","DistrictId":"20646784","PlaceId":"842832929"}}},{"Relevance":1.0,"Distance":0.0,"Direction":0.0,"MatchLevel":"district","MatchQuality":{"Country":1.0,"State":1.0,"County":1.0,"City":1.0,"District":1.0,"PostalCode":1.0},"Location":{"LocationId":"NT_q.WomZKYQ4sAAUazbNCxJD","LocationType":"point","DisplayPosition":{"Latitude":50.6635686,"Longitude":17.9253597},"MapView":{"TopLeft":{"Latitude":50.76817,"Longitude":17.80984},"BottomRight":{"Latitude":50.58726,"Longitude":18.0333}},"Address":{"Label":"Opole, Woj. Opolskie, Polska","Country":"POL","State":"Woj. Opolskie","County":"Opole","City":"Opole","District":"Opole","PostalCode":"45-068","AdditionalData":[{"value":"Polska","key":"CountryName"},{"value":"Woj. Opolskie","key":"StateName"},{"value":"Opole","key":"CountyName"}]},"MapReference":{"ReferenceId":"891713638","SideOfStreet":"neither","CountryId":"20624059","StateId":"20627925","CountyId":"20627926","CityId":"20627927","DistrictId":"20646784"}}},{"Relevance":1.0,"Distance":18.5,"MatchLevel":"houseNumber","MatchQuality":{"Country":1.0,"State":1.0,"County":1.0,"City":1.0,"District":1.0,"Street":[1.0],"HouseNumber":1.0,"PostalCode":1.0},"MatchType":"interpolated","Location":{"LocationId":"NT_cQaogqKktwXVMnFyLGLcxD_0QD","LocationType":"point","DisplayPosition":{"Latitude":50.66346,"Longitude":17.92566},"MapView":{"TopLeft":{"Latitude":50.6645842,"Longitude":17.9238865},"BottomRight":{"Latitude":50.6623358,"Longitude":17.9274335}},"Address":{"Label":"ulica Krakowska 44, 45-075 Opole, Polska","Country":"POL","State":"Woj. Opolskie","County":"Opole","City":"Opole","District":"Opole","Street":"ulica Krakowska","HouseNumber":"44","PostalCode":"45-075","AdditionalData":[{"value":"Polska","key":"CountryName"},{"value":"Woj. Opolskie","key":"StateName"},{"value":"Opole","key":"CountyName"}]},"MapReference":{"ReferenceId":"594283319","Spot":0.44,"SideOfStreet":"left","CountryId":"20624059","StateId":"20627925","CountyId":"20627926","CityId":"20627927","DistrictId":"20646784","AddressId":"701877963","RoadLinkId":"96398652"}}},{"Relevance":1.0,"Distance":28.7,"MatchLevel":"houseNumber","MatchQuality":{"Country":1.0,"State":1.0,"County":1.0,"City":1.0,"District":1.0,"Street":[1.0],"HouseNumber":1.0,"PostalCode":1.0},"MatchType":"interpolated","Location":{"LocationId":"NT_PIIEr0x5.v2mZjg4ryZ.sA_zA","LocationType":"point","DisplayPosition":{"Latitude":50.66387,"Longitude":17.925},"MapView":{"TopLeft":{"Latitude":50.6649942,"Longitude":17.9232265},"BottomRight":{"Latitude":50.6627458,"Longitude":17.9267735}},"Address":{"Label":"ulica Leona Powolnego 3, 45-078 Opole, Polska","Country":"POL","State":"Woj. Opolskie","County":"Opole","City":"Opole","District":"Opole","Street":"ulica Leona Powolnego","HouseNumber":"3","PostalCode":"45-078","AdditionalData":[{"value":"Polska","key":"CountryName"},{"value":"Woj. Opolskie","key":"StateName"},{"value":"Opole","key":"CountyName"}]},"MapReference":{"ReferenceId":"1205588448","Spot":0.63,"SideOfStreet":"right","CountryId":"20624059","StateId":"20627925","CountyId":"20627926","CityId":"20627927","DistrictId":"20646784","AddressId":"701877962","RoadLinkId":"519282183"}}},{"Relevance":1.0,"Distance":59.3,"MatchLevel":"street","MatchQuality":{"Country":1.0,"State":1.0,"County":1.0,"City":1.0,"District":1.0,"PostalCode":1.0},"Location":{"LocationId":"NT_hSpI1pYaFcpPWR.LaYNgNC_l_1205706209_R","LocationType":"point","DisplayPosition":{"Latitude":50.66381,"Longitude":17.92611},"MapView":{"TopLeft":{"Latitude":50.66383,"Longitude":17.92611},"BottomRight":{"Latitude":50.66381,"Longitude":17.92652}},"Address":{"Label":"45-064 Opole, Polska","Country":"POL","State":"Woj. Opolskie","County":"Opole","City":"Opole","District":"Opole","PostalCode":"45-064","AdditionalData":[{"value":"Polska","key":"CountryName"},{"value":"Woj. Opolskie","key":"StateName"},{"value":"Opole","key":"CountyName"}]},"MapReference":{"ReferenceId":"1205706209","Spot":0.0,"SideOfStreet":"right","CountryId":"20624059","StateId":"20627925","CountyId":"20627926","CityId":"20627927","DistrictId":"20646784"}}},{"Relevance":1.0,"Distance":63.2,"MatchLevel":"street","MatchQuality":{"Country":1.0,"State":1.0,"County":1.0,"City":1.0,"District":1.0,"Street":[1.0],"PostalCode":1.0},"Location":{"LocationId":"NT_ipQzo3a6fR.nZFzr-iFfxC_l_1103488132_L","LocationType":"point","DisplayPosition":{"Latitude":50.66304,"Longitude":17.92569},"MapView":{"TopLeft":{"Latitude":50.66308,"Longitude":17.92569},"BottomRight":{"Latitude":50.66304,"Longitude":17.92588}},"Address":{"Label":"ulica Wojciecha Korfantego, 45-077 Opole, Polska","Country":"POL","State":"Woj. Opolskie","County":"Opole","City":"Opole","District":"Opole","Street":"ulica Wojciecha Korfantego","PostalCode":"45-077","AdditionalData":[{"value":"Polska","key":"CountryName"},{"value":"Woj. Opolskie","key":"StateName"},{"value":"Opole","key":"CountyName"}]},"MapReference":{"ReferenceId":"1103488132","Spot":0.0,"SideOfStreet":"left","CountryId":"20624059","StateId":"20627925","CountyId":"20627926","CityId":"20627927","DistrictId":"20646784"}}},{"Relevance":1.0,"Distance":64.3,"MatchLevel":"street","MatchQuality":{"Country":1.0,"State":1.0,"County":1.0,"City":1.0,"District":1.0,"Street":[1.0],"PostalCode":1.0},"Location":{"LocationId":"NT_CUAAJExKUfcRmz-WsczlFD_l_1205590641_L","LocationType":"point","DisplayPosition":{"Latitude":50.66403,"Longitude":17.92591},"MapView":{"TopLeft":{"Latitude":50.66414,"Longitude":17.92585},"BottomRight":{"Latitude":50.664,"Longitude":17.92649}},"Address":{"Label":"ulica Hugo Kołłątaja, 45-064 Opole, Polska","Country":"POL","State":"Woj. Opolskie","County":"Opole","City":"Opole","District":"Opole","Street":"ulica Hugo Kołłątaja","PostalCode":"45-064","AdditionalData":[{"value":"Polska","key":"CountryName"},{"value":"Woj. Opolskie","key":"StateName"},{"value":"Opole","key":"CountyName"}]},"MapReference":{"ReferenceId":"1205590641","Spot":0.82,"SideOfStreet":"left","CountryId":"20624059","StateId":"20627925","CountyId":"20627926","CityId":"20627927","DistrictId":"20646784"}}},{"Relevance":1.0,"Distance":65.5,"MatchLevel":"street","MatchQuality":{"Country":1.0,"State":1.0,"County":1.0,"City":1.0,"District":1.0,"Street":[1.0],"PostalCode":1.0},"Location":{"LocationId":"NT_e1osqFrySybnnrz8I2Ks5D_l_895386263_L","LocationType":"point","DisplayPosition":{"Latitude":50.66308,"Longitude":17.92588},"MapView":{"TopLeft":{"Latitude":50.66313,"Longitude":17.92588},"BottomRight":{"Latitude":50.66308,"Longitude":17.92633}},"Address":{"Label":"ulica 1 Maja, 45-068 Opole, Polska","Country":"POL","State":"Woj. Opolskie","County":"Opole","City":"Opole","District":"Opole","Street":"ulica 1 Maja","PostalCode":"45-068","AdditionalData":[{"value":"Polska","key":"CountryName"},{"value":"Woj. Opolskie","key":"StateName"},{"value":"Opole","key":"CountyName"}]},"MapReference":{"ReferenceId":"895386263","Spot":0.0,"SideOfStreet":"left","CountryId":"20624059","StateId":"20627925","CountyId":"20627926","CityId":"20627927","DistrictId":"20646784"}}},{"Relevance":1.0,"Distance":65.5,"MatchLevel":"street","MatchQuality":{"Country":1.0,"State":1.0,"County":1.0,"City":1.0,"District":1.0,"Street":[1.0],"PostalCode":1.0},"Location":{"LocationId":"NT_FsokV1c2W-dfchDRih-GQD_l_895386266_R","LocationType":"point","DisplayPosition":{"Latitude":50.66308,"Longitude":17.92588},"MapView":{"TopLeft":{"Latitude":50.66308,"Longitude":17.92588},"BottomRight":{"Latitude":50.66295,"Longitude":17.92659}},"Address":{"Label":"ulica Armii Krajowej, 45-071 Opole, Polska","Country":"POL","State":"Woj. Opolskie","County":"Opole","City":"Opole","District":"Opole","Street":"ulica Armii Krajowej","PostalCode":"45-071","AdditionalData":[{"value":"Polska","key":"CountryName"},{"value":"Woj. Opolskie","key":"StateName"},{"value":"Opole","key":"CountyName"}]},"MapReference":{"ReferenceId":"895386266","Spot":1.0,"SideOfStreet":"right","CountryId":"20624059","StateId":"20627925","CountyId":"20627926","CityId":"20627927","DistrictId":"20646784"}}},{"Relevance":1.0,"Distance":66.0,"MatchLevel":"houseNumber","MatchQuality":{"Country":1.0,"State":1.0,"County":1.0,"City":1.0,"District":1.0,"Street":[1.0],"HouseNumber":1.0,"PostalCode":1.0},"MatchType":"interpolated","Location":{"LocationId":"NT_cQaogqKktwXVMnFyLGLcxD_0ATQ","LocationType":"point","DisplayPosition":{"Latitude":50.66416,"Longitude":17.92528},"MapView":{"TopLeft":{"Latitude":50.6652842,"Longitude":17.9235065},"BottomRight":{"Latitude":50.6630358,"Longitude":17.9270535}},"Address":{"Label":"ulica Krakowska 40A, 45-075 Opole, Polska","Country":"POL","State":"Woj. Opolskie","County":"Opole","City":"Opole","District":"Opole","Street":"ulica Krakowska","HouseNumber":"40A","PostalCode":"45-075","AdditionalData":[{"value":"Polska","key":"CountryName"},{"value":"Woj. Opolskie","key":"StateName"},{"value":"Opole","key":"CountyName"}]},"MapReference":{"ReferenceId":"594283139","Spot":0.47,"SideOfStreet":"left","CountryId":"20624059","StateId":"20627925","CountyId":"20627926","CityId":"20627927","DistrictId":"20646784","AddressId":"211499108","RoadLinkId":"96236125"}}}]}]}}