{"Response":{"MetaInfo":{"Timestamp":"2020-03-28T11:49:02.538+0000","NextPageInformation":"2"},"View":[{"_type":"SearchResultsViewType","ViewId":0,"Result":[{"Relevance":1.0,"Distance":0.0,"Direction":0.0,"MatchLevel":"district","MatchQuality":{"Country":1.0,"State":1.0,"County":1.0,"City":1.0,"District":1.0,"PostalCode":1.0},"Location":{"LocationId":"NT_D8mI-DmQ59j-qnPUa8YxtD","LocationType":"point","DisplayPosition":{"Latitude":50.6275508,"Longitude":3.1072439},"MapView":{"TopLeft":{"Latitude":50.63625,"Longitude":3.0928},"BottomRight":{"Latitude":50.61536,"Longitude":3.12611}},"Address":{"Label":"Hellemmes-Lille, Lille, Hauts-de-France, France","Country":"FRA","State":"Hauts-de-France","County":"Nord","City":"Lille","District":"Hellemmes-Lille","PostalCode":"59260","AdditionalData":[{"value":"France","key":"CountryName"},{"value":"Hauts-de-France","key":"StateName"},{"value":"Nord","key":"CountyName"}]},"MapReference":{"ReferenceId":"58780816","SideOfStreet":"neither","CountryId":"20000001","StateId":"20000002","CountyId":"20000003","CityId":"20027216","DistrictId":"20403774"}}},{"Relevance":1.0,"Distance":18.5,"MatchLevel":"houseNumber","MatchQuality":{"Country":1.0,"State":1.0,"County":1.0,"City":1.0,"District":1.0,"Street":[1.0],"HouseNumber":1.0,"PostalCode":1.0},"MatchType":"interpolated","Location":{"LocationId":"NT_8kL80UmrwAAKHAqur7q55B_xQjN","LocationType":"point","DisplayPosition":{"Latitude":50.62776,"Longitude":3.10735},"MapView":{"TopLeft":{"Latitude":50.6288842,"Longitude":3.1055779},"BottomRight":{"Latitude":50.6266358,"Longitude":3.1091221}},"Address":{"Label":"146 Rue Roger Salengro, 59260 Lille, France","Country":"FRA","State":"Hauts-de-France","County":"Nord","City":"Lille","District":"Hellemmes-Lille","Street":"Rue Roger Salengro","HouseNumber":"146","PostalCode":"59260","AdditionalData":[{"value":"France","key":"CountryName"},{"value":"Hauts-de-France","key":"StateName"},{"value":"Nord","key":"CountyName"}]},"MapReference":{"ReferenceId":"1213758252","Spot":0.11,"SideOfStreet":"left","CountryId":"20000001","StateId":"20000002","CountyId":"20000003","CityId":"20027216","DistrictId":"20403774","AddressId":"322449071","RoadLinkId":"529542095"}}},{"Relevance":1.0,"Distance":18.5,"MatchLevel":"houseNumber","MatchQuality":{"Country":1.0,"State":1.0,"County":1.0,"City":1.0,"District":1.0,"Street":[1.0],"HouseNumber":1.0,"PostalCode":1.0},"MatchType":"interpolated","Location":{"LocationId":"NT_8kL80UmrwAAKHAqur7q55B_xQDO","LocationType":"point","DisplayPosition":{"Latitude":50.62774,"Longitude":3.10744},"MapView":{"TopLeft":{"Latitude":50.6288642,"Longitude":3.1056679},"BottomRight":{"Latitude":50.6266158,"Longitude":3.1092121}},"Address":{"Label":"148 Rue Roger Salengro, 59260 Lille, France","Country":"FRA","State":"Hauts-de-France","County":"Nord","City":"Lille","District":"Hellemmes-Lille","Street":"Rue Roger Salengro","HouseNumber":"148","PostalCode":"59260","AdditionalData":[{"value":"France","key":"CountryName"},{"value":"Hauts-de-France","key":"StateName"},{"value":"Nord","key":"CountyName"}]},"MapReference":{"ReferenceId":"1213758251","Spot":0.81,"SideOfStreet":"left","CountryId":"20000001","StateId":"20000002","CountyId":"20000003","CityId":"20027216","DistrictId":"20403774","AddressId":"322449063","RoadLinkId":"529542094"}}},{"Relevance":1.0,"Distance":24.6,"MatchLevel":"houseNumber","MatchQuality":{"Country":1.0,"State":1.0,"County":1.0,"City":1.0,"District":1.0,"Street":[1.0],"HouseNumber":1.0,"PostalCode":1.0},"MatchType":"interpolated","Location":{"LocationId":"NT_8kL80UmrwAAKHAqur7q55B_xUjM","LocationType":"point","DisplayPosition":{"Latitude":50.62767,"Longitude":3.10765},"MapView":{"TopLeft":{"Latitude":50.6287942,"Longitude":3.1058779},"BottomRight":{"Latitude":50.6265458,"Longitude":3.1094221}},"Address":{"Label":"152 Rue Roger Salengro, 59260 Lille, France","Country":"FRA","State":"Hauts-de-France","County":"Nord","City":"Lille","District":"Hellemmes-Lille","Street":"Rue Roger Salengro","HouseNumber":"152","PostalCode":"59260","AdditionalData":[{"value":"France","key":"CountryName"},{"value":"Hauts-de-France","key":"StateName"},{"value":"Nord","key":"CountyName"}]},"MapReference":{"ReferenceId":"841433133","Spot":1.0,"SideOfStreet":"left","CountryId":"20000001","StateId":"20000002","CountyId":"20000003","CityId":"20027216","DistrictId":"20403774","AddressId":"322425351","RoadLinkId":"223284863"}}},{"Relevance":1.0,"Distance":25.2,"MatchLevel":"houseNumber","MatchQuality":{"Country":1.0,"State":1.0,"County":1.0,"City":1.0,"District":1.0,"Street":[1.0],"HouseNumber":1.0,"PostalCode":1.0},"MatchType":"interpolated","Location":{"LocationId":"NT_8kL80UmrwAAKHAqur7q55B_xMDOCB","LocationType":"point","DisplayPosition":{"Latitude":50.62775,"Longitude":3.10686},"MapView":{"TopLeft":{"Latitude":50.6288742,"Longitude":3.1050879},"BottomRight":{"Latitude":50.6266258,"Longitude":3.1086321}},"Address":{"Label":"138B Rue Roger Salengro, 59260 Lille, France","Country":"FRA","State":"Hauts-de-France","County":"Nord","City":"Lille","District":"Hellemmes-Lille","Street":"Rue Roger Salengro","HouseNumber":"138B","PostalCode":"59260","AdditionalData":[{"value":"France","key":"CountryName"},{"value":"Hauts-de-France","key":"StateName"},{"value":"Nord","key":"CountyName"}]},"MapReference":{"ReferenceId":"972143170","Spot":0.48,"SideOfStreet":"right","CountryId":"20000001","StateId":"20000002","CountyId":"20000003","CityId":"20027216","DistrictId":"20403774","AddressId":"322449067","RoadLinkId":"308557594"}}},{"Relevance":1.0,"Distance":30.2,"MatchLevel":"houseNumber","MatchQuality":{"Country":1.0,"State":1.0,"County":1.0,"City":1.0,"District":1.0,"Street":[1.0],"HouseNumber":1.0,"PostalCode":1.0},"MatchType":"interpolated","Location":{"LocationId":"NT_8kL80UmrwAAKHAqur7q55B_xQDM","LocationType":"point","DisplayPosition":{"Latitude":50.62786,"Longitude":3.10703},"MapView":{"TopLeft":{"Latitude":50.6289842,"Longitude":3.1052579},"BottomRight":{"Latitude":50.6267358,"Longitude":3.1088021}},"Address":{"Label":"140 Rue Roger Salengro, 59260 Lille, France","Country":"FRA","State":"Hauts-de-France","County":"Nord","City":"Lille","District":"Hellemmes-Lille","Street":"Rue Roger Salengro","HouseNumber":"140","PostalCode":"59260","AdditionalData":[{"value":"France","key":"CountryName"},{"value":"Hauts-de-France","key":"StateName"},{"value":"Nord","key":"CountyName"}]},"MapReference":{"ReferenceId":"972143169","Spot":0.0,"SideOfStreet":"left","CountryId":"20000001","StateId":"20000002","CountyId":"20000003","CityId":"20027216","DistrictId":"20403774","AddressId":"322449068","RoadLinkId":"308555684"}}},{"Relevance":1.0,"Distance":31.6,"MatchLevel":"landmark","MatchQuality":{"Country":1.0,"State":1.0,"County":1.0,"City":1.0,"District":1.0,"PostalCode":1.0,"Name":1.0},"Location":{"LocationId":"NT_ARcrXpRA2hlbkfA9yb2hcB_p_NJrsUFEEynVIzjTlFT0EaB","LocationType":"park","Name":"Parc de la Mairie","DisplayPosition":{"Latitude":50.62802,"Longitude":3.10993},"MapView":{"TopLeft":{"Latitude":50.62918,"Longitude":3.10765},"BottomRight":{"Latitude":50.6272,"Longitude":3.11106}},"Address":{"Label":"59260 Lille, France","Country":"FRA","State":"Hauts-de-France","County":"Nord","City":"Lille","District":"Hellemmes-Lille","PostalCode":"59260","AdditionalData":[{"value":"France","key":"CountryName"},{"value":"Hauts-de-France","key":"StateName"},{"value":"Nord","key":"CountyName"}]},"MapReference":{"CountryId":"20000001","StateId":"20000002","CountyId":"20000003","CityId":"20027216","DistrictId":"20403774","PlaceId":"51467097"}}},{"Relevance":1.0,"Distance":50.2,"MatchLevel":"houseNumber","MatchQuality":{"Country":1.0,"State":1.0,"County":1.0,"City":1.0,"District":1.0,"Street":[1.0],"HouseNumber":1.0,"PostalCode":1.0},"MatchType":"interpolated","Location":{"LocationId":"NT_8kL80UmrwAAKHAqur7q55B_xMDN","LocationType":"point","DisplayPosition":{"Latitude":50.62794,"Longitude":3.10679},"MapView":{"TopLeft":{"Latitude":50.6290642,"Longitude":3.1050179},"BottomRight":{"Latitude":50.6268158,"Longitude":3.1085621}},"Address":{"Label":"134 Rue Roger Salengro, 59260 Lille, France","Country":"FRA","State":"Hauts-de-France","County":"Nord","City":"Lille","District":"Hellemmes-Lille","Street":"Rue Roger Salengro","HouseNumber":"134","PostalCode":"59260","AdditionalData":[{"value":"France","key":"CountryName"},{"value":"Hauts-de-France","key":"StateName"},{"value":"Nord","key":"CountyName"}]},"MapReference":{"ReferenceId":"841918942","Spot":0.32,"SideOfStreet":"left","CountryId":"20000001","StateId":"20000002","CountyId":"20000003","CityId":"20027216","DistrictId":"20403774","AddressId":"322749637","RoadLinkId":"223836834"}}},{"Relevance":1.0,"Distance":50.6,"MatchLevel":"houseNumber","MatchQuality":{"Country":1.0,"State":1.0,"County":1.0,"City":1.0,"District":1.0,"Street":[1.0],"HouseNumber":1.0,"PostalCode":1.0},"MatchType":"interpolated","Location":{"LocationId":"NT_HIql5DEjKFC8oM6X1HIWIC_0A","LocationType":"point","DisplayPosition":{"Latitude":50.62785,"Longitude":3.10778},"MapView":{"TopLeft":{"Latitude":50.6289742,"Longitude":3.1060079},"BottomRight":{"Latitude":50.6267258,"Longitude":3.1095521}},"Address":{"Label":"4 Rue Delemazure, 59260 Lille, France","Country":"FRA","State":"Hauts-de-France","County":"Nord","City":"Lille","District":"Hellemmes-Lille","Street":"Rue Delemazure","HouseNumber":"4","PostalCode":"59260","AdditionalData":[{"value":"France","key":"CountryName"},{"value":"Hauts-de-France","key":"StateName"},{"value":"Nord","key":"CountyName"}]},"MapReference":{"ReferenceId":"68046688","Spot":0.34,"SideOfStreet":"left","CountryId":"20000001","StateId":"20000002","CountyId":"20000003","CityId":"20027216","DistrictId":"20403774","AddressId":"572599484","RoadLinkId":"44070275"}}},{"Relevance":1.0,"Distance":57.4,"MatchLevel":"houseNumber","MatchQuality":{"Country":1.0,"State":1.0,"County":1.0,"City":1.0,"District":1.0,"Street":[1.0],"HouseNumber":1.0,"PostalCode":1.0},"MatchType":"interpolated","Location":{"LocationId":"NT_8kL80UmrwAAKHAqur7q55B_xUjN","LocationType":"point","DisplayPosition":{"Latitude":50.62753,"Longitude":3.10806},"MapView":{"TopLeft":{"Latitude":50.6286542,"Longitude":3.1062879},"BottomRight":{"Latitude":50.6264058,"Longitude":3.1098321}},"Address":{"Label":"156 Rue Roger Salengro, 59260 Lille, France","Country":"FRA","State":"Hauts-de-France","County":"Nord","City":"Lille","District":"Hellemmes-Lille","Street":"Rue Roger Salengro","HouseNumber":"156","PostalCode":"59260","AdditionalData":[{"value":"France","key":"CountryName"},{"value":"Hauts-de-France","key":"StateName"},{"value":"Nord","key":"CountyName"}]},"MapReference":{"ReferenceId":"841433132","Spot":0.95,"SideOfStreet":"left","CountryId":"20000001","StateId":"20000002","CountyId":"20000003","CityId":"20027216","DistrictId":"20403774","AddressId":"323108066","RoadLinkId":"223284862"}}}]}]}}