{"Response":{"MetaInfo":{"Timestamp":"2020-03-28T10:49:00.003+0000","NextPageInformation":"2"},"View":[{"_type":"SearchResultsViewType","ViewId":0,"Result":[{"Relevance":1.0,"Distance":0.0,"Direction":0.0,"MatchLevel":"district","MatchQuality":{"Country":1.0,"State":1.0,"County":1.0,"City":1.0,"District":1.0,"PostalCode":1.0},"Location":{"LocationId":"NT_7bbXXjvSH6Uz3p.zJaZ-sD","LocationType":"point","DisplayPosition":{"Latitude":50.6844644,"Longitude":16.3732527},"MapView":{"TopLeft":{"Latitude":50.70232,"Longitude":16.35342},"BottomRight":{"Latitude":50.67214,"Longitude":16.38872}},"Address":{"Label":"Głuszyca, Woj. Dolnośląskie, Polska","Country":"POL","State":"Woj. Dolnośląskie","County":"Powiat Wałbrzyski","City":"Głuszyca","District":"Głuszyca","PostalCode":"58-340","AdditionalData":[{"value":"Polska","key":"CountryName"},{"value":"Woj. Dolnośląskie","key":"StateName"},{"value":"Powiat Wałbrzyski","key":"CountyName"}]},"MapReference":{"ReferenceId":"594268092","SideOfStreet":"neither","CountryId":"20624059","StateId":"20625002","CountyId":"20625295","CityId":"20625300","DistrictId":"20680997"}}},{"Relevance":1.0,"Distance":8.4,"MatchLevel":"houseNumber","MatchQuality":{"Country":1.0,"State":1.0,"County":1.0,"City":1.0,"District":1.0,"Street":[1.0],"HouseNumber":1.0,"PostalCode":1.0},"MatchType":"interpolated","Location":{"LocationId":"NT_Hzf-chLrnaoT12FJ0.-MdD_yID","LocationType":"point","DisplayPosition":{"Latitude":50.68423,"Longitude":16.37349},"MapView":{"TopLeft":{"Latitude":50.6853542,"Longitude":16.3717158},"BottomRight":{"Latitude":50.6831058,"Longitude":16.3752642}},"Address":{"Label":"ulica Grunwaldzka 22, 58-340 Głuszyca, Polska","Country":"POL","State":"Woj. Dolnośląskie","County":"Powiat Wałbrzyski","City":"Głuszyca","District":"Głuszyca","Street":"ulica Grunwaldzka","HouseNumber":"22","PostalCode":"58-340","AdditionalData":[{"value":"Polska","key":"CountryName"},{"value":"Woj. Dolnośląskie","key":"StateName"},{"value":"Powiat Wałbrzyski","key":"CountyName"}]},"MapReference":{"ReferenceId":"594270658","Spot":0.0,"SideOfStreet":"left","CountryId":"20624059","StateId":"20625002","CountyId":"20625295","CityId":"20625300","DistrictId":"20680997","AddressId":"222249925","RoadLinkId":"173548313"}}},{"Relevance":1.0,"Distance":26.2,"MatchLevel":"houseNumber","MatchQuality":{"Country":1.0,"State":1.0,"County":1.0,"City":1.0,"District":1.0,"Street":[1.0],"HouseNumber":1.0,"PostalCode":1.0},"MatchType":"interpolated","Location":{"LocationId":"NT_Hzf-chLrnaoT12FJ0.-MdD_xgD","LocationType":"point","DisplayPosition":{"Latitude":50.68475,"Longitude":16.37357},"MapView":{"TopLeft":{"Latitude":50.6858742,"Longitude":16.3717957},"BottomRight":{"Latitude":50.6836258,"Longitude":16.3753443}},"Address":{"Label":"ulica Grunwaldzka 18, 58-340 Głuszyca, Polska","Country":"POL","State":"Woj. Dolnośląskie","County":"Powiat Wałbrzyski","City":"Głuszyca","District":"Głuszyca","Street":"ulica Grunwaldzka","HouseNumber":"18","PostalCode":"58-340","AdditionalData":[{"value":"Polska","key":"CountryName"},{"value":"Woj. Dolnośląskie","key":"StateName"},{"value":"Powiat Wałbrzyski","key":"CountyName"}]},"MapReference":{"ReferenceId":"1112728784","Spot":0.54,"SideOfStreet":"left","CountryId":"20624059","StateId":"20625002","CountyId":"20625295","CityId":"20625300","DistrictId":"20680997","AddressId":"210234906","RoadLinkId":"422569027"}}},{"Relevance":1.0,"Distance":49.2,"MatchLevel":"houseNumber","MatchQuality":{"Country":1.0,"State":1.0,"County":1.0,"City":1.0,"District":1.0,"Street":[1.0],"HouseNumber":1.0,"PostalCode":1.0},"MatchType":"interpolated","Location":{"LocationId":"NT_Hzf-chLrnaoT12FJ0.-MdD_xYD","LocationType":"point","DisplayPosition":{"Latitude":50.68496,"Longitude":16.37315},"MapView":{"TopLeft":{"Latitude":50.6860842,"Longitude":16.3713757},"BottomRight":{"Latitude":50.6838358,"Longitude":16.3749243}},"Address":{"Label":"ulica Grunwaldzka 16, 58-340 Głuszyca, Polska","Country":"POL","State":"Woj. Dolnośląskie","County":"Powiat Wałbrzyski","City":"Głuszyca","District":"Głuszyca","Street":"ulica Grunwaldzka","HouseNumber":"16","PostalCode":"58-340","AdditionalData":[{"value":"Polska","key":"CountryName"},{"value":"Woj. Dolnośląskie","key":"StateName"},{"value":"Powiat Wałbrzyski","key":"CountyName"}]},"MapReference":{"ReferenceId":"1112728785","Spot":0.11,"SideOfStreet":"left","CountryId":"20624059","StateId":"20625002","CountyId":"20625295","CityId":"20625300","DistrictId":"20680997","AddressId":"211223669","RoadLinkId":"422569028"}}},{"Relevance":1.0,"Distance":55.6,"MatchLevel":"landmark","MatchQuality":{"Country":1.0,"State":1.0,"County":1.0,"City":1.0,"PostalCode":1.0,"Name":1.0},"Location":{"LocationId":"NT_tlZq1kv2XTJj.5wQW5lhCD","LocationType":"river","Name":"Bystrzyca","DisplayPosition":{"Latitude":50.67259,"Longitude":16.38872},"MapView":{"TopLeft":{"Latitude":50.68545,"Longitude":16.36971},"BottomRight":{"Latitude":50.66304,"Longitude":16.40873}},"Address":{"Label":"58-340, Polska","Country":"POL","State":"Woj. Dolnośląskie","County":"Powiat Wałbrzyski","City":"Głuszyca","PostalCode":"58-340","AdditionalData":[{"value":"Polska","key":"CountryName"},{"value":"Woj. Dolnośląskie","key":"StateName"},{"value":"Powiat Wałbrzyski","key":"CountyName"}]},"MapReference":{"CountryId":"20624059","StateId":"20625002","CountyId":"20625295","CityId":"20625300","PlaceId":"1404589988"}}},{"Relevance":1.0,"Distance":67.1,"MatchLevel":"houseNumber","MatchQuality":{"Country":1.0,"State":1.0,"County":1.0,"City":1.0,"District":1.0,"Street":[1.0],"HouseNumber":1.0,"PostalCode":1.0},"MatchType":"interpolated","Location":{"LocationId":"NT_Hzf-chLrnaoT12FJ0.-MdD_yMD","LocationType":"point","DisplayPosition":{"Latitude":50.68451,"Longitude":16.37403},"MapView":{"TopLeft":{"Latitude":50.6856342,"Longitude":16.3722557},"BottomRight":{"Latitude":50.6833858,"Longitude":16.3758043}},"Address":{"Label":"ulica Grunwaldzka 23, 58-340 Głuszyca, Polska","Country":"POL","State":"Woj. Dolnośląskie","County":"Powiat Wałbrzyski","City":"Głuszyca","District":"Głuszyca","Street":"ulica Grunwaldzka","HouseNumber":"23","PostalCode":"58-340","AdditionalData":[{"value":"Polska","key":"CountryName"},{"value":"Woj. Dolnośląskie","key":"StateName"},{"value":"Powiat Wałbrzyski","key":"CountyName"}]},"MapReference":{"ReferenceId":"1112728163","Spot":1.0,"SideOfStreet":"right","CountryId":"20624059","StateId":"20625002","CountyId":"20625295","CityId":"20625300","DistrictId":"20680997","AddressId":"209876331","RoadLinkId":"422568381"}}},{"Relevance":1.0,"Distance":80.7,"MatchLevel":"houseNumber","MatchQuality":{"Country":1.0,"State":1.0,"County":1.0,"City":1.0,"District":1.0,"Street":[1.0],"HouseNumber":1.0,"PostalCode":1.0},"MatchType":"interpolated","Location":{"LocationId":"NT_Hzf-chLrnaoT12FJ0.-MdD_yYD","LocationType":"point","DisplayPosition":{"Latitude":50.68429,"Longitude":16.37445},"MapView":{"TopLeft":{"Latitude":50.6854142,"Longitude":16.3726758},"BottomRight":{"Latitude":50.6831658,"Longitude":16.3762242}},"Address":{"Label":"ulica Grunwaldzka 26, 58-340 Głuszyca, Polska","Country":"POL","State":"Woj. Dolnośląskie","County":"Powiat Wałbrzyski","City":"Głuszyca","District":"Głuszyca","Street":"ulica Grunwaldzka","HouseNumber":"26","PostalCode":"58-340","AdditionalData":[{"value":"Polska","key":"CountryName"},{"value":"Woj. Dolnośląskie","key":"StateName"},{"value":"Powiat Wałbrzyski","key":"CountyName"}]},"MapReference":{"ReferenceId":"594270680","Spot":0.54,"SideOfStreet":"left","CountryId":"20624059","StateId":"20625002","CountyId":"20625295","CityId":"20625300","DistrictId":"20680997","AddressId":"210361024","RoadLinkId":"96418979"}}},{"Relevance":1.0,"Distance":94.5,"MatchLevel":"houseNumber","MatchQuality":{"Country":1.0,"State":1.0,"County":1.0,"City":1.0,"District":1.0,"Street":[1.0],"HouseNumber":1.0,"PostalCode":1.0},"MatchType":"interpolated","Location":{"LocationId":"NT_Hzf-chLrnaoT12FJ0.-MdD_xYTQ","LocationType":"point","DisplayPosition":{"Latitude":50.68523,"Longitude":16.37267},"MapView":{"TopLeft":{"Latitude":50.6863542,"Longitude":16.3708957},"BottomRight":{"Latitude":50.6841058,"Longitude":16.3744443}},"Address":{"Label":"ulica Grunwaldzka 16A, 58-340 Głuszyca, Polska","Country":"POL","State":"Woj. Dolnośląskie","County":"Powiat Wałbrzyski","City":"Głuszyca","District":"Głuszyca","Street":"ulica Grunwaldzka","HouseNumber":"16A","PostalCode":"58-340","AdditionalData":[{"value":"Polska","key":"CountryName"},{"value":"Woj. Dolnośląskie","key":"StateName"},{"value":"Powiat Wałbrzyski","key":"CountyName"}]},"MapReference":{"ReferenceId":"1112705957","Spot":0.23,"SideOfStreet":"left","CountryId":"20624059","StateId":"20625002","CountyId":"20625295","CityId":"20625300","DistrictId":"20680997","AddressId":"777297255","RoadLinkId":"422546934"}}},{"Relevance":1.0,"Distance":118.8,"MatchLevel":"houseNumber","MatchQuality":{"Country":1.0,"State":1.0,"County":1.0,"City":1.0,"District":1.0,"Street":[1.0],"HouseNumber":1.0,"PostalCode":1.0},"MatchType":"interpolated","Location":{"LocationId":"NT_DSCU6.BLJJexuVHyBe5j8D_xA","LocationType":"point","DisplayPosition":{"Latitude":50.68379,"Longitude":16.37456},"MapView":{"TopLeft":{"Latitude":50.6849142,"Longitude":16.3727858},"BottomRight":{"Latitude":50.6826658,"Longitude":16.3763342}},"Address":{"Label":"ulica Dolna 1, 58-340 Głuszyca, Polska","Country":"POL","State":"Woj. Dolnośląskie","County":"Powiat Wałbrzyski","City":"Głuszyca","District":"Głuszyca","Street":"ulica Dolna","HouseNumber":"1","PostalCode":"58-340","AdditionalData":[{"value":"Polska","key":"CountryName"},{"value":"Woj. Dolnośląskie","key":"StateName"},{"value":"Powiat Wałbrzyski","key":"CountyName"}]},"MapReference":{"ReferenceId":"744341251","Spot":0.87,"SideOfStreet":"right","CountryId":"20624059","StateId":"20625002","CountyId":"20625295","CityId":"20625300","DistrictId":"20680997","AddressId":"731665141","RoadLinkId":"142330077"}}},{"Relevance":1.0,"Distance":132.7,"MatchLevel":"houseNumber","MatchQuality":{"Country":1.0,"State":1.0,"County":1.0,"City":1.0,"District":1.0,"Street":[1.0],"HouseNumber":1.0,"PostalCode":1.0},"MatchType":"interpolated","Location":{"LocationId":"NT_Hzf-chLrnaoT12FJ0.-MdD_ygD","LocationType":"point","DisplayPosition":{"Latitude":50.68398,"Longitude":16.37502},"MapView":{"TopLeft":{"Latitude":50.6851042,"Longitude":16.3732458},"BottomRight":{"Latitude":50.6828558,"Longitude":16.3767942}},"Address":{"Label":"ulica Grunwaldzka 28, 58-340 Głuszyca, Polska","Country":"POL","State":"Woj. Dolnośląskie","County":"Powiat Wałbrzyski","City":"Głuszyca","District":"Głuszyca","Street":"ulica Grunwaldzka","HouseNumber":"28","PostalCode":"58-340","AdditionalData":[{"value":"Polska","key":"CountryName"},{"value":"Woj. Dolnośląskie","key":"StateName"},{"value":"Powiat Wałbrzyski","key":"CountyName"}]},"MapReference":{"ReferenceId":"1112612992","Spot":0.91,"SideOfStreet":"left","CountryId":"20624059","StateId":"20625002","CountyId":"20625295","CityId":"20625300","DistrictId":"20680997","AddressId":"211112641","RoadLinkId":"422480614"}}}]}]}}