{"Response":{"MetaInfo":{"Timestamp":"2020-03-28T10:39:00.766+0000","NextPageInformation":"2"},"View":[{"_type":"SearchResultsViewType","ViewId":0,"Result":[{"Relevance":1.0,"Distance":-689.7,"MatchLevel":"landmark","MatchQuality":{"Country":1.0,"State":1.0,"County":1.0,"Name":1.0},"Location":{"LocationId":"NT_ddHRq6W4WQ5-CxZ-ALmujA","LocationType":"island","Name":"Isle of Wight","DisplayPosition":{"Latitude":50.67109,"Longitude":-1.33267},"MapView":{"TopLeft":{"Latitude":50.76753,"Longitude":-1.58775},"BottomRight":{"Latitude":50.57465,"Longitude":-1.06879}},"Address":{"Label":"United Kingdom","Country":"GBR","State":"England","County":"Isle of Wight","AdditionalData":[{"value":"United Kingdom","key":"CountryName"},{"value":"England","key":"StateName"},{"value":"Isle of Wight","key":"CountyName"}]},"MapReference":{"StateId":"20248595","CountyId":"20336732","PlaceId":"65077443"}}},{"Relevance":1.0,"Distance":0.0,"Direction":0.0,"MatchLevel":"district","MatchQuality":{"Country":1.0,"State":1.0,"County":1.0,"City":1.0,"District":1.0,"PostalCode":1.0},"Location":{"LocationId":"NT_YOoUeMG8ff8JMgpW2ppUMD","LocationType":"point","DisplayPosition":{"Latitude":50.6322785,"Longitude":-1.1791464},"MapView":{"TopLeft":{"Latitude":50.64422,"Longitude":-1.19844},"BottomRight":{"Latitude":50.62166,"Longitude":-1.16794}},"Address":{"Label":"Shanklin, England, United Kingdom","Country":"GBR","State":"England","County":"Isle of Wight","City":"Shanklin","District":"Shanklin","PostalCode":"PO37 6","AdditionalData":[{"value":"United Kingdom","key":"CountryName"},{"value":"England","key":"StateName"},{"value":"Isle of Wight","key":"CountyName"}]},"MapReference":{"ReferenceId":"25907982","SideOfStreet":"neither","StateId":"20248595","CountyId":"20336732","CityId":"20336798","DistrictId":"20336799"}}},{"Relevance":1.0,"Distance":17.9,"MatchLevel":"houseNumber","MatchQuality":{"Country":1.0,"State":1.0,"County":1.0,"City":1.0,"District":1.0,"Street":[1.0],"HouseNumber":1.0,"PostalCode":1.0},"MatchType":"interpolated","Location":{"LocationId":"NT_omUwoeXZZ.kq6iRG7O6tLD_l_25907796_L_5AD","LocationType":"point","DisplayPosition":{"Latitude":50.6324138,"Longitude":-1.1787365},"MapView":{"TopLeft":{"Latitude":50.6335379,"Longitude":-1.1805088},"BottomRight":{"Latitude":50.6312896,"Longitude":-1.1769642}},"Address":{"Label":"90 Regent Street, Shanklin, PO37 7, United Kingdom","Country":"GBR","State":"England","County":"Isle of Wight","City":"Shanklin","District":"Shanklin","Street":"Regent Street","HouseNumber":"90","PostalCode":"PO37 7","AdditionalData":[{"value":"United Kingdom","key":"CountryName"},{"value":"England","key":"StateName"},{"value":"Isle of Wight","key":"CountyName"}]},"MapReference":{"ReferenceId":"25907796","Spot":0.39,"SideOfStreet":"left","StateId":"20248595","CountyId":"20336732","CityId":"20336798","DistrictId":"20336799"}}},{"Relevance":1.0,"Distance":20.8,"MatchLevel":"houseNumber","MatchQuality":{"Country":1.0,"State":1.0,"County":1.0,"City":1.0,"District":1.0,"Street":[1.0],"HouseNumber":1.0,"PostalCode":1.0},"MatchType":"interpolated","Location":{"LocationId":"NT_oiEPHSH1BOc3Q1mV1wuRsA_l_25907798_R_4UD","LocationType":"point","DisplayPosition":{"Latitude":50.6321774,"Longitude":-1.1796209},"MapView":{"TopLeft":{"Latitude":50.6333016,"Longitude":-1.1813932},"BottomRight":{"Latitude":50.6310533,"Longitude":-1.1778486}},"Address":{"Label":"85 Landguard Road, Shanklin, PO37 7HT, United Kingdom","Country":"GBR","State":"England","County":"Isle of Wight","City":"Shanklin","District":"Shanklin","Street":"Landguard Road","HouseNumber":"85","PostalCode":"PO37 7HT","AdditionalData":[{"value":"United Kingdom","key":"CountryName"},{"value":"England","key":"StateName"},{"value":"Isle of Wight","key":"CountyName"}]},"MapReference":{"ReferenceId":"25907798","Spot":0.5,"SideOfStreet":"right","StateId":"20248595","CountyId":"20336732","CityId":"20336798","DistrictId":"20336799"}}},{"Relevance":1.0,"Distance":28.8,"MatchLevel":"street","MatchQuality":{"Country":1.0,"State":1.0,"County":1.0,"City":1.0,"District":1.0,"Street":[1.0],"PostalCode":1.0},"Location":{"LocationId":"NT_ur.uYPLygjP8zbGgZQoaAD_l_25907797_L","LocationType":"point","DisplayPosition":{"Latitude":50.6320194,"Longitude":-1.1791287},"MapView":{"TopLeft":{"Latitude":50.63205,"Longitude":-1.17956},"BottomRight":{"Latitude":50.63199,"Longitude":-1.17868}},"Address":{"Label":"St Paul's Crescent, Shanklin, PO37 7, United Kingdom","Country":"GBR","State":"England","County":"Isle of Wight","City":"Shanklin","District":"Shanklin","Street":"St Paul's Crescent","PostalCode":"PO37 7","AdditionalData":[{"value":"United Kingdom","key":"CountryName"},{"value":"England","key":"StateName"},{"value":"Isle of Wight","key":"CountyName"}]},"MapReference":{"ReferenceId":"25907797","Spot":0.49,"SideOfStreet":"left","StateId":"20248595","CountyId":"20336732","CityId":"20336798","DistrictId":"20336799"}}},{"Relevance":1.0,"Distance":35.4,"MatchLevel":"postalCode","MatchQuality":{"PostalCode":1.0},"MatchType":"interpolated","Location":{"LocationId":"NT_d4XoxFVHJk5Yamo0.iyI-D_l_25907799_L_zA","LocationType":"point","DisplayPosition":{"Latitude":50.63196,"Longitude":-1.17916},"MapView":{"TopLeft":{"Latitude":50.6409532,"Longitude":-1.1933382},"BottomRight":{"Latitude":50.6229668,"Longitude":-1.1649818}},"Address":{"Label":"PO37 7HR, Shanklin, England, United Kingdom","Country":"GBR","State":"England","County":"Isle of Wight","City":"Shanklin","PostalCode":"PO37 7HR","AdditionalData":[{"value":"United Kingdom","key":"CountryName"},{"value":"England","key":"StateName"},{"value":"Isle of Wight","key":"CountyName"}]},"MapReference":{"ReferenceId":"25907799","Spot":0.51,"SideOfStreet":"neither","StateId":"20248595","CountyId":"20336732","CityId":"20336798"}}},{"Relevance":1.0,"Distance":40.2,"MatchLevel":"street","MatchQuality":{"Country":1.0,"State":1.0,"County":1.0,"City":1.0,"District":1.0,"PostalCode":1.0},"Location":{"LocationId":"NT_0WhN.u98ECvUmF19SpWRtD_l_1259953092_L","LocationType":"point","DisplayPosition":{"Latitude":50.63208,"Longitude":-1.17867},"MapView":{"TopLeft":{"Latitude":50.63211,"Longitude":-1.17868},"BottomRight":{"Latitude":50.63205,"Longitude":-1.17859}},"Address":{"Label":"Shanklin, PO37 7, United Kingdom","Country":"GBR","State":"England","County":"Isle of Wight","City":"Shanklin","District":"Shanklin","PostalCode":"PO37 7","AdditionalData":[{"value":"United Kingdom","key":"CountryName"},{"value":"England","key":"StateName"},{"value":"Isle of Wight","key":"CountyName"}]},"MapReference":{"ReferenceId":"1259953092","Spot":0.27,"SideOfStreet":"left","StateId":"20248595","CountyId":"20336732","CityId":"20336798","DistrictId":"20336799"}}},{"Relevance":1.0,"Distance":41.6,"MatchLevel":"street","MatchQuality":{"Country":1.0,"State":1.0,"County":1.0,"City":1.0,"District":1.0,"PostalCode":1.0},"Location":{"LocationId":"NT_0WhN.u98ECvUmF19SpWRtD_l_1259953091_L","LocationType":"point","DisplayPosition":{"Latitude":50.63205,"Longitude":-1.17868},"MapView":{"TopLeft":{"Latitude":50.63205,"Longitude":-1.17868},"BottomRight":{"Latitude":50.63199,"Longitude":-1.17859}},"Address":{"Label":"Shanklin, PO37 7, United Kingdom","Country":"GBR","State":"England","County":"Isle of Wight","City":"Shanklin","District":"Shanklin","PostalCode":"PO37 7","AdditionalData":[{"value":"United Kingdom","key":"CountryName"},{"value":"England","key":"StateName"},{"value":"Isle of Wight","key":"CountyName"}]},"MapReference":{"ReferenceId":"1259953091","Spot":1.0,"SideOfStreet":"left","StateId":"20248595","CountyId":"20336732","CityId":"20336798","DistrictId":"20336799"}}},{"Relevance":1.0,"Distance":43.5,"MatchLevel":"street","MatchQuality":{"Country":1.0,"State":1.0,"County":1.0,"City":1.0,"District":1.0,"PostalCode":1.0},"Location":{"LocationId":"NT_0WhN.u98ECvUmF19SpWRtD_l_1259953093_R","LocationType":"point","DisplayPosition":{"Latitude":50.63211,"Longitude":-1.17859},"MapView":{"TopLeft":{"Latitude":50.63211,"Longitude":-1.17859},"BottomRight":{"Latitude":50.63205,"Longitude":-1.1785}},"Address":{"Label":"Shanklin, PO37 7, United Kingdom","Country":"GBR","State":"England","County":"Isle of Wight","City":"Shanklin","District":"Shanklin","PostalCode":"PO37 7","AdditionalData":[{"value":"United Kingdom","key":"CountryName"},{"value":"England","key":"StateName"},{"value":"Isle of Wight","key":"CountyName"}]},"MapReference":{"ReferenceId":"1259953093","Spot":1.0,"SideOfStreet":"right","StateId":"20248595","CountyId":"20336732","CityId":"20336798","DistrictId":"20336799"}}},{"Relevance":1.0,"Distance":46.0,"MatchLevel":"houseNumber","MatchQuality":{"Country":1.0,"State":1.0,"County":1.0,"City":1.0,"District":1.0,"Street":[1.0],"HouseNumber":1.0,"PostalCode":1.0},"MatchType":"interpolated","Location":{"LocationId":"NT_oiEPHSH1BOc3Q1mV1wuRsA_l_25907789_R_xATM","LocationType":"point","DisplayPosition":{"Latitude":50.63248,"Longitude":-1.17977},"MapView":{"TopLeft":{"Latitude":50.6336042,"Longitude":-1.1815423},"BottomRight":{"Latitude":50.6313559,"Longitude":-1.1779977}},"Address":{"Label":"101 Landguard Road, Shanklin, PO37 7HT, United Kingdom","Country":"GBR","State":"England","County":"Isle of Wight","City":"Shanklin","District":"Shanklin","Street":"Landguard Road","HouseNumber":"101","PostalCode":"PO37 7HT","AdditionalData":[{"value":"United Kingdom","key":"CountryName"},{"value":"England","key":"StateName"},{"value":"Isle of Wight","key":"CountyName"}]},"MapReference":{"ReferenceId":"25907789","Spot":0.19,"SideOfStreet":"right","StateId":"20248595","CountyId":"20336732","CityId":"20336798","DistrictId":"20336799"}}}]}]}}