{"Response":{"MetaInfo":{"Timestamp":"2020-03-28T11:39:00.659+0000","NextPageInformation":"2"},"View":[{"_type":"SearchResultsViewType","ViewId":0,"Result":[{"Relevance":1.0,"Distance":0.0,"Direction":0.0,"MatchLevel":"district","MatchQuality":{"Country":1.0,"State":1.0,"County":1.0,"City":1.0,"District":1.0,"PostalCode":1.0},"Location":{"LocationId":"NT_dTZkPGzqwKWJnJGgPxewAC","LocationType":"point","DisplayPosition":{"Latitude":50.6132549,"Longitude":5.8329134},"MapView":{"TopLeft":{"Latitude":50.62603,"Longitude":5.82465},"BottomRight":{"Latitude":50.60491,"Longitude":5.84324}},"Address":{"Label":"Petit-Rechain, Verviers, Wallonie, Belgique","Country":"BEL","State":"Wallonie","County":"Liège","City":"Verviers","District":"Petit-Rechain","PostalCode":"4800","AdditionalData":[{"value":"Belgique","key":"CountryName"},{"value":"Wallonie","key":"StateName"},{"value":"Liège","key":"CountyName"}]},"MapReference":{"ReferenceId":"851354009","SideOfStreet":"neither","CountryId":"20128886","StateId":"20205526","CountyId":"20206134","CityId":"20206525","DistrictId":"20206530"}}},{"Relevance":1.0,"Distance":6.9,"MatchLevel":"houseNumber","MatchQuality":{"Country":1.0,"State":1.0,"County":1.0,"City":1.0,"District":1.0,"Street":[1.0],"HouseNumber":1.0,"PostalCode":1.0},"MatchType":"interpolated","Location":{"LocationId":"NT_o16eYNudTLkupx7iG4kuZB_yED","LocationType":"point","DisplayPosition":{"Latitude":50.61321,"Longitude":5.8331},"MapView":{"TopLeft":{"Latitude":50.6143342,"Longitude":5.8313284},"BottomRight":{"Latitude":50.6120858,"Longitude":5.8348716}},"Address":{"Label":"Place de Petit-Rechain 21, 4800 Verviers, Belgique","Country":"BEL","State":"Wallonie","County":"Liège","City":"Verviers","District":"Petit-Rechain","Street":"Place de Petit-Rechain","HouseNumber":"21","PostalCode":"4800","AdditionalData":[{"value":"Belgique","key":"CountryName"},{"value":"Wallonie","key":"StateName"},{"value":"Liège","key":"CountyName"}]},"MapReference":{"ReferenceId":"53752849","Spot":0.38,"SideOfStreet":"left","CountryId":"20128886","StateId":"20205526","CountyId":"20206134","CityId":"20206525","DistrictId":"20206530","AddressId":"368542786","RoadLinkId":"154051443"}}},{"Relevance":1.0,"Distance":7.2,"MatchLevel":"houseNumber","MatchQuality":{"Country":1.0,"State":1.0,"County":1.0,"City":1.0,"District":1.0,"Street":[1.0],"HouseNumber":1.0,"PostalCode":1.0},"MatchType":"interpolated","Location":{"LocationId":"NT_o16eYNudTLkupx7iG4kuZB_xkD","LocationType":"point","DisplayPosition":{"Latitude":50.61309,"Longitude":5.83283},"MapView":{"TopLeft":{"Latitude":50.6142142,"Longitude":5.8310584},"BottomRight":{"Latitude":50.6119658,"Longitude":5.8346016}},"Address":{"Label":"Place de Petit-Rechain 19, 4800 Verviers, Belgique","Country":"BEL","State":"Wallonie","County":"Liège","City":"Verviers","District":"Petit-Rechain","Street":"Place de Petit-Rechain","HouseNumber":"19","PostalCode":"4800","AdditionalData":[{"value":"Belgique","key":"CountryName"},{"value":"Wallonie","key":"StateName"},{"value":"Liège","key":"CountyName"}]},"MapReference":{"ReferenceId":"567231514","Spot":0.28,"SideOfStreet":"right","CountryId":"20128886","StateId":"20205526","CountyId":"20206134","CityId":"20206525","DistrictId":"20206530","AddressId":"368725908","RoadLinkId":"154051442"}}},{"Relevance":1.0,"Distance":30.3,"MatchLevel":"houseNumber","MatchQuality":{"Country":1.0,"State":1.0,"County":1.0,"City":1.0,"District":1.0,"Street":[1.0],"HouseNumber":1.0,"PostalCode":1.0},"MatchType":"interpolated","Location":{"LocationId":"NT_o16eYNudTLkupx7iG4kuZB_zID","LocationType":"point","DisplayPosition":{"Latitude":50.61302,"Longitude":5.83313},"MapView":{"TopLeft":{"Latitude":50.6141442,"Longitude":5.8313584},"BottomRight":{"Latitude":50.6118958,"Longitude":5.8349016}},"Address":{"Label":"Place de Petit-Rechain 32, 4800 Verviers, Belgique","Country":"BEL","State":"Wallonie","County":"Liège","City":"Verviers","District":"Petit-Rechain","Street":"Place de Petit-Rechain","HouseNumber":"32","PostalCode":"4800","AdditionalData":[{"value":"Belgique","key":"CountryName"},{"value":"Wallonie","key":"StateName"},{"value":"Liège","key":"CountyName"}]},"MapReference":{"ReferenceId":"53752876","Spot":0.85,"SideOfStreet":"right","CountryId":"20128886","StateId":"20205526","CountyId":"20206134","CityId":"20206525","DistrictId":"20206530","AddressId":"368539795","RoadLinkId":"30332854"}}},{"Relevance":1.0,"Distance":31.0,"MatchLevel":"street","MatchQuality":{"Country":1.0,"State":1.0,"County":1.0,"City":1.0,"District":1.0,"Street":[1.0],"PostalCode":1.0},"Location":{"LocationId":"NT_6miHehlm6Iu9LP-2Q2qOhC_l_54029287_L","LocationType":"point","DisplayPosition":{"Latitude":50.61346,"Longitude":5.83321},"MapView":{"TopLeft":{"Latitude":50.61367,"Longitude":5.83321},"BottomRight":{"Latitude":50.61346,"Longitude":5.83325}},"Address":{"Label":"Thier Saint-Martin, 4800 Verviers, Belgique","Country":"BEL","State":"Wallonie","County":"Liège","City":"Verviers","District":"Petit-Rechain","Street":"Thier Saint-Martin","PostalCode":"4800","AdditionalData":[{"value":"Belgique","key":"CountryName"},{"value":"Wallonie","key":"StateName"},{"value":"Liège","key":"CountyName"}]},"MapReference":{"ReferenceId":"54029287","Spot":0.0,"SideOfStreet":"left","CountryId":"20128886","StateId":"20205526","CountyId":"20206134","CityId":"20206525","DistrictId":"20206530"}}},{"Relevance":1.0,"Distance":39.5,"MatchLevel":"houseNumber","MatchQuality":{"Country":1.0,"State":1.0,"County":1.0,"City":1.0,"District":1.0,"Street":[1.0],"HouseNumber":1.0,"PostalCode":1.0},"MatchType":"interpolated","Location":{"LocationId":"NT_o16eYNudTLkupx7iG4kuZB_yID","LocationType":"point","DisplayPosition":{"Latitude":50.6129,"Longitude":5.83293},"MapView":{"TopLeft":{"Latitude":50.6140242,"Longitude":5.8311584},"BottomRight":{"Latitude":50.6117758,"Longitude":5.8347016}},"Address":{"Label":"Place de Petit-Rechain 22, 4800 Verviers, Belgique","Country":"BEL","State":"Wallonie","County":"Liège","City":"Verviers","District":"Petit-Rechain","Street":"Place de Petit-Rechain","HouseNumber":"22","PostalCode":"4800","AdditionalData":[{"value":"Belgique","key":"CountryName"},{"value":"Wallonie","key":"StateName"},{"value":"Liège","key":"CountyName"}]},"MapReference":{"ReferenceId":"68160648","Spot":0.2,"SideOfStreet":"left","CountryId":"20128886","StateId":"20205526","CountyId":"20206134","CityId":"20206525","DistrictId":"20206530","AddressId":"368365035","RoadLinkId":"30616985"}}},{"Relevance":1.0,"Distance":40.7,"MatchLevel":"houseNumber","MatchQuality":{"Country":1.0,"State":1.0,"County":1.0,"City":1.0,"District":1.0,"Street":[1.0],"HouseNumber":1.0,"PostalCode":1.0},"MatchType":"interpolated","Location":{"LocationId":"NT_RMewTb8nETNCi7PtO-uNSC_yA","LocationType":"point","DisplayPosition":{"Latitude":50.61345,"Longitude":5.83347},"MapView":{"TopLeft":{"Latitude":50.6145742,"Longitude":5.8316984},"BottomRight":{"Latitude":50.6123258,"Longitude":5.8352416}},"Address":{"Label":"Rue Nicolas Arnold 2, 4800 Verviers, Belgique","Country":"BEL","State":"Wallonie","County":"Liège","City":"Verviers","District":"Petit-Rechain","Street":"Rue Nicolas Arnold","HouseNumber":"2","PostalCode":"4800","AdditionalData":[{"value":"Belgique","key":"CountryName"},{"value":"Wallonie","key":"StateName"},{"value":"Liège","key":"CountyName"}]},"MapReference":{"ReferenceId":"54029294","Spot":0.09,"SideOfStreet":"right","CountryId":"20128886","StateId":"20205526","CountyId":"20206134","CityId":"20206525","DistrictId":"20206530","AddressId":"368633396","RoadLinkId":"30448049"}}},{"Relevance":1.0,"Distance":45.4,"MatchLevel":"houseNumber","MatchQuality":{"Country":1.0,"State":1.0,"County":1.0,"City":1.0,"District":1.0,"Street":[1.0],"HouseNumber":1.0,"PostalCode":1.0},"MatchType":"interpolated","Location":{"LocationId":"NT_MTLaIqYgstYNjW24R7h4UA_l_851354008_L_xA","LocationType":"point","DisplayPosition":{"Latitude":50.61356,"Longitude":5.83334},"MapView":{"TopLeft":{"Latitude":50.6146842,"Longitude":5.8315684},"BottomRight":{"Latitude":50.6124359,"Longitude":5.8351116}},"Address":{"Label":"Rue Laurent Benoit Dewez 1, 4800 Verviers, Belgique","Country":"BEL","State":"Wallonie","County":"Liège","City":"Verviers","District":"Petit-Rechain","Street":"Rue Laurent Benoit Dewez","HouseNumber":"1","PostalCode":"4800","AdditionalData":[{"value":"Belgique","key":"CountryName"},{"value":"Wallonie","key":"StateName"},{"value":"Liège","key":"CountyName"}]},"MapReference":{"ReferenceId":"851354008","Spot":0.22,"SideOfStreet":"left","CountryId":"20128886","StateId":"20205526","CountyId":"20206134","CityId":"20206525","DistrictId":"20206530"}}},{"Relevance":1.0,"Distance":55.6,"MatchLevel":"houseNumber","MatchQuality":{"Country":1.0,"State":1.0,"County":1.0,"City":1.0,"District":1.0,"Street":[1.0],"HouseNumber":1.0,"PostalCode":1.0},"MatchType":"interpolated","Location":{"LocationId":"NT_lPmNA98utA9OV51Ro-5QzD_zA","LocationType":"point","DisplayPosition":{"Latitude":50.61374,"Longitude":5.83267},"MapView":{"TopLeft":{"Latitude":50.6148642,"Longitude":5.8308984},"BottomRight":{"Latitude":50.6126158,"Longitude":5.8344416}},"Address":{"Label":"Rue Victor de Neuville 3, 4800 Verviers, Belgique","Country":"BEL","State":"Wallonie","County":"Liège","City":"Verviers","District":"Petit-Rechain","Street":"Rue Victor de Neuville","HouseNumber":"3","PostalCode":"4800","AdditionalData":[{"value":"Belgique","key":"CountryName"},{"value":"Wallonie","key":"StateName"},{"value":"Liège","key":"CountyName"}]},"MapReference":{"ReferenceId":"54029288","Spot":0.56,"SideOfStreet":"left","CountryId":"20128886","StateId":"20205526","CountyId":"20206134","CityId":"20206525","DistrictId":"20206530","AddressId":"368566695","RoadLinkId":"30921638"}}},{"Relevance":1.0,"Distance":58.1,"MatchLevel":"houseNumber","MatchQuality":{"Country":1.0,"State":1.0,"County":1.0,"City":1.0,"District":1.0,"Street":[1.0],"HouseNumber":1.0,"PostalCode":1.0},"MatchType":"interpolated","Location":{"LocationId":"NT_n19ZamwqA0ujxr.UrpQbQD_yA","LocationType":"point","DisplayPosition":{"Latitude":50.61276,"Longitude":5.8332},"MapView":{"TopLeft":{"Latitude":50.6138842,"Longitude":5.8314284},"BottomRight":{"Latitude":50.6116358,"Longitude":5.8349716}},"Address":{"Label":"Rue de la Moinerie 2, 4800 Verviers, Belgique","Country":"BEL","State":"Wallonie","County":"Liège","City":"Verviers","District":"Petit-Rechain","Street":"Rue de la Moinerie","HouseNumber":"2","PostalCode":"4800","AdditionalData":[{"value":"Belgique","key":"CountryName"},{"value":"Wallonie","key":"StateName"},{"value":"Liège","key":"CountyName"}]},"MapReference":{"ReferenceId":"53752914","Spot":0.46,"SideOfStreet":"left","CountryId":"20128886","StateId":"20205526","CountyId":"20206134","CityId":"20206525","DistrictId":"20206530","AddressId":"368585292","RoadLinkId":"30346821"}}}]}]}}