{"Response":{"MetaInfo":{"Timestamp":"2020-03-28T11:08:58.346+0000","NextPageInformation":"2"},"View":[{"_type":"SearchResultsViewType","ViewId":0,"Result":[{"Relevance":1.0,"Distance":0.0,"Direction":0.0,"MatchLevel":"district","MatchQuality":{"Country":1.0,"State":1.0,"County":1.0,"City":1.0,"District":1.0,"PostalCode":1.0},"Location":{"LocationId":"NT_XlcffJ0Bb06tIcrDWyjFRB","LocationType":"point","DisplayPosition":{"Latitude":50.6192757,"Longitude":3.0451803},"MapView":{"TopLeft":{"Latitude":50.63261,"Longitude":3.03495},"BottomRight":{"Latitude":50.61839,"Longitude":3.0613}},"Address":{"Label":"Wazemmes, Lille, Hauts-de-France, France","Country":"FRA","State":"Hauts-de-France","County":"Nord","City":"Lille","District":"Wazemmes","PostalCode":"59000","AdditionalData":[{"value":"France","key":"CountryName"},{"value":"Hauts-de-France","key":"StateName"},{"value":"Nord","key":"CountyName"}]},"MapReference":{"ReferenceId":"68064436","SideOfStreet":"neither","CountryId":"20000001","StateId":"20000002","CountyId":"20000003","CityId":"20027216"}}},{"Relevance":1.0,"Distance":28.1,"MatchLevel":"houseNumber","MatchQuality":{"Country":1.0,"State":1.0,"County":1.0,"City":1.0,"District":1.0,"Street":[1.0],"HouseNumber":1.0,"PostalCode":1.0},"MatchType":"interpolated","Location":{"LocationId":"NT_LqhIP0DGOn-u8zZMBmeDxB_l_61427595_R_1MD","LocationType":"point","DisplayPosition":{"Latitude":50.6189963,"Longitude":3.0448323},"MapView":{"TopLeft":{"Latitude":50.6201204,"Longitude":3.0430605},"BottomRight":{"Latitude":50.6178721,"Longitude":3.046604}},"Address":{"Label":"53 Boulevard de Metz, 59000 Lille, France","Country":"FRA","State":"Hauts-de-France","County":"Nord","City":"Lille","District":"Wazemmes","Street":"Boulevard de Metz","HouseNumber":"53","PostalCode":"59000","AdditionalData":[{"value":"France","key":"CountryName"},{"value":"Hauts-de-France","key":"StateName"},{"value":"Nord","key":"CountyName"}]},"MapReference":{"ReferenceId":"61427595","Spot":0.52,"SideOfStreet":"right","CountryId":"20000001","StateId":"20000002","CountyId":"20000003","CityId":"20027216"}}},{"Relevance":1.0,"Distance":35.5,"MatchLevel":"houseNumber","MatchQuality":{"Country":1.0,"State":1.0,"County":1.0,"City":1.0,"District":1.0,"Street":[1.0],"HouseNumber":1.0,"PostalCode":1.0},"MatchType":"interpolated","Location":{"LocationId":"NT_HZG8vABHeMDIBletumiZzC_1MD","LocationType":"point","DisplayPosition":{"Latitude":50.61892,"Longitude":3.04543},"MapView":{"TopLeft":{"Latitude":50.6200442,"Longitude":3.0436582},"BottomRight":{"Latitude":50.6177958,"Longitude":3.0472018}},"Address":{"Label":"53 Boulevard de Metz, 59000 Lille, France","Country":"FRA","State":"Hauts-de-France","County":"Nord","City":"Lille","District":"Wazemmes","Street":"Boulevard de Metz","HouseNumber":"53","PostalCode":"59000","AdditionalData":[{"value":"France","key":"CountryName"},{"value":"Hauts-de-France","key":"StateName"},{"value":"Nord","key":"CountyName"}]},"MapReference":{"ReferenceId":"61427594","Spot":0.75,"SideOfStreet":"right","CountryId":"20000001","StateId":"20000002","CountyId":"20000003","CityId":"20027216","AddressId":"572735172","RoadLinkId":"44697235"}}},{"Relevance":1.0,"Distance":46.3,"MatchLevel":"houseNumber","MatchQuality":{"Country":1.0,"State":1.0,"County":1.0,"City":1.0,"District":1.0,"Street":[1.0],"HouseNumber":1.0,"PostalCode":1.0},"MatchType":"interpolated","Location":{"LocationId":"NT_LqhIP0DGOn-u8zZMBmeDxB_4QD","LocationType":"point","DisplayPosition":{"Latitude":50.61886,"Longitude":3.04514},"MapView":{"TopLeft":{"Latitude":50.6199842,"Longitude":3.0433682},"BottomRight":{"Latitude":50.6177358,"Longitude":3.0469118}},"Address":{"Label":"84 Boulevard de Metz, 59000 Lille, France","Country":"FRA","State":"Hauts-de-France","County":"Nord","City":"Lille","District":"Faubourg de Béthune","Street":"Boulevard de Metz","HouseNumber":"84","PostalCode":"59000","AdditionalData":[{"value":"France","key":"CountryName"},{"value":"Hauts-de-France","key":"StateName"},{"value":"Nord","key":"CountyName"}]},"MapReference":{"ReferenceId":"58791504","Spot":0.91,"SideOfStreet":"left","CountryId":"20000001","StateId":"20000002","CountyId":"20000003","CityId":"20027216","AddressId":"323129941","RoadLinkId":"44952378"}}},{"Relevance":1.0,"Distance":46.3,"MatchLevel":"landmark","MatchQuality":{"Country":1.0,"State":1.0,"County":1.0,"City":1.0,"District":1.0,"Street":[1.0],"PostalCode":1.0,"Name":1.0},"Location":{"LocationId":"NT_-8x0juMl2hk2k7RiPF6QoA_p_YVgC2lVA6EbxuCPuBRzyQC","LocationType":"park","Name":"Square Paul Cézanne","DisplayPosition":{"Latitude":50.61839,"Longitude":3.04462},"MapView":{"TopLeft":{"Latitude":50.61894,"Longitude":3.04434},"BottomRight":{"Latitude":50.61837,"Longitude":3.04503}},"Address":{"Label":"Square Paul Cézanne, 59000 Lille, France","Country":"FRA","State":"Hauts-de-France","County":"Nord","City":"Lille","District":"Faubourg de Béthune","Street":"Square Paul Cézanne","PostalCode":"59000","AdditionalData":[{"value":"France","key":"CountryName"},{"value":"Hauts-de-France","key":"StateName"},{"value":"Nord","key":"CountyName"}]},"MapReference":{"CountryId":"20000001","StateId":"20000002","CountyId":"20000003","CityId":"20027216","PlaceId":"1112273048"}}},{"Relevance":1.0,"Distance":46.3,"MatchLevel":"street","MatchQuality":{"Country":1.0,"State":1.0,"County":1.0,"City":1.0,"District":1.0,"Street":[1.0],"PostalCode":1.0},"Location":{"LocationId":"NT_Wk31brjxyads.rTUePfLxC_l_58791503_R","LocationType":"point","DisplayPosition":{"Latitude":50.61887,"Longitude":3.04503},"MapView":{"TopLeft":{"Latitude":50.61894,"Longitude":3.0445},"BottomRight":{"Latitude":50.61887,"Longitude":3.04503}},"Address":{"Label":"Boulevard de Metz, 59000 Lille, France","Country":"FRA","State":"Hauts-de-France","County":"Nord","City":"Lille","District":"Faubourg de Béthune","Street":"Boulevard de Metz","PostalCode":"59000","AdditionalData":[{"value":"France","key":"CountryName"},{"value":"Hauts-de-France","key":"StateName"},{"value":"Nord","key":"CountyName"}]},"MapReference":{"ReferenceId":"58791503","Spot":0.0,"SideOfStreet":"right","CountryId":"20000001","StateId":"20000002","CountyId":"20000003","CityId":"20027216"}}},{"Relevance":1.0,"Distance":59.5,"MatchLevel":"houseNumber","MatchQuality":{"Country":1.0,"State":1.0,"County":1.0,"City":1.0,"District":1.0,"Street":[1.0],"HouseNumber":1.0,"PostalCode":1.0},"MatchType":"interpolated","Location":{"LocationId":"NT_Wk31brjxyads.rTUePfLxC_l_61427596_R_1MD","LocationType":"point","DisplayPosition":{"Latitude":50.6190657,"Longitude":3.0443291},"MapView":{"TopLeft":{"Latitude":50.6201898,"Longitude":3.0425573},"BottomRight":{"Latitude":50.6179415,"Longitude":3.0461009}},"Address":{"Label":"53 Boulevard de Metz, 59000 Lille, France","Country":"FRA","State":"Hauts-de-France","County":"Nord","City":"Lille","District":"Wazemmes","Street":"Boulevard de Metz","HouseNumber":"53","PostalCode":"59000","AdditionalData":[{"value":"France","key":"CountryName"},{"value":"Hauts-de-France","key":"StateName"},{"value":"Nord","key":"CountyName"}]},"MapReference":{"ReferenceId":"61427596","Spot":0.51,"SideOfStreet":"right","CountryId":"20000001","StateId":"20000002","CountyId":"20000003","CityId":"20027216"}}},{"Relevance":1.0,"Distance":66.5,"MatchLevel":"houseNumber","MatchQuality":{"Country":1.0,"State":1.0,"County":1.0,"City":1.0,"District":1.0,"Street":[1.0],"HouseNumber":1.0,"PostalCode":1.0},"MatchType":"interpolated","Location":{"LocationId":"NT_LqhIP0DGOn-u8zZMBmeDxB_4AD","LocationType":"point","DisplayPosition":{"Latitude":50.61895,"Longitude":3.04439},"MapView":{"TopLeft":{"Latitude":50.6200742,"Longitude":3.0426182},"BottomRight":{"Latitude":50.6178258,"Longitude":3.0461618}},"Address":{"Label":"80 Boulevard de Metz, 59000 Lille, France","Country":"FRA","State":"Hauts-de-France","County":"Nord","City":"Lille","District":"Faubourg de Béthune","Street":"Boulevard de Metz","HouseNumber":"80","PostalCode":"59000","AdditionalData":[{"value":"France","key":"CountryName"},{"value":"Hauts-de-France","key":"StateName"},{"value":"Nord","key":"CountyName"}]},"MapReference":{"ReferenceId":"61427597","Spot":0.3,"SideOfStreet":"left","CountryId":"20000001","StateId":"20000002","CountyId":"20000003","CityId":"20027216","AddressId":"322657129","RoadLinkId":"45002855"}}},{"Relevance":1.0,"Distance":77.6,"MatchLevel":"street","MatchQuality":{"Country":1.0,"State":1.0,"County":1.0,"City":1.0,"District":1.0,"Street":[1.0],"PostalCode":1.0},"Location":{"LocationId":"NT_RLl5lVFogPFkYwGqn-i.AA_l_58782493_R","LocationType":"point","DisplayPosition":{"Latitude":50.61909,"Longitude":3.04412},"MapView":{"TopLeft":{"Latitude":50.6201,"Longitude":3.04342},"BottomRight":{"Latitude":50.61909,"Longitude":3.04412}},"Address":{"Label":"Rue d'Épinal, 59000 Lille, France","Country":"FRA","State":"Hauts-de-France","County":"Nord","City":"Lille","District":"Wazemmes","Street":"Rue d'Épinal","PostalCode":"59000","AdditionalData":[{"value":"France","key":"CountryName"},{"value":"Hauts-de-France","key":"StateName"},{"value":"Nord","key":"CountyName"}]},"MapReference":{"ReferenceId":"58782493","Spot":0.0,"SideOfStreet":"right","CountryId":"20000001","StateId":"20000002","CountyId":"20000003","CityId":"20027216"}}},{"Relevance":1.0,"Distance":90.3,"MatchLevel":"houseNumber","MatchQuality":{"Country":1.0,"State":1.0,"County":1.0,"City":1.0,"District":1.0,"Street":[1.0],"HouseNumber":1.0,"PostalCode":1.0},"MatchType":"interpolated","Location":{"LocationId":"NT_Ykd3xJg88ZDbsDvc4rjldA_4QD","LocationType":"point","DisplayPosition":{"Latitude":50.61849,"Longitude":3.04489},"MapView":{"TopLeft":{"Latitude":50.6196142,"Longitude":3.0431182},"BottomRight":{"Latitude":50.6173658,"Longitude":3.0466618}},"Address":{"Label":"84 Square Paul Cézanne, 59000 Lille, France","Country":"FRA","State":"Hauts-de-France","County":"Nord","City":"Lille","District":"Faubourg de Béthune","Street":"Square Paul Cézanne","HouseNumber":"84","PostalCode":"59000","AdditionalData":[{"value":"France","key":"CountryName"},{"value":"Hauts-de-France","key":"StateName"},{"value":"Nord","key":"CountyName"}]},"MapReference":{"ReferenceId":"58970564","Spot":0.17,"SideOfStreet":"right","CountryId":"20000001","StateId":"20000002","CountyId":"20000003","CityId":"20027216","AddressId":"806209717","RoadLinkId":"44774314"}}}]}]}}