{"Response":{"MetaInfo":{"Timestamp":"2020-03-28T11:44:00.645+0000","NextPageInformation":"2"},"View":[{"_type":"SearchResultsViewType","ViewId":0,"Result":[{"Relevance":1.0,"Distance":0.0,"Direction":0.0,"MatchLevel":"district","MatchQuality":{"Country":1.0,"State":1.0,"County":1.0,"City":1.0,"District":1.0,"PostalCode":1.0},"Location":{"LocationId":"NT_p5p6KuSJXjcMhjJ0WMji5A","LocationType":"point","DisplayPosition":{"Latitude":50.6916785,"Longitude":9.0494018},"MapView":{"TopLeft":{"Latitude":50.69741,"Longitude":9.04375},"BottomRight":{"Latitude":50.68608,"Longitude":9.06108}},"Address":{"Label":"Nieder-Gemünden, Gemünden (Felda), Hessen, Deutschland","Country":"DEU","State":"Hessen","County":"Vogelsbergkreis","City":"Gemünden (Felda)","District":"Nieder-Gemünden","PostalCode":"35329","AdditionalData":[{"value":"Deutschland","key":"CountryName"},{"value":"Hessen","key":"StateName"},{"value":"Vogelsbergkreis","key":"CountyName"}]},"MapReference":{"ReferenceId":"796238129","SideOfStreet":"neither","CountryId":"20147700","StateId":"20160993","CountyId":"20162799","CityId":"20162839","DistrictId":"20162841"}}},{"Relevance":1.0,"Distance":7.8,"MatchLevel":"houseNumber","MatchQuality":{"Country":1.0,"State":1.0,"County":1.0,"City":1.0,"District":1.0,"Street":[1.0],"HouseNumber":1.0,"PostalCode":1.0},"MatchType":"interpolated","Location":{"LocationId":"NT_jNWDlkscMc7lZ5EHcmy1XD_xQD","LocationType":"point","DisplayPosition":{"Latitude":50.6917,"Longitude":9.04923},"MapView":{"TopLeft":{"Latitude":50.6928242,"Longitude":9.0474555},"BottomRight":{"Latitude":50.6905758,"Longitude":9.0510045}},"Address":{"Label":"Bahnhofstraße 14, 35329 Gemünden (Felda), Deutschland","Country":"DEU","State":"Hessen","County":"Vogelsbergkreis","City":"Gemünden (Felda)","District":"Nieder-Gemünden","Street":"Bahnhofstraße","HouseNumber":"14","PostalCode":"35329","AdditionalData":[{"value":"Deutschland","key":"CountryName"},{"value":"Hessen","key":"StateName"},{"value":"Vogelsbergkreis","key":"CountyName"}]},"MapReference":{"ReferenceId":"576401451","Spot":0.89,"SideOfStreet":"right","CountryId":"20147700","StateId":"20160993","CountyId":"20162799","CityId":"20162839","DistrictId":"20162841","AddressId":"187450436","RoadLinkId":"34381910"}}},{"Relevance":1.0,"Distance":29.4,"MatchLevel":"houseNumber","MatchQuality":{"Country":1.0,"State":1.0,"County":1.0,"City":1.0,"District":1.0,"Street":[1.0],"HouseNumber":1.0,"PostalCode":1.0},"MatchType":"interpolated","Location":{"LocationId":"NT_jNWDlkscMc7lZ5EHcmy1XD_5A","LocationType":"point","DisplayPosition":{"Latitude":50.6919,"Longitude":9.04963},"MapView":{"TopLeft":{"Latitude":50.6930242,"Longitude":9.0478555},"BottomRight":{"Latitude":50.6907758,"Longitude":9.0514045}},"Address":{"Label":"Bahnhofstraße 9, 35329 Gemünden (Felda), Deutschland","Country":"DEU","State":"Hessen","County":"Vogelsbergkreis","City":"Gemünden (Felda)","District":"Nieder-Gemünden","Street":"Bahnhofstraße","HouseNumber":"9","PostalCode":"35329","AdditionalData":[{"value":"Deutschland","key":"CountryName"},{"value":"Hessen","key":"StateName"},{"value":"Vogelsbergkreis","key":"CountyName"}]},"MapReference":{"ReferenceId":"576401449","Spot":0.75,"SideOfStreet":"right","CountryId":"20147700","StateId":"20160993","CountyId":"20162799","CityId":"20162839","DistrictId":"20162841","AddressId":"186719393","RoadLinkId":"34323789"}}},{"Relevance":1.0,"Distance":29.6,"MatchLevel":"houseNumber","MatchQuality":{"Country":1.0,"State":1.0,"County":1.0,"City":1.0,"District":1.0,"Street":[1.0],"HouseNumber":1.0,"PostalCode":1.0},"MatchType":"interpolated","Location":{"LocationId":"NT_jNWDlkscMc7lZ5EHcmy1XD_4A","LocationType":"point","DisplayPosition":{"Latitude":50.69174,"Longitude":9.04995},"MapView":{"TopLeft":{"Latitude":50.6928642,"Longitude":9.0481755},"BottomRight":{"Latitude":50.6906158,"Longitude":9.0517245}},"Address":{"Label":"Bahnhofstraße 8, 35329 Gemünden (Felda), Deutschland","Country":"DEU","State":"Hessen","County":"Vogelsbergkreis","City":"Gemünden (Felda)","District":"Nieder-Gemünden","Street":"Bahnhofstraße","HouseNumber":"8","PostalCode":"35329","AdditionalData":[{"value":"Deutschland","key":"CountryName"},{"value":"Hessen","key":"StateName"},{"value":"Vogelsbergkreis","key":"CountyName"}]},"MapReference":{"ReferenceId":"1160262838","Spot":0.92,"SideOfStreet":"left","CountryId":"20147700","StateId":"20160993","CountyId":"20162799","CityId":"20162839","DistrictId":"20162841","AddressId":"186603673","RoadLinkId":"466732786"}}},{"Relevance":1.0,"Distance":31.1,"MatchLevel":"street","MatchQuality":{"Country":1.0,"State":1.0,"County":1.0,"City":1.0,"District":1.0,"PostalCode":1.0},"Location":{"LocationId":"NT_23xdGyo4Fs1oQNmp-OH7FD_l_718171775_L","LocationType":"point","DisplayPosition":{"Latitude":50.69194,"Longitude":9.04956},"MapView":{"TopLeft":{"Latitude":50.69204,"Longitude":9.0494},"BottomRight":{"Latitude":50.69194,"Longitude":9.04956}},"Address":{"Label":"35329 Gemünden (Felda), Deutschland","Country":"DEU","State":"Hessen","County":"Vogelsbergkreis","City":"Gemünden (Felda)","District":"Nieder-Gemünden","PostalCode":"35329","AdditionalData":[{"value":"Deutschland","key":"CountryName"},{"value":"Hessen","key":"StateName"},{"value":"Vogelsbergkreis","key":"CountyName"}]},"MapReference":{"ReferenceId":"718171775","Spot":0.0,"SideOfStreet":"left","CountryId":"20147700","StateId":"20160993","CountyId":"20162799","CityId":"20162839","DistrictId":"20162841"}}},{"Relevance":1.0,"Distance":40.2,"MatchLevel":"street","MatchQuality":{"Country":1.0,"State":1.0,"County":1.0,"City":1.0,"PostalCode":1.0},"Location":{"LocationId":"NT_pAjPCW--Um-NVsPie3CDED_l_718171776_L","LocationType":"point","DisplayPosition":{"Latitude":50.69204,"Longitude":9.0494},"MapView":{"TopLeft":{"Latitude":50.69217,"Longitude":9.0492},"BottomRight":{"Latitude":50.69204,"Longitude":9.0494}},"Address":{"Label":"35329 Gemünden (Felda), Deutschland","Country":"DEU","State":"Hessen","County":"Vogelsbergkreis","City":"Gemünden (Felda)","PostalCode":"35329","AdditionalData":[{"value":"Deutschland","key":"CountryName"},{"value":"Hessen","key":"StateName"},{"value":"Vogelsbergkreis","key":"CountyName"}]},"MapReference":{"ReferenceId":"718171776","Spot":0.0,"SideOfStreet":"left","CountryId":"20147700","StateId":"20160993","CountyId":"20162799","CityId":"20162839"}}},{"Relevance":1.0,"Distance":53.9,"MatchLevel":"street","MatchQuality":{"Country":1.0,"State":1.0,"County":1.0,"City":1.0,"PostalCode":1.0},"Location":{"LocationId":"NT_pAjPCW--Um-NVsPie3CDED_l_62016389_R","LocationType":"point","DisplayPosition":{"Latitude":50.692133,"Longitude":9.0491366},"MapView":{"TopLeft":{"Latitude":50.69217,"Longitude":9.04558},"BottomRight":{"Latitude":50.68999,"Longitude":9.0492}},"Address":{"Label":"35329 Gemünden (Felda), Deutschland","Country":"DEU","State":"Hessen","County":"Vogelsbergkreis","City":"Gemünden (Felda)","PostalCode":"35329","AdditionalData":[{"value":"Deutschland","key":"CountryName"},{"value":"Hessen","key":"StateName"},{"value":"Vogelsbergkreis","key":"CountyName"}]},"MapReference":{"ReferenceId":"62016389","Spot":0.98,"SideOfStreet":"right","CountryId":"20147700","StateId":"20160993","CountyId":"20162799","CityId":"20162839"}}},{"Relevance":1.0,"Distance":56.5,"MatchLevel":"street","MatchQuality":{"Country":1.0,"State":1.0,"County":1.0,"City":1.0,"PostalCode":1.0},"Location":{"LocationId":"NT_pAjPCW--Um-NVsPie3CDED_l_62016388_R","LocationType":"point","DisplayPosition":{"Latitude":50.69217,"Longitude":9.0492},"MapView":{"TopLeft":{"Latitude":50.69259,"Longitude":9.0492},"BottomRight":{"Latitude":50.69217,"Longitude":9.04987}},"Address":{"Label":"35329 Gemünden (Felda), Deutschland","Country":"DEU","State":"Hessen","County":"Vogelsbergkreis","City":"Gemünden (Felda)","PostalCode":"35329","AdditionalData":[{"value":"Deutschland","key":"CountryName"},{"value":"Hessen","key":"StateName"},{"value":"Vogelsbergkreis","key":"CountyName"}]},"MapReference":{"ReferenceId":"62016388","Spot":0.0,"SideOfStreet":"right","CountryId":"20147700","StateId":"20160993","CountyId":"20162799","CityId":"20162839"}}},{"Relevance":1.0,"Distance":78.7,"MatchLevel":"houseNumber","MatchQuality":{"Country":1.0,"State":1.0,"County":1.0,"City":1.0,"District":1.0,"Street":[1.0],"HouseNumber":1.0,"PostalCode":1.0},"MatchType":"interpolated","Location":{"LocationId":"NT_7pJ-5MnDBbWjzZN.CWsX-C_xID","LocationType":"point","DisplayPosition":{"Latitude":50.69209,"Longitude":9.05031},"MapView":{"TopLeft":{"Latitude":50.6932142,"Longitude":9.0485355},"BottomRight":{"Latitude":50.6909658,"Longitude":9.0520845}},"Address":{"Label":"Brühlweg 12, 35329 Gemünden (Felda), Deutschland","Country":"DEU","State":"Hessen","County":"Vogelsbergkreis","City":"Gemünden (Felda)","District":"Nieder-Gemünden","Street":"Brühlweg","HouseNumber":"12","PostalCode":"35329","AdditionalData":[{"value":"Deutschland","key":"CountryName"},{"value":"Hessen","key":"StateName"},{"value":"Vogelsbergkreis","key":"CountyName"}]},"MapReference":{"ReferenceId":"576401448","Spot":0.44,"SideOfStreet":"right","CountryId":"20147700","StateId":"20160993","CountyId":"20162799","CityId":"20162839","DistrictId":"20162841","AddressId":"186736082","RoadLinkId":"34479672"}}},{"Relevance":1.0,"Distance":112.2,"MatchLevel":"houseNumber","MatchQuality":{"Country":1.0,"State":1.0,"County":1.0,"City":1.0,"District":1.0,"Street":[1.0],"HouseNumber":1.0,"PostalCode":1.0},"MatchType":"interpolated","Location":{"LocationId":"NT_9iieD2Se8eXw4xqoIZOAEB_ykD","LocationType":"point","DisplayPosition":{"Latitude":50.69062,"Longitude":9.04993},"MapView":{"TopLeft":{"Latitude":50.6917442,"Longitude":9.0481555},"BottomRight":{"Latitude":50.6894958,"Longitude":9.0517045}},"Address":{"Label":"Feldastraße 29, 35329 Gemünden (Felda), Deutschland","Country":"DEU","State":"Hessen","County":"Vogelsbergkreis","City":"Gemünden (Felda)","District":"Nieder-Gemünden","Street":"Feldastraße","HouseNumber":"29","PostalCode":"35329","AdditionalData":[{"value":"Deutschland","key":"CountryName"},{"value":"Hessen","key":"StateName"},{"value":"Vogelsbergkreis","key":"CountyName"}]},"MapReference":{"ReferenceId":"799438176","Spot":0.76,"SideOfStreet":"left","CountryId":"20147700","StateId":"20160993","CountyId":"20162799","CityId":"20162839","DistrictId":"20162841","AddressId":"249975276","RoadLinkId":"222256926"}}}]}]}}