{"Response":{"MetaInfo":{"Timestamp":"2020-03-28T09:48:57.829+0000","NextPageInformation":"2"},"View":[{"_type":"SearchResultsViewType","ViewId":0,"Result":[{"Relevance":1.0,"Distance":0.0,"Direction":0.0,"MatchLevel":"district","MatchQuality":{"Country":1.0,"State":1.0,"County":1.0,"City":1.0,"District":1.0,"PostalCode":1.0},"Location":{"LocationId":"NT_D8mI-DmQ59j-qnPUa8YxtD","LocationType":"point","DisplayPosition":{"Latitude":50.6281535,"Longitude":3.1116751},"MapView":{"TopLeft":{"Latitude":50.63625,"Longitude":3.0928},"BottomRight":{"Latitude":50.61536,"Longitude":3.12611}},"Address":{"Label":"Hellemmes-Lille, Lille, Hauts-de-France, France","Country":"FRA","State":"Hauts-de-France","County":"Nord","City":"Lille","District":"Hellemmes-Lille","PostalCode":"59260","AdditionalData":[{"value":"France","key":"CountryName"},{"value":"Hauts-de-France","key":"StateName"},{"value":"Nord","key":"CountyName"}]},"MapReference":{"ReferenceId":"58780816","SideOfStreet":"neither","CountryId":"20000001","StateId":"20000002","CountyId":"20000003","CityId":"20027216","DistrictId":"20403774"}}},{"Relevance":1.0,"Distance":3.6,"MatchLevel":"houseNumber","MatchQuality":{"Country":1.0,"State":1.0,"County":1.0,"City":1.0,"District":1.0,"Street":[1.0],"HouseNumber":1.0,"PostalCode":1.0},"MatchType":"interpolated","Location":{"LocationId":"NT_KnwVPBkLTTf3y1DK7pEASA_1gD","LocationType":"point","DisplayPosition":{"Latitude":50.62814,"Longitude":3.11157},"MapView":{"TopLeft":{"Latitude":50.6292642,"Longitude":3.1097979},"BottomRight":{"Latitude":50.6270158,"Longitude":3.1133421}},"Address":{"Label":"58 Rue Faidherbe, 59260 Lille, France","Country":"FRA","State":"Hauts-de-France","County":"Nord","City":"Lille","District":"Hellemmes-Lille","Street":"Rue Faidherbe","HouseNumber":"58","PostalCode":"59260","AdditionalData":[{"value":"France","key":"CountryName"},{"value":"Hauts-de-France","key":"StateName"},{"value":"Nord","key":"CountyName"}]},"MapReference":{"ReferenceId":"875061798","Spot":0.21,"SideOfStreet":"right","CountryId":"20000001","StateId":"20000002","CountyId":"20000003","CityId":"20027216","DistrictId":"20403774","AddressId":"322590490","RoadLinkId":"245860998"}}},{"Relevance":1.0,"Distance":15.8,"MatchLevel":"houseNumber","MatchQuality":{"Country":1.0,"State":1.0,"County":1.0,"City":1.0,"District":1.0,"Street":[1.0],"HouseNumber":1.0,"PostalCode":1.0},"MatchType":"interpolated","Location":{"LocationId":"NT_KnwVPBkLTTf3y1DK7pEASA_1YD","LocationType":"point","DisplayPosition":{"Latitude":50.62806,"Longitude":3.11151},"MapView":{"TopLeft":{"Latitude":50.6291842,"Longitude":3.1097379},"BottomRight":{"Latitude":50.6269358,"Longitude":3.1132821}},"Address":{"Label":"56 Rue Faidherbe, 59260 Lille, France","Country":"FRA","State":"Hauts-de-France","County":"Nord","City":"Lille","District":"Hellemmes-Lille","Street":"Rue Faidherbe","HouseNumber":"56","PostalCode":"59260","AdditionalData":[{"value":"France","key":"CountryName"},{"value":"Hauts-de-France","key":"StateName"},{"value":"Nord","key":"CountyName"}]},"MapReference":{"ReferenceId":"841918943","Spot":0.92,"SideOfStreet":"right","CountryId":"20000001","StateId":"20000002","CountyId":"20000003","CityId":"20027216","DistrictId":"20403774","AddressId":"323227256","RoadLinkId":"223836837"}}},{"Relevance":1.0,"Distance":23.4,"MatchLevel":"houseNumber","MatchQuality":{"Country":1.0,"State":1.0,"County":1.0,"City":1.0,"District":1.0,"Street":[1.0],"HouseNumber":1.0,"PostalCode":1.0},"MatchType":"interpolated","Location":{"LocationId":"NT_KnwVPBkLTTf3y1DK7pEASA_2ID","LocationType":"point","DisplayPosition":{"Latitude":50.62837,"Longitude":3.11165},"MapView":{"TopLeft":{"Latitude":50.6294942,"Longitude":3.1098779},"BottomRight":{"Latitude":50.6272458,"Longitude":3.1134221}},"Address":{"Label":"62 Rue Faidherbe, 59260 Lille, France","Country":"FRA","State":"Hauts-de-France","County":"Nord","City":"Lille","District":"Hellemmes-Lille","Street":"Rue Faidherbe","HouseNumber":"62","PostalCode":"59260","AdditionalData":[{"value":"France","key":"CountryName"},{"value":"Hauts-de-France","key":"StateName"},{"value":"Nord","key":"CountyName"}]},"MapReference":{"ReferenceId":"875061799","Spot":0.86,"SideOfStreet":"right","CountryId":"20000001","StateId":"20000002","CountyId":"20000003","CityId":"20027216","DistrictId":"20403774","AddressId":"323282560","RoadLinkId":"245860999"}}},{"Relevance":1.0,"Distance":29.6,"MatchLevel":"houseNumber","MatchQuality":{"Country":1.0,"State":1.0,"County":1.0,"City":1.0,"District":1.0,"Street":[1.0],"HouseNumber":1.0,"PostalCode":1.0},"MatchType":"interpolated","Location":{"LocationId":"NT_KnwVPBkLTTf3y1DK7pEASA_2QD","LocationType":"point","DisplayPosition":{"Latitude":50.62842,"Longitude":3.11167},"MapView":{"TopLeft":{"Latitude":50.6295442,"Longitude":3.1098979},"BottomRight":{"Latitude":50.6272958,"Longitude":3.1134421}},"Address":{"Label":"64 Rue Faidherbe, 59260 Lille, France","Country":"FRA","State":"Hauts-de-France","County":"Nord","City":"Lille","District":"Hellemmes-Lille","Street":"Rue Faidherbe","HouseNumber":"64","PostalCode":"59260","AdditionalData":[{"value":"France","key":"CountryName"},{"value":"Hauts-de-France","key":"StateName"},{"value":"Nord","key":"CountyName"}]},"MapReference":{"ReferenceId":"58780560","Spot":0.04,"SideOfStreet":"right","CountryId":"20000001","StateId":"20000002","CountyId":"20000003","CityId":"20027216","DistrictId":"20403774","AddressId":"774854932","RoadLinkId":"44929787"}}},{"Relevance":1.0,"Distance":35.8,"MatchLevel":"houseNumber","MatchQuality":{"Country":1.0,"State":1.0,"County":1.0,"City":1.0,"District":1.0,"Street":[1.0],"HouseNumber":1.0,"PostalCode":1.0},"MatchType":"interpolated","Location":{"LocationId":"NT_r72xYfRocx9ajmTzjZFmYB_l_58780561_L_1A","LocationType":"point","DisplayPosition":{"Latitude":50.6285056,"Longitude":3.1113533},"MapView":{"TopLeft":{"Latitude":50.6296298,"Longitude":3.1095812},"BottomRight":{"Latitude":50.6273815,"Longitude":3.1131254}},"Address":{"Label":"5 Rue de l'Abbé Six, 59260 Lille, France","Country":"FRA","State":"Hauts-de-France","County":"Nord","City":"Lille","District":"Hellemmes-Lille","Street":"Rue de l'Abbé Six","HouseNumber":"5","PostalCode":"59260","AdditionalData":[{"value":"France","key":"CountryName"},{"value":"Hauts-de-France","key":"StateName"},{"value":"Nord","key":"CountyName"}]},"MapReference":{"ReferenceId":"58780561","Spot":0.51,"SideOfStreet":"left","CountryId":"20000001","StateId":"20000002","CountyId":"20000003","CityId":"20027216","DistrictId":"20403774"}}},{"Relevance":1.0,"Distance":38.8,"MatchLevel":"houseNumber","MatchQuality":{"Country":1.0,"State":1.0,"County":1.0,"City":1.0,"District":1.0,"Street":[1.0],"HouseNumber":1.0,"PostalCode":1.0},"MatchType":"interpolated","Location":{"LocationId":"NT_-lKgRLmxHqTVIraD7oCQrA_l_1045814603_R_2AD","LocationType":"point","DisplayPosition":{"Latitude":50.6279003,"Longitude":3.1121485},"MapView":{"TopLeft":{"Latitude":50.6290244,"Longitude":3.1103763},"BottomRight":{"Latitude":50.6267761,"Longitude":3.1139206}},"Address":{"Label":"60 Rue Faidherbe, 59260 Lille, France","Country":"FRA","State":"Hauts-de-France","County":"Nord","City":"Lille","District":"Hellemmes-Lille","Street":"Rue Faidherbe","HouseNumber":"60","PostalCode":"59260","AdditionalData":[{"value":"France","key":"CountryName"},{"value":"Hauts-de-France","key":"StateName"},{"value":"Nord","key":"CountyName"}]},"MapReference":{"ReferenceId":"1045814603","Spot":0.51,"SideOfStreet":"right","CountryId":"20000001","StateId":"20000002","CountyId":"20000003","CityId":"20027216","DistrictId":"20403774"}}},{"Relevance":1.0,"Distance":59.7,"MatchLevel":"houseNumber","MatchQuality":{"Country":1.0,"State":1.0,"County":1.0,"City":1.0,"District":1.0,"Street":[1.0],"HouseNumber":1.0,"PostalCode":1.0},"MatchType":"interpolated","Location":{"LocationId":"NT_zwrM4vpvRQ72AwdKOR9tuC_2AD","LocationType":"point","DisplayPosition":{"Latitude":50.62813,"Longitude":3.11252},"MapView":{"TopLeft":{"Latitude":50.6292542,"Longitude":3.1107479},"BottomRight":{"Latitude":50.6270058,"Longitude":3.1142921}},"Address":{"Label":"60 Rue Faidherbe, 59260 Lille, France","Country":"FRA","State":"Hauts-de-France","County":"Nord","City":"Lille","District":"Hellemmes-Lille","Street":"Rue Faidherbe","HouseNumber":"60","PostalCode":"59260","AdditionalData":[{"value":"France","key":"CountryName"},{"value":"Hauts-de-France","key":"StateName"},{"value":"Nord","key":"CountyName"}]},"MapReference":{"ReferenceId":"875061800","Spot":0.63,"SideOfStreet":"right","CountryId":"20000001","StateId":"20000002","CountyId":"20000003","CityId":"20027216","DistrictId":"20403774","AddressId":"605701155","RoadLinkId":"245861002"}}},{"Relevance":1.0,"Distance":66.7,"MatchLevel":"houseNumber","MatchQuality":{"Country":1.0,"State":1.0,"County":1.0,"City":1.0,"District":1.0,"Street":[1.0],"HouseNumber":1.0,"PostalCode":1.0},"MatchType":"interpolated","Location":{"LocationId":"NT_4qtw4whe8m1Npv.wcUDaBB_yA","LocationType":"point","DisplayPosition":{"Latitude":50.62856,"Longitude":3.11098},"MapView":{"TopLeft":{"Latitude":50.6296842,"Longitude":3.1092079},"BottomRight":{"Latitude":50.6274358,"Longitude":3.1127521}},"Address":{"Label":"2 Rue du Théâtre de Verdure, 59260 Lille, France","Country":"FRA","State":"Hauts-de-France","County":"Nord","City":"Lille","District":"Hellemmes-Lille","Street":"Rue du Théâtre de Verdure","HouseNumber":"2","PostalCode":"59260","AdditionalData":[{"value":"France","key":"CountryName"},{"value":"Hauts-de-France","key":"StateName"},{"value":"Nord","key":"CountyName"}]},"MapReference":{"ReferenceId":"811780970","Spot":0.9,"SideOfStreet":"left","CountryId":"20000001","StateId":"20000002","CountyId":"20000003","CityId":"20027216","DistrictId":"20403774","AddressId":"674344000","RoadLinkId":"199212069"}}},{"Relevance":1.0,"Distance":68.5,"MatchLevel":"landmark","MatchQuality":{"Country":1.0,"State":1.0,"County":1.0,"City":1.0,"District":1.0,"PostalCode":1.0,"Name":1.0},"Location":{"LocationId":"NT_ARcrXpRA2hlbkfA9yb2hcB_p_NJrsUFEEynVIzjTlFT0EaB","LocationType":"park","Name":"Parc de la Mairie","DisplayPosition":{"Latitude":50.62802,"Longitude":3.10993},"MapView":{"TopLeft":{"Latitude":50.62918,"Longitude":3.10765},"BottomRight":{"Latitude":50.6272,"Longitude":3.11106}},"Address":{"Label":"59260 Lille, France","Country":"FRA","State":"Hauts-de-France","County":"Nord","City":"Lille","District":"Hellemmes-Lille","PostalCode":"59260","AdditionalData":[{"value":"France","key":"CountryName"},{"value":"Hauts-de-France","key":"StateName"},{"value":"Nord","key":"CountyName"}]},"MapReference":{"CountryId":"20000001","StateId":"20000002","CountyId":"20000003","CityId":"20027216","DistrictId":"20403774","PlaceId":"51467097"}}}]}]}}