{"Response":{"MetaInfo":{"Timestamp":"2020-03-28T12:05:01.813+0000","NextPageInformation":"2"},"View":[{"_type":"SearchResultsViewType","ViewId":0,"Result":[{"Relevance":1.0,"Distance":0.0,"Direction":0.0,"MatchLevel":"district","MatchQuality":{"Country":1.0,"State":1.0,"County":1.0,"City":1.0,"District":1.0,"PostalCode":1.0},"Location":{"LocationId":"NT_1XwqusV.8-6.PBbxnfiRxA","LocationType":"point","DisplayPosition":{"Latitude":50.6263439,"Longitude":19.8171634},"MapView":{"TopLeft":{"Latitude":50.63523,"Longitude":19.79464},"BottomRight":{"Latitude":50.61042,"Longitude":19.84627}},"Address":{"Label":"Szczekociny, Woj. Śląskie, Polska","Country":"POL","State":"Woj. Śląskie","County":"Powiat Zawierciański","City":"Szczekociny","District":"Szczekociny","PostalCode":"42-445","AdditionalData":[{"value":"Polska","key":"CountryName"},{"value":"Woj. Śląskie","key":"StateName"},{"value":"Powiat Zawierciański","key":"CountyName"}]},"MapReference":{"ReferenceId":"901136312","SideOfStreet":"neither","CountryId":"20624059","StateId":"20629003","CountyId":"20629326","CityId":"20629341","DistrictId":"20694072"}}},{"Relevance":1.0,"Distance":6.7,"MatchLevel":"houseNumber","MatchQuality":{"Country":1.0,"State":1.0,"County":1.0,"City":1.0,"District":1.0,"Street":[1.0],"HouseNumber":1.0,"PostalCode":1.0},"MatchType":"interpolated","Location":{"LocationId":"NT_RpwqYRPMDVdeDThyp-TqNA_yA","LocationType":"point","DisplayPosition":{"Latitude":50.62638,"Longitude":19.81724},"MapView":{"TopLeft":{"Latitude":50.6275042,"Longitude":19.8154679},"BottomRight":{"Latitude":50.6252558,"Longitude":19.8190121}},"Address":{"Label":"ulica Marii Konopnickiej 2, 42-445 Szczekociny, Polska","Country":"POL","State":"Woj. Śląskie","County":"Powiat Zawierciański","City":"Szczekociny","District":"Szczekociny","Street":"ulica Marii Konopnickiej","HouseNumber":"2","PostalCode":"42-445","AdditionalData":[{"value":"Polska","key":"CountryName"},{"value":"Woj. Śląskie","key":"StateName"},{"value":"Powiat Zawierciański","key":"CountyName"}]},"MapReference":{"ReferenceId":"727931786","Spot":0.21,"SideOfStreet":"right","CountryId":"20624059","StateId":"20629003","CountyId":"20629326","CityId":"20629341","DistrictId":"20694072","AddressId":"732146302","RoadLinkId":"156374355"}}},{"Relevance":1.0,"Distance":7.3,"MatchLevel":"houseNumber","MatchQuality":{"Country":1.0,"State":1.0,"County":1.0,"City":1.0,"District":1.0,"Street":[1.0],"HouseNumber":1.0,"PostalCode":1.0},"MatchType":"interpolated","Location":{"LocationId":"NT_XUYc-hvREa2U0gl1wj8EdC_xkD","LocationType":"point","DisplayPosition":{"Latitude":50.62625,"Longitude":19.81748},"MapView":{"TopLeft":{"Latitude":50.6273742,"Longitude":19.8157079},"BottomRight":{"Latitude":50.6251258,"Longitude":19.8192521}},"Address":{"Label":"plac Tadeusza Kościuszki 19, 42-445 Szczekociny, Polska","Country":"POL","State":"Woj. Śląskie","County":"Powiat Zawierciański","City":"Szczekociny","District":"Szczekociny","Street":"plac Tadeusza Kościuszki","HouseNumber":"19","PostalCode":"42-445","AdditionalData":[{"value":"Polska","key":"CountryName"},{"value":"Woj. Śląskie","key":"StateName"},{"value":"Powiat Zawierciański","key":"CountyName"}]},"MapReference":{"ReferenceId":"778242395","Spot":0.88,"SideOfStreet":"left","CountryId":"20624059","StateId":"20629003","CountyId":"20629326","CityId":"20629341","DistrictId":"20694072","AddressId":"211286073","RoadLinkId":"171637023"}}},{"Relevance":1.0,"Distance":18.1,"MatchLevel":"street","MatchQuality":{"Country":1.0,"State":1.0,"County":1.0,"City":1.0,"District":1.0,"Street":[1.0],"PostalCode":1.0},"Location":{"LocationId":"NT_MU6RmmQcnwfV2hS1SBcShA_l_594568953_L","LocationType":"point","DisplayPosition":{"Latitude":50.62635,"Longitude":19.81742},"MapView":{"TopLeft":{"Latitude":50.62668,"Longitude":19.81742},"BottomRight":{"Latitude":50.62635,"Longitude":19.81753}},"Address":{"Label":"ulica Grochowskiego, 42-445 Szczekociny, Polska","Country":"POL","State":"Woj. Śląskie","County":"Powiat Zawierciański","City":"Szczekociny","District":"Szczekociny","Street":"ulica Grochowskiego","PostalCode":"42-445","AdditionalData":[{"value":"Polska","key":"CountryName"},{"value":"Woj. Śląskie","key":"StateName"},{"value":"Powiat Zawierciański","key":"CountyName"}]},"MapReference":{"ReferenceId":"594568953","Spot":0.0,"SideOfStreet":"left","CountryId":"20624059","StateId":"20629003","CountyId":"20629326","CityId":"20629341","DistrictId":"20694072"}}},{"Relevance":1.0,"Distance":18.1,"MatchLevel":"street","MatchQuality":{"Country":1.0,"State":1.0,"County":1.0,"City":1.0,"District":1.0,"PostalCode":1.0},"Location":{"LocationId":"NT_D7JeX5niTM983gOeyeaYWD_l_778242394_L","LocationType":"point","DisplayPosition":{"Latitude":50.62635,"Longitude":19.81742},"MapView":{"TopLeft":{"Latitude":50.62635,"Longitude":19.81742},"BottomRight":{"Latitude":50.6263,"Longitude":19.8175}},"Address":{"Label":"42-445 Szczekociny, Polska","Country":"POL","State":"Woj. Śląskie","County":"Powiat Zawierciański","City":"Szczekociny","District":"Szczekociny","PostalCode":"42-445","AdditionalData":[{"value":"Polska","key":"CountryName"},{"value":"Woj. Śląskie","key":"StateName"},{"value":"Powiat Zawierciański","key":"CountyName"}]},"MapReference":{"ReferenceId":"778242394","Spot":1.0,"SideOfStreet":"left","CountryId":"20624059","StateId":"20629003","CountyId":"20629326","CityId":"20629341","DistrictId":"20694072"}}},{"Relevance":1.0,"Distance":25.2,"MatchLevel":"houseNumber","MatchQuality":{"Country":1.0,"State":1.0,"County":1.0,"City":1.0,"District":1.0,"Street":[1.0],"HouseNumber":1.0,"PostalCode":1.0},"MatchType":"interpolated","Location":{"LocationId":"NT_XUYc-hvREa2U0gl1wj8EdC_yAD","LocationType":"point","DisplayPosition":{"Latitude":50.62629,"Longitude":19.81751},"MapView":{"TopLeft":{"Latitude":50.6274142,"Longitude":19.8157379},"BottomRight":{"Latitude":50.6251658,"Longitude":19.8192821}},"Address":{"Label":"plac Tadeusza Kościuszki 20, 42-445 Szczekociny, Polska","Country":"POL","State":"Woj. Śląskie","County":"Powiat Zawierciański","City":"Szczekociny","District":"Szczekociny","Street":"plac Tadeusza Kościuszki","HouseNumber":"20","PostalCode":"42-445","AdditionalData":[{"value":"Polska","key":"CountryName"},{"value":"Woj. Śląskie","key":"StateName"},{"value":"Powiat Zawierciański","key":"CountyName"}]},"MapReference":{"ReferenceId":"778242393","Spot":0.99,"SideOfStreet":"right","CountryId":"20624059","StateId":"20629003","CountyId":"20629326","CityId":"20629341","DistrictId":"20694072","AddressId":"209535797","RoadLinkId":"172609303"}}},{"Relevance":1.0,"Distance":34.5,"MatchLevel":"houseNumber","MatchQuality":{"Country":1.0,"State":1.0,"County":1.0,"City":1.0,"District":1.0,"Street":[1.0],"HouseNumber":1.0,"PostalCode":1.0},"MatchType":"interpolated","Location":{"LocationId":"NT_oGnbiwzEqAl.I0iKSrjP3B_zMD","LocationType":"point","DisplayPosition":{"Latitude":50.62676,"Longitude":19.81712},"MapView":{"TopLeft":{"Latitude":50.6278842,"Longitude":19.8153479},"BottomRight":{"Latitude":50.6256358,"Longitude":19.8188921}},"Address":{"Label":"ulica Bartosza Głowackiego 33, 42-445 Szczekociny, Polska","Country":"POL","State":"Woj. Śląskie","County":"Powiat Zawierciański","City":"Szczekociny","District":"Szczekociny","Street":"ulica Bartosza Głowackiego","HouseNumber":"33","PostalCode":"42-445","AdditionalData":[{"value":"Polska","key":"CountryName"},{"value":"Woj. Śląskie","key":"StateName"},{"value":"Powiat Zawierciański","key":"CountyName"}]},"MapReference":{"ReferenceId":"778245342","Spot":0.33,"SideOfStreet":"left","CountryId":"20624059","StateId":"20629003","CountyId":"20629326","CityId":"20629341","DistrictId":"20694072","AddressId":"731892720","RoadLinkId":"171640462"}}},{"Relevance":1.0,"Distance":36.2,"MatchLevel":"houseNumber","MatchQuality":{"Country":1.0,"State":1.0,"County":1.0,"City":1.0,"District":1.0,"Street":[1.0],"HouseNumber":1.0,"PostalCode":1.0},"MatchType":"interpolated","Location":{"LocationId":"NT_RpwqYRPMDVdeDThyp-TqNA_xA","LocationType":"point","DisplayPosition":{"Latitude":50.62637,"Longitude":19.81651},"MapView":{"TopLeft":{"Latitude":50.6274942,"Longitude":19.8147379},"BottomRight":{"Latitude":50.6252458,"Longitude":19.8182821}},"Address":{"Label":"ulica Marii Konopnickiej 1, 42-445 Szczekociny, Polska","Country":"POL","State":"Woj. Śląskie","County":"Powiat Zawierciański","City":"Szczekociny","District":"Szczekociny","Street":"ulica Marii Konopnickiej","HouseNumber":"1","PostalCode":"42-445","AdditionalData":[{"value":"Polska","key":"CountryName"},{"value":"Woj. Śląskie","key":"StateName"},{"value":"Powiat Zawierciański","key":"CountyName"}]},"MapReference":{"ReferenceId":"727931784","Spot":0.79,"SideOfStreet":"right","CountryId":"20624059","StateId":"20629003","CountyId":"20629326","CityId":"20629341","DistrictId":"20694072","AddressId":"772308526","RoadLinkId":"156374334"}}},{"Relevance":1.0,"Distance":45.4,"MatchLevel":"street","MatchQuality":{"Country":1.0,"State":1.0,"County":1.0,"City":1.0,"District":1.0,"Street":[1.0],"PostalCode":1.0},"Location":{"LocationId":"NT_MU6RmmQcnwfV2hS1SBcShA_l_778242391_R","LocationType":"point","DisplayPosition":{"Latitude":50.62668,"Longitude":19.81753},"MapView":{"TopLeft":{"Latitude":50.62708,"Longitude":19.81753},"BottomRight":{"Latitude":50.62668,"Longitude":19.81772}},"Address":{"Label":"ulica Grochowskiego, 42-445 Szczekociny, Polska","Country":"POL","State":"Woj. Śląskie","County":"Powiat Zawierciański","City":"Szczekociny","District":"Szczekociny","Street":"ulica Grochowskiego","PostalCode":"42-445","AdditionalData":[{"value":"Polska","key":"CountryName"},{"value":"Woj. Śląskie","key":"StateName"},{"value":"Powiat Zawierciański","key":"CountyName"}]},"MapReference":{"ReferenceId":"778242391","Spot":0.0,"SideOfStreet":"right","CountryId":"20624059","StateId":"20629003","CountyId":"20629326","CityId":"20629341","DistrictId":"20694072"}}},{"Relevance":1.0,"Distance":55.4,"MatchLevel":"street","MatchQuality":{"Country":1.0,"State":1.0,"County":1.0,"City":1.0,"District":1.0,"Street":[1.0],"PostalCode":1.0},"Location":{"LocationId":"NT_uHYrHwQIJ98BDDf6PYigPB_l_778244626_L","LocationType":"point","DisplayPosition":{"Latitude":50.6258465,"Longitude":19.8172187},"MapView":{"TopLeft":{"Latitude":50.62587,"Longitude":19.81716},"BottomRight":{"Latitude":50.62584,"Longitude":19.81743}},"Address":{"Label":"ulica Śląska, 42-445 Szczekociny, Polska","Country":"POL","State":"Woj. Śląskie","County":"Powiat Zawierciański","City":"Szczekociny","District":"Szczekociny","Street":"ulica Śląska","PostalCode":"42-445","AdditionalData":[{"value":"Polska","key":"CountryName"},{"value":"Woj. Śląskie","key":"StateName"},{"value":"Powiat Zawierciański","key":"CountyName"}]},"MapReference":{"ReferenceId":"778244626","Spot":0.22,"SideOfStreet":"left","CountryId":"20624059","StateId":"20629003","CountyId":"20629326","CityId":"20629341","DistrictId":"20694072"}}}]}]}}