{"Response":{"MetaInfo":{"Timestamp":"2020-03-28T10:15:59.817+0000","NextPageInformation":"2"},"View":[{"_type":"SearchResultsViewType","ViewId":0,"Result":[{"Relevance":1.0,"Distance":0.0,"Direction":0.0,"MatchLevel":"city","MatchQuality":{"Country":1.0,"State":1.0,"County":1.0,"City":1.0,"PostalCode":1.0},"Location":{"LocationId":"NT_tzyFcm-.MZEI4YTOStWesB","LocationType":"point","DisplayPosition":{"Latitude":50.6907263,"Longitude":4.8790194},"MapView":{"TopLeft":{"Latitude":50.70401,"Longitude":4.83132},"BottomRight":{"Latitude":50.61526,"Longitude":4.94139}},"Address":{"Label":"Ramillies, Wallonie, Belgique","Country":"BEL","State":"Wallonie","County":"Brabant Wallon","City":"Ramillies","PostalCode":"1367","AdditionalData":[{"value":"Belgique","key":"CountryName"},{"value":"Wallonie","key":"StateName"},{"value":"Brabant Wallon","key":"CountyName"}]},"MapReference":{"ReferenceId":"801201028","SideOfStreet":"neither","CountryId":"20128886","StateId":"20205526","CountyId":"20208226","CityId":"20208383"}}},{"Relevance":1.0,"Distance":12.8,"MatchLevel":"houseNumber","MatchQuality":{"Country":1.0,"State":1.0,"County":1.0,"City":1.0,"District":1.0,"Street":[1.0],"HouseNumber":1.0,"PostalCode":1.0},"MatchType":"interpolated","Location":{"LocationId":"NT_pR.PcOHN5CyZEnBjKKNJWC_4A","LocationType":"point","DisplayPosition":{"Latitude":50.69079,"Longitude":4.87883},"MapView":{"TopLeft":{"Latitude":50.6919142,"Longitude":4.8770555},"BottomRight":{"Latitude":50.6896658,"Longitude":4.8806045}},"Address":{"Label":"Rue de Glimes 8, 1367 Ramillies, Belgique","Country":"BEL","State":"Wallonie","County":"Brabant Wallon","City":"Ramillies","District":"Huppaye","Street":"Rue de Glimes","HouseNumber":"8","PostalCode":"1367","AdditionalData":[{"value":"Belgique","key":"CountryName"},{"value":"Wallonie","key":"StateName"},{"value":"Brabant Wallon","key":"CountyName"}]},"MapReference":{"ReferenceId":"1208420214","Spot":0.33,"SideOfStreet":"right","CountryId":"20128886","StateId":"20205526","CountyId":"20208226","CityId":"20208383","DistrictId":"20208390","AddressId":"767396114","RoadLinkId":"522824611"}}},{"Relevance":1.0,"Distance":35.2,"MatchLevel":"street","MatchQuality":{"Country":1.0,"State":1.0,"County":1.0,"City":1.0,"District":1.0,"Street":[1.0],"PostalCode":1.0},"Location":{"LocationId":"NT_Lvg07GSuUutakfrOCydLFA_l_60839342_R","LocationType":"point","DisplayPosition":{"Latitude":50.69072,"Longitude":4.87852},"MapView":{"TopLeft":{"Latitude":50.69152,"Longitude":4.87765},"BottomRight":{"Latitude":50.69072,"Longitude":4.87852}},"Address":{"Label":"Rue du Bois Saint-Pierre, 1367 Ramillies, Belgique","Country":"BEL","State":"Wallonie","County":"Brabant Wallon","City":"Ramillies","District":"Huppaye","Street":"Rue du Bois Saint-Pierre","PostalCode":"1367","AdditionalData":[{"value":"Belgique","key":"CountryName"},{"value":"Wallonie","key":"StateName"},{"value":"Brabant Wallon","key":"CountyName"}]},"MapReference":{"ReferenceId":"60839342","Spot":0.0,"SideOfStreet":"right","CountryId":"20128886","StateId":"20205526","CountyId":"20208226","CityId":"20208383","DistrictId":"20208390"}}},{"Relevance":1.0,"Distance":35.2,"MatchLevel":"street","MatchQuality":{"Country":1.0,"State":1.0,"County":1.0,"City":1.0,"District":1.0,"Street":[1.0],"PostalCode":1.0},"Location":{"LocationId":"NT_pR.PcOHN5CyZEnBjKKNJWC_l_801200651_R","LocationType":"point","DisplayPosition":{"Latitude":50.69072,"Longitude":4.87852},"MapView":{"TopLeft":{"Latitude":50.69072,"Longitude":4.87788},"BottomRight":{"Latitude":50.69055,"Longitude":4.87852}},"Address":{"Label":"Rue de Glimes, 1367 Ramillies, Belgique","Country":"BEL","State":"Wallonie","County":"Brabant Wallon","City":"Ramillies","District":"Huppaye","Street":"Rue de Glimes","PostalCode":"1367","AdditionalData":[{"value":"Belgique","key":"CountryName"},{"value":"Wallonie","key":"StateName"},{"value":"Brabant Wallon","key":"CountyName"}]},"MapReference":{"ReferenceId":"801200651","Spot":1.0,"SideOfStreet":"right","CountryId":"20128886","StateId":"20205526","CountyId":"20208226","CityId":"20208383","DistrictId":"20208390"}}},{"Relevance":1.0,"Distance":35.2,"MatchLevel":"street","MatchQuality":{"Country":1.0,"State":1.0,"County":1.0,"City":1.0,"District":1.0,"PostalCode":1.0},"Location":{"LocationId":"NT_vEDE3I-m0L1FPsoELmHeEC_l_544956387_R","LocationType":"point","DisplayPosition":{"Latitude":50.69072,"Longitude":4.87852},"MapView":{"TopLeft":{"Latitude":50.69072,"Longitude":4.87818},"BottomRight":{"Latitude":50.68627,"Longitude":4.88071}},"Address":{"Label":"1367 Ramillies, Belgique","Country":"BEL","State":"Wallonie","County":"Brabant Wallon","City":"Ramillies","District":"Huppaye","PostalCode":"1367","AdditionalData":[{"value":"Belgique","key":"CountryName"},{"value":"Wallonie","key":"StateName"},{"value":"Brabant Wallon","key":"CountyName"}]},"MapReference":{"ReferenceId":"544956387","Spot":1.0,"SideOfStreet":"right","CountryId":"20128886","StateId":"20205526","CountyId":"20208226","CityId":"20208383","DistrictId":"20208390"}}},{"Relevance":1.0,"Distance":52.1,"MatchLevel":"houseNumber","MatchQuality":{"Country":1.0,"State":1.0,"County":1.0,"City":1.0,"District":1.0,"Street":[1.0],"HouseNumber":1.0,"PostalCode":1.0},"MatchType":"interpolated","Location":{"LocationId":"NT_pR.PcOHN5CyZEnBjKKNJWC_0A","LocationType":"point","DisplayPosition":{"Latitude":50.69095,"Longitude":4.87967},"MapView":{"TopLeft":{"Latitude":50.6920742,"Longitude":4.8778955},"BottomRight":{"Latitude":50.6898258,"Longitude":4.8814445}},"Address":{"Label":"Rue de Glimes 4, 1367 Ramillies, Belgique","Country":"BEL","State":"Wallonie","County":"Brabant Wallon","City":"Ramillies","District":"Huppaye","Street":"Rue de Glimes","HouseNumber":"4","PostalCode":"1367","AdditionalData":[{"value":"Belgique","key":"CountryName"},{"value":"Wallonie","key":"StateName"},{"value":"Brabant Wallon","key":"CountyName"}]},"MapReference":{"ReferenceId":"1208420215","Spot":0.15,"SideOfStreet":"right","CountryId":"20128886","StateId":"20205526","CountyId":"20208226","CityId":"20208383","DistrictId":"20208390","AddressId":"767404743","RoadLinkId":"522824612"}}},{"Relevance":1.0,"Distance":82.6,"MatchLevel":"street","MatchQuality":{"Country":1.0,"State":1.0,"County":1.0,"City":1.0,"District":1.0,"Street":[1.0],"PostalCode":1.0},"Location":{"LocationId":"NT_pR.PcOHN5CyZEnBjKKNJWC_l_801200650_R","LocationType":"point","DisplayPosition":{"Latitude":50.69055,"Longitude":4.87788},"MapView":{"TopLeft":{"Latitude":50.69055,"Longitude":4.8766},"BottomRight":{"Latitude":50.69012,"Longitude":4.87788}},"Address":{"Label":"Rue de Glimes, 1367 Ramillies, Belgique","Country":"BEL","State":"Wallonie","County":"Brabant Wallon","City":"Ramillies","District":"Huppaye","Street":"Rue de Glimes","PostalCode":"1367","AdditionalData":[{"value":"Belgique","key":"CountryName"},{"value":"Wallonie","key":"StateName"},{"value":"Brabant Wallon","key":"CountyName"}]},"MapReference":{"ReferenceId":"801200650","Spot":1.0,"SideOfStreet":"right","CountryId":"20128886","StateId":"20205526","CountyId":"20208226","CityId":"20208383","DistrictId":"20208390"}}},{"Relevance":1.0,"Distance":130.7,"MatchLevel":"street","MatchQuality":{"Country":1.0,"State":1.0,"County":1.0,"City":1.0,"District":1.0,"Street":[1.0],"PostalCode":1.0},"Location":{"LocationId":"NT_Lvg07GSuUutakfrOCydLFA_l_60839343_R","LocationType":"point","DisplayPosition":{"Latitude":50.69152,"Longitude":4.87765},"MapView":{"TopLeft":{"Latitude":50.69336,"Longitude":4.87575},"BottomRight":{"Latitude":50.69152,"Longitude":4.87765}},"Address":{"Label":"Rue du Bois Saint-Pierre, 1367 Ramillies, Belgique","Country":"BEL","State":"Wallonie","County":"Brabant Wallon","City":"Ramillies","District":"Huppaye","Street":"Rue du Bois Saint-Pierre","PostalCode":"1367","AdditionalData":[{"value":"Belgique","key":"CountryName"},{"value":"Wallonie","key":"StateName"},{"value":"Brabant Wallon","key":"CountyName"}]},"MapReference":{"ReferenceId":"60839343","Spot":0.0,"SideOfStreet":"right","CountryId":"20128886","StateId":"20205526","CountyId":"20208226","CityId":"20208383","DistrictId":"20208390"}}},{"Relevance":1.0,"Distance":135.2,"MatchLevel":"street","MatchQuality":{"Country":1.0,"State":1.0,"County":1.0,"City":1.0,"District":1.0,"Street":[1.0],"PostalCode":1.0},"Location":{"LocationId":"NT_j2cmjt.TRMMTBJfzb4sa-C_l_916272967_R","LocationType":"point","DisplayPosition":{"Latitude":50.69111,"Longitude":4.88084},"MapView":{"TopLeft":{"Latitude":50.69123,"Longitude":4.88084},"BottomRight":{"Latitude":50.69111,"Longitude":4.88157}},"Address":{"Label":"Rue de Fauconval, 1367 Ramillies, Belgique","Country":"BEL","State":"Wallonie","County":"Brabant Wallon","City":"Ramillies","District":"Huppaye","Street":"Rue de Fauconval","PostalCode":"1367","AdditionalData":[{"value":"Belgique","key":"CountryName"},{"value":"Wallonie","key":"StateName"},{"value":"Brabant Wallon","key":"CountyName"}]},"MapReference":{"ReferenceId":"916272967","Spot":0.0,"SideOfStreet":"right","CountryId":"20128886","StateId":"20205526","CountyId":"20208226","CityId":"20208383","DistrictId":"20208390"}}},{"Relevance":1.0,"Distance":140.4,"MatchLevel":"houseNumber","MatchQuality":{"Country":1.0,"State":1.0,"County":1.0,"City":1.0,"District":1.0,"Street":[1.0],"HouseNumber":1.0,"PostalCode":1.0},"MatchType":"interpolated","Location":{"LocationId":"NT_j2cmjt.TRMMTBJfzb4sa-C_xUTN","LocationType":"point","DisplayPosition":{"Latitude":50.69075,"Longitude":4.88121},"MapView":{"TopLeft":{"Latitude":50.6918742,"Longitude":4.8794355},"BottomRight":{"Latitude":50.6896258,"Longitude":4.8829845}},"Address":{"Label":"Rue de Fauconval 155, 1367 Ramillies, Belgique","Country":"BEL","State":"Wallonie","County":"Brabant Wallon","City":"Ramillies","District":"Huppaye","Street":"Rue de Fauconval","HouseNumber":"155","PostalCode":"1367","AdditionalData":[{"value":"Belgique","key":"CountryName"},{"value":"Wallonie","key":"StateName"},{"value":"Brabant Wallon","key":"CountyName"}]},"MapReference":{"ReferenceId":"60839351","Spot":0.42,"SideOfStreet":"left","CountryId":"20128886","StateId":"20205526","CountyId":"20208226","CityId":"20208383","DistrictId":"20208390","AddressId":"369026325","RoadLinkId":"30975514"}}}]}]}}