{"Response":{"MetaInfo":{"Timestamp":"2020-03-28T11:39:13.822+0000","NextPageInformation":"2"},"View":[{"_type":"SearchResultsViewType","ViewId":0,"Result":[{"Relevance":1.0,"Distance":0.0,"Direction":0.0,"MatchLevel":"district","MatchQuality":{"Country":1.0,"State":1.0,"County":1.0,"City":1.0,"District":1.0,"PostalCode":1.0},"Location":{"LocationId":"NT_DWLjXTaLbXfmaGTku3qG.C","LocationType":"point","DisplayPosition":{"Latitude":50.6128103,"Longitude":5.6144336},"MapView":{"TopLeft":{"Latitude":50.62316,"Longitude":5.60412},"BottomRight":{"Latitude":50.59937,"Longitude":5.6297}},"Address":{"Label":"Chênée, Liège, Wallonie, Belgique","Country":"BEL","State":"Wallonie","County":"Liège","City":"Liège","District":"Chênée","PostalCode":"4032","AdditionalData":[{"value":"Belgique","key":"CountryName"},{"value":"Wallonie","key":"StateName"},{"value":"Liège","key":"CountyName"}]},"MapReference":{"ReferenceId":"53819700","SideOfStreet":"neither","CountryId":"20128886","StateId":"20205526","CountyId":"20206134","CityId":"20206322","DistrictId":"20206324"}}},{"Relevance":1.0,"Distance":3.5,"MatchLevel":"houseNumber","MatchQuality":{"Country":1.0,"State":1.0,"County":1.0,"City":1.0,"District":1.0,"Street":[1.0],"HouseNumber":1.0,"PostalCode":1.0},"MatchType":"interpolated","Location":{"LocationId":"NT_qxYU.IJVUFOQsk8V7NV2kB_xMD","LocationType":"point","DisplayPosition":{"Latitude":50.6128,"Longitude":5.61448},"MapView":{"TopLeft":{"Latitude":50.6139242,"Longitude":5.6127084},"BottomRight":{"Latitude":50.6116758,"Longitude":5.6162516}},"Address":{"Label":"Rue Neuve 13, 4032 Liège, Belgique","Country":"BEL","State":"Wallonie","County":"Liège","City":"Liège","District":"Chênée","Street":"Rue Neuve","HouseNumber":"13","PostalCode":"4032","AdditionalData":[{"value":"Belgique","key":"CountryName"},{"value":"Wallonie","key":"StateName"},{"value":"Liège","key":"CountyName"}]},"MapReference":{"ReferenceId":"851998984","Spot":0.67,"SideOfStreet":"left","CountryId":"20128886","StateId":"20205526","CountyId":"20206134","CityId":"20206322","DistrictId":"20206324","AddressId":"368502423","RoadLinkId":"231405544"}}},{"Relevance":1.0,"Distance":32.9,"MatchLevel":"houseNumber","MatchQuality":{"Country":1.0,"State":1.0,"County":1.0,"City":1.0,"District":1.0,"Street":[1.0],"HouseNumber":1.0,"PostalCode":1.0},"MatchType":"interpolated","Location":{"LocationId":"NT_qxYU.IJVUFOQsk8V7NV2kB_yED","LocationType":"point","DisplayPosition":{"Latitude":50.61304,"Longitude":5.6147},"MapView":{"TopLeft":{"Latitude":50.6141642,"Longitude":5.6129284},"BottomRight":{"Latitude":50.6119158,"Longitude":5.6164716}},"Address":{"Label":"Rue Neuve 21, 4032 Liège, Belgique","Country":"BEL","State":"Wallonie","County":"Liège","City":"Liège","District":"Chênée","Street":"Rue Neuve","HouseNumber":"21","PostalCode":"4032","AdditionalData":[{"value":"Belgique","key":"CountryName"},{"value":"Wallonie","key":"StateName"},{"value":"Liège","key":"CountyName"}]},"MapReference":{"ReferenceId":"851998985","Spot":0.02,"SideOfStreet":"left","CountryId":"20128886","StateId":"20205526","CountyId":"20206134","CityId":"20206322","DistrictId":"20206324","AddressId":"368700786","RoadLinkId":"231405545"}}},{"Relevance":1.0,"Distance":42.4,"MatchLevel":"houseNumber","MatchQuality":{"Country":1.0,"State":1.0,"County":1.0,"City":1.0,"District":1.0,"Street":[1.0],"HouseNumber":1.0,"PostalCode":1.0},"MatchType":"interpolated","Location":{"LocationId":"NT_Oteu3yJBdO6KoFkA1p8C.D_yA","LocationType":"point","DisplayPosition":{"Latitude":50.6125,"Longitude":5.61392},"MapView":{"TopLeft":{"Latitude":50.6136242,"Longitude":5.6121485},"BottomRight":{"Latitude":50.6113758,"Longitude":5.6156915}},"Address":{"Label":"Rue du Confluent 2, 4032 Liège, Belgique","Country":"BEL","State":"Wallonie","County":"Liège","City":"Liège","District":"Chênée","Street":"Rue du Confluent","HouseNumber":"2","PostalCode":"4032","AdditionalData":[{"value":"Belgique","key":"CountryName"},{"value":"Wallonie","key":"StateName"},{"value":"Liège","key":"CountyName"}]},"MapReference":{"ReferenceId":"53819687","Spot":0.09,"SideOfStreet":"right","CountryId":"20128886","StateId":"20205526","CountyId":"20206134","CityId":"20206322","DistrictId":"20206324","AddressId":"809219220","RoadLinkId":"30447387"}}},{"Relevance":1.0,"Distance":60.3,"MatchLevel":"street","MatchQuality":{"Country":1.0,"State":1.0,"County":1.0,"City":1.0,"District":1.0,"Street":[1.0],"PostalCode":1.0},"Location":{"LocationId":"NT_qxYU.IJVUFOQsk8V7NV2kB_l_544955512_L","LocationType":"point","DisplayPosition":{"Latitude":50.61232,"Longitude":5.61407},"MapView":{"TopLeft":{"Latitude":50.61232,"Longitude":5.61373},"BottomRight":{"Latitude":50.6121,"Longitude":5.61407}},"Address":{"Label":"Rue Neuve, 4032 Liège, Belgique","Country":"BEL","State":"Wallonie","County":"Liège","City":"Liège","District":"Chênée","Street":"Rue Neuve","PostalCode":"4032","AdditionalData":[{"value":"Belgique","key":"CountryName"},{"value":"Wallonie","key":"StateName"},{"value":"Liège","key":"CountyName"}]},"MapReference":{"ReferenceId":"544955512","Spot":1.0,"SideOfStreet":"left","CountryId":"20128886","StateId":"20205526","CountyId":"20206134","CityId":"20206322","DistrictId":"20206324"}}},{"Relevance":1.0,"Distance":60.5,"MatchLevel":"houseNumber","MatchQuality":{"Country":1.0,"State":1.0,"County":1.0,"City":1.0,"District":1.0,"Street":[1.0],"HouseNumber":1.0,"PostalCode":1.0},"MatchType":"interpolated","Location":{"LocationId":"NT_qxYU.IJVUFOQsk8V7NV2kB_yA","LocationType":"point","DisplayPosition":{"Latitude":50.61232,"Longitude":5.61407},"MapView":{"TopLeft":{"Latitude":50.6134442,"Longitude":5.6122985},"BottomRight":{"Latitude":50.6111958,"Longitude":5.6158415}},"Address":{"Label":"Rue Neuve 2, 4032 Liège, Belgique","Country":"BEL","State":"Wallonie","County":"Liège","City":"Liège","District":"Chênée","Street":"Rue Neuve","HouseNumber":"2","PostalCode":"4032","AdditionalData":[{"value":"Belgique","key":"CountryName"},{"value":"Wallonie","key":"StateName"},{"value":"Liège","key":"CountyName"}]},"MapReference":{"ReferenceId":"544955513","Spot":0.0,"SideOfStreet":"right","CountryId":"20128886","StateId":"20205526","CountyId":"20206134","CityId":"20206322","DistrictId":"20206324","AddressId":"368671222","RoadLinkId":"30533796"}}},{"Relevance":1.0,"Distance":61.9,"MatchLevel":"houseNumber","MatchQuality":{"Country":1.0,"State":1.0,"County":1.0,"City":1.0,"District":1.0,"Street":[1.0],"HouseNumber":1.0,"PostalCode":1.0},"MatchType":"interpolated","Location":{"LocationId":"NT_QURhXMeRYlvO8MwTPiqBSB_yA","LocationType":"point","DisplayPosition":{"Latitude":50.61219,"Longitude":5.61356},"MapView":{"TopLeft":{"Latitude":50.6133142,"Longitude":5.6117885},"BottomRight":{"Latitude":50.6110658,"Longitude":5.6153315}},"Address":{"Label":"Quai des Ardennes 2, 4032 Liège, Belgique","Country":"BEL","State":"Wallonie","County":"Liège","City":"Liège","District":"Chênée","Street":"Quai des Ardennes","HouseNumber":"2","PostalCode":"4032","AdditionalData":[{"value":"Belgique","key":"CountryName"},{"value":"Wallonie","key":"StateName"},{"value":"Liège","key":"CountyName"}]},"MapReference":{"ReferenceId":"1136753376","Spot":0.31,"SideOfStreet":"right","CountryId":"20128886","StateId":"20205526","CountyId":"20206134","CityId":"20206322","DistrictId":"20206324","AddressId":"809282704","RoadLinkId":"445480388"}}},{"Relevance":1.0,"Distance":73.0,"MatchLevel":"houseNumber","MatchQuality":{"Country":1.0,"State":1.0,"County":1.0,"City":1.0,"District":1.0,"Street":[1.0],"HouseNumber":1.0,"PostalCode":1.0},"MatchType":"interpolated","Location":{"LocationId":"NT_dMcMf1OTBMVsgVkwUDi5yB_xYD","LocationType":"point","DisplayPosition":{"Latitude":50.61214,"Longitude":5.61412},"MapView":{"TopLeft":{"Latitude":50.6132642,"Longitude":5.6123485},"BottomRight":{"Latitude":50.6110158,"Longitude":5.6158915}},"Address":{"Label":"Place Joseph Willem 16, 4032 Liège, Belgique","Country":"BEL","State":"Wallonie","County":"Liège","City":"Liège","District":"Chênée","Street":"Place Joseph Willem","HouseNumber":"16","PostalCode":"4032","AdditionalData":[{"value":"Belgique","key":"CountryName"},{"value":"Wallonie","key":"StateName"},{"value":"Liège","key":"CountyName"}]},"MapReference":{"ReferenceId":"544955517","Spot":0.45,"SideOfStreet":"right","CountryId":"20128886","StateId":"20205526","CountyId":"20206134","CityId":"20206322","DistrictId":"20206324","AddressId":"368733520","RoadLinkId":"30962751"}}},{"Relevance":1.0,"Distance":78.8,"MatchLevel":"houseNumber","MatchQuality":{"Country":1.0,"State":1.0,"County":1.0,"City":1.0,"District":1.0,"Street":[1.0],"HouseNumber":1.0,"PostalCode":1.0},"MatchType":"interpolated","Location":{"LocationId":"NT_PIeWpePL1F-fEg-PAMRvfC_l_544955507_R_xcDO","LocationType":"point","DisplayPosition":{"Latitude":50.612096,"Longitude":5.6137371},"MapView":{"TopLeft":{"Latitude":50.6132202,"Longitude":5.6119656},"BottomRight":{"Latitude":50.6109719,"Longitude":5.6155087}},"Address":{"Label":"Quai des Ardennes 178, 4032 Liège, Belgique","Country":"BEL","State":"Wallonie","County":"Liège","City":"Liège","District":"Chênée","Street":"Quai des Ardennes","HouseNumber":"178","PostalCode":"4032","AdditionalData":[{"value":"Belgique","key":"CountryName"},{"value":"Wallonie","key":"StateName"},{"value":"Liège","key":"CountyName"}]},"MapReference":{"ReferenceId":"544955507","Spot":0.95,"SideOfStreet":"right","CountryId":"20128886","StateId":"20205526","CountyId":"20206134","CityId":"20206322","DistrictId":"20206324"}}},{"Relevance":1.0,"Distance":85.9,"MatchLevel":"houseNumber","MatchQuality":{"Country":1.0,"State":1.0,"County":1.0,"City":1.0,"District":1.0,"Street":[1.0],"HouseNumber":1.0,"PostalCode":1.0},"MatchType":"interpolated","Location":{"LocationId":"NT_dMcMf1OTBMVsgVkwUDi5yB_xID","LocationType":"point","DisplayPosition":{"Latitude":50.61199,"Longitude":5.61419},"MapView":{"TopLeft":{"Latitude":50.6131142,"Longitude":5.6124185},"BottomRight":{"Latitude":50.6108658,"Longitude":5.6159615}},"Address":{"Label":"Place Joseph Willem 12, 4032 Liège, Belgique","Country":"BEL","State":"Wallonie","County":"Liège","City":"Liège","District":"Chênée","Street":"Place Joseph Willem","HouseNumber":"12","PostalCode":"4032","AdditionalData":[{"value":"Belgique","key":"CountryName"},{"value":"Wallonie","key":"StateName"},{"value":"Liège","key":"CountyName"}]},"MapReference":{"ReferenceId":"544955516","Spot":0.95,"SideOfStreet":"right","CountryId":"20128886","StateId":"20205526","CountyId":"20206134","CityId":"20206322","DistrictId":"20206324","AddressId":"368609721","RoadLinkId":"30490036"}}}]}]}}