{"Response":{"MetaInfo":{"Timestamp":"2020-03-28T10:56:10.979+0000","NextPageInformation":"2"},"View":[{"_type":"SearchResultsViewType","ViewId":0,"Result":[{"Relevance":1.0,"Distance":0.0,"Direction":0.0,"MatchLevel":"district","MatchQuality":{"Country":1.0,"State":1.0,"County":1.0,"City":1.0,"District":1.0,"PostalCode":1.0},"Location":{"LocationId":"NT_.x-avkmY15KyofY8E3c6jA","LocationType":"point","DisplayPosition":{"Latitude":50.6760472,"Longitude":11.2660661},"MapView":{"TopLeft":{"Latitude":50.69066,"Longitude":11.24976},"BottomRight":{"Latitude":50.67213,"Longitude":11.29228}},"Address":{"Label":"Bad Blankenburg, Thüringen, Deutschland","Country":"DEU","State":"Thüringen","County":"Saalfeld-Rudolstadt","City":"Bad Blankenburg","District":"Bad Blankenburg","PostalCode":"07422","AdditionalData":[{"value":"Deutschland","key":"CountryName"},{"value":"Thüringen","key":"StateName"},{"value":"Saalfeld-Rudolstadt","key":"CountyName"}]},"MapReference":{"ReferenceId":"543976130","SideOfStreet":"neither","CountryId":"20147700","StateId":"20196974","CountyId":"20198719","CityId":"20198731","DistrictId":"20198733"}}},{"Relevance":1.0,"Distance":20.3,"MatchLevel":"landmark","MatchQuality":{"Country":1.0,"State":1.0,"County":1.0,"Name":1.0},"Location":{"LocationId":"NT_V1gi6CbFQ07p9A76uIrRIC","LocationType":"woodland","Name":"Thüringer Wald","DisplayPosition":{"Latitude":50.63585,"Longitude":11.29988},"MapView":{"TopLeft":{"Latitude":50.69159,"Longitude":11.12561},"BottomRight":{"Latitude":50.5801,"Longitude":11.35617}},"Address":{"Label":"Deutschland","Country":"DEU","State":"Thüringen","County":"Saalfeld-Rudolstadt","AdditionalData":[{"value":"Deutschland","key":"CountryName"},{"value":"Thüringen","key":"StateName"},{"value":"Saalfeld-Rudolstadt","key":"CountyName"}]},"MapReference":{"CountryId":"20147700","StateId":"20196974","CountyId":"20198719","PlaceId":"69494377"}}},{"Relevance":1.0,"Distance":32.3,"MatchLevel":"houseNumber","MatchQuality":{"Country":1.0,"State":1.0,"County":1.0,"City":1.0,"District":1.0,"Street":[1.0],"HouseNumber":1.0,"PostalCode":1.0},"MatchType":"interpolated","Location":{"LocationId":"NT_69wtsGr2PLLELrIxyDdRNC_0AD","LocationType":"point","DisplayPosition":{"Latitude":50.67554,"Longitude":11.2661},"MapView":{"TopLeft":{"Latitude":50.6766642,"Longitude":11.2643261},"BottomRight":{"Latitude":50.6744158,"Longitude":11.2678739}},"Address":{"Label":"Georgstraße 40, 07422 Bad Blankenburg, Deutschland","Country":"DEU","State":"Thüringen","County":"Saalfeld-Rudolstadt","City":"Bad Blankenburg","District":"Bad Blankenburg","Street":"Georgstraße","HouseNumber":"40","PostalCode":"07422","AdditionalData":[{"value":"Deutschland","key":"CountryName"},{"value":"Thüringen","key":"StateName"},{"value":"Saalfeld-Rudolstadt","key":"CountyName"}]},"MapReference":{"ReferenceId":"543976601","Spot":1.0,"SideOfStreet":"right","CountryId":"20147700","StateId":"20196974","CountyId":"20198719","CityId":"20198731","DistrictId":"20198733","AddressId":"208905223","RoadLinkId":"39548093"}}},{"Relevance":1.0,"Distance":54.1,"MatchLevel":"houseNumber","MatchQuality":{"Country":1.0,"State":1.0,"County":1.0,"City":1.0,"District":1.0,"Street":[1.0],"HouseNumber":1.0,"PostalCode":1.0},"MatchType":"interpolated","Location":{"LocationId":"NT_69wtsGr2PLLELrIxyDdRNC_zYjQ","LocationType":"point","DisplayPosition":{"Latitude":50.67622,"Longitude":11.2673},"MapView":{"TopLeft":{"Latitude":50.6773442,"Longitude":11.2655261},"BottomRight":{"Latitude":50.6750958,"Longitude":11.2690739}},"Address":{"Label":"Georgstraße 36B, 07422 Bad Blankenburg, Deutschland","Country":"DEU","State":"Thüringen","County":"Saalfeld-Rudolstadt","City":"Bad Blankenburg","District":"Bad Blankenburg","Street":"Georgstraße","HouseNumber":"36B","PostalCode":"07422","AdditionalData":[{"value":"Deutschland","key":"CountryName"},{"value":"Thüringen","key":"StateName"},{"value":"Saalfeld-Rudolstadt","key":"CountyName"}]},"MapReference":{"ReferenceId":"543976618","Spot":0.58,"SideOfStreet":"left","CountryId":"20147700","StateId":"20196974","CountyId":"20198719","CityId":"20198731","DistrictId":"20198733","AddressId":"208903625","RoadLinkId":"40063780"}}},{"Relevance":1.0,"Distance":66.4,"MatchLevel":"houseNumber","MatchQuality":{"Country":1.0,"State":1.0,"County":1.0,"City":1.0,"District":1.0,"Street":[1.0],"HouseNumber":1.0,"PostalCode":1.0},"MatchType":"interpolated","Location":{"LocationId":"NT_8biU2eoWRZOaR1.sLpxYsC_xUD","LocationType":"point","DisplayPosition":{"Latitude":50.67664,"Longitude":11.26595},"MapView":{"TopLeft":{"Latitude":50.6777642,"Longitude":11.264176},"BottomRight":{"Latitude":50.6755158,"Longitude":11.267724}},"Address":{"Label":"Goetheweg 15, 07422 Bad Blankenburg, Deutschland","Country":"DEU","State":"Thüringen","County":"Saalfeld-Rudolstadt","City":"Bad Blankenburg","District":"Bad Blankenburg","Street":"Goetheweg","HouseNumber":"15","PostalCode":"07422","AdditionalData":[{"value":"Deutschland","key":"CountryName"},{"value":"Thüringen","key":"StateName"},{"value":"Saalfeld-Rudolstadt","key":"CountyName"}]},"MapReference":{"ReferenceId":"543976602","Spot":0.3,"SideOfStreet":"left","CountryId":"20147700","StateId":"20196974","CountyId":"20198719","CityId":"20198731","DistrictId":"20198733","AddressId":"189655766","RoadLinkId":"39942386"}}},{"Relevance":1.0,"Distance":89.8,"MatchLevel":"houseNumber","MatchQuality":{"Country":1.0,"State":1.0,"County":1.0,"City":1.0,"District":1.0,"Street":[1.0],"HouseNumber":1.0,"PostalCode":1.0},"MatchType":"interpolated","Location":{"LocationId":"NT_8biU2eoWRZOaR1.sLpxYsC_xQTQ","LocationType":"point","DisplayPosition":{"Latitude":50.67696,"Longitude":11.26566},"MapView":{"TopLeft":{"Latitude":50.6780842,"Longitude":11.263886},"BottomRight":{"Latitude":50.6758358,"Longitude":11.267434}},"Address":{"Label":"Goetheweg 14A, 07422 Bad Blankenburg, Deutschland","Country":"DEU","State":"Thüringen","County":"Saalfeld-Rudolstadt","City":"Bad Blankenburg","District":"Bad Blankenburg","Street":"Goetheweg","HouseNumber":"14A","PostalCode":"07422","AdditionalData":[{"value":"Deutschland","key":"CountryName"},{"value":"Thüringen","key":"StateName"},{"value":"Saalfeld-Rudolstadt","key":"CountyName"}]},"MapReference":{"ReferenceId":"543976608","Spot":0.26,"SideOfStreet":"right","CountryId":"20147700","StateId":"20196974","CountyId":"20198719","CityId":"20198731","DistrictId":"20198733","AddressId":"189655767","RoadLinkId":"453110170"}}},{"Relevance":1.0,"Distance":103.3,"MatchLevel":"houseNumber","MatchQuality":{"Country":1.0,"State":1.0,"County":1.0,"City":1.0,"District":1.0,"Street":[1.0],"HouseNumber":1.0,"PostalCode":1.0},"MatchType":"interpolated","Location":{"LocationId":"NT_8biU2eoWRZOaR1.sLpxYsC_xITQ","LocationType":"point","DisplayPosition":{"Latitude":50.67701,"Longitude":11.26588},"MapView":{"TopLeft":{"Latitude":50.6781342,"Longitude":11.264106},"BottomRight":{"Latitude":50.6758858,"Longitude":11.267654}},"Address":{"Label":"Goetheweg 12A, 07422 Bad Blankenburg, Deutschland","Country":"DEU","State":"Thüringen","County":"Saalfeld-Rudolstadt","City":"Bad Blankenburg","District":"Bad Blankenburg","Street":"Goetheweg","HouseNumber":"12A","PostalCode":"07422","AdditionalData":[{"value":"Deutschland","key":"CountryName"},{"value":"Thüringen","key":"StateName"},{"value":"Saalfeld-Rudolstadt","key":"CountyName"}]},"MapReference":{"ReferenceId":"543976603","Spot":0.2,"SideOfStreet":"right","CountryId":"20147700","StateId":"20196974","CountyId":"20198719","CityId":"20198731","DistrictId":"20198733","AddressId":"189256161","RoadLinkId":"39999776"}}},{"Relevance":1.0,"Distance":106.1,"MatchLevel":"houseNumber","MatchQuality":{"Country":1.0,"State":1.0,"County":1.0,"City":1.0,"Street":[1.0],"HouseNumber":1.0,"PostalCode":1.0},"MatchType":"interpolated","Location":{"LocationId":"NT_qHUBOBPk8hhSK8JRdTSYLC_xID","LocationType":"point","DisplayPosition":{"Latitude":50.67695,"Longitude":11.26558},"MapView":{"TopLeft":{"Latitude":50.6780742,"Longitude":11.263806},"BottomRight":{"Latitude":50.6758258,"Longitude":11.267354}},"Address":{"Label":"Goetheweg 12, 07422 Bad Blankenburg, Deutschland","Country":"DEU","State":"Thüringen","County":"Saalfeld-Rudolstadt","City":"Bad Blankenburg","Street":"Goetheweg","HouseNumber":"12","PostalCode":"07422","AdditionalData":[{"value":"Deutschland","key":"CountryName"},{"value":"Thüringen","key":"StateName"},{"value":"Saalfeld-Rudolstadt","key":"CountyName"}]},"MapReference":{"ReferenceId":"543976605","Spot":1.0,"SideOfStreet":"left","CountryId":"20147700","StateId":"20196974","CountyId":"20198719","CityId":"20198731","AddressId":"189665558","RoadLinkId":"453110171"}}},{"Relevance":1.0,"Distance":122.1,"MatchLevel":"houseNumber","MatchQuality":{"Country":1.0,"State":1.0,"County":1.0,"City":1.0,"District":1.0,"Street":[1.0],"HouseNumber":1.0,"PostalCode":1.0},"MatchType":"interpolated","Location":{"LocationId":"NT_1i0cIgsna4AJTPRI5hC1WD_xYD","LocationType":"point","DisplayPosition":{"Latitude":50.67711,"Longitude":11.2665},"MapView":{"TopLeft":{"Latitude":50.6782342,"Longitude":11.264726},"BottomRight":{"Latitude":50.6759858,"Longitude":11.268274}},"Address":{"Label":"Heinrich-Heine-Straße 16, 07422 Bad Blankenburg, Deutschland","Country":"DEU","State":"Thüringen","County":"Saalfeld-Rudolstadt","City":"Bad Blankenburg","District":"Bad Blankenburg","Street":"Heinrich-Heine-Straße","HouseNumber":"16","PostalCode":"07422","AdditionalData":[{"value":"Deutschland","key":"CountryName"},{"value":"Thüringen","key":"StateName"},{"value":"Saalfeld-Rudolstadt","key":"CountyName"}]},"MapReference":{"ReferenceId":"543976607","Spot":0.61,"SideOfStreet":"right","CountryId":"20147700","StateId":"20196974","CountyId":"20198719","CityId":"20198731","DistrictId":"20198733","AddressId":"189409639","RoadLinkId":"40024498"}}},{"Relevance":1.0,"Distance":141.5,"MatchLevel":"houseNumber","MatchQuality":{"Country":1.0,"State":1.0,"County":1.0,"City":1.0,"District":1.0,"Street":[1.0],"HouseNumber":1.0,"PostalCode":1.0},"MatchType":"interpolated","Location":{"LocationId":"NT_8biU2eoWRZOaR1.sLpxYsC_xYD","LocationType":"point","DisplayPosition":{"Latitude":50.67731,"Longitude":11.26584},"MapView":{"TopLeft":{"Latitude":50.6784342,"Longitude":11.264066},"BottomRight":{"Latitude":50.6761858,"Longitude":11.267614}},"Address":{"Label":"Goetheweg 16, 07422 Bad Blankenburg, Deutschland","Country":"DEU","State":"Thüringen","County":"Saalfeld-Rudolstadt","City":"Bad Blankenburg","District":"Bad Blankenburg","Street":"Goetheweg","HouseNumber":"16","PostalCode":"07422","AdditionalData":[{"value":"Deutschland","key":"CountryName"},{"value":"Thüringen","key":"StateName"},{"value":"Saalfeld-Rudolstadt","key":"CountyName"}]},"MapReference":{"ReferenceId":"1234694332","Spot":0.2,"SideOfStreet":"right","CountryId":"20147700","StateId":"20196974","CountyId":"20198719","CityId":"20198731","DistrictId":"20198733","AddressId":"189234391","RoadLinkId":"555108435"}}}]}]}}