{"Response":{"MetaInfo":{"Timestamp":"2020-03-28T10:54:28.177+0000","NextPageInformation":"2"},"View":[{"_type":"SearchResultsViewType","ViewId":0,"Result":[{"Relevance":1.0,"Distance":0.0,"Direction":0.0,"MatchLevel":"district","MatchQuality":{"Country":1.0,"State":1.0,"County":1.0,"City":1.0,"District":1.0,"PostalCode":1.0},"Location":{"LocationId":"NT_.f0XAyYwvXbH3RYTozPlRD","LocationType":"point","DisplayPosition":{"Latitude":50.6828414,"Longitude":15.4031923},"MapView":{"TopLeft":{"Latitude":50.69017,"Longitude":15.39237},"BottomRight":{"Latitude":50.67725,"Longitude":15.41077}},"Address":{"Label":"Vysoké nad Jizerou, Liberecký kraj, Česká Republika","Country":"CZE","State":"Liberecký kraj","County":"Semily","City":"Vysoké nad Jizerou","District":"Vysoké nad Jizerou","PostalCode":"512 11","AdditionalData":[{"value":"Česká Republika","key":"CountryName"},{"value":"Liberecký kraj","key":"StateName"},{"value":"Semily","key":"CountyName"}]},"MapReference":{"ReferenceId":"1045963223","SideOfStreet":"neither","CountryId":"20427915","StateId":"20437007","CountyId":"20437464","CityId":"20437651","DistrictId":"20437652"}}},{"Relevance":1.0,"Distance":5.7,"MatchLevel":"street","MatchQuality":{"Country":1.0,"State":1.0,"County":1.0,"City":1.0,"District":1.0,"Street":[1.0],"PostalCode":1.0},"Location":{"LocationId":"NT_H35FBPrBz1eyv4qa.aYz2D_l_749426380_R","LocationType":"point","DisplayPosition":{"Latitude":50.68279,"Longitude":15.40319},"MapView":{"TopLeft":{"Latitude":50.68279,"Longitude":15.40319},"BottomRight":{"Latitude":50.68269,"Longitude":15.40329}},"Address":{"Label":"Dr. Karla Farského, 512 11 Vysoké nad Jizerou, Česká Republika","Country":"CZE","State":"Liberecký kraj","County":"Semily","City":"Vysoké nad Jizerou","District":"Vysoké nad Jizerou","Street":"Dr. Karla Farského","PostalCode":"512 11","AdditionalData":[{"value":"Česká Republika","key":"CountryName"},{"value":"Liberecký kraj","key":"StateName"},{"value":"Semily","key":"CountyName"}]},"MapReference":{"ReferenceId":"749426380","Spot":1.0,"SideOfStreet":"right","CountryId":"20427915","StateId":"20437007","CountyId":"20437464","CityId":"20437651","DistrictId":"20437652"}}},{"Relevance":1.0,"Distance":20.4,"MatchLevel":"houseNumber","MatchQuality":{"Country":1.0,"State":1.0,"County":1.0,"City":1.0,"District":1.0,"Street":[1.0],"HouseNumber":1.0,"PostalCode":1.0},"MatchType":"interpolated","Location":{"LocationId":"NT_H35FBPrBz1eyv4qa.aYz2D_zAzM","LocationType":"point","DisplayPosition":{"Latitude":50.68272,"Longitude":15.40341},"MapView":{"TopLeft":{"Latitude":50.6838442,"Longitude":15.4016358},"BottomRight":{"Latitude":50.6815958,"Longitude":15.4051842}},"Address":{"Label":"Dr. Karla Farského 303, 512 11 Vysoké nad Jizerou, Česká Republika","Country":"CZE","State":"Liberecký kraj","County":"Semily","City":"Vysoké nad Jizerou","District":"Vysoké nad Jizerou","Street":"Dr. Karla Farského","HouseNumber":"303","PostalCode":"512 11","AdditionalData":[{"value":"Česká Republika","key":"CountryName"},{"value":"Liberecký kraj","key":"StateName"},{"value":"Semily","key":"CountyName"}]},"MapReference":{"ReferenceId":"705824379","Spot":0.91,"SideOfStreet":"right","CountryId":"20427915","StateId":"20437007","CountyId":"20437464","CityId":"20437651","DistrictId":"20437652","AddressId":"239997205","RoadLinkId":"145928740"}}},{"Relevance":1.0,"Distance":23.6,"MatchLevel":"houseNumber","MatchQuality":{"Country":1.0,"State":1.0,"County":1.0,"City":1.0,"District":1.0,"Street":[1.0],"HouseNumber":1.0,"PostalCode":1.0},"MatchType":"interpolated","Location":{"LocationId":"NT_H35FBPrBz1eyv4qa.aYz2D_5kD","LocationType":"point","DisplayPosition":{"Latitude":50.68271,"Longitude":15.40293},"MapView":{"TopLeft":{"Latitude":50.6838342,"Longitude":15.4011558},"BottomRight":{"Latitude":50.6815858,"Longitude":15.4047042}},"Address":{"Label":"Dr. Karla Farského 99, 512 11 Vysoké nad Jizerou, Česká Republika","Country":"CZE","State":"Liberecký kraj","County":"Semily","City":"Vysoké nad Jizerou","District":"Vysoké nad Jizerou","Street":"Dr. Karla Farského","HouseNumber":"99","PostalCode":"512 11","AdditionalData":[{"value":"Česká Republika","key":"CountryName"},{"value":"Liberecký kraj","key":"StateName"},{"value":"Semily","key":"CountyName"}]},"MapReference":{"ReferenceId":"749426381","Spot":0.27,"SideOfStreet":"left","CountryId":"20427915","StateId":"20437007","CountyId":"20437464","CityId":"20437651","DistrictId":"20437652","AddressId":"240028837","RoadLinkId":"145928630"}}},{"Relevance":1.0,"Distance":24.4,"MatchLevel":"houseNumber","MatchQuality":{"Country":1.0,"State":1.0,"County":1.0,"City":1.0,"District":1.0,"Street":[1.0],"HouseNumber":1.0,"PostalCode":1.0},"MatchType":"interpolated","Location":{"LocationId":"NT_H35FBPrBz1eyv4qa.aYz2D_ygjM","LocationType":"point","DisplayPosition":{"Latitude":50.68303,"Longitude":15.40301},"MapView":{"TopLeft":{"Latitude":50.6841542,"Longitude":15.4012358},"BottomRight":{"Latitude":50.6819058,"Longitude":15.4047842}},"Address":{"Label":"Dr. Karla Farského 282, 512 11 Vysoké nad Jizerou, Česká Republika","Country":"CZE","State":"Liberecký kraj","County":"Semily","City":"Vysoké nad Jizerou","District":"Vysoké nad Jizerou","Street":"Dr. Karla Farského","HouseNumber":"282","PostalCode":"512 11","AdditionalData":[{"value":"Česká Republika","key":"CountryName"},{"value":"Liberecký kraj","key":"StateName"},{"value":"Semily","key":"CountyName"}]},"MapReference":{"ReferenceId":"705822435","Spot":0.41,"SideOfStreet":"right","CountryId":"20427915","StateId":"20437007","CountyId":"20437464","CityId":"20437651","DistrictId":"20437652","AddressId":"240776819","RoadLinkId":"145928714"}}},{"Relevance":1.0,"Distance":57.0,"MatchLevel":"houseNumber","MatchQuality":{"Country":1.0,"State":1.0,"County":1.0,"City":1.0,"District":1.0,"Street":[1.0],"HouseNumber":1.0,"PostalCode":1.0},"MatchType":"interpolated","Location":{"LocationId":"NT_H35FBPrBz1eyv4qa.aYz2D_ycDM","LocationType":"point","DisplayPosition":{"Latitude":50.68241,"Longitude":15.40363},"MapView":{"TopLeft":{"Latitude":50.6835342,"Longitude":15.4018558},"BottomRight":{"Latitude":50.6812858,"Longitude":15.4054042}},"Address":{"Label":"Dr. Karla Farského 270, 512 11 Vysoké nad Jizerou, Česká Republika","Country":"CZE","State":"Liberecký kraj","County":"Semily","City":"Vysoké nad Jizerou","District":"Vysoké nad Jizerou","Street":"Dr. Karla Farského","HouseNumber":"270","PostalCode":"512 11","AdditionalData":[{"value":"Česká Republika","key":"CountryName"},{"value":"Liberecký kraj","key":"StateName"},{"value":"Semily","key":"CountyName"}]},"MapReference":{"ReferenceId":"1046084765","Spot":0.7,"SideOfStreet":"left","CountryId":"20427915","StateId":"20437007","CountyId":"20437464","CityId":"20437651","DistrictId":"20437652","AddressId":"241237390","RoadLinkId":"366119644"}}},{"Relevance":1.0,"Distance":79.5,"MatchLevel":"houseNumber","MatchQuality":{"Country":1.0,"State":1.0,"County":1.0,"City":1.0,"District":1.0,"Street":[1.0],"HouseNumber":1.0,"PostalCode":1.0},"MatchType":"interpolated","Location":{"LocationId":"NT_AYKloRD9sxxAjh7IzVtrrB_ykTN","LocationType":"point","DisplayPosition":{"Latitude":50.68332,"Longitude":15.40226},"MapView":{"TopLeft":{"Latitude":50.6844442,"Longitude":15.4004858},"BottomRight":{"Latitude":50.6821958,"Longitude":15.4040342}},"Address":{"Label":"Tyršova 295, 512 11 Vysoké nad Jizerou, Česká Republika","Country":"CZE","State":"Liberecký kraj","County":"Semily","City":"Vysoké nad Jizerou","District":"Vysoké nad Jizerou","Street":"Tyršova","HouseNumber":"295","PostalCode":"512 11","AdditionalData":[{"value":"Česká Republika","key":"CountryName"},{"value":"Liberecký kraj","key":"StateName"},{"value":"Semily","key":"CountyName"}]},"MapReference":{"ReferenceId":"705826695","Spot":0.54,"SideOfStreet":"right","CountryId":"20427915","StateId":"20437007","CountyId":"20437464","CityId":"20437651","DistrictId":"20437652","AddressId":"240721795","RoadLinkId":"145928752"}}},{"Relevance":1.0,"Distance":88.5,"MatchLevel":"street","MatchQuality":{"Country":1.0,"State":1.0,"County":1.0,"City":1.0,"District":1.0,"Street":[1.0],"PostalCode":1.0},"Location":{"LocationId":"NT_q87HTZJ3HTNP5j-Vwdo4qD_l_705826697_R","LocationType":"point","DisplayPosition":{"Latitude":50.68278,"Longitude":15.40194},"MapView":{"TopLeft":{"Latitude":50.6833,"Longitude":15.40158},"BottomRight":{"Latitude":50.68278,"Longitude":15.40194}},"Address":{"Label":"Vysoké nad Jizerou, 512 11 Vysoké nad Jizerou, Česká Republika","Country":"CZE","State":"Liberecký kraj","County":"Semily","City":"Vysoké nad Jizerou","District":"Vysoké nad Jizerou","Street":"Vysoké nad Jizerou","PostalCode":"512 11","AdditionalData":[{"value":"Česká Republika","key":"CountryName"},{"value":"Liberecký kraj","key":"StateName"},{"value":"Semily","key":"CountyName"}]},"MapReference":{"ReferenceId":"705826697","Spot":0.0,"SideOfStreet":"right","CountryId":"20427915","StateId":"20437007","CountyId":"20437464","CityId":"20437651","DistrictId":"20437652"}}},{"Relevance":1.0,"Distance":90.7,"MatchLevel":"houseNumber","MatchQuality":{"Country":1.0,"State":1.0,"County":1.0,"City":1.0,"District":1.0,"Street":[1.0],"HouseNumber":1.0,"PostalCode":1.0},"MatchType":"interpolated","Location":{"LocationId":"NT_H35FBPrBz1eyv4qa.aYz2D_yUDN","LocationType":"point","DisplayPosition":{"Latitude":50.68363,"Longitude":15.40269},"MapView":{"TopLeft":{"Latitude":50.6847542,"Longitude":15.4009158},"BottomRight":{"Latitude":50.6825058,"Longitude":15.4044642}},"Address":{"Label":"Dr. Karla Farského 254, 512 11 Vysoké nad Jizerou, Česká Republika","Country":"CZE","State":"Liberecký kraj","County":"Semily","City":"Vysoké nad Jizerou","District":"Vysoké nad Jizerou","Street":"Dr. Karla Farského","HouseNumber":"254","PostalCode":"512 11","AdditionalData":[{"value":"Česká Republika","key":"CountryName"},{"value":"Liberecký kraj","key":"StateName"},{"value":"Semily","key":"CountyName"}]},"MapReference":{"ReferenceId":"705822441","Spot":0.29,"SideOfStreet":"right","CountryId":"20427915","StateId":"20437007","CountyId":"20437464","CityId":"20437651","DistrictId":"20437652","AddressId":"241330151","RoadLinkId":"111999580"}}},{"Relevance":1.0,"Distance":121.9,"MatchLevel":"street","MatchQuality":{"Country":1.0,"State":1.0,"County":1.0,"City":1.0,"District":1.0,"Street":[1.0],"PostalCode":1.0},"Location":{"LocationId":"NT_AYKloRD9sxxAjh7IzVtrrB_l_705826694_L","LocationType":"point","DisplayPosition":{"Latitude":50.6833,"Longitude":15.40162},"MapView":{"TopLeft":{"Latitude":50.68333,"Longitude":15.40145},"BottomRight":{"Latitude":50.6833,"Longitude":15.40162}},"Address":{"Label":"Tyršova, 512 11 Vysoké nad Jizerou, Česká Republika","Country":"CZE","State":"Liberecký kraj","County":"Semily","City":"Vysoké nad Jizerou","District":"Vysoké nad Jizerou","Street":"Tyršova","PostalCode":"512 11","AdditionalData":[{"value":"Česká Republika","key":"CountryName"},{"value":"Liberecký kraj","key":"StateName"},{"value":"Semily","key":"CountyName"}]},"MapReference":{"ReferenceId":"705826694","Spot":0.0,"SideOfStreet":"left","CountryId":"20427915","StateId":"20437007","CountyId":"20437464","CityId":"20437651","DistrictId":"20437652"}}}]}]}}