{"Response":{"MetaInfo":{"Timestamp":"2020-03-28T10:56:32.990+0000","NextPageInformation":"2"},"View":[{"_type":"SearchResultsViewType","ViewId":0,"Result":[{"Relevance":1.0,"Distance":0.0,"Direction":0.0,"MatchLevel":"district","MatchQuality":{"Country":1.0,"State":1.0,"County":1.0,"City":1.0,"District":1.0,"PostalCode":1.0},"Location":{"LocationId":"NT_CF9bGLC1.fsnscTbICtw8A","LocationType":"point","DisplayPosition":{"Latitude":50.6047808,"Longitude":6.3034287},"MapView":{"TopLeft":{"Latitude":50.61395,"Longitude":6.28549},"BottomRight":{"Latitude":50.59829,"Longitude":6.31535}},"Address":{"Label":"Simmerath, Nordrhein-Westfalen, Deutschland","Country":"DEU","State":"Nordrhein-Westfalen","County":"Aachen","City":"Simmerath","District":"Simmerath","PostalCode":"52152","AdditionalData":[{"value":"Deutschland","key":"CountryName"},{"value":"Nordrhein-Westfalen","key":"StateName"},{"value":"Aachen","key":"CountyName"}]},"MapReference":{"ReferenceId":"1048448772","SideOfStreet":"neither","CountryId":"20147700","StateId":"20157369","CountyId":"20158069","CityId":"20158126","DistrictId":"20158139"}}},{"Relevance":1.0,"Distance":7.1,"MatchLevel":"houseNumber","MatchQuality":{"Country":1.0,"State":1.0,"County":1.0,"City":1.0,"District":1.0,"Street":[1.0],"HouseNumber":1.0,"PostalCode":1.0},"MatchType":"interpolated","Location":{"LocationId":"NT_hroxbsYMFCXZhssWxTumkB_xgD","LocationType":"point","DisplayPosition":{"Latitude":50.60477,"Longitude":6.30354},"MapView":{"TopLeft":{"Latitude":50.6058942,"Longitude":6.3017688},"BottomRight":{"Latitude":50.6036458,"Longitude":6.3053112}},"Address":{"Label":"Kammerbruchstraße 18, 52152 Simmerath, Deutschland","Country":"DEU","State":"Nordrhein-Westfalen","County":"Aachen","City":"Simmerath","District":"Simmerath","Street":"Kammerbruchstraße","HouseNumber":"18","PostalCode":"52152","AdditionalData":[{"value":"Deutschland","key":"CountryName"},{"value":"Nordrhein-Westfalen","key":"StateName"},{"value":"Aachen","key":"CountyName"}]},"MapReference":{"ReferenceId":"1197262266","Spot":0.05,"SideOfStreet":"left","CountryId":"20147700","StateId":"20157369","CountyId":"20158069","CityId":"20158126","DistrictId":"20158139","AddressId":"193625825","RoadLinkId":"507990098"}}},{"Relevance":1.0,"Distance":39.0,"MatchLevel":"houseNumber","MatchQuality":{"Country":1.0,"State":1.0,"County":1.0,"City":1.0,"District":1.0,"Street":[1.0],"HouseNumber":1.0,"PostalCode":1.0},"MatchType":"interpolated","Location":{"LocationId":"NT_hroxbsYMFCXZhssWxTumkB_yAD","LocationType":"point","DisplayPosition":{"Latitude":50.60461,"Longitude":6.30386},"MapView":{"TopLeft":{"Latitude":50.6057342,"Longitude":6.3020888},"BottomRight":{"Latitude":50.6034858,"Longitude":6.3056312}},"Address":{"Label":"Kammerbruchstraße 20, 52152 Simmerath, Deutschland","Country":"DEU","State":"Nordrhein-Westfalen","County":"Aachen","City":"Simmerath","District":"Simmerath","Street":"Kammerbruchstraße","HouseNumber":"20","PostalCode":"52152","AdditionalData":[{"value":"Deutschland","key":"CountryName"},{"value":"Nordrhein-Westfalen","key":"StateName"},{"value":"Aachen","key":"CountyName"}]},"MapReference":{"ReferenceId":"1197262265","Spot":0.19,"SideOfStreet":"left","CountryId":"20147700","StateId":"20157369","CountyId":"20158069","CityId":"20158126","DistrictId":"20158139","AddressId":"193854157","RoadLinkId":"507990097"}}},{"Relevance":1.0,"Distance":54.0,"MatchLevel":"houseNumber","MatchQuality":{"Country":1.0,"State":1.0,"County":1.0,"City":1.0,"District":1.0,"Street":[1.0],"HouseNumber":1.0,"PostalCode":1.0},"MatchType":"interpolated","Location":{"LocationId":"NT_hroxbsYMFCXZhssWxTumkB_yID","LocationType":"point","DisplayPosition":{"Latitude":50.60456,"Longitude":6.30411},"MapView":{"TopLeft":{"Latitude":50.6056842,"Longitude":6.3023388},"BottomRight":{"Latitude":50.6034358,"Longitude":6.3058812}},"Address":{"Label":"Kammerbruchstraße 22, 52152 Simmerath, Deutschland","Country":"DEU","State":"Nordrhein-Westfalen","County":"Aachen","City":"Simmerath","District":"Simmerath","Street":"Kammerbruchstraße","HouseNumber":"22","PostalCode":"52152","AdditionalData":[{"value":"Deutschland","key":"CountryName"},{"value":"Nordrhein-Westfalen","key":"StateName"},{"value":"Aachen","key":"CountyName"}]},"MapReference":{"ReferenceId":"1197262261","Spot":0.05,"SideOfStreet":"left","CountryId":"20147700","StateId":"20157369","CountyId":"20158069","CityId":"20158126","DistrictId":"20158139","AddressId":"193037052","RoadLinkId":"507990089"}}},{"Relevance":1.0,"Distance":63.8,"MatchLevel":"houseNumber","MatchQuality":{"Country":1.0,"State":1.0,"County":1.0,"City":1.0,"District":1.0,"Street":[1.0],"HouseNumber":1.0,"PostalCode":1.0},"MatchType":"interpolated","Location":{"LocationId":"NT_mQcZ3xpbEt5LClj1hqwgFD_yA","LocationType":"point","DisplayPosition":{"Latitude":50.60423,"Longitude":6.30368},"MapView":{"TopLeft":{"Latitude":50.6053542,"Longitude":6.3019088},"BottomRight":{"Latitude":50.6031058,"Longitude":6.3054512}},"Address":{"Label":"Heustraße 2, 52152 Simmerath, Deutschland","Country":"DEU","State":"Nordrhein-Westfalen","County":"Aachen","City":"Simmerath","District":"Simmerath","Street":"Heustraße","HouseNumber":"2","PostalCode":"52152","AdditionalData":[{"value":"Deutschland","key":"CountryName"},{"value":"Nordrhein-Westfalen","key":"StateName"},{"value":"Aachen","key":"CountyName"}]},"MapReference":{"ReferenceId":"77163379","Spot":0.78,"SideOfStreet":"left","CountryId":"20147700","StateId":"20157369","CountyId":"20158069","CityId":"20158126","DistrictId":"20158139","AddressId":"196260947","RoadLinkId":"39376251"}}},{"Relevance":1.0,"Distance":68.4,"MatchLevel":"houseNumber","MatchQuality":{"Country":1.0,"State":1.0,"County":1.0,"City":1.0,"District":1.0,"Street":[1.0],"HouseNumber":1.0,"PostalCode":1.0},"MatchType":"interpolated","Location":{"LocationId":"NT_hroxbsYMFCXZhssWxTumkB_yUzQ","LocationType":"point","DisplayPosition":{"Latitude":50.60454,"Longitude":6.30432},"MapView":{"TopLeft":{"Latitude":50.6056642,"Longitude":6.3025488},"BottomRight":{"Latitude":50.6034158,"Longitude":6.3060912}},"Address":{"Label":"Kammerbruchstraße 25C, 52152 Simmerath, Deutschland","Country":"DEU","State":"Nordrhein-Westfalen","County":"Aachen","City":"Simmerath","District":"Simmerath","Street":"Kammerbruchstraße","HouseNumber":"25C","PostalCode":"52152","AdditionalData":[{"value":"Deutschland","key":"CountryName"},{"value":"Nordrhein-Westfalen","key":"StateName"},{"value":"Aachen","key":"CountyName"}]},"MapReference":{"ReferenceId":"1197262262","Spot":0.2,"SideOfStreet":"right","CountryId":"20147700","StateId":"20157369","CountyId":"20158069","CityId":"20158126","DistrictId":"20158139","AddressId":"195026751","RoadLinkId":"507990091"}}},{"Relevance":1.0,"Distance":73.7,"MatchLevel":"street","MatchQuality":{"Country":1.0,"State":1.0,"County":1.0,"City":1.0,"District":1.0,"Street":[1.0],"PostalCode":1.0},"Location":{"LocationId":"NT_xKbRyWaDjdljeyuzi5NvrA_l_839734070_L","LocationType":"point","DisplayPosition":{"Latitude":50.60529,"Longitude":6.30276},"MapView":{"TopLeft":{"Latitude":50.60535,"Longitude":6.30264},"BottomRight":{"Latitude":50.60529,"Longitude":6.30276}},"Address":{"Label":"Kammerbruchstraße, 52152 Simmerath, Deutschland","Country":"DEU","State":"Nordrhein-Westfalen","County":"Aachen","City":"Simmerath","District":"Simmerath","Street":"Kammerbruchstraße","PostalCode":"52152","AdditionalData":[{"value":"Deutschland","key":"CountryName"},{"value":"Nordrhein-Westfalen","key":"StateName"},{"value":"Aachen","key":"CountyName"}]},"MapReference":{"ReferenceId":"839734070","Spot":0.0,"SideOfStreet":"left","CountryId":"20147700","StateId":"20157369","CountyId":"20158069","CityId":"20158126","DistrictId":"20158139"}}},{"Relevance":1.0,"Distance":84.1,"MatchLevel":"houseNumber","MatchQuality":{"Country":1.0,"State":1.0,"County":1.0,"City":1.0,"District":1.0,"Street":[1.0],"HouseNumber":1.0,"PostalCode":1.0},"MatchType":"interpolated","Location":{"LocationId":"NT_hroxbsYMFCXZhssWxTumkB_l_839734071_L_xAD","LocationType":"point","DisplayPosition":{"Latitude":50.6053853,"Longitude":6.3025812},"MapView":{"TopLeft":{"Latitude":50.6065094,"Longitude":6.3008099},"BottomRight":{"Latitude":50.6042611,"Longitude":6.3043525}},"Address":{"Label":"Kammerbruchstraße 10, 52152 Simmerath, Deutschland","Country":"DEU","State":"Nordrhein-Westfalen","County":"Aachen","City":"Simmerath","District":"Simmerath","Street":"Kammerbruchstraße","HouseNumber":"10","PostalCode":"52152","AdditionalData":[{"value":"Deutschland","key":"CountryName"},{"value":"Nordrhein-Westfalen","key":"StateName"},{"value":"Aachen","key":"CountyName"}]},"MapReference":{"ReferenceId":"839734071","Spot":0.59,"SideOfStreet":"left","CountryId":"20147700","StateId":"20157369","CountyId":"20158069","CityId":"20158126","DistrictId":"20158139"}}},{"Relevance":1.0,"Distance":89.5,"MatchLevel":"houseNumber","MatchQuality":{"Country":1.0,"State":1.0,"County":1.0,"City":1.0,"District":1.0,"Street":[1.0],"HouseNumber":1.0,"PostalCode":1.0},"MatchType":"interpolated","Location":{"LocationId":"NT_hroxbsYMFCXZhssWxTumkB_ycD","LocationType":"point","DisplayPosition":{"Latitude":50.60457,"Longitude":6.30471},"MapView":{"TopLeft":{"Latitude":50.6056942,"Longitude":6.3029388},"BottomRight":{"Latitude":50.6034458,"Longitude":6.3064812}},"Address":{"Label":"Kammerbruchstraße 27, 52152 Simmerath, Deutschland","Country":"DEU","State":"Nordrhein-Westfalen","County":"Aachen","City":"Simmerath","District":"Simmerath","Street":"Kammerbruchstraße","HouseNumber":"27","PostalCode":"52152","AdditionalData":[{"value":"Deutschland","key":"CountryName"},{"value":"Nordrhein-Westfalen","key":"StateName"},{"value":"Aachen","key":"CountyName"}]},"MapReference":{"ReferenceId":"1197262263","Spot":0.77,"SideOfStreet":"left","CountryId":"20147700","StateId":"20157369","CountyId":"20158069","CityId":"20158126","DistrictId":"20158139","AddressId":"192678332","RoadLinkId":"507990095"}}},{"Relevance":1.0,"Distance":94.7,"MatchLevel":"houseNumber","MatchQuality":{"Country":1.0,"State":1.0,"County":1.0,"City":1.0,"District":1.0,"Street":[1.0],"HouseNumber":1.0,"PostalCode":1.0},"MatchType":"interpolated","Location":{"LocationId":"NT_GrkdbrlvlHHE5UJBWTRTKD_xA","LocationType":"point","DisplayPosition":{"Latitude":50.60561,"Longitude":6.30312},"MapView":{"TopLeft":{"Latitude":50.6067342,"Longitude":6.3013487},"BottomRight":{"Latitude":50.6044858,"Longitude":6.3048913}},"Address":{"Label":"Robert-Koch-Straße 1, 52152 Simmerath, Deutschland","Country":"DEU","State":"Nordrhein-Westfalen","County":"Aachen","City":"Simmerath","District":"Simmerath","Street":"Robert-Koch-Straße","HouseNumber":"1","PostalCode":"52152","AdditionalData":[{"value":"Deutschland","key":"CountryName"},{"value":"Nordrhein-Westfalen","key":"StateName"},{"value":"Aachen","key":"CountyName"}]},"MapReference":{"ReferenceId":"77163315","Spot":0.51,"SideOfStreet":"left","CountryId":"20147700","StateId":"20157369","CountyId":"20158069","CityId":"20158126","DistrictId":"20158139","AddressId":"194750808","RoadLinkId":"39379081"}}}]}]}}