{"Response":{"MetaInfo":{"Timestamp":"2020-03-28T10:53:54.628+0000","NextPageInformation":"2"},"View":[{"_type":"SearchResultsViewType","ViewId":0,"Result":[{"Relevance":1.0,"Distance":0.0,"Direction":0.0,"MatchLevel":"district","MatchQuality":{"Country":1.0,"State":1.0,"County":1.0,"City":1.0,"District":1.0,"PostalCode":1.0},"Location":{"LocationId":"NT_Nhe9b29S7lsklLej9oeGAA","LocationType":"point","DisplayPosition":{"Latitude":50.6130793,"Longitude":15.4992293},"MapView":{"TopLeft":{"Latitude":50.61753,"Longitude":15.49473},"BottomRight":{"Latitude":50.59649,"Longitude":15.52448}},"Address":{"Label":"Jilemnice, Liberecký kraj, Česká Republika","Country":"CZE","State":"Liberecký kraj","County":"Semily","City":"Jilemnice","District":"Jilemnice","PostalCode":"514 01","AdditionalData":[{"value":"Česká Republika","key":"CountryName"},{"value":"Liberecký kraj","key":"StateName"},{"value":"Semily","key":"CountyName"}]},"MapReference":{"ReferenceId":"591275609","SideOfStreet":"neither","CountryId":"20427915","StateId":"20437007","CountyId":"20437464","CityId":"20437519","DistrictId":"20437520"}}},{"Relevance":1.0,"Distance":5.5,"MatchLevel":"street","MatchQuality":{"Country":1.0,"State":1.0,"County":1.0,"City":1.0,"District":1.0,"PostalCode":1.0},"Location":{"LocationId":"NT_5TQKGkzSWjzlXgQEPy.sIB_l_920272310_L","LocationType":"point","DisplayPosition":{"Latitude":50.6131,"Longitude":15.4993},"MapView":{"TopLeft":{"Latitude":50.6131,"Longitude":15.4993},"BottomRight":{"Latitude":50.61251,"Longitude":15.50042}},"Address":{"Label":"514 01 Jilemnice, Česká Republika","Country":"CZE","State":"Liberecký kraj","County":"Semily","City":"Jilemnice","District":"Jilemnice","PostalCode":"514 01","AdditionalData":[{"value":"Česká Republika","key":"CountryName"},{"value":"Liberecký kraj","key":"StateName"},{"value":"Semily","key":"CountyName"}]},"MapReference":{"ReferenceId":"920272310","Spot":1.0,"SideOfStreet":"left","CountryId":"20427915","StateId":"20437007","CountyId":"20437464","CityId":"20437519","DistrictId":"20437520"}}},{"Relevance":1.0,"Distance":5.7,"MatchLevel":"street","MatchQuality":{"Country":1.0,"State":1.0,"County":1.0,"City":1.0,"Street":[1.0],"PostalCode":1.0},"Location":{"LocationId":"NT_pgssA-yZVpVBE8tm4PIWeA_l_920277095_L","LocationType":"point","DisplayPosition":{"Latitude":50.6131263,"Longitude":15.4992606},"MapView":{"TopLeft":{"Latitude":50.61398,"Longitude":15.49853},"BottomRight":{"Latitude":50.6131,"Longitude":15.4993}},"Address":{"Label":"Jilemnice, 514 01 Jilemnice, Česká Republika","Country":"CZE","State":"Liberecký kraj","County":"Semily","City":"Jilemnice","Street":"Jilemnice","PostalCode":"514 01","AdditionalData":[{"value":"Česká Republika","key":"CountryName"},{"value":"Liberecký kraj","key":"StateName"},{"value":"Semily","key":"CountyName"}]},"MapReference":{"ReferenceId":"920277095","Spot":0.04,"SideOfStreet":"left","CountryId":"20427915","StateId":"20437007","CountyId":"20437464","CityId":"20437519"}}},{"Relevance":1.0,"Distance":19.6,"MatchLevel":"street","MatchQuality":{"Country":1.0,"State":1.0,"County":1.0,"City":1.0,"District":1.0,"PostalCode":1.0},"Location":{"LocationId":"NT_5TQKGkzSWjzlXgQEPy.sIB_l_1169778617_R","LocationType":"point","DisplayPosition":{"Latitude":50.61295,"Longitude":15.49904},"MapView":{"TopLeft":{"Latitude":50.61295,"Longitude":15.49898},"BottomRight":{"Latitude":50.61249,"Longitude":15.49908}},"Address":{"Label":"514 01 Jilemnice, Česká Republika","Country":"CZE","State":"Liberecký kraj","County":"Semily","City":"Jilemnice","District":"Jilemnice","PostalCode":"514 01","AdditionalData":[{"value":"Česká Republika","key":"CountryName"},{"value":"Liberecký kraj","key":"StateName"},{"value":"Semily","key":"CountyName"}]},"MapReference":{"ReferenceId":"1169778617","Spot":1.0,"SideOfStreet":"right","CountryId":"20427915","StateId":"20437007","CountyId":"20437464","CityId":"20437519","DistrictId":"20437520"}}},{"Relevance":1.0,"Distance":37.3,"MatchLevel":"houseNumber","MatchQuality":{"Country":1.0,"State":1.0,"County":1.0,"City":1.0,"District":1.0,"Street":[1.0],"HouseNumber":1.0,"PostalCode":1.0},"MatchType":"interpolated","Location":{"LocationId":"NT_4SnZLmy-yCYgXK68y0EIPD_xETO1A","LocationType":"point","DisplayPosition":{"Latitude":50.61299,"Longitude":15.49872},"MapView":{"TopLeft":{"Latitude":50.6141142,"Longitude":15.4969484},"BottomRight":{"Latitude":50.6118658,"Longitude":15.5004916}},"Address":{"Label":"U Nemocnice 1195, 514 01 Jilemnice, Česká Republika","Country":"CZE","State":"Liberecký kraj","County":"Semily","City":"Jilemnice","District":"Jilemnice","Street":"U Nemocnice","HouseNumber":"1195","PostalCode":"514 01","AdditionalData":[{"value":"Česká Republika","key":"CountryName"},{"value":"Liberecký kraj","key":"StateName"},{"value":"Semily","key":"CountyName"}]},"MapReference":{"ReferenceId":"920256723","Spot":0.39,"SideOfStreet":"left","CountryId":"20427915","StateId":"20437007","CountyId":"20437464","CityId":"20437519","DistrictId":"20437520","AddressId":"384498898","RoadLinkId":"277088000"}}},{"Relevance":1.0,"Distance":45.1,"MatchLevel":"houseNumber","MatchQuality":{"Country":1.0,"State":1.0,"County":1.0,"City":1.0,"District":1.0,"Street":[1.0],"HouseNumber":1.0,"PostalCode":1.0},"MatchType":"interpolated","Location":{"LocationId":"NT_ivjVQ8LQbPl-OtECrsltxB_0YzN","LocationType":"point","DisplayPosition":{"Latitude":50.61249,"Longitude":15.49936},"MapView":{"TopLeft":{"Latitude":50.6136142,"Longitude":15.4975885},"BottomRight":{"Latitude":50.6113658,"Longitude":15.5011315}},"Address":{"Label":"Metyšova 467, 514 01 Jilemnice, Česká Republika","Country":"CZE","State":"Liberecký kraj","County":"Semily","City":"Jilemnice","District":"Jilemnice","Street":"Metyšova","HouseNumber":"467","PostalCode":"514 01","AdditionalData":[{"value":"Česká Republika","key":"CountryName"},{"value":"Liberecký kraj","key":"StateName"},{"value":"Semily","key":"CountyName"}]},"MapReference":{"ReferenceId":"1236734343","Spot":0.83,"SideOfStreet":"right","CountryId":"20427915","StateId":"20437007","CountyId":"20437464","CityId":"20437519","DistrictId":"20437520","AddressId":"239670674","RoadLinkId":"557423208"}}},{"Relevance":1.0,"Distance":65.6,"MatchLevel":"street","MatchQuality":{"Country":1.0,"State":1.0,"County":1.0,"City":1.0,"District":1.0,"Street":[1.0],"PostalCode":1.0},"Location":{"LocationId":"NT_ivjVQ8LQbPl-OtECrsltxB_l_1236734344_L","LocationType":"point","DisplayPosition":{"Latitude":50.61249,"Longitude":15.4992},"MapView":{"TopLeft":{"Latitude":50.61249,"Longitude":15.49898},"BottomRight":{"Latitude":50.61249,"Longitude":15.4992}},"Address":{"Label":"Metyšova, 514 01 Jilemnice, Česká Republika","Country":"CZE","State":"Liberecký kraj","County":"Semily","City":"Jilemnice","District":"Jilemnice","Street":"Metyšova","PostalCode":"514 01","AdditionalData":[{"value":"Česká Republika","key":"CountryName"},{"value":"Liberecký kraj","key":"StateName"},{"value":"Semily","key":"CountyName"}]},"MapReference":{"ReferenceId":"1236734344","Spot":1.0,"SideOfStreet":"left","CountryId":"20427915","StateId":"20437007","CountyId":"20437464","CityId":"20437519","DistrictId":"20437520"}}},{"Relevance":1.0,"Distance":70.4,"MatchLevel":"houseNumber","MatchQuality":{"Country":1.0,"State":1.0,"County":1.0,"City":1.0,"District":1.0,"Street":[1.0],"HouseNumber":1.0,"PostalCode":1.0},"MatchType":"interpolated","Location":{"LocationId":"NT_ivjVQ8LQbPl-OtECrsltxB_xETO2A","LocationType":"point","DisplayPosition":{"Latitude":50.61247,"Longitude":15.49896},"MapView":{"TopLeft":{"Latitude":50.6135942,"Longitude":15.4971885},"BottomRight":{"Latitude":50.6113458,"Longitude":15.5007315}},"Address":{"Label":"Metyšova 1196, 514 01 Jilemnice, Česká Republika","Country":"CZE","State":"Liberecký kraj","County":"Semily","City":"Jilemnice","District":"Jilemnice","Street":"Metyšova","HouseNumber":"1196","PostalCode":"514 01","AdditionalData":[{"value":"Česká Republika","key":"CountryName"},{"value":"Liberecký kraj","key":"StateName"},{"value":"Semily","key":"CountyName"}]},"MapReference":{"ReferenceId":"1169778615","Spot":0.89,"SideOfStreet":"left","CountryId":"20427915","StateId":"20437007","CountyId":"20437464","CityId":"20437519","DistrictId":"20437520","AddressId":"676887121","RoadLinkId":"476575700"}}},{"Relevance":1.0,"Distance":85.9,"MatchLevel":"houseNumber","MatchQuality":{"Country":1.0,"State":1.0,"County":1.0,"City":1.0,"District":1.0,"Street":[1.0],"HouseNumber":1.0,"PostalCode":1.0},"MatchType":"interpolated","Location":{"LocationId":"NT_4SnZLmy-yCYgXK68y0EIPD_xEDO5A","LocationType":"point","DisplayPosition":{"Latitude":50.61287,"Longitude":15.49792},"MapView":{"TopLeft":{"Latitude":50.6139942,"Longitude":15.4961484},"BottomRight":{"Latitude":50.6117458,"Longitude":15.4996916}},"Address":{"Label":"U Nemocnice 1189, 514 01 Jilemnice, Česká Republika","Country":"CZE","State":"Liberecký kraj","County":"Semily","City":"Jilemnice","District":"Jilemnice","Street":"U Nemocnice","HouseNumber":"1189","PostalCode":"514 01","AdditionalData":[{"value":"Česká Republika","key":"CountryName"},{"value":"Liberecký kraj","key":"StateName"},{"value":"Semily","key":"CountyName"}]},"MapReference":{"ReferenceId":"920256724","Spot":0.0,"SideOfStreet":"right","CountryId":"20427915","StateId":"20437007","CountyId":"20437464","CityId":"20437519","DistrictId":"20437520","AddressId":"384498899","RoadLinkId":"277087993"}}},{"Relevance":1.0,"Distance":90.9,"MatchLevel":"street","MatchQuality":{"Country":1.0,"State":1.0,"County":1.0,"City":1.0,"District":1.0,"Street":[1.0],"PostalCode":1.0},"Location":{"LocationId":"NT_ivjVQ8LQbPl-OtECrsltxB_l_920274154_R","LocationType":"point","DisplayPosition":{"Latitude":50.6122621,"Longitude":15.499206},"MapView":{"TopLeft":{"Latitude":50.61227,"Longitude":15.49893},"BottomRight":{"Latitude":50.61226,"Longitude":15.49928}},"Address":{"Label":"Metyšova, 514 01 Jilemnice, Česká Republika","Country":"CZE","State":"Liberecký kraj","County":"Semily","City":"Jilemnice","District":"Jilemnice","Street":"Metyšova","PostalCode":"514 01","AdditionalData":[{"value":"Česká Republika","key":"CountryName"},{"value":"Liberecký kraj","key":"StateName"},{"value":"Semily","key":"CountyName"}]},"MapReference":{"ReferenceId":"920274154","Spot":0.21,"SideOfStreet":"right","CountryId":"20427915","StateId":"20437007","CountyId":"20437464","CityId":"20437519","DistrictId":"20437520"}}}]}]}}