{"Response":{"MetaInfo":{"Timestamp":"2020-03-28T09:36:15.340+0000","NextPageInformation":"2"},"View":[{"_type":"SearchResultsViewType","ViewId":0,"Result":[{"Relevance":1.0,"Distance":0.0,"Direction":0.0,"MatchLevel":"city","MatchQuality":{"Country":1.0,"State":1.0,"County":1.0,"City":1.0,"PostalCode":1.0},"Location":{"LocationId":"NT_xd5wlgeLPOZm.bNYYAEDAA","LocationType":"point","DisplayPosition":{"Latitude":50.6882433,"Longitude":6.6440544},"MapView":{"TopLeft":{"Latitude":50.75565,"Longitude":6.56715},"BottomRight":{"Latitude":50.63033,"Longitude":6.77796}},"Address":{"Label":"Zülpich, Nordrhein-Westfalen, Deutschland","Country":"DEU","State":"Nordrhein-Westfalen","County":"Euskirchen","City":"Zülpich","PostalCode":"53909","AdditionalData":[{"value":"Deutschland","key":"CountryName"},{"value":"Nordrhein-Westfalen","key":"StateName"},{"value":"Euskirchen","key":"CountyName"}]},"MapReference":{"ReferenceId":"536979626","SideOfStreet":"neither","CountryId":"20147700","StateId":"20157369","CountyId":"20158406","CityId":"20158540"}}},{"Relevance":1.0,"Distance":26.5,"MatchLevel":"street","MatchQuality":{"Country":1.0,"State":1.0,"County":1.0,"City":1.0,"Street":[1.0],"PostalCode":1.0},"Location":{"LocationId":"NT_8nMRxIz1r7uM-vwPhEws0B_l_537841066_R","LocationType":"point","DisplayPosition":{"Latitude":50.6884812,"Longitude":6.6440328},"MapView":{"TopLeft":{"Latitude":50.6885,"Longitude":6.64338},"BottomRight":{"Latitude":50.6884,"Longitude":6.64424}},"Address":{"Label":"B56, 53909 Zülpich, Deutschland","Country":"DEU","State":"Nordrhein-Westfalen","County":"Euskirchen","City":"Zülpich","Street":"B56","PostalCode":"53909","AdditionalData":[{"value":"Deutschland","key":"CountryName"},{"value":"Nordrhein-Westfalen","key":"StateName"},{"value":"Euskirchen","key":"CountyName"}]},"MapReference":{"ReferenceId":"537841066","Spot":0.76,"SideOfStreet":"right","CountryId":"20147700","StateId":"20157369","CountyId":"20158406","CityId":"20158540"}}},{"Relevance":1.0,"Distance":31.4,"MatchLevel":"street","MatchQuality":{"Country":1.0,"State":1.0,"County":1.0,"City":1.0,"Street":[1.0],"PostalCode":1.0},"Location":{"LocationId":"NT_8nMRxIz1r7uM-vwPhEws0B_l_1048993097_R","LocationType":"point","DisplayPosition":{"Latitude":50.6885,"Longitude":6.64424},"MapView":{"TopLeft":{"Latitude":50.68852,"Longitude":6.64424},"BottomRight":{"Latitude":50.6885,"Longitude":6.64469}},"Address":{"Label":"B56, 53909 Zülpich, Deutschland","Country":"DEU","State":"Nordrhein-Westfalen","County":"Euskirchen","City":"Zülpich","Street":"B56","PostalCode":"53909","AdditionalData":[{"value":"Deutschland","key":"CountryName"},{"value":"Nordrhein-Westfalen","key":"StateName"},{"value":"Euskirchen","key":"CountyName"}]},"MapReference":{"ReferenceId":"1048993097","Spot":0.0,"SideOfStreet":"right","CountryId":"20147700","StateId":"20157369","CountyId":"20158406","CityId":"20158540"}}},{"Relevance":1.0,"Distance":40.6,"MatchLevel":"houseNumber","MatchQuality":{"Country":1.0,"State":1.0,"County":1.0,"City":1.0,"District":1.0,"Street":[1.0],"HouseNumber":1.0,"PostalCode":1.0},"MatchType":"interpolated","Location":{"LocationId":"NT_O1.I1Q5VTzB.njAY5zuzpC_yED","LocationType":"point","DisplayPosition":{"Latitude":50.68764,"Longitude":6.64416},"MapView":{"TopLeft":{"Latitude":50.6887642,"Longitude":6.6423856},"BottomRight":{"Latitude":50.6865158,"Longitude":6.6459344}},"Address":{"Label":"Neuer Weg 21, 53909 Zülpich, Deutschland","Country":"DEU","State":"Nordrhein-Westfalen","County":"Euskirchen","City":"Zülpich","District":"Hoven","Street":"Neuer Weg","HouseNumber":"21","PostalCode":"53909","AdditionalData":[{"value":"Deutschland","key":"CountryName"},{"value":"Nordrhein-Westfalen","key":"StateName"},{"value":"Euskirchen","key":"CountyName"}]},"MapReference":{"ReferenceId":"537826945","Spot":0.83,"SideOfStreet":"left","CountryId":"20147700","StateId":"20157369","CountyId":"20158406","CityId":"20158540","DistrictId":"23391879","AddressId":"193359619","RoadLinkId":"39440230"}}},{"Relevance":1.0,"Distance":50.6,"MatchLevel":"street","MatchQuality":{"Country":1.0,"State":1.0,"County":1.0,"City":1.0,"Street":[1.0],"PostalCode":1.0},"Location":{"LocationId":"NT_8nMRxIz1r7uM-vwPhEws0B_l_537841064_R","LocationType":"point","DisplayPosition":{"Latitude":50.6884,"Longitude":6.64338},"MapView":{"TopLeft":{"Latitude":50.6884,"Longitude":6.64276},"BottomRight":{"Latitude":50.68829,"Longitude":6.64338}},"Address":{"Label":"B56, 53909 Zülpich, Deutschland","Country":"DEU","State":"Nordrhein-Westfalen","County":"Euskirchen","City":"Zülpich","Street":"B56","PostalCode":"53909","AdditionalData":[{"value":"Deutschland","key":"CountryName"},{"value":"Nordrhein-Westfalen","key":"StateName"},{"value":"Euskirchen","key":"CountyName"}]},"MapReference":{"ReferenceId":"537841064","Spot":1.0,"SideOfStreet":"right","CountryId":"20147700","StateId":"20157369","CountyId":"20158406","CityId":"20158540"}}},{"Relevance":1.0,"Distance":54.3,"MatchLevel":"street","MatchQuality":{"Country":1.0,"State":1.0,"County":1.0,"City":1.0,"Street":[1.0],"PostalCode":1.0},"Location":{"LocationId":"NT_8nMRxIz1r7uM-vwPhEws0B_l_1048993096_L","LocationType":"point","DisplayPosition":{"Latitude":50.68852,"Longitude":6.64469},"MapView":{"TopLeft":{"Latitude":50.68852,"Longitude":6.64469},"BottomRight":{"Latitude":50.68848,"Longitude":6.64533}},"Address":{"Label":"B56, 53909 Zülpich, Deutschland","Country":"DEU","State":"Nordrhein-Westfalen","County":"Euskirchen","City":"Zülpich","Street":"B56","PostalCode":"53909","AdditionalData":[{"value":"Deutschland","key":"CountryName"},{"value":"Nordrhein-Westfalen","key":"StateName"},{"value":"Euskirchen","key":"CountyName"}]},"MapReference":{"ReferenceId":"1048993096","Spot":1.0,"SideOfStreet":"left","CountryId":"20147700","StateId":"20157369","CountyId":"20158406","CityId":"20158540"}}},{"Relevance":1.0,"Distance":91.3,"MatchLevel":"street","MatchQuality":{"Country":1.0,"State":1.0,"County":1.0,"City":1.0,"Street":[1.0],"PostalCode":1.0},"Location":{"LocationId":"NT_8nMRxIz1r7uM-vwPhEws0B_l_763762527_R","LocationType":"point","DisplayPosition":{"Latitude":50.68829,"Longitude":6.64276},"MapView":{"TopLeft":{"Latitude":50.68829,"Longitude":6.63982},"BottomRight":{"Latitude":50.6881,"Longitude":6.64276}},"Address":{"Label":"B56, 53909 Zülpich, Deutschland","Country":"DEU","State":"Nordrhein-Westfalen","County":"Euskirchen","City":"Zülpich","Street":"B56","PostalCode":"53909","AdditionalData":[{"value":"Deutschland","key":"CountryName"},{"value":"Nordrhein-Westfalen","key":"StateName"},{"value":"Euskirchen","key":"CountyName"}]},"MapReference":{"ReferenceId":"763762527","Spot":1.0,"SideOfStreet":"right","CountryId":"20147700","StateId":"20157369","CountyId":"20158406","CityId":"20158540"}}},{"Relevance":1.0,"Distance":93.6,"MatchLevel":"street","MatchQuality":{"Country":1.0,"State":1.0,"County":1.0,"City":1.0,"District":1.0,"Street":[1.0],"PostalCode":1.0},"Location":{"LocationId":"NT_c4.BFS956m2zWrxGRtAa7C_l_955234320_L","LocationType":"point","DisplayPosition":{"Latitude":50.68848,"Longitude":6.64533},"MapView":{"TopLeft":{"Latitude":50.68848,"Longitude":6.64533},"BottomRight":{"Latitude":50.68845,"Longitude":6.64562}},"Address":{"Label":"B56, 53909 Zülpich, Deutschland","Country":"DEU","State":"Nordrhein-Westfalen","County":"Euskirchen","City":"Zülpich","District":"Zülpich","Street":"B56","PostalCode":"53909","AdditionalData":[{"value":"Deutschland","key":"CountryName"},{"value":"Nordrhein-Westfalen","key":"StateName"},{"value":"Euskirchen","key":"CountyName"}]},"MapReference":{"ReferenceId":"955234320","Spot":1.0,"SideOfStreet":"left","CountryId":"20147700","StateId":"20157369","CountyId":"20158406","CityId":"20158540","DistrictId":"20158553"}}},{"Relevance":1.0,"Distance":98.3,"MatchLevel":"houseNumber","MatchQuality":{"Country":1.0,"State":1.0,"County":1.0,"City":1.0,"District":1.0,"Street":[1.0],"HouseNumber":1.0,"PostalCode":1.0},"MatchType":"interpolated","Location":{"LocationId":"NT_bUmZX6ncbqfNHo.HIiVr6B_0IzQ","LocationType":"point","DisplayPosition":{"Latitude":50.6873,"Longitude":6.64524},"MapView":{"TopLeft":{"Latitude":50.6884242,"Longitude":6.6434656},"BottomRight":{"Latitude":50.6861758,"Longitude":6.6470144}},"Address":{"Label":"Nideggener Straße 42C, 53909 Zülpich, Deutschland","Country":"DEU","State":"Nordrhein-Westfalen","County":"Euskirchen","City":"Zülpich","District":"Hoven","Street":"Nideggener Straße","HouseNumber":"42C","PostalCode":"53909","AdditionalData":[{"value":"Deutschland","key":"CountryName"},{"value":"Nordrhein-Westfalen","key":"StateName"},{"value":"Euskirchen","key":"CountyName"}]},"MapReference":{"ReferenceId":"1205135090","Spot":0.88,"SideOfStreet":"left","CountryId":"20147700","StateId":"20157369","CountyId":"20158406","CityId":"20158540","DistrictId":"23391879","AddressId":"193790536","RoadLinkId":"518670767"}}},{"Relevance":1.0,"Distance":107.3,"MatchLevel":"houseNumber","MatchQuality":{"Country":1.0,"State":1.0,"County":1.0,"City":1.0,"Street":[1.0],"HouseNumber":1.0,"PostalCode":1.0},"MatchType":"interpolated","Location":{"LocationId":"NT_KdXhki67IHDagAkv6Oj5qB_yYD","LocationType":"point","DisplayPosition":{"Latitude":50.68794,"Longitude":6.64558},"MapView":{"TopLeft":{"Latitude":50.6890642,"Longitude":6.6438056},"BottomRight":{"Latitude":50.6868158,"Longitude":6.6473544}},"Address":{"Label":"Nideggener Straße 26, 53909 Zülpich, Deutschland","Country":"DEU","State":"Nordrhein-Westfalen","County":"Euskirchen","City":"Zülpich","Street":"Nideggener Straße","HouseNumber":"26","PostalCode":"53909","AdditionalData":[{"value":"Deutschland","key":"CountryName"},{"value":"Nordrhein-Westfalen","key":"StateName"},{"value":"Euskirchen","key":"CountyName"}]},"MapReference":{"ReferenceId":"762853514","Spot":0.76,"SideOfStreet":"left","CountryId":"20147700","StateId":"20157369","CountyId":"20158406","CityId":"20158540","AddressId":"199493479","RoadLinkId":"157099158"}}}]}]}}