{"Response":{"MetaInfo":{"Timestamp":"2020-03-28T11:39:07.879+0000","NextPageInformation":"2"},"View":[{"_type":"SearchResultsViewType","ViewId":0,"Result":[{"Relevance":1.0,"Distance":0.0,"Direction":0.0,"MatchLevel":"city","MatchQuality":{"Country":1.0,"State":1.0,"County":1.0,"City":1.0,"PostalCode":1.0},"Location":{"LocationId":"NT_Es2F67dlNAkKacCARKWsbA","LocationType":"point","DisplayPosition":{"Latitude":50.6484909,"Longitude":3.9240437},"MapView":{"TopLeft":{"Latitude":50.69553,"Longitude":3.87778},"BottomRight":{"Latitude":50.59035,"Longitude":4.06675}},"Address":{"Label":"Silly, Wallonie, Belgique","Country":"BEL","State":"Wallonie","County":"Hainaut","City":"Silly","PostalCode":"7830","AdditionalData":[{"value":"Belgique","key":"CountryName"},{"value":"Wallonie","key":"StateName"},{"value":"Hainaut","key":"CountyName"}]},"MapReference":{"ReferenceId":"847200777","SideOfStreet":"neither","CountryId":"20128886","StateId":"20205526","CountyId":"20205527","CityId":"20205877"}}},{"Relevance":1.0,"Distance":5.2,"MatchLevel":"houseNumber","MatchQuality":{"Country":1.0,"State":1.0,"County":1.0,"City":1.0,"Street":[1.0],"HouseNumber":1.0,"PostalCode":1.0},"MatchType":"interpolated","Location":{"LocationId":"NT_uXtIML7nI63Qvrxtng6mnB_xED","LocationType":"point","DisplayPosition":{"Latitude":50.64849,"Longitude":3.92391},"MapView":{"TopLeft":{"Latitude":50.6496142,"Longitude":3.9221371},"BottomRight":{"Latitude":50.6473658,"Longitude":3.9256829}},"Address":{"Label":"Place Communale de Silly 11, 7830 Silly, Belgique","Country":"BEL","State":"Wallonie","County":"Hainaut","City":"Silly","Street":"Place Communale de Silly","HouseNumber":"11","PostalCode":"7830","AdditionalData":[{"value":"Belgique","key":"CountryName"},{"value":"Wallonie","key":"StateName"},{"value":"Hainaut","key":"CountyName"}]},"MapReference":{"ReferenceId":"68210848","Spot":0.0,"SideOfStreet":"right","CountryId":"20128886","StateId":"20205526","CountyId":"20205527","CityId":"20205877","AddressId":"369019060","RoadLinkId":"30701819"}}},{"Relevance":1.0,"Distance":9.4,"MatchLevel":"street","MatchQuality":{"Country":1.0,"State":1.0,"County":1.0,"City":1.0,"PostalCode":1.0},"Location":{"LocationId":"NT_6.WBI0cX0QQFKvVOa5FAPB_l_68210849_R","LocationType":"point","DisplayPosition":{"Latitude":50.64849,"Longitude":3.92391},"MapView":{"TopLeft":{"Latitude":50.64857,"Longitude":3.92357},"BottomRight":{"Latitude":50.64849,"Longitude":3.92391}},"Address":{"Label":"7830 Silly, Belgique","Country":"BEL","State":"Wallonie","County":"Hainaut","City":"Silly","PostalCode":"7830","AdditionalData":[{"value":"Belgique","key":"CountryName"},{"value":"Wallonie","key":"StateName"},{"value":"Hainaut","key":"CountyName"}]},"MapReference":{"ReferenceId":"68210849","Spot":0.0,"SideOfStreet":"right","CountryId":"20128886","StateId":"20205526","CountyId":"20205527","CityId":"20205877"}}},{"Relevance":1.0,"Distance":24.8,"MatchLevel":"houseNumber","MatchQuality":{"Country":1.0,"State":1.0,"County":1.0,"City":1.0,"Street":[1.0],"HouseNumber":1.0,"PostalCode":1.0},"MatchType":"interpolated","Location":{"LocationId":"NT_uXtIML7nI63Qvrxtng6mnB_xMD","LocationType":"point","DisplayPosition":{"Latitude":50.64832,"Longitude":3.92381},"MapView":{"TopLeft":{"Latitude":50.6494442,"Longitude":3.9220371},"BottomRight":{"Latitude":50.6471958,"Longitude":3.9255829}},"Address":{"Label":"Place Communale de Silly 13, 7830 Silly, Belgique","Country":"BEL","State":"Wallonie","County":"Hainaut","City":"Silly","Street":"Place Communale de Silly","HouseNumber":"13","PostalCode":"7830","AdditionalData":[{"value":"Belgique","key":"CountryName"},{"value":"Wallonie","key":"StateName"},{"value":"Hainaut","key":"CountyName"}]},"MapReference":{"ReferenceId":"847200777","Spot":0.37,"SideOfStreet":"right","CountryId":"20128886","StateId":"20205526","CountyId":"20205527","CityId":"20205877","AddressId":"368883481","RoadLinkId":"228038507"}}},{"Relevance":1.0,"Distance":27.8,"MatchLevel":"houseNumber","MatchQuality":{"Country":1.0,"State":1.0,"County":1.0,"City":1.0,"Street":[1.0],"HouseNumber":1.0,"PostalCode":1.0},"MatchType":"interpolated","Location":{"LocationId":"NT_7vkf3Gav0Qo0GhHs7.aFWB_yAD","LocationType":"point","DisplayPosition":{"Latitude":50.64867,"Longitude":3.92362},"MapView":{"TopLeft":{"Latitude":50.6497942,"Longitude":3.9218471},"BottomRight":{"Latitude":50.6475458,"Longitude":3.9253929}},"Address":{"Label":"Place Communale 20, 7830 Silly, Belgique","Country":"BEL","State":"Wallonie","County":"Hainaut","City":"Silly","Street":"Place Communale","HouseNumber":"20","PostalCode":"7830","AdditionalData":[{"value":"Belgique","key":"CountryName"},{"value":"Wallonie","key":"StateName"},{"value":"Hainaut","key":"CountyName"}]},"MapReference":{"ReferenceId":"55670058","Spot":0.11,"SideOfStreet":"right","CountryId":"20128886","StateId":"20205526","CountyId":"20205527","CityId":"20205877","AddressId":"369304479","RoadLinkId":"30250095"}}},{"Relevance":1.0,"Distance":32.2,"MatchLevel":"houseNumber","MatchQuality":{"Country":1.0,"State":1.0,"County":1.0,"City":1.0,"Street":[1.0],"HouseNumber":1.0,"PostalCode":1.0},"MatchType":"interpolated","Location":{"LocationId":"NT_uXtIML7nI63Qvrxtng6mnB_5A","LocationType":"point","DisplayPosition":{"Latitude":50.64878,"Longitude":3.92406},"MapView":{"TopLeft":{"Latitude":50.6499042,"Longitude":3.9222871},"BottomRight":{"Latitude":50.6476558,"Longitude":3.9258329}},"Address":{"Label":"Place Communale de Silly 9, 7830 Silly, Belgique","Country":"BEL","State":"Wallonie","County":"Hainaut","City":"Silly","Street":"Place Communale de Silly","HouseNumber":"9","PostalCode":"7830","AdditionalData":[{"value":"Belgique","key":"CountryName"},{"value":"Wallonie","key":"StateName"},{"value":"Hainaut","key":"CountyName"}]},"MapReference":{"ReferenceId":"55670060","Spot":0.13,"SideOfStreet":"right","CountryId":"20128886","StateId":"20205526","CountyId":"20205527","CityId":"20205877","AddressId":"368859530","RoadLinkId":"30313296"}}},{"Relevance":1.0,"Distance":37.9,"MatchLevel":"houseNumber","MatchQuality":{"Country":1.0,"State":1.0,"County":1.0,"City":1.0,"Street":[1.0],"HouseNumber":1.0,"PostalCode":1.0},"MatchType":"interpolated","Location":{"LocationId":"NT_7vkf3Gav0Qo0GhHs7.aFWB_l_55670057_R_xgD","LocationType":"point","DisplayPosition":{"Latitude":50.6484075,"Longitude":3.9234556},"MapView":{"TopLeft":{"Latitude":50.6495317,"Longitude":3.9216827},"BottomRight":{"Latitude":50.6472834,"Longitude":3.9252285}},"Address":{"Label":"Place Communale 18, 7830 Silly, Belgique","Country":"BEL","State":"Wallonie","County":"Hainaut","City":"Silly","Street":"Place Communale","HouseNumber":"18","PostalCode":"7830","AdditionalData":[{"value":"Belgique","key":"CountryName"},{"value":"Wallonie","key":"StateName"},{"value":"Hainaut","key":"CountyName"}]},"MapReference":{"ReferenceId":"55670057","Spot":0.51,"SideOfStreet":"right","CountryId":"20128886","StateId":"20205526","CountyId":"20205527","CityId":"20205877"}}},{"Relevance":1.0,"Distance":40.9,"MatchLevel":"houseNumber","MatchQuality":{"Country":1.0,"State":1.0,"County":1.0,"City":1.0,"Street":[1.0],"HouseNumber":1.0,"PostalCode":1.0},"MatchType":"interpolated","Location":{"LocationId":"NT_uXtIML7nI63Qvrxtng6mnB_xgD","LocationType":"point","DisplayPosition":{"Latitude":50.64819,"Longitude":3.92371},"MapView":{"TopLeft":{"Latitude":50.6493142,"Longitude":3.9219371},"BottomRight":{"Latitude":50.6470658,"Longitude":3.9254829}},"Address":{"Label":"Place Communale de Silly 18, 7830 Silly, Belgique","Country":"BEL","State":"Wallonie","County":"Hainaut","City":"Silly","Street":"Place Communale de Silly","HouseNumber":"18","PostalCode":"7830","AdditionalData":[{"value":"Belgique","key":"CountryName"},{"value":"Wallonie","key":"StateName"},{"value":"Hainaut","key":"CountyName"}]},"MapReference":{"ReferenceId":"847200776","Spot":0.75,"SideOfStreet":"left","CountryId":"20128886","StateId":"20205526","CountyId":"20205527","CityId":"20205877","AddressId":"369303333","RoadLinkId":"228038506"}}},{"Relevance":1.0,"Distance":50.4,"MatchLevel":"houseNumber","MatchQuality":{"Country":1.0,"State":1.0,"County":1.0,"City":1.0,"Street":[1.0],"HouseNumber":1.0,"PostalCode":1.0},"MatchType":"interpolated","Location":{"LocationId":"NT_nguO1qjl28SjBuu6dnWIDC_yA","LocationType":"point","DisplayPosition":{"Latitude":50.64807,"Longitude":3.92431},"MapView":{"TopLeft":{"Latitude":50.6491942,"Longitude":3.9225371},"BottomRight":{"Latitude":50.6469458,"Longitude":3.9260829}},"Address":{"Label":"Ruelle de la Place Rouppe 2, 7830 Silly, Belgique","Country":"BEL","State":"Wallonie","County":"Hainaut","City":"Silly","Street":"Ruelle de la Place Rouppe","HouseNumber":"2","PostalCode":"7830","AdditionalData":[{"value":"Belgique","key":"CountryName"},{"value":"Wallonie","key":"StateName"},{"value":"Hainaut","key":"CountyName"}]},"MapReference":{"ReferenceId":"53752263","Spot":0.97,"SideOfStreet":"right","CountryId":"20128886","StateId":"20205526","CountyId":"20205527","CityId":"20205877","AddressId":"455886301","RoadLinkId":"30993674"}}},{"Relevance":1.0,"Distance":56.8,"MatchLevel":"houseNumber","MatchQuality":{"Country":1.0,"State":1.0,"County":1.0,"City":1.0,"Street":[1.0],"HouseNumber":1.0,"PostalCode":1.0},"MatchType":"interpolated","Location":{"LocationId":"NT_7vkf3Gav0Qo0GhHs7.aFWB_yID","LocationType":"point","DisplayPosition":{"Latitude":50.64864,"Longitude":3.92327},"MapView":{"TopLeft":{"Latitude":50.6497642,"Longitude":3.9214971},"BottomRight":{"Latitude":50.6475158,"Longitude":3.9250429}},"Address":{"Label":"Place Communale 22, 7830 Silly, Belgique","Country":"BEL","State":"Wallonie","County":"Hainaut","City":"Silly","Street":"Place Communale","HouseNumber":"22","PostalCode":"7830","AdditionalData":[{"value":"Belgique","key":"CountryName"},{"value":"Wallonie","key":"StateName"},{"value":"Hainaut","key":"CountyName"}]},"MapReference":{"ReferenceId":"55670028","Spot":0.9,"SideOfStreet":"right","CountryId":"20128886","StateId":"20205526","CountyId":"20205527","CityId":"20205877","AddressId":"368867597","RoadLinkId":"30540775"}}}]}]}}