{"Response":{"MetaInfo":{"Timestamp":"2020-03-28T10:21:17.585+0000","NextPageInformation":"2"},"View":[{"_type":"SearchResultsViewType","ViewId":0,"Result":[{"Relevance":1.0,"Distance":0.0,"Direction":0.0,"MatchLevel":"district","MatchQuality":{"Country":1.0,"State":1.0,"County":1.0,"City":1.0,"District":1.0,"PostalCode":1.0},"Location":{"LocationId":"NT_3f46vZYV7xf0cnhnDNtUuC","LocationType":"point","DisplayPosition":{"Latitude":50.6244389,"Longitude":9.5056372},"MapView":{"TopLeft":{"Latitude":50.63552,"Longitude":9.49099},"BottomRight":{"Latitude":50.61168,"Longitude":9.51488}},"Address":{"Label":"Bad Salzschlirf, Hessen, Deutschland","Country":"DEU","State":"Hessen","County":"Fulda","City":"Bad Salzschlirf","District":"Bad Salzschlirf","PostalCode":"36364","AdditionalData":[{"value":"Deutschland","key":"CountryName"},{"value":"Hessen","key":"StateName"},{"value":"Fulda","key":"CountyName"}]},"MapReference":{"ReferenceId":"62100756","SideOfStreet":"neither","CountryId":"20147700","StateId":"20160993","CountyId":"20162976","CityId":"20162977","DistrictId":"20162979"}}},{"Relevance":1.0,"Distance":24.0,"MatchLevel":"houseNumber","MatchQuality":{"Country":1.0,"State":1.0,"County":1.0,"City":1.0,"District":1.0,"Street":[1.0],"HouseNumber":1.0,"PostalCode":1.0},"MatchType":"interpolated","Location":{"LocationId":"NT_cLYJy9bGa4CAj4Hojl5eAC_3A","LocationType":"point","DisplayPosition":{"Latitude":50.62438,"Longitude":9.50517},"MapView":{"TopLeft":{"Latitude":50.6255042,"Longitude":9.503398},"BottomRight":{"Latitude":50.6232558,"Longitude":9.506942}},"Address":{"Label":"Lindenstraße 7, 36364 Bad Salzschlirf, Deutschland","Country":"DEU","State":"Hessen","County":"Fulda","City":"Bad Salzschlirf","District":"Bad Salzschlirf","Street":"Lindenstraße","HouseNumber":"7","PostalCode":"36364","AdditionalData":[{"value":"Deutschland","key":"CountryName"},{"value":"Hessen","key":"StateName"},{"value":"Fulda","key":"CountyName"}]},"MapReference":{"ReferenceId":"78679855","Spot":0.81,"SideOfStreet":"right","CountryId":"20147700","StateId":"20160993","CountyId":"20162976","CityId":"20162977","DistrictId":"20162979","AddressId":"187715305","RoadLinkId":"34371295"}}},{"Relevance":1.0,"Distance":24.3,"MatchLevel":"houseNumber","MatchQuality":{"Country":1.0,"State":1.0,"County":1.0,"City":1.0,"District":1.0,"Street":[1.0],"HouseNumber":1.0,"PostalCode":1.0},"MatchType":"interpolated","Location":{"LocationId":"NT_ev0oLVlVEs10Mk7KJTnAUC_yA","LocationType":"point","DisplayPosition":{"Latitude":50.62433,"Longitude":9.50592},"MapView":{"TopLeft":{"Latitude":50.6254542,"Longitude":9.504148},"BottomRight":{"Latitude":50.6232058,"Longitude":9.507692}},"Address":{"Label":"Hermann-Vollrath-Straße 2, 36364 Bad Salzschlirf, Deutschland","Country":"DEU","State":"Hessen","County":"Fulda","City":"Bad Salzschlirf","District":"Bad Salzschlirf","Street":"Hermann-Vollrath-Straße","HouseNumber":"2","PostalCode":"36364","AdditionalData":[{"value":"Deutschland","key":"CountryName"},{"value":"Hessen","key":"StateName"},{"value":"Fulda","key":"CountyName"}]},"MapReference":{"ReferenceId":"78677387","Spot":0.46,"SideOfStreet":"left","CountryId":"20147700","StateId":"20160993","CountyId":"20162976","CityId":"20162977","DistrictId":"20162979","AddressId":"186502753","RoadLinkId":"33987777"}}},{"Relevance":1.0,"Distance":26.8,"MatchLevel":"houseNumber","MatchQuality":{"Country":1.0,"State":1.0,"County":1.0,"City":1.0,"District":1.0,"Street":[1.0],"HouseNumber":1.0,"PostalCode":1.0},"MatchType":"interpolated","Location":{"LocationId":"NT_cLYJy9bGa4CAj4Hojl5eAC_1A","LocationType":"point","DisplayPosition":{"Latitude":50.62467,"Longitude":9.50514},"MapView":{"TopLeft":{"Latitude":50.6257942,"Longitude":9.503368},"BottomRight":{"Latitude":50.6235458,"Longitude":9.506912}},"Address":{"Label":"Lindenstraße 5, 36364 Bad Salzschlirf, Deutschland","Country":"DEU","State":"Hessen","County":"Fulda","City":"Bad Salzschlirf","District":"Bad Salzschlirf","Street":"Lindenstraße","HouseNumber":"5","PostalCode":"36364","AdditionalData":[{"value":"Deutschland","key":"CountryName"},{"value":"Hessen","key":"StateName"},{"value":"Fulda","key":"CountyName"}]},"MapReference":{"ReferenceId":"78677389","Spot":0.08,"SideOfStreet":"right","CountryId":"20147700","StateId":"20160993","CountyId":"20162976","CityId":"20162977","DistrictId":"20162979","AddressId":"186679872","RoadLinkId":"34280978"}}},{"Relevance":1.0,"Distance":81.4,"MatchLevel":"houseNumber","MatchQuality":{"Country":1.0,"State":1.0,"County":1.0,"City":1.0,"District":1.0,"Street":[1.0],"HouseNumber":1.0,"PostalCode":1.0},"MatchType":"interpolated","Location":{"LocationId":"NT_qbi7DJIeDUPOF6olgOVbzA_xAD","LocationType":"point","DisplayPosition":{"Latitude":50.62445,"Longitude":9.5069},"MapView":{"TopLeft":{"Latitude":50.6255742,"Longitude":9.505128},"BottomRight":{"Latitude":50.6233258,"Longitude":9.508672}},"Address":{"Label":"Fuldaer Straße 10, 36364 Bad Salzschlirf, Deutschland","Country":"DEU","State":"Hessen","County":"Fulda","City":"Bad Salzschlirf","District":"Bad Salzschlirf","Street":"Fuldaer Straße","HouseNumber":"10","PostalCode":"36364","AdditionalData":[{"value":"Deutschland","key":"CountryName"},{"value":"Hessen","key":"StateName"},{"value":"Fulda","key":"CountyName"}]},"MapReference":{"ReferenceId":"1090282924","Spot":0.07,"SideOfStreet":"right","CountryId":"20147700","StateId":"20160993","CountyId":"20162976","CityId":"20162977","DistrictId":"20162979","AddressId":"676860515","RoadLinkId":"405266922"}}},{"Relevance":1.0,"Distance":88.6,"MatchLevel":"houseNumber","MatchQuality":{"Country":1.0,"State":1.0,"County":1.0,"City":1.0,"District":1.0,"Street":[1.0],"HouseNumber":1.0,"PostalCode":1.0},"MatchType":"interpolated","Location":{"LocationId":"NT_qbi7DJIeDUPOF6olgOVbzA_0A","LocationType":"point","DisplayPosition":{"Latitude":50.62492,"Longitude":9.50712},"MapView":{"TopLeft":{"Latitude":50.6260442,"Longitude":9.505348},"BottomRight":{"Latitude":50.6237958,"Longitude":9.508892}},"Address":{"Label":"Fuldaer Straße 4, 36364 Bad Salzschlirf, Deutschland","Country":"DEU","State":"Hessen","County":"Fulda","City":"Bad Salzschlirf","District":"Bad Salzschlirf","Street":"Fuldaer Straße","HouseNumber":"4","PostalCode":"36364","AdditionalData":[{"value":"Deutschland","key":"CountryName"},{"value":"Hessen","key":"StateName"},{"value":"Fulda","key":"CountyName"}]},"MapReference":{"ReferenceId":"807583415","Spot":0.68,"SideOfStreet":"left","CountryId":"20147700","StateId":"20160993","CountyId":"20162976","CityId":"20162977","DistrictId":"20162979","AddressId":"249949531","RoadLinkId":"207359891"}}},{"Relevance":1.0,"Distance":90.5,"MatchLevel":"houseNumber","MatchQuality":{"Country":1.0,"State":1.0,"County":1.0,"City":1.0,"District":1.0,"Street":[1.0],"HouseNumber":1.0,"PostalCode":1.0},"MatchType":"interpolated","Location":{"LocationId":"NT_znyanrINKTsPbobhHIG3SB_xA","LocationType":"point","DisplayPosition":{"Latitude":50.62516,"Longitude":9.50705},"MapView":{"TopLeft":{"Latitude":50.6262842,"Longitude":9.505278},"BottomRight":{"Latitude":50.6240358,"Longitude":9.508822}},"Address":{"Label":"Rathausplatz 1, 36364 Bad Salzschlirf, Deutschland","Country":"DEU","State":"Hessen","County":"Fulda","City":"Bad Salzschlirf","District":"Bad Salzschlirf","Street":"Rathausplatz","HouseNumber":"1","PostalCode":"36364","AdditionalData":[{"value":"Deutschland","key":"CountryName"},{"value":"Hessen","key":"StateName"},{"value":"Fulda","key":"CountyName"}]},"MapReference":{"ReferenceId":"807583416","Spot":0.0,"SideOfStreet":"left","CountryId":"20147700","StateId":"20160993","CountyId":"20162976","CityId":"20162977","DistrictId":"20162979","AddressId":"341563601","RoadLinkId":"267518964"}}},{"Relevance":1.0,"Distance":96.1,"MatchLevel":"houseNumber","MatchQuality":{"Country":1.0,"State":1.0,"County":1.0,"City":1.0,"District":1.0,"Street":[1.0],"HouseNumber":1.0,"PostalCode":1.0},"MatchType":"interpolated","Location":{"LocationId":"NT_.5IVM4svT3OiDWecbrDbYB_xA","LocationType":"point","DisplayPosition":{"Latitude":50.62351,"Longitude":9.5059},"MapView":{"TopLeft":{"Latitude":50.6246342,"Longitude":9.504128},"BottomRight":{"Latitude":50.6223858,"Longitude":9.507672}},"Address":{"Label":"Am Solebad 1, 36364 Bad Salzschlirf, Deutschland","Country":"DEU","State":"Hessen","County":"Fulda","City":"Bad Salzschlirf","District":"Bad Salzschlirf","Street":"Am Solebad","HouseNumber":"1","PostalCode":"36364","AdditionalData":[{"value":"Deutschland","key":"CountryName"},{"value":"Hessen","key":"StateName"},{"value":"Fulda","key":"CountyName"}]},"MapReference":{"ReferenceId":"78679854","Spot":0.56,"SideOfStreet":"left","CountryId":"20147700","StateId":"20160993","CountyId":"20162976","CityId":"20162977","DistrictId":"20162979","AddressId":"187649210","RoadLinkId":"34704555"}}},{"Relevance":1.0,"Distance":98.8,"MatchLevel":"houseNumber","MatchQuality":{"Country":1.0,"State":1.0,"County":1.0,"City":1.0,"District":1.0,"Street":[1.0],"HouseNumber":1.0,"PostalCode":1.0},"MatchType":"interpolated","Location":{"LocationId":"NT_ev0oLVlVEs10Mk7KJTnAUC_2A","LocationType":"point","DisplayPosition":{"Latitude":50.62368,"Longitude":9.50647},"MapView":{"TopLeft":{"Latitude":50.6248042,"Longitude":9.504698},"BottomRight":{"Latitude":50.6225558,"Longitude":9.508242}},"Address":{"Label":"Hermann-Vollrath-Straße 6, 36364 Bad Salzschlirf, Deutschland","Country":"DEU","State":"Hessen","County":"Fulda","City":"Bad Salzschlirf","District":"Bad Salzschlirf","Street":"Hermann-Vollrath-Straße","HouseNumber":"6","PostalCode":"36364","AdditionalData":[{"value":"Deutschland","key":"CountryName"},{"value":"Hessen","key":"StateName"},{"value":"Fulda","key":"CountyName"}]},"MapReference":{"ReferenceId":"78677385","Spot":0.11,"SideOfStreet":"left","CountryId":"20147700","StateId":"20160993","CountyId":"20162976","CityId":"20162977","DistrictId":"20162979","AddressId":"186678829","RoadLinkId":"34609714"}}},{"Relevance":1.0,"Distance":106.0,"MatchLevel":"street","MatchQuality":{"Country":1.0,"State":1.0,"County":1.0,"City":1.0,"District":1.0,"Street":[1.0],"PostalCode":1.0},"Location":{"LocationId":"NT_ev0oLVlVEs10Mk7KJTnAUC_l_78677384_L","LocationType":"point","DisplayPosition":{"Latitude":50.62365,"Longitude":9.50648},"MapView":{"TopLeft":{"Latitude":50.62365,"Longitude":9.50648},"BottomRight":{"Latitude":50.62356,"Longitude":9.50651}},"Address":{"Label":"Hermann-Vollrath-Straße, 36364 Bad Salzschlirf, Deutschland","Country":"DEU","State":"Hessen","County":"Fulda","City":"Bad Salzschlirf","District":"Bad Salzschlirf","Street":"Hermann-Vollrath-Straße","PostalCode":"36364","AdditionalData":[{"value":"Deutschland","key":"CountryName"},{"value":"Hessen","key":"StateName"},{"value":"Fulda","key":"CountyName"}]},"MapReference":{"ReferenceId":"78677384","Spot":1.0,"SideOfStreet":"left","CountryId":"20147700","StateId":"20160993","CountyId":"20162976","CityId":"20162977","DistrictId":"20162979"}}}]}]}}