{"Response":{"MetaInfo":{"Timestamp":"2020-03-28T10:22:58.977+0000","NextPageInformation":"2"},"View":[{"_type":"SearchResultsViewType","ViewId":0,"Result":[{"Relevance":1.0,"Distance":0.0,"Direction":0.0,"MatchLevel":"city","MatchQuality":{"Country":1.0,"State":1.0,"County":1.0,"City":1.0,"PostalCode":1.0},"Location":{"LocationId":"NT_FSrxcR.HuWo7.SVLYnRpJD","LocationType":"point","DisplayPosition":{"Latitude":50.6431233,"Longitude":6.7967746},"MapView":{"TopLeft":{"Latitude":50.70303,"Longitude":6.71011},"BottomRight":{"Latitude":50.56047,"Longitude":6.93505}},"Address":{"Label":"Euskirchen, Nordrhein-Westfalen, Deutschland","Country":"DEU","State":"Nordrhein-Westfalen","County":"Euskirchen","City":"Euskirchen","PostalCode":"53879","AdditionalData":[{"value":"Deutschland","key":"CountryName"},{"value":"Nordrhein-Westfalen","key":"StateName"},{"value":"Euskirchen","key":"CountyName"}]},"MapReference":{"ReferenceId":"60558710","SideOfStreet":"neither","CountryId":"20147700","StateId":"20157369","CountyId":"20158406","CityId":"20158450"}}},{"Relevance":1.0,"Distance":43.7,"MatchLevel":"houseNumber","MatchQuality":{"Country":1.0,"State":1.0,"County":1.0,"City":1.0,"Street":[1.0],"HouseNumber":1.0,"PostalCode":1.0},"MatchType":"interpolated","Location":{"LocationId":"NT_07hbC13ZjpVdfPPB.njenD_zQD","LocationType":"point","DisplayPosition":{"Latitude":50.6428,"Longitude":6.79743},"MapView":{"TopLeft":{"Latitude":50.6439242,"Longitude":6.7956573},"BottomRight":{"Latitude":50.6416758,"Longitude":6.7992027}},"Address":{"Label":"Otto-Lilienthal-Straße 34, 53879 Euskirchen, Deutschland","Country":"DEU","State":"Nordrhein-Westfalen","County":"Euskirchen","City":"Euskirchen","Street":"Otto-Lilienthal-Straße","HouseNumber":"34","PostalCode":"53879","AdditionalData":[{"value":"Deutschland","key":"CountryName"},{"value":"Nordrhein-Westfalen","key":"StateName"},{"value":"Euskirchen","key":"CountyName"}]},"MapReference":{"ReferenceId":"1040797210","Spot":0.0,"SideOfStreet":"left","CountryId":"20147700","StateId":"20157369","CountyId":"20158406","CityId":"20158450","AddressId":"622178680","RoadLinkId":"362716895"}}},{"Relevance":1.0,"Distance":48.1,"MatchLevel":"landmark","MatchQuality":{"Country":1.0,"State":1.0,"County":1.0,"City":1.0,"District":1.0,"PostalCode":1.0,"Name":1.0},"Location":{"LocationId":"NT_rDBW.hqzq0-5byFVmycgaC","LocationType":"industrialComplex","Name":"Gewerbegebiet West","DisplayPosition":{"Latitude":50.65188,"Longitude":6.79828},"MapView":{"TopLeft":{"Latitude":50.66024,"Longitude":6.79211},"BottomRight":{"Latitude":50.64352,"Longitude":6.80606}},"Address":{"Label":"53879 Euskirchen, Deutschland","Country":"DEU","State":"Nordrhein-Westfalen","County":"Euskirchen","City":"Euskirchen","District":"Euskirchen","PostalCode":"53879","AdditionalData":[{"value":"Deutschland","key":"CountryName"},{"value":"Nordrhein-Westfalen","key":"StateName"},{"value":"Euskirchen","key":"CountyName"}]},"MapReference":{"CountryId":"20147700","StateId":"20157369","CountyId":"20158406","CityId":"20158450","DistrictId":"20158469","PlaceId":"1410360287"}}},{"Relevance":1.0,"Distance":95.0,"MatchLevel":"houseNumber","MatchQuality":{"Country":1.0,"State":1.0,"County":1.0,"City":1.0,"District":1.0,"Street":[1.0],"HouseNumber":1.0,"PostalCode":1.0},"MatchType":"interpolated","Location":{"LocationId":"NT_E1RdIM1d-SQYl.aAwgpqTD_xIjM","LocationType":"point","DisplayPosition":{"Latitude":50.64404,"Longitude":6.79631},"MapView":{"TopLeft":{"Latitude":50.6451642,"Longitude":6.7945373},"BottomRight":{"Latitude":50.6429158,"Longitude":6.7980827}},"Address":{"Label":"Franz-Sester-Straße 122, 53879 Euskirchen, Deutschland","Country":"DEU","State":"Nordrhein-Westfalen","County":"Euskirchen","City":"Euskirchen","District":"Euskirchen","Street":"Franz-Sester-Straße","HouseNumber":"122","PostalCode":"53879","AdditionalData":[{"value":"Deutschland","key":"CountryName"},{"value":"Nordrhein-Westfalen","key":"StateName"},{"value":"Euskirchen","key":"CountyName"}]},"MapReference":{"ReferenceId":"60556934","Spot":0.49,"SideOfStreet":"right","CountryId":"20147700","StateId":"20157369","CountyId":"20158406","CityId":"20158450","DistrictId":"20158469","AddressId":"249393757","RoadLinkId":"244871048"}}},{"Relevance":1.0,"Distance":100.5,"MatchLevel":"houseNumber","MatchQuality":{"Country":1.0,"State":1.0,"County":1.0,"City":1.0,"District":1.0,"Street":[1.0],"HouseNumber":1.0,"PostalCode":1.0},"MatchType":"interpolated","Location":{"LocationId":"NT_E1RdIM1d-SQYl.aAwgpqTD_xIDM","LocationType":"point","DisplayPosition":{"Latitude":50.644,"Longitude":6.79597},"MapView":{"TopLeft":{"Latitude":50.6451242,"Longitude":6.7941973},"BottomRight":{"Latitude":50.6428758,"Longitude":6.7977427}},"Address":{"Label":"Franz-Sester-Straße 120, 53879 Euskirchen, Deutschland","Country":"DEU","State":"Nordrhein-Westfalen","County":"Euskirchen","City":"Euskirchen","District":"Euskirchen","Street":"Franz-Sester-Straße","HouseNumber":"120","PostalCode":"53879","AdditionalData":[{"value":"Deutschland","key":"CountryName"},{"value":"Nordrhein-Westfalen","key":"StateName"},{"value":"Euskirchen","key":"CountyName"}]},"MapReference":{"ReferenceId":"60556940","Spot":0.02,"SideOfStreet":"left","CountryId":"20147700","StateId":"20157369","CountyId":"20158406","CityId":"20158450","DistrictId":"20158469","AddressId":"209406949","RoadLinkId":"39100125"}}},{"Relevance":1.0,"Distance":100.7,"MatchLevel":"street","MatchQuality":{"Country":1.0,"State":1.0,"County":1.0,"City":1.0,"District":1.0,"Street":[1.0],"PostalCode":1.0},"Location":{"LocationId":"NT_46h7KvdnHllFPDN5fxCpYA_l_1040797209_L","LocationType":"point","DisplayPosition":{"Latitude":50.64374,"Longitude":6.79782},"MapView":{"TopLeft":{"Latitude":50.64529,"Longitude":6.79729},"BottomRight":{"Latitude":50.64374,"Longitude":6.79789}},"Address":{"Label":"Otto-Lilienthal-Straße, 53879 Euskirchen, Deutschland","Country":"DEU","State":"Nordrhein-Westfalen","County":"Euskirchen","City":"Euskirchen","District":"Euskirchen","Street":"Otto-Lilienthal-Straße","PostalCode":"53879","AdditionalData":[{"value":"Deutschland","key":"CountryName"},{"value":"Nordrhein-Westfalen","key":"StateName"},{"value":"Euskirchen","key":"CountyName"}]},"MapReference":{"ReferenceId":"1040797209","Spot":0.0,"SideOfStreet":"left","CountryId":"20147700","StateId":"20157369","CountyId":"20158406","CityId":"20158450","DistrictId":"20158469"}}},{"Relevance":1.0,"Distance":130.9,"MatchLevel":"houseNumber","MatchQuality":{"Country":1.0,"State":1.0,"County":1.0,"City":1.0,"District":1.0,"Street":[1.0],"HouseNumber":1.0,"PostalCode":1.0},"MatchType":"interpolated","Location":{"LocationId":"NT_5OzSOSTvAlNewT4HnvEyCC_0cD","LocationType":"point","DisplayPosition":{"Latitude":50.64421,"Longitude":6.79593},"MapView":{"TopLeft":{"Latitude":50.6453342,"Longitude":6.7941573},"BottomRight":{"Latitude":50.6430858,"Longitude":6.7977027}},"Address":{"Label":"Zeppelinstraße 47, 53879 Euskirchen, Deutschland","Country":"DEU","State":"Nordrhein-Westfalen","County":"Euskirchen","City":"Euskirchen","District":"Euskirchen","Street":"Zeppelinstraße","HouseNumber":"47","PostalCode":"53879","AdditionalData":[{"value":"Deutschland","key":"CountryName"},{"value":"Nordrhein-Westfalen","key":"StateName"},{"value":"Euskirchen","key":"CountyName"}]},"MapReference":{"ReferenceId":"60556935","Spot":0.19,"SideOfStreet":"right","CountryId":"20147700","StateId":"20157369","CountyId":"20158406","CityId":"20158450","DistrictId":"20158469","AddressId":"193135290","RoadLinkId":"39263098"}}},{"Relevance":1.0,"Distance":142.5,"MatchLevel":"street","MatchQuality":{"Country":1.0,"State":1.0,"County":1.0,"City":1.0,"Street":[1.0],"PostalCode":1.0},"Location":{"LocationId":"NT_dXbhE66alECRWkWMzs.nbA_l_1195013736_L","LocationType":"point","DisplayPosition":{"Latitude":50.6422543,"Longitude":6.7982591},"MapView":{"TopLeft":{"Latitude":50.64352,"Longitude":6.79804},"BottomRight":{"Latitude":50.64188,"Longitude":6.799}},"Address":{"Label":"L194, 53881 Euskirchen, Deutschland","Country":"DEU","State":"Nordrhein-Westfalen","County":"Euskirchen","City":"Euskirchen","Street":"L194","PostalCode":"53881","AdditionalData":[{"value":"Deutschland","key":"CountryName"},{"value":"Nordrhein-Westfalen","key":"StateName"},{"value":"Euskirchen","key":"CountyName"}]},"MapReference":{"ReferenceId":"1195013736","Spot":0.23,"SideOfStreet":"left","CountryId":"20147700","StateId":"20157369","CountyId":"20158406","CityId":"20158450"}}},{"Relevance":1.0,"Distance":163.0,"MatchLevel":"street","MatchQuality":{"Country":1.0,"State":1.0,"County":1.0,"City":1.0,"District":1.0,"Street":[1.0],"PostalCode":1.0},"Location":{"LocationId":"NT_pW5AtrbadXQ0I88FA2rMYC_l_792733055_L","LocationType":"point","DisplayPosition":{"Latitude":50.64352,"Longitude":6.799},"MapView":{"TopLeft":{"Latitude":50.64454,"Longitude":6.799},"BottomRight":{"Latitude":50.64352,"Longitude":6.7996}},"Address":{"Label":"L194, 53879 Euskirchen, Deutschland","Country":"DEU","State":"Nordrhein-Westfalen","County":"Euskirchen","City":"Euskirchen","District":"Euskirchen","Street":"L194","PostalCode":"53879","AdditionalData":[{"value":"Deutschland","key":"CountryName"},{"value":"Nordrhein-Westfalen","key":"StateName"},{"value":"Euskirchen","key":"CountyName"}]},"MapReference":{"ReferenceId":"792733055","Spot":0.0,"SideOfStreet":"left","CountryId":"20147700","StateId":"20157369","CountyId":"20158406","CityId":"20158450","DistrictId":"20158469"}}},{"Relevance":1.0,"Distance":164.5,"MatchLevel":"street","MatchQuality":{"Country":1.0,"State":1.0,"County":1.0,"City":1.0,"Street":[1.0],"PostalCode":1.0},"Location":{"LocationId":"NT_dXbhE66alECRWkWMzs.nbA_l_1195013735_L","LocationType":"point","DisplayPosition":{"Latitude":50.64188,"Longitude":6.79804},"MapView":{"TopLeft":{"Latitude":50.64188,"Longitude":6.79616},"BottomRight":{"Latitude":50.63856,"Longitude":6.79804}},"Address":{"Label":"L194, 53881 Euskirchen, Deutschland","Country":"DEU","State":"Nordrhein-Westfalen","County":"Euskirchen","City":"Euskirchen","Street":"L194","PostalCode":"53881","AdditionalData":[{"value":"Deutschland","key":"CountryName"},{"value":"Nordrhein-Westfalen","key":"StateName"},{"value":"Euskirchen","key":"CountyName"}]},"MapReference":{"ReferenceId":"1195013735","Spot":1.0,"SideOfStreet":"left","CountryId":"20147700","StateId":"20157369","CountyId":"20158406","CityId":"20158450"}}}]}]}}