{"Response":{"MetaInfo":{"Timestamp":"2020-03-28T10:15:30.662+0000","NextPageInformation":"2"},"View":[{"_type":"SearchResultsViewType","ViewId":0,"Result":[{"Relevance":1.0,"Distance":0.0,"Direction":0.0,"MatchLevel":"city","MatchQuality":{"Country":1.0,"State":1.0,"County":1.0,"City":1.0,"PostalCode":1.0},"Location":{"LocationId":"NT_0.ihjslrD4y7Q6yHLdQeUB","LocationType":"point","DisplayPosition":{"Latitude":50.6817609,"Longitude":4.270041},"MapView":{"TopLeft":{"Latitude":50.70045,"Longitude":4.23742},"BottomRight":{"Latitude":50.65882,"Longitude":4.33352}},"Address":{"Label":"Braine-le-Château, Wallonie, Belgique","Country":"BEL","State":"Wallonie","County":"Brabant Wallon","City":"Braine-le-Château","PostalCode":"1440","AdditionalData":[{"value":"Belgique","key":"CountryName"},{"value":"Wallonie","key":"StateName"},{"value":"Brabant Wallon","key":"CountyName"}]},"MapReference":{"ReferenceId":"799571482","SideOfStreet":"neither","CountryId":"20128886","StateId":"20205526","CountyId":"20208226","CityId":"20208240"}}},{"Relevance":1.0,"Distance":5.3,"MatchLevel":"houseNumber","MatchQuality":{"Country":1.0,"State":1.0,"County":1.0,"City":1.0,"Street":[1.0],"HouseNumber":1.0,"PostalCode":1.0},"MatchType":"interpolated","Location":{"LocationId":"NT_Y2jQlpIuzkoqiGqdG2d2UC_xED","LocationType":"point","DisplayPosition":{"Latitude":50.68175,"Longitude":4.26995},"MapView":{"TopLeft":{"Latitude":50.6828742,"Longitude":4.2681758},"BottomRight":{"Latitude":50.6806258,"Longitude":4.2717242}},"Address":{"Label":"Rue de la Station 11, 1440 Braine-le-Château, Belgique","Country":"BEL","State":"Wallonie","County":"Brabant Wallon","City":"Braine-le-Château","Street":"Rue de la Station","HouseNumber":"11","PostalCode":"1440","AdditionalData":[{"value":"Belgique","key":"CountryName"},{"value":"Wallonie","key":"StateName"},{"value":"Brabant Wallon","key":"CountyName"}]},"MapReference":{"ReferenceId":"53747511","Spot":0.3,"SideOfStreet":"right","CountryId":"20128886","StateId":"20205526","CountyId":"20208226","CityId":"20208240","AddressId":"369002382","RoadLinkId":"30281621"}}},{"Relevance":1.0,"Distance":25.1,"MatchLevel":"houseNumber","MatchQuality":{"Country":1.0,"State":1.0,"County":1.0,"City":1.0,"Street":[1.0],"HouseNumber":1.0,"PostalCode":1.0},"MatchType":"interpolated","Location":{"LocationId":"NT_Y2jQlpIuzkoqiGqdG2d2UC_xkD","LocationType":"point","DisplayPosition":{"Latitude":50.68152,"Longitude":4.27031},"MapView":{"TopLeft":{"Latitude":50.6826442,"Longitude":4.2685359},"BottomRight":{"Latitude":50.6803958,"Longitude":4.2720841}},"Address":{"Label":"Rue de la Station 19, 1440 Braine-le-Château, Belgique","Country":"BEL","State":"Wallonie","County":"Brabant Wallon","City":"Braine-le-Château","Street":"Rue de la Station","HouseNumber":"19","PostalCode":"1440","AdditionalData":[{"value":"Belgique","key":"CountryName"},{"value":"Wallonie","key":"StateName"},{"value":"Brabant Wallon","key":"CountyName"}]},"MapReference":{"ReferenceId":"55702652","Spot":0.92,"SideOfStreet":"right","CountryId":"20128886","StateId":"20205526","CountyId":"20208226","CityId":"20208240","AddressId":"368858450","RoadLinkId":"30561541"}}},{"Relevance":1.0,"Distance":35.7,"MatchLevel":"houseNumber","MatchQuality":{"Country":1.0,"State":1.0,"County":1.0,"City":1.0,"Street":[1.0],"HouseNumber":1.0,"PostalCode":1.0},"MatchType":"interpolated","Location":{"LocationId":"NT_dCR79eQRUklZZwkimbkdXA_yA","LocationType":"point","DisplayPosition":{"Latitude":50.68144,"Longitude":4.2701},"MapView":{"TopLeft":{"Latitude":50.6825642,"Longitude":4.2683259},"BottomRight":{"Latitude":50.6803158,"Longitude":4.2718741}},"Address":{"Label":"Rue Marcel Plasman 2, 1440 Braine-le-Château, Belgique","Country":"BEL","State":"Wallonie","County":"Brabant Wallon","City":"Braine-le-Château","Street":"Rue Marcel Plasman","HouseNumber":"2","PostalCode":"1440","AdditionalData":[{"value":"Belgique","key":"CountryName"},{"value":"Wallonie","key":"StateName"},{"value":"Brabant Wallon","key":"CountyName"}]},"MapReference":{"ReferenceId":"55702649","Spot":0.96,"SideOfStreet":"left","CountryId":"20128886","StateId":"20205526","CountyId":"20208226","CityId":"20208240","AddressId":"369288085","RoadLinkId":"30510547"}}},{"Relevance":1.0,"Distance":41.4,"MatchLevel":"houseNumber","MatchQuality":{"Country":1.0,"State":1.0,"County":1.0,"City":1.0,"Street":[1.0],"HouseNumber":1.0,"PostalCode":1.0},"MatchType":"interpolated","Location":{"LocationId":"NT_obCD18vwOyJXsD3i1qYXLC_yQD","LocationType":"point","DisplayPosition":{"Latitude":50.68223,"Longitude":4.2701},"MapView":{"TopLeft":{"Latitude":50.6833542,"Longitude":4.2683258},"BottomRight":{"Latitude":50.6811058,"Longitude":4.2718742}},"Address":{"Label":"Rue de la Libération 24, 1440 Braine-le-Château, Belgique","Country":"BEL","State":"Wallonie","County":"Brabant Wallon","City":"Braine-le-Château","Street":"Rue de la Libération","HouseNumber":"24","PostalCode":"1440","AdditionalData":[{"value":"Belgique","key":"CountryName"},{"value":"Wallonie","key":"StateName"},{"value":"Brabant Wallon","key":"CountyName"}]},"MapReference":{"ReferenceId":"799792677","Spot":0.27,"SideOfStreet":"left","CountryId":"20128886","StateId":"20205526","CountyId":"20208226","CityId":"20208240","AddressId":"369132582","RoadLinkId":"190587975"}}},{"Relevance":1.0,"Distance":60.3,"MatchLevel":"houseNumber","MatchQuality":{"Country":1.0,"State":1.0,"County":1.0,"City":1.0,"Street":[1.0],"HouseNumber":1.0,"PostalCode":1.0},"MatchType":"interpolated","Location":{"LocationId":"NT_obCD18vwOyJXsD3i1qYXLC_zAD","LocationType":"point","DisplayPosition":{"Latitude":50.68231,"Longitude":4.27053},"MapView":{"TopLeft":{"Latitude":50.6834342,"Longitude":4.2687558},"BottomRight":{"Latitude":50.6811858,"Longitude":4.2723042}},"Address":{"Label":"Rue de la Libération 30, 1440 Braine-le-Château, Belgique","Country":"BEL","State":"Wallonie","County":"Brabant Wallon","City":"Braine-le-Château","Street":"Rue de la Libération","HouseNumber":"30","PostalCode":"1440","AdditionalData":[{"value":"Belgique","key":"CountryName"},{"value":"Wallonie","key":"StateName"},{"value":"Brabant Wallon","key":"CountyName"}]},"MapReference":{"ReferenceId":"799792678","Spot":1.0,"SideOfStreet":"right","CountryId":"20128886","StateId":"20205526","CountyId":"20208226","CityId":"20208240","AddressId":"369132124","RoadLinkId":"190587976"}}},{"Relevance":1.0,"Distance":69.9,"MatchLevel":"houseNumber","MatchQuality":{"Country":1.0,"State":1.0,"County":1.0,"City":1.0,"Street":[1.0],"HouseNumber":1.0,"PostalCode":1.0},"MatchType":"interpolated","Location":{"LocationId":"NT_obCD18vwOyJXsD3i1qYXLC_l_799571484_R_5A","LocationType":"point","DisplayPosition":{"Latitude":50.6822977,"Longitude":4.2695233},"MapView":{"TopLeft":{"Latitude":50.6834218,"Longitude":4.2677492},"BottomRight":{"Latitude":50.6811735,"Longitude":4.2712975}},"Address":{"Label":"Rue de la Libération 9, 1440 Braine-le-Château, Belgique","Country":"BEL","State":"Wallonie","County":"Brabant Wallon","City":"Braine-le-Château","Street":"Rue de la Libération","HouseNumber":"9","PostalCode":"1440","AdditionalData":[{"value":"Belgique","key":"CountryName"},{"value":"Wallonie","key":"StateName"},{"value":"Brabant Wallon","key":"CountyName"}]},"MapReference":{"ReferenceId":"799571484","Spot":0.59,"SideOfStreet":"right","CountryId":"20128886","StateId":"20205526","CountyId":"20208226","CityId":"20208240"}}},{"Relevance":1.0,"Distance":74.5,"MatchLevel":"houseNumber","MatchQuality":{"Country":1.0,"State":1.0,"County":1.0,"City":1.0,"Street":[1.0],"HouseNumber":1.0,"PostalCode":1.0},"MatchType":"interpolated","Location":{"LocationId":"NT_obCD18vwOyJXsD3i1qYXLC_yAD","LocationType":"point","DisplayPosition":{"Latitude":50.68234,"Longitude":4.26934},"MapView":{"TopLeft":{"Latitude":50.6834642,"Longitude":4.2675658},"BottomRight":{"Latitude":50.6812158,"Longitude":4.2711142}},"Address":{"Label":"Rue de la Libération 20, 1440 Braine-le-Château, Belgique","Country":"BEL","State":"Wallonie","County":"Brabant Wallon","City":"Braine-le-Château","Street":"Rue de la Libération","HouseNumber":"20","PostalCode":"1440","AdditionalData":[{"value":"Belgique","key":"CountryName"},{"value":"Wallonie","key":"StateName"},{"value":"Brabant Wallon","key":"CountyName"}]},"MapReference":{"ReferenceId":"799571485","Spot":0.32,"SideOfStreet":"left","CountryId":"20128886","StateId":"20205526","CountyId":"20208226","CityId":"20208240","AddressId":"368891044","RoadLinkId":"190328822"}}},{"Relevance":1.0,"Distance":82.1,"MatchLevel":"houseNumber","MatchQuality":{"Country":1.0,"State":1.0,"County":1.0,"City":1.0,"Street":[1.0],"HouseNumber":1.0,"PostalCode":1.0},"MatchType":"interpolated","Location":{"LocationId":"NT_obCD18vwOyJXsD3i1qYXLC_zID","LocationType":"point","DisplayPosition":{"Latitude":50.68237,"Longitude":4.2707},"MapView":{"TopLeft":{"Latitude":50.6834942,"Longitude":4.2689258},"BottomRight":{"Latitude":50.6812458,"Longitude":4.2724742}},"Address":{"Label":"Rue de la Libération 32, 1440 Braine-le-Château, Belgique","Country":"BEL","State":"Wallonie","County":"Brabant Wallon","City":"Braine-le-Château","Street":"Rue de la Libération","HouseNumber":"32","PostalCode":"1440","AdditionalData":[{"value":"Belgique","key":"CountryName"},{"value":"Wallonie","key":"StateName"},{"value":"Brabant Wallon","key":"CountyName"}]},"MapReference":{"ReferenceId":"799571487","Spot":0.24,"SideOfStreet":"right","CountryId":"20128886","StateId":"20205526","CountyId":"20208226","CityId":"20208240","AddressId":"369287745","RoadLinkId":"190328824"}}},{"Relevance":1.0,"Distance":85.7,"MatchLevel":"street","MatchQuality":{"Country":1.0,"State":1.0,"County":1.0,"City":1.0,"PostalCode":1.0},"Location":{"LocationId":"NT_wRWTKTIQ7p4eAV.aw.ASzC_l_68162321_L","LocationType":"point","DisplayPosition":{"Latitude":50.68109,"Longitude":4.27064},"MapView":{"TopLeft":{"Latitude":50.68147,"Longitude":4.27064},"BottomRight":{"Latitude":50.68109,"Longitude":4.27275}},"Address":{"Label":"1440 Braine-le-Château, Belgique","Country":"BEL","State":"Wallonie","County":"Brabant Wallon","City":"Braine-le-Château","PostalCode":"1440","AdditionalData":[{"value":"Belgique","key":"CountryName"},{"value":"Wallonie","key":"StateName"},{"value":"Brabant Wallon","key":"CountyName"}]},"MapReference":{"ReferenceId":"68162321","Spot":0.0,"SideOfStreet":"left","CountryId":"20128886","StateId":"20205526","CountyId":"20208226","CityId":"20208240"}}}]}]}}