{"Response":{"MetaInfo":{"Timestamp":"2020-03-28T11:38:58.573+0000","NextPageInformation":"2"},"View":[{"_type":"SearchResultsViewType","ViewId":0,"Result":[{"Relevance":1.0,"Distance":0.0,"Direction":0.0,"MatchLevel":"district","MatchQuality":{"Country":1.0,"State":1.0,"County":1.0,"City":1.0,"District":1.0,"PostalCode":1.0},"Location":{"LocationId":"NT_v535d7Q9WfLkj.huQiltjC","LocationType":"point","DisplayPosition":{"Latitude":50.6369188,"Longitude":4.7808615},"MapView":{"TopLeft":{"Latitude":50.64113,"Longitude":4.76854},"BottomRight":{"Latitude":50.62397,"Longitude":4.79597}},"Address":{"Label":"Thorembais-Saint-Trond, Perwez, Wallonie, Belgique","Country":"BEL","State":"Wallonie","County":"Brabant Wallon","City":"Perwez","District":"Thorembais-Saint-Trond","PostalCode":"1360","AdditionalData":[{"value":"Belgique","key":"CountryName"},{"value":"Wallonie","key":"StateName"},{"value":"Brabant Wallon","key":"CountyName"}]},"MapReference":{"ReferenceId":"841664964","SideOfStreet":"neither","CountryId":"20128886","StateId":"20205526","CountyId":"20208226","CityId":"20208311","DistrictId":"20208317"}}},{"Relevance":1.0,"Distance":18.5,"MatchLevel":"houseNumber","MatchQuality":{"Country":1.0,"State":1.0,"County":1.0,"City":1.0,"District":1.0,"Street":[1.0],"HouseNumber":1.0,"PostalCode":1.0},"MatchType":"interpolated","Location":{"LocationId":"NT_7gqqbmeTsp1UhavVs-XNAC_zkD","LocationType":"point","DisplayPosition":{"Latitude":50.63716,"Longitude":4.78074},"MapView":{"TopLeft":{"Latitude":50.6382842,"Longitude":4.7789675},"BottomRight":{"Latitude":50.6360358,"Longitude":4.7825125}},"Address":{"Label":"Chaussée de Charleroi 39, 1360 Perwez, Belgique","Country":"BEL","State":"Wallonie","County":"Brabant Wallon","City":"Perwez","District":"Thorembais-Saint-Trond","Street":"Chaussée de Charleroi","HouseNumber":"39","PostalCode":"1360","AdditionalData":[{"value":"Belgique","key":"CountryName"},{"value":"Wallonie","key":"StateName"},{"value":"Brabant Wallon","key":"CountyName"}]},"MapReference":{"ReferenceId":"1222244298","Spot":0.35,"SideOfStreet":"right","CountryId":"20128886","StateId":"20205526","CountyId":"20208226","CityId":"20208311","DistrictId":"20208317","AddressId":"369158677","RoadLinkId":"539860760"}}},{"Relevance":1.0,"Distance":24.8,"MatchLevel":"houseNumber","MatchQuality":{"Country":1.0,"State":1.0,"County":1.0,"City":1.0,"District":1.0,"Street":[1.0],"HouseNumber":1.0,"PostalCode":1.0},"MatchType":"interpolated","Location":{"LocationId":"NT_7gqqbmeTsp1UhavVs-XNAC_0ED","LocationType":"point","DisplayPosition":{"Latitude":50.63695,"Longitude":4.7805},"MapView":{"TopLeft":{"Latitude":50.6380742,"Longitude":4.7787275},"BottomRight":{"Latitude":50.6358258,"Longitude":4.7822725}},"Address":{"Label":"Chaussée de Charleroi 41, 1360 Perwez, Belgique","Country":"BEL","State":"Wallonie","County":"Brabant Wallon","City":"Perwez","District":"Thorembais-Saint-Trond","Street":"Chaussée de Charleroi","HouseNumber":"41","PostalCode":"1360","AdditionalData":[{"value":"Belgique","key":"CountryName"},{"value":"Wallonie","key":"StateName"},{"value":"Brabant Wallon","key":"CountyName"}]},"MapReference":{"ReferenceId":"1222244297","Spot":0.21,"SideOfStreet":"right","CountryId":"20128886","StateId":"20205526","CountyId":"20208226","CityId":"20208311","DistrictId":"20208317","AddressId":"369158678","RoadLinkId":"539860759"}}},{"Relevance":1.0,"Distance":28.3,"MatchLevel":"street","MatchQuality":{"Country":1.0,"State":1.0,"County":1.0,"City":1.0,"District":1.0,"Street":[1.0],"PostalCode":1.0},"Location":{"LocationId":"NT_7gqqbmeTsp1UhavVs-XNAC_l_1222144958_R","LocationType":"point","DisplayPosition":{"Latitude":50.63692,"Longitude":4.78046},"MapView":{"TopLeft":{"Latitude":50.63692,"Longitude":4.78026},"BottomRight":{"Latitude":50.63676,"Longitude":4.78046}},"Address":{"Label":"Chaussée de Charleroi, 1360 Perwez, Belgique","Country":"BEL","State":"Wallonie","County":"Brabant Wallon","City":"Perwez","District":"Thorembais-Saint-Trond","Street":"Chaussée de Charleroi","PostalCode":"1360","AdditionalData":[{"value":"Belgique","key":"CountryName"},{"value":"Wallonie","key":"StateName"},{"value":"Brabant Wallon","key":"CountyName"}]},"MapReference":{"ReferenceId":"1222144958","Spot":1.0,"SideOfStreet":"right","CountryId":"20128886","StateId":"20205526","CountyId":"20208226","CityId":"20208311","DistrictId":"20208317"}}},{"Relevance":1.0,"Distance":41.5,"MatchLevel":"houseNumber","MatchQuality":{"Country":1.0,"State":1.0,"County":1.0,"City":1.0,"District":1.0,"Street":[1.0],"HouseNumber":1.0,"PostalCode":1.0},"MatchType":"interpolated","Location":{"LocationId":"NT_7gqqbmeTsp1UhavVs-XNAC_0MD","LocationType":"point","DisplayPosition":{"Latitude":50.63675,"Longitude":4.78025},"MapView":{"TopLeft":{"Latitude":50.6378742,"Longitude":4.7784775},"BottomRight":{"Latitude":50.6356258,"Longitude":4.7820225}},"Address":{"Label":"Chaussée de Charleroi 43, 1360 Perwez, Belgique","Country":"BEL","State":"Wallonie","County":"Brabant Wallon","City":"Perwez","District":"Thorembais-Saint-Trond","Street":"Chaussée de Charleroi","HouseNumber":"43","PostalCode":"1360","AdditionalData":[{"value":"Belgique","key":"CountryName"},{"value":"Wallonie","key":"StateName"},{"value":"Brabant Wallon","key":"CountyName"}]},"MapReference":{"ReferenceId":"1222144957","Spot":0.95,"SideOfStreet":"right","CountryId":"20128886","StateId":"20205526","CountyId":"20208226","CityId":"20208311","DistrictId":"20208317","AddressId":"368928093","RoadLinkId":"539745815"}}},{"Relevance":1.0,"Distance":44.0,"MatchLevel":"street","MatchQuality":{"Country":1.0,"State":1.0,"County":1.0,"City":1.0,"District":1.0,"PostalCode":1.0},"Location":{"LocationId":"NT_1agLafyb55so7K1y5.0yOA_l_68166807_R","LocationType":"point","DisplayPosition":{"Latitude":50.6373078,"Longitude":4.7809726},"MapView":{"TopLeft":{"Latitude":50.63732,"Longitude":4.78093},"BottomRight":{"Latitude":50.6373,"Longitude":4.78114}},"Address":{"Label":"1360 Perwez, Belgique","Country":"BEL","State":"Wallonie","County":"Brabant Wallon","City":"Perwez","District":"Thorembais-Saint-Trond","PostalCode":"1360","AdditionalData":[{"value":"Belgique","key":"CountryName"},{"value":"Wallonie","key":"StateName"},{"value":"Brabant Wallon","key":"CountyName"}]},"MapReference":{"ReferenceId":"68166807","Spot":0.21,"SideOfStreet":"right","CountryId":"20128886","StateId":"20205526","CountyId":"20208226","CityId":"20208311","DistrictId":"20208317"}}},{"Relevance":1.0,"Distance":44.9,"MatchLevel":"street","MatchQuality":{"Country":1.0,"State":1.0,"County":1.0,"City":1.0,"District":1.0,"PostalCode":1.0},"Location":{"LocationId":"NT_1agLafyb55so7K1y5.0yOA_l_68166806_L","LocationType":"point","DisplayPosition":{"Latitude":50.63732,"Longitude":4.78093},"MapView":{"TopLeft":{"Latitude":50.63745,"Longitude":4.7809},"BottomRight":{"Latitude":50.63732,"Longitude":4.78093}},"Address":{"Label":"1360 Perwez, Belgique","Country":"BEL","State":"Wallonie","County":"Brabant Wallon","City":"Perwez","District":"Thorembais-Saint-Trond","PostalCode":"1360","AdditionalData":[{"value":"Belgique","key":"CountryName"},{"value":"Wallonie","key":"StateName"},{"value":"Brabant Wallon","key":"CountyName"}]},"MapReference":{"ReferenceId":"68166806","Spot":0.0,"SideOfStreet":"left","CountryId":"20128886","StateId":"20205526","CountyId":"20208226","CityId":"20208311","DistrictId":"20208317"}}},{"Relevance":1.0,"Distance":48.7,"MatchLevel":"street","MatchQuality":{"Country":1.0,"State":1.0,"County":1.0,"City":1.0,"District":1.0,"PostalCode":1.0},"Location":{"LocationId":"NT_1agLafyb55so7K1y5.0yOA_l_68166804_R","LocationType":"point","DisplayPosition":{"Latitude":50.63732,"Longitude":4.78114},"MapView":{"TopLeft":{"Latitude":50.63749,"Longitude":4.78114},"BottomRight":{"Latitude":50.63732,"Longitude":4.7812}},"Address":{"Label":"1360 Perwez, Belgique","Country":"BEL","State":"Wallonie","County":"Brabant Wallon","City":"Perwez","District":"Thorembais-Saint-Trond","PostalCode":"1360","AdditionalData":[{"value":"Belgique","key":"CountryName"},{"value":"Wallonie","key":"StateName"},{"value":"Brabant Wallon","key":"CountyName"}]},"MapReference":{"ReferenceId":"68166804","Spot":0.0,"SideOfStreet":"right","CountryId":"20128886","StateId":"20205526","CountyId":"20208226","CityId":"20208311","DistrictId":"20208317"}}},{"Relevance":1.0,"Distance":49.8,"MatchLevel":"houseNumber","MatchQuality":{"Country":1.0,"State":1.0,"County":1.0,"City":1.0,"District":1.0,"Street":[1.0],"HouseNumber":1.0,"PostalCode":1.0},"MatchType":"interpolated","Location":{"LocationId":"NT_D5ilWMcm-2lroxCZUrPWwC_yIjM","LocationType":"point","DisplayPosition":{"Latitude":50.63711,"Longitude":4.7815},"MapView":{"TopLeft":{"Latitude":50.6382342,"Longitude":4.7797275},"BottomRight":{"Latitude":50.6359858,"Longitude":4.7832725}},"Address":{"Label":"Chaussée de Wavre 222, 1360 Perwez, Belgique","Country":"BEL","State":"Wallonie","County":"Brabant Wallon","City":"Perwez","District":"Thorembais-Saint-Trond","Street":"Chaussée de Wavre","HouseNumber":"222","PostalCode":"1360","AdditionalData":[{"value":"Belgique","key":"CountryName"},{"value":"Wallonie","key":"StateName"},{"value":"Brabant Wallon","key":"CountyName"}]},"MapReference":{"ReferenceId":"1134210176","Spot":0.26,"SideOfStreet":"right","CountryId":"20128886","StateId":"20205526","CountyId":"20208226","CityId":"20208311","DistrictId":"20208317","AddressId":"369252703","RoadLinkId":"444110216"}}},{"Relevance":1.0,"Distance":59.2,"MatchLevel":"street","MatchQuality":{"Country":1.0,"State":1.0,"County":1.0,"City":1.0,"District":1.0,"Street":[1.0],"PostalCode":1.0},"Location":{"LocationId":"NT_D5ilWMcm-2lroxCZUrPWwC_l_1134211291_L","LocationType":"point","DisplayPosition":{"Latitude":50.63745,"Longitude":4.78092},"MapView":{"TopLeft":{"Latitude":50.63761,"Longitude":4.78062},"BottomRight":{"Latitude":50.63745,"Longitude":4.78092}},"Address":{"Label":"Chaussée de Wavre, 1360 Perwez, Belgique","Country":"BEL","State":"Wallonie","County":"Brabant Wallon","City":"Perwez","District":"Thorembais-Saint-Trond","Street":"Chaussée de Wavre","PostalCode":"1360","AdditionalData":[{"value":"Belgique","key":"CountryName"},{"value":"Wallonie","key":"StateName"},{"value":"Brabant Wallon","key":"CountyName"}]},"MapReference":{"ReferenceId":"1134211291","Spot":0.0,"SideOfStreet":"left","CountryId":"20128886","StateId":"20205526","CountyId":"20208226","CityId":"20208311","DistrictId":"20208317"}}}]}]}}