{"Response":{"MetaInfo":{"Timestamp":"2020-03-28T11:10:52.873+0000","NextPageInformation":"2"},"View":[{"_type":"SearchResultsViewType","ViewId":0,"Result":[{"Relevance":1.0,"Distance":0.0,"Direction":0.0,"MatchLevel":"district","MatchQuality":{"Country":1.0,"State":1.0,"County":1.0,"City":1.0,"District":1.0,"PostalCode":1.0},"Location":{"LocationId":"NT_gUEM9FAta1-a82tFm9POyA","LocationType":"point","DisplayPosition":{"Latitude":50.6183041,"Longitude":3.0233978},"MapView":{"TopLeft":{"Latitude":50.62374,"Longitude":3.02115},"BottomRight":{"Latitude":50.61392,"Longitude":3.05054}},"Address":{"Label":"Faubourg de Béthune, Lille, Hauts-de-France, France","Country":"FRA","State":"Hauts-de-France","County":"Nord","City":"Lille","District":"Faubourg de Béthune","PostalCode":"59000","AdditionalData":[{"value":"France","key":"CountryName"},{"value":"Hauts-de-France","key":"StateName"},{"value":"Nord","key":"CountyName"}]},"MapReference":{"ReferenceId":"1150451058","SideOfStreet":"neither","CountryId":"20000001","StateId":"20000002","CountyId":"20000003","CityId":"20027216"}}},{"Relevance":1.0,"Distance":6.1,"MatchLevel":"street","MatchQuality":{"Country":1.0,"State":1.0,"County":1.0,"City":1.0,"District":1.0,"Street":[1.0],"PostalCode":1.0},"Location":{"LocationId":"NT_cfUJcK4Fd39ynxua4.dHjA_l_966883457_L","LocationType":"point","DisplayPosition":{"Latitude":50.6183356,"Longitude":3.0234686},"MapView":{"TopLeft":{"Latitude":50.6184,"Longitude":3.02344},"BottomRight":{"Latitude":50.61813,"Longitude":3.02356}},"Address":{"Label":"Rue de Londres, 59120 Loos, France","Country":"FRA","State":"Hauts-de-France","County":"Nord","City":"Loos","District":"Faubourg de Béthune","Street":"Rue de Londres","PostalCode":"59120","AdditionalData":[{"value":"France","key":"CountryName"},{"value":"Hauts-de-France","key":"StateName"},{"value":"Nord","key":"CountyName"}]},"MapReference":{"ReferenceId":"966883457","Spot":0.76,"SideOfStreet":"left","CountryId":"20000001","StateId":"20000002","CountyId":"20000003","CityId":"20027246"}}},{"Relevance":1.0,"Distance":7.3,"MatchLevel":"street","MatchQuality":{"Country":1.0,"State":1.0,"County":1.0,"City":1.0,"Street":[1.0],"PostalCode":1.0},"Location":{"LocationId":"NT_FAEzekWfqD3NU-RrRrOymB_l_966883456_R","LocationType":"point","DisplayPosition":{"Latitude":50.6183671,"Longitude":3.0233687},"MapView":{"TopLeft":{"Latitude":50.6184,"Longitude":3.02233},"BottomRight":{"Latitude":50.61732,"Longitude":3.02344}},"Address":{"Label":"Rue de Londres, 59120 Loos, France","Country":"FRA","State":"Hauts-de-France","County":"Nord","City":"Loos","Street":"Rue de Londres","PostalCode":"59120","AdditionalData":[{"value":"France","key":"CountryName"},{"value":"Hauts-de-France","key":"StateName"},{"value":"Nord","key":"CountyName"}]},"MapReference":{"ReferenceId":"966883456","Spot":0.96,"SideOfStreet":"right","CountryId":"20000001","StateId":"20000002","CountyId":"20000003","CityId":"20027246"}}},{"Relevance":1.0,"Distance":34.1,"MatchLevel":"houseNumber","MatchQuality":{"Country":1.0,"State":1.0,"County":1.0,"City":1.0,"District":1.0,"Street":[1.0],"HouseNumber":1.0,"PostalCode":1.0},"MatchType":"interpolated","Location":{"LocationId":"NT_cfUJcK4Fd39ynxua4.dHjA_1A","LocationType":"point","DisplayPosition":{"Latitude":50.61861,"Longitude":3.02337},"MapView":{"TopLeft":{"Latitude":50.6197342,"Longitude":3.0215982},"BottomRight":{"Latitude":50.6174858,"Longitude":3.0251418}},"Address":{"Label":"5 Rue de Londres, 59120 Loos, France","Country":"FRA","State":"Hauts-de-France","County":"Nord","City":"Loos","District":"Faubourg de Béthune","Street":"Rue de Londres","HouseNumber":"5","PostalCode":"59120","AdditionalData":[{"value":"France","key":"CountryName"},{"value":"Hauts-de-France","key":"StateName"},{"value":"Nord","key":"CountyName"}]},"MapReference":{"ReferenceId":"1001751449","Spot":0.43,"SideOfStreet":"left","CountryId":"20000001","StateId":"20000002","CountyId":"20000003","CityId":"20027246","AddressId":"774850744","RoadLinkId":"328060573"}}},{"Relevance":1.0,"Distance":42.7,"MatchLevel":"houseNumber","MatchQuality":{"Country":1.0,"State":1.0,"County":1.0,"City":1.0,"District":1.0,"Street":[1.0],"HouseNumber":1.0,"PostalCode":1.0},"MatchType":"interpolated","Location":{"LocationId":"NT_jA54ps35fJX9UbkNJra4MD_zAD","LocationType":"point","DisplayPosition":{"Latitude":50.6182,"Longitude":3.02398},"MapView":{"TopLeft":{"Latitude":50.6193242,"Longitude":3.0222082},"BottomRight":{"Latitude":50.6170758,"Longitude":3.0257518}},"Address":{"Label":"30 Rue du Mal Assis, 59000 Lille, France","Country":"FRA","State":"Hauts-de-France","County":"Nord","City":"Lille","District":"Faubourg de Béthune","Street":"Rue du Mal Assis","HouseNumber":"30","PostalCode":"59000","AdditionalData":[{"value":"France","key":"CountryName"},{"value":"Hauts-de-France","key":"StateName"},{"value":"Nord","key":"CountyName"}]},"MapReference":{"ReferenceId":"58782669","Spot":0.52,"SideOfStreet":"right","CountryId":"20000001","StateId":"20000002","CountyId":"20000003","CityId":"20027216","AddressId":"572696832","RoadLinkId":"45110110"}}},{"Relevance":1.0,"Distance":45.5,"MatchLevel":"houseNumber","MatchQuality":{"Country":1.0,"State":1.0,"County":1.0,"City":1.0,"District":1.0,"Street":[1.0],"HouseNumber":1.0,"PostalCode":1.0},"MatchType":"interpolated","Location":{"LocationId":"NT_cfUJcK4Fd39ynxua4.dHjA_xA","LocationType":"point","DisplayPosition":{"Latitude":50.61792,"Longitude":3.02365},"MapView":{"TopLeft":{"Latitude":50.6190442,"Longitude":3.0218783},"BottomRight":{"Latitude":50.6167958,"Longitude":3.0254217}},"Address":{"Label":"1 Rue de Londres, 59120 Loos, France","Country":"FRA","State":"Hauts-de-France","County":"Nord","City":"Loos","District":"Faubourg de Béthune","Street":"Rue de Londres","HouseNumber":"1","PostalCode":"59120","AdditionalData":[{"value":"France","key":"CountryName"},{"value":"Hauts-de-France","key":"StateName"},{"value":"Nord","key":"CountyName"}]},"MapReference":{"ReferenceId":"966883460","Spot":0.65,"SideOfStreet":"left","CountryId":"20000001","StateId":"20000002","CountyId":"20000003","CityId":"20027246","AddressId":"572665293","RoadLinkId":"305242589"}}},{"Relevance":1.0,"Distance":64.7,"MatchLevel":"houseNumber","MatchQuality":{"Country":1.0,"State":1.0,"County":1.0,"City":1.0,"District":1.0,"Street":[1.0],"HouseNumber":1.0,"PostalCode":1.0},"MatchType":"interpolated","Location":{"LocationId":"NT_4xFvbIBGOjYT29Js91PmcC_yA","LocationType":"point","DisplayPosition":{"Latitude":50.61885,"Longitude":3.02308},"MapView":{"TopLeft":{"Latitude":50.6199742,"Longitude":3.0213082},"BottomRight":{"Latitude":50.6177258,"Longitude":3.0248518}},"Address":{"Label":"2 Rue de l'Échevette, 59120 Loos, France","Country":"FRA","State":"Hauts-de-France","County":"Nord","City":"Loos","District":"Faubourg de Béthune","Street":"Rue de l'Échevette","HouseNumber":"2","PostalCode":"59120","AdditionalData":[{"value":"France","key":"CountryName"},{"value":"Hauts-de-France","key":"StateName"},{"value":"Nord","key":"CountyName"}]},"MapReference":{"ReferenceId":"1001751451","Spot":0.12,"SideOfStreet":"right","CountryId":"20000001","StateId":"20000002","CountyId":"20000003","CityId":"20027246","AddressId":"590713114","RoadLinkId":"328060575"}}},{"Relevance":1.0,"Distance":78.3,"MatchLevel":"houseNumber","MatchQuality":{"Country":1.0,"State":1.0,"County":1.0,"City":1.0,"District":1.0,"Street":[1.0],"HouseNumber":1.0,"PostalCode":1.0},"MatchType":"interpolated","Location":{"LocationId":"NT_cfUJcK4Fd39ynxua4.dHjA_yITN","LocationType":"point","DisplayPosition":{"Latitude":50.619,"Longitude":3.02323},"MapView":{"TopLeft":{"Latitude":50.6201242,"Longitude":3.0214582},"BottomRight":{"Latitude":50.6178758,"Longitude":3.0250018}},"Address":{"Label":"225 Rue de Londres, 59120 Loos, France","Country":"FRA","State":"Hauts-de-France","County":"Nord","City":"Loos","District":"Faubourg de Béthune","Street":"Rue de Londres","HouseNumber":"225","PostalCode":"59120","AdditionalData":[{"value":"France","key":"CountryName"},{"value":"Hauts-de-France","key":"StateName"},{"value":"Nord","key":"CountyName"}]},"MapReference":{"ReferenceId":"1001751450","Spot":0.4,"SideOfStreet":"left","CountryId":"20000001","StateId":"20000002","CountyId":"20000003","CityId":"20027246","AddressId":"605709336","RoadLinkId":"328060574"}}},{"Relevance":1.0,"Distance":92.1,"MatchLevel":"street","MatchQuality":{"Country":1.0,"State":1.0,"County":1.0,"City":1.0,"Street":[1.0],"PostalCode":1.0},"Location":{"LocationId":"NT_FAEzekWfqD3NU-RrRrOymB_l_966883454_L","LocationType":"point","DisplayPosition":{"Latitude":50.6174806,"Longitude":3.0235361},"MapView":{"TopLeft":{"Latitude":50.61753,"Longitude":3.02258},"BottomRight":{"Latitude":50.61732,"Longitude":3.02383}},"Address":{"Label":"Rue de Londres, 59120 Loos, France","Country":"FRA","State":"Hauts-de-France","County":"Nord","City":"Loos","Street":"Rue de Londres","PostalCode":"59120","AdditionalData":[{"value":"France","key":"CountryName"},{"value":"Hauts-de-France","key":"StateName"},{"value":"Nord","key":"CountyName"}]},"MapReference":{"ReferenceId":"966883454","Spot":0.76,"SideOfStreet":"left","CountryId":"20000001","StateId":"20000002","CountyId":"20000003","CityId":"20027246"}}},{"Relevance":1.0,"Distance":95.7,"MatchLevel":"houseNumber","MatchQuality":{"Country":1.0,"State":1.0,"County":1.0,"City":1.0,"District":1.0,"Street":[1.0],"HouseNumber":1.0,"PostalCode":1.0},"MatchType":"interpolated","Location":{"LocationId":"NT_lyinLgmO6JtIYn6sqJVzTD_xQD","LocationType":"point","DisplayPosition":{"Latitude":50.61749,"Longitude":3.02384},"MapView":{"TopLeft":{"Latitude":50.6186142,"Longitude":3.0220683},"BottomRight":{"Latitude":50.6163658,"Longitude":3.0256117}},"Address":{"Label":"14 Rue de Londres, 59000 Lille, France","Country":"FRA","State":"Hauts-de-France","County":"Nord","City":"Lille","District":"Faubourg de Béthune","Street":"Rue de Londres","HouseNumber":"14","PostalCode":"59000","AdditionalData":[{"value":"France","key":"CountryName"},{"value":"Hauts-de-France","key":"StateName"},{"value":"Nord","key":"CountyName"}]},"MapReference":{"ReferenceId":"966883459","Spot":0.93,"SideOfStreet":"right","CountryId":"20000001","StateId":"20000002","CountyId":"20000003","CityId":"20027216","AddressId":"322875582","RoadLinkId":"305242588"}}}]}]}}