{"Response":{"MetaInfo":{"Timestamp":"2020-03-28T10:51:59.013+0000","NextPageInformation":"2"},"View":[{"_type":"SearchResultsViewType","ViewId":0,"Result":[{"Relevance":1.0,"Distance":0.0,"Direction":0.0,"MatchLevel":"district","MatchQuality":{"Country":1.0,"State":1.0,"County":1.0,"City":1.0,"District":1.0,"PostalCode":1.0},"Location":{"LocationId":"NT_jtwBU5I99zW7D2fuI5S5lA","LocationType":"point","DisplayPosition":{"Latitude":50.6493027,"Longitude":5.5697851},"MapView":{"TopLeft":{"Latitude":50.66694,"Longitude":5.56086},"BottomRight":{"Latitude":50.64617,"Longitude":5.59782}},"Address":{"Label":"Sainte-Walburge, Liège, Wallonie, Belgique","Country":"BEL","State":"Wallonie","County":"Liège","City":"Liège","District":"Sainte-Walburge","PostalCode":"4000","AdditionalData":[{"value":"Belgique","key":"CountryName"},{"value":"Wallonie","key":"StateName"},{"value":"Liège","key":"CountyName"}]},"MapReference":{"ReferenceId":"53823056","SideOfStreet":"neither","CountryId":"20128886","StateId":"20205526","CountyId":"20206134","CityId":"20206322"}}},{"Relevance":1.0,"Distance":4.6,"MatchLevel":"street","MatchQuality":{"Country":1.0,"State":1.0,"County":1.0,"City":1.0,"District":1.0,"PostalCode":1.0},"Location":{"LocationId":"NT_HQ.phPajeOMDR1GgGiNmRD_l_906872154_R","LocationType":"point","DisplayPosition":{"Latitude":50.6493027,"Longitude":5.56972},"MapView":{"TopLeft":{"Latitude":50.64939,"Longitude":5.56972},"BottomRight":{"Latitude":50.64922,"Longitude":5.56972}},"Address":{"Label":"4000 Liège, Belgique","Country":"BEL","State":"Wallonie","County":"Liège","City":"Liège","District":"Sainte-Walburge","PostalCode":"4000","AdditionalData":[{"value":"Belgique","key":"CountryName"},{"value":"Wallonie","key":"StateName"},{"value":"Liège","key":"CountyName"}]},"MapReference":{"ReferenceId":"906872154","Spot":0.49,"SideOfStreet":"right","CountryId":"20128886","StateId":"20205526","CountyId":"20206134","CityId":"20206322"}}},{"Relevance":1.0,"Distance":9.5,"MatchLevel":"street","MatchQuality":{"Country":1.0,"State":1.0,"County":1.0,"City":1.0,"District":1.0,"PostalCode":1.0},"Location":{"LocationId":"NT_HQ.phPajeOMDR1GgGiNmRD_l_906757501_L","LocationType":"point","DisplayPosition":{"Latitude":50.649388,"Longitude":5.5697876},"MapView":{"TopLeft":{"Latitude":50.64939,"Longitude":5.56972},"BottomRight":{"Latitude":50.64934,"Longitude":5.57143}},"Address":{"Label":"4000 Liège, Belgique","Country":"BEL","State":"Wallonie","County":"Liège","City":"Liège","District":"Sainte-Walburge","PostalCode":"4000","AdditionalData":[{"value":"Belgique","key":"CountryName"},{"value":"Wallonie","key":"StateName"},{"value":"Liège","key":"CountyName"}]},"MapReference":{"ReferenceId":"906757501","Spot":0.96,"SideOfStreet":"left","CountryId":"20128886","StateId":"20205526","CountyId":"20206134","CityId":"20206322"}}},{"Relevance":1.0,"Distance":10.3,"MatchLevel":"street","MatchQuality":{"Country":1.0,"State":1.0,"County":1.0,"City":1.0,"District":1.0,"PostalCode":1.0},"Location":{"LocationId":"NT_HQ.phPajeOMDR1GgGiNmRD_l_906872153_R","LocationType":"point","DisplayPosition":{"Latitude":50.64922,"Longitude":5.56972},"MapView":{"TopLeft":{"Latitude":50.64922,"Longitude":5.56972},"BottomRight":{"Latitude":50.64907,"Longitude":5.56972}},"Address":{"Label":"4000 Liège, Belgique","Country":"BEL","State":"Wallonie","County":"Liège","City":"Liège","District":"Sainte-Walburge","PostalCode":"4000","AdditionalData":[{"value":"Belgique","key":"CountryName"},{"value":"Wallonie","key":"StateName"},{"value":"Liège","key":"CountyName"}]},"MapReference":{"ReferenceId":"906872153","Spot":1.0,"SideOfStreet":"right","CountryId":"20128886","StateId":"20205526","CountyId":"20206134","CityId":"20206322"}}},{"Relevance":1.0,"Distance":10.7,"MatchLevel":"street","MatchQuality":{"Country":1.0,"State":1.0,"County":1.0,"City":1.0,"District":1.0,"PostalCode":1.0},"Location":{"LocationId":"NT_HQ.phPajeOMDR1GgGiNmRD_l_906757500_R","LocationType":"point","DisplayPosition":{"Latitude":50.64939,"Longitude":5.56972},"MapView":{"TopLeft":{"Latitude":50.64939,"Longitude":5.56922},"BottomRight":{"Latitude":50.64907,"Longitude":5.56972}},"Address":{"Label":"4000 Liège, Belgique","Country":"BEL","State":"Wallonie","County":"Liège","City":"Liège","District":"Sainte-Walburge","PostalCode":"4000","AdditionalData":[{"value":"Belgique","key":"CountryName"},{"value":"Wallonie","key":"StateName"},{"value":"Liège","key":"CountyName"}]},"MapReference":{"ReferenceId":"906757500","Spot":1.0,"SideOfStreet":"right","CountryId":"20128886","StateId":"20205526","CountyId":"20206134","CityId":"20206322"}}},{"Relevance":1.0,"Distance":26.0,"MatchLevel":"street","MatchQuality":{"Country":1.0,"State":1.0,"County":1.0,"City":1.0,"District":1.0,"PostalCode":1.0},"Location":{"LocationId":"NT_HQ.phPajeOMDR1GgGiNmRD_l_906757502_R","LocationType":"point","DisplayPosition":{"Latitude":50.6490685,"Longitude":5.5697792},"MapView":{"TopLeft":{"Latitude":50.64907,"Longitude":5.56972},"BottomRight":{"Latitude":50.64903,"Longitude":5.57132}},"Address":{"Label":"4000 Liège, Belgique","Country":"BEL","State":"Wallonie","County":"Liège","City":"Liège","District":"Sainte-Walburge","PostalCode":"4000","AdditionalData":[{"value":"Belgique","key":"CountryName"},{"value":"Wallonie","key":"StateName"},{"value":"Liège","key":"CountyName"}]},"MapReference":{"ReferenceId":"906757502","Spot":0.96,"SideOfStreet":"right","CountryId":"20128886","StateId":"20205526","CountyId":"20206134","CityId":"20206322"}}},{"Relevance":1.0,"Distance":26.3,"MatchLevel":"street","MatchQuality":{"Country":1.0,"State":1.0,"County":1.0,"City":1.0,"District":1.0,"PostalCode":1.0},"Location":{"LocationId":"NT_HQ.phPajeOMDR1GgGiNmRD_l_906757503_L","LocationType":"point","DisplayPosition":{"Latitude":50.64907,"Longitude":5.56972},"MapView":{"TopLeft":{"Latitude":50.64907,"Longitude":5.56924},"BottomRight":{"Latitude":50.64907,"Longitude":5.56972}},"Address":{"Label":"4000 Liège, Belgique","Country":"BEL","State":"Wallonie","County":"Liège","City":"Liège","District":"Sainte-Walburge","PostalCode":"4000","AdditionalData":[{"value":"Belgique","key":"CountryName"},{"value":"Wallonie","key":"StateName"},{"value":"Liège","key":"CountyName"}]},"MapReference":{"ReferenceId":"906757503","Spot":1.0,"SideOfStreet":"left","CountryId":"20128886","StateId":"20205526","CountyId":"20206134","CityId":"20206322"}}},{"Relevance":1.0,"Distance":39.6,"MatchLevel":"street","MatchQuality":{"Country":1.0,"State":1.0,"County":1.0,"City":1.0,"District":1.0,"PostalCode":1.0},"Location":{"LocationId":"NT_HQ.phPajeOMDR1GgGiNmRD_l_906757498_R","LocationType":"point","DisplayPosition":{"Latitude":50.6496373,"Longitude":5.569592},"MapView":{"TopLeft":{"Latitude":50.65006,"Longitude":5.56898},"BottomRight":{"Latitude":50.64907,"Longitude":5.57005}},"Address":{"Label":"4000 Liège, Belgique","Country":"BEL","State":"Wallonie","County":"Liège","City":"Liège","District":"Sainte-Walburge","PostalCode":"4000","AdditionalData":[{"value":"Belgique","key":"CountryName"},{"value":"Wallonie","key":"StateName"},{"value":"Liège","key":"CountyName"}]},"MapReference":{"ReferenceId":"906757498","Spot":0.57,"SideOfStreet":"right","CountryId":"20128886","StateId":"20205526","CountyId":"20206134","CityId":"20206322"}}},{"Relevance":1.0,"Distance":53.0,"MatchLevel":"street","MatchQuality":{"Country":1.0,"State":1.0,"County":1.0,"City":1.0,"District":1.0,"PostalCode":1.0},"Location":{"LocationId":"NT_HQ.phPajeOMDR1GgGiNmRD_l_879958223_R","LocationType":"point","DisplayPosition":{"Latitude":50.6488948,"Longitude":5.5693976},"MapView":{"TopLeft":{"Latitude":50.64907,"Longitude":5.5687},"BottomRight":{"Latitude":50.64845,"Longitude":5.56958}},"Address":{"Label":"4000 Liège, Belgique","Country":"BEL","State":"Wallonie","County":"Liège","City":"Liège","District":"Sainte-Walburge","PostalCode":"4000","AdditionalData":[{"value":"Belgique","key":"CountryName"},{"value":"Wallonie","key":"StateName"},{"value":"Liège","key":"CountyName"}]},"MapReference":{"ReferenceId":"879958223","Spot":0.85,"SideOfStreet":"right","CountryId":"20128886","StateId":"20205526","CountyId":"20206134","CityId":"20206322"}}},{"Relevance":1.0,"Distance":59.1,"MatchLevel":"street","MatchQuality":{"Country":1.0,"State":1.0,"County":1.0,"City":1.0,"District":1.0,"PostalCode":1.0},"Location":{"LocationId":"NT_HQ.phPajeOMDR1GgGiNmRD_l_906757499_R","LocationType":"point","DisplayPosition":{"Latitude":50.6497911,"Longitude":5.5694537},"MapView":{"TopLeft":{"Latitude":50.65006,"Longitude":5.56901},"BottomRight":{"Latitude":50.64949,"Longitude":5.56985}},"Address":{"Label":"4000 Liège, Belgique","Country":"BEL","State":"Wallonie","County":"Liège","City":"Liège","District":"Sainte-Walburge","PostalCode":"4000","AdditionalData":[{"value":"Belgique","key":"CountryName"},{"value":"Wallonie","key":"StateName"},{"value":"Liège","key":"CountyName"}]},"MapReference":{"ReferenceId":"906757499","Spot":0.53,"SideOfStreet":"right","CountryId":"20128886","StateId":"20205526","CountyId":"20206134","CityId":"20206322"}}}]}]}}