{"Response":{"MetaInfo":{"Timestamp":"2020-03-28T10:55:32.700+0000","NextPageInformation":"2"},"View":[{"_type":"SearchResultsViewType","ViewId":0,"Result":[{"Relevance":1.0,"Distance":0.0,"Direction":0.0,"MatchLevel":"district","MatchQuality":{"Country":1.0,"State":1.0,"County":1.0,"City":1.0,"District":1.0,"PostalCode":1.0},"Location":{"LocationId":"NT_nPF2pRYQ8kdH9-IlipGmHC","LocationType":"point","DisplayPosition":{"Latitude":50.6574368,"Longitude":7.8320141},"MapView":{"TopLeft":{"Latitude":50.66784,"Longitude":7.79673},"BottomRight":{"Latitude":50.64926,"Longitude":7.84935}},"Address":{"Label":"Hachenburg, Rheinland-Pfalz, Deutschland","Country":"DEU","State":"Rheinland-Pfalz","County":"Westerwaldkreis","City":"Hachenburg","District":"Hachenburg","PostalCode":"57627","AdditionalData":[{"value":"Deutschland","key":"CountryName"},{"value":"Rheinland-Pfalz","key":"StateName"},{"value":"Westerwaldkreis","key":"CountyName"}]},"MapReference":{"ReferenceId":"841639497","SideOfStreet":"neither","CountryId":"20147700","StateId":"20164001","CountyId":"20166960","CityId":"20167280","DistrictId":"20167282"}}},{"Relevance":1.0,"Distance":9.6,"MatchLevel":"street","MatchQuality":{"Country":1.0,"State":1.0,"County":1.0,"City":1.0,"District":1.0,"PostalCode":1.0},"Location":{"LocationId":"NT_gnlim.GzU5pK04X.2ndQTC_l_576434792_R","LocationType":"point","DisplayPosition":{"Latitude":50.657523,"Longitude":7.8320166},"MapView":{"TopLeft":{"Latitude":50.65753,"Longitude":7.83159},"BottomRight":{"Latitude":50.65751,"Longitude":7.83212}},"Address":{"Label":"57627 Hachenburg, Deutschland","Country":"DEU","State":"Rheinland-Pfalz","County":"Westerwaldkreis","City":"Hachenburg","District":"Hachenburg","PostalCode":"57627","AdditionalData":[{"value":"Deutschland","key":"CountryName"},{"value":"Rheinland-Pfalz","key":"StateName"},{"value":"Westerwaldkreis","key":"CountyName"}]},"MapReference":{"ReferenceId":"576434792","Spot":0.81,"SideOfStreet":"right","CountryId":"20147700","StateId":"20164001","CountyId":"20166960","CityId":"20167280","DistrictId":"20167282"}}},{"Relevance":1.0,"Distance":11.9,"MatchLevel":"street","MatchQuality":{"Country":1.0,"State":1.0,"County":1.0,"City":1.0,"District":1.0,"Street":[1.0],"PostalCode":1.0},"Location":{"LocationId":"NT_4JbVvxjDQt0rWdgcjWu3tC_l_548290760_L","LocationType":"point","DisplayPosition":{"Latitude":50.65752,"Longitude":7.83212},"MapView":{"TopLeft":{"Latitude":50.65752,"Longitude":7.83212},"BottomRight":{"Latitude":50.6575,"Longitude":7.83292}},"Address":{"Label":"Zum Köpfchen, 57627 Hachenburg, Deutschland","Country":"DEU","State":"Rheinland-Pfalz","County":"Westerwaldkreis","City":"Hachenburg","District":"Hachenburg","Street":"Zum Köpfchen","PostalCode":"57627","AdditionalData":[{"value":"Deutschland","key":"CountryName"},{"value":"Rheinland-Pfalz","key":"StateName"},{"value":"Westerwaldkreis","key":"CountyName"}]},"MapReference":{"ReferenceId":"548290760","Spot":1.0,"SideOfStreet":"left","CountryId":"20147700","StateId":"20164001","CountyId":"20166960","CityId":"20167280","DistrictId":"20167282"}}},{"Relevance":1.0,"Distance":18.6,"MatchLevel":"houseNumber","MatchQuality":{"Country":1.0,"State":1.0,"County":1.0,"City":1.0,"District":1.0,"Street":[1.0],"HouseNumber":1.0,"PostalCode":1.0},"MatchType":"interpolated","Location":{"LocationId":"NT_964qr8mr75XsOUAxgPg8XA_xAD","LocationType":"point","DisplayPosition":{"Latitude":50.65759,"Longitude":7.83212},"MapView":{"TopLeft":{"Latitude":50.6587142,"Longitude":7.8303468},"BottomRight":{"Latitude":50.6564658,"Longitude":7.8338932}},"Address":{"Label":"Alte Frankfurter Straße 10, 57627 Hachenburg, Deutschland","Country":"DEU","State":"Rheinland-Pfalz","County":"Westerwaldkreis","City":"Hachenburg","District":"Hachenburg","Street":"Alte Frankfurter Straße","HouseNumber":"10","PostalCode":"57627","AdditionalData":[{"value":"Deutschland","key":"CountryName"},{"value":"Rheinland-Pfalz","key":"StateName"},{"value":"Westerwaldkreis","key":"CountyName"}]},"MapReference":{"ReferenceId":"548290900","Spot":0.06,"SideOfStreet":"left","CountryId":"20147700","StateId":"20164001","CountyId":"20166960","CityId":"20167280","DistrictId":"20167282","AddressId":"188092401","RoadLinkId":"34268611"}}},{"Relevance":1.0,"Distance":31.0,"MatchLevel":"street","MatchQuality":{"Country":1.0,"State":1.0,"County":1.0,"City":1.0,"District":1.0,"PostalCode":1.0},"Location":{"LocationId":"NT_gnlim.GzU5pK04X.2ndQTC_l_576434791_R","LocationType":"point","DisplayPosition":{"Latitude":50.65751,"Longitude":7.83159},"MapView":{"TopLeft":{"Latitude":50.65751,"Longitude":7.82856},"BottomRight":{"Latitude":50.65704,"Longitude":7.83159}},"Address":{"Label":"57627 Hachenburg, Deutschland","Country":"DEU","State":"Rheinland-Pfalz","County":"Westerwaldkreis","City":"Hachenburg","District":"Hachenburg","PostalCode":"57627","AdditionalData":[{"value":"Deutschland","key":"CountryName"},{"value":"Rheinland-Pfalz","key":"StateName"},{"value":"Westerwaldkreis","key":"CountyName"}]},"MapReference":{"ReferenceId":"576434791","Spot":1.0,"SideOfStreet":"right","CountryId":"20147700","StateId":"20164001","CountyId":"20166960","CityId":"20167280","DistrictId":"20167282"}}},{"Relevance":1.0,"Distance":59.2,"MatchLevel":"houseNumber","MatchQuality":{"Country":1.0,"State":1.0,"County":1.0,"City":1.0,"District":1.0,"Street":[1.0],"HouseNumber":1.0,"PostalCode":1.0},"MatchType":"interpolated","Location":{"LocationId":"NT_964qr8mr75XsOUAxgPg8XA_xID","LocationType":"point","DisplayPosition":{"Latitude":50.65692,"Longitude":7.83181},"MapView":{"TopLeft":{"Latitude":50.6580442,"Longitude":7.8300368},"BottomRight":{"Latitude":50.6557958,"Longitude":7.8335832}},"Address":{"Label":"Alte Frankfurter Straße 12, 57627 Hachenburg, Deutschland","Country":"DEU","State":"Rheinland-Pfalz","County":"Westerwaldkreis","City":"Hachenburg","District":"Hachenburg","Street":"Alte Frankfurter Straße","HouseNumber":"12","PostalCode":"57627","AdditionalData":[{"value":"Deutschland","key":"CountryName"},{"value":"Rheinland-Pfalz","key":"StateName"},{"value":"Westerwaldkreis","key":"CountyName"}]},"MapReference":{"ReferenceId":"548290736","Spot":0.29,"SideOfStreet":"left","CountryId":"20147700","StateId":"20164001","CountyId":"20166960","CityId":"20167280","DistrictId":"20167282","AddressId":"188118249","RoadLinkId":"34232588"}}},{"Relevance":1.0,"Distance":113.0,"MatchLevel":"houseNumber","MatchQuality":{"Country":1.0,"State":1.0,"County":1.0,"City":1.0,"District":1.0,"Street":[1.0],"HouseNumber":1.0,"PostalCode":1.0},"MatchType":"interpolated","Location":{"LocationId":"NT_pO6ysubeVzCbFbGEDcHWeD_xA","LocationType":"point","DisplayPosition":{"Latitude":50.65846,"Longitude":7.83142},"MapView":{"TopLeft":{"Latitude":50.6595842,"Longitude":7.8296467},"BottomRight":{"Latitude":50.6573358,"Longitude":7.8331933}},"Address":{"Label":"Gerberweg 1, 57627 Hachenburg, Deutschland","Country":"DEU","State":"Rheinland-Pfalz","County":"Westerwaldkreis","City":"Hachenburg","District":"Hachenburg","Street":"Gerberweg","HouseNumber":"1","PostalCode":"57627","AdditionalData":[{"value":"Deutschland","key":"CountryName"},{"value":"Rheinland-Pfalz","key":"StateName"},{"value":"Westerwaldkreis","key":"CountyName"}]},"MapReference":{"ReferenceId":"548290906","Spot":0.94,"SideOfStreet":"right","CountryId":"20147700","StateId":"20164001","CountyId":"20166960","CityId":"20167280","DistrictId":"20167282","AddressId":"187863256","RoadLinkId":"34246286"}}},{"Relevance":1.0,"Distance":123.9,"MatchLevel":"street","MatchQuality":{"Country":1.0,"State":1.0,"County":1.0,"City":1.0,"District":1.0,"Street":[1.0],"PostalCode":1.0},"Location":{"LocationId":"NT_pO6ysubeVzCbFbGEDcHWeD_l_548290902_R","LocationType":"point","DisplayPosition":{"Latitude":50.6585426,"Longitude":7.8317929},"MapView":{"TopLeft":{"Latitude":50.65856,"Longitude":7.83163},"BottomRight":{"Latitude":50.65851,"Longitude":7.83188}},"Address":{"Label":"Gerberweg, 57627 Hachenburg, Deutschland","Country":"DEU","State":"Rheinland-Pfalz","County":"Westerwaldkreis","City":"Hachenburg","District":"Hachenburg","Street":"Gerberweg","PostalCode":"57627","AdditionalData":[{"value":"Deutschland","key":"CountryName"},{"value":"Rheinland-Pfalz","key":"StateName"},{"value":"Westerwaldkreis","key":"CountyName"}]},"MapReference":{"ReferenceId":"548290902","Spot":0.65,"SideOfStreet":"right","CountryId":"20147700","StateId":"20164001","CountyId":"20166960","CityId":"20167280","DistrictId":"20167282"}}},{"Relevance":1.0,"Distance":137.3,"MatchLevel":"houseNumber","MatchQuality":{"Country":1.0,"State":1.0,"County":1.0,"City":1.0,"District":1.0,"Street":[1.0],"HouseNumber":1.0,"PostalCode":1.0},"MatchType":"interpolated","Location":{"LocationId":"NT_4JbVvxjDQt0rWdgcjWu3tC_yA","LocationType":"point","DisplayPosition":{"Latitude":50.65747,"Longitude":7.834},"MapView":{"TopLeft":{"Latitude":50.6585942,"Longitude":7.8322268},"BottomRight":{"Latitude":50.6563458,"Longitude":7.8357732}},"Address":{"Label":"Zum Köpfchen 2, 57627 Hachenburg, Deutschland","Country":"DEU","State":"Rheinland-Pfalz","County":"Westerwaldkreis","City":"Hachenburg","District":"Hachenburg","Street":"Zum Köpfchen","HouseNumber":"2","PostalCode":"57627","AdditionalData":[{"value":"Deutschland","key":"CountryName"},{"value":"Rheinland-Pfalz","key":"StateName"},{"value":"Westerwaldkreis","key":"CountyName"}]},"MapReference":{"ReferenceId":"1129437616","Spot":0.38,"SideOfStreet":"right","CountryId":"20147700","StateId":"20164001","CountyId":"20166960","CityId":"20167280","DistrictId":"20167282","AddressId":"622209737","RoadLinkId":"439415411"}}},{"Relevance":1.0,"Distance":143.5,"MatchLevel":"houseNumber","MatchQuality":{"Country":1.0,"State":1.0,"County":1.0,"City":1.0,"District":1.0,"Street":[1.0],"HouseNumber":1.0,"PostalCode":1.0},"MatchType":"interpolated","Location":{"LocationId":"NT_964qr8mr75XsOUAxgPg8XA_1A","LocationType":"point","DisplayPosition":{"Latitude":50.65872,"Longitude":7.8318},"MapView":{"TopLeft":{"Latitude":50.6598442,"Longitude":7.8300267},"BottomRight":{"Latitude":50.6575958,"Longitude":7.8335733}},"Address":{"Label":"Alte Frankfurter Straße 5, 57627 Hachenburg, Deutschland","Country":"DEU","State":"Rheinland-Pfalz","County":"Westerwaldkreis","City":"Hachenburg","District":"Hachenburg","Street":"Alte Frankfurter Straße","HouseNumber":"5","PostalCode":"57627","AdditionalData":[{"value":"Deutschland","key":"CountryName"},{"value":"Rheinland-Pfalz","key":"StateName"},{"value":"Westerwaldkreis","key":"CountyName"}]},"MapReference":{"ReferenceId":"548290901","Spot":0.2,"SideOfStreet":"right","CountryId":"20147700","StateId":"20164001","CountyId":"20166960","CityId":"20167280","DistrictId":"20167282","AddressId":"188496137","RoadLinkId":"34760781"}}}]}]}}