{"Response":{"MetaInfo":{"Timestamp":"2020-03-28T10:39:14.568+0000","NextPageInformation":"2"},"View":[{"_type":"SearchResultsViewType","ViewId":0,"Result":[{"Relevance":1.0,"Distance":0.0,"Direction":0.0,"MatchLevel":"district","MatchQuality":{"Country":1.0,"State":1.0,"County":1.0,"City":1.0,"District":1.0,"PostalCode":1.0},"Location":{"LocationId":"NT_VYcUfTRoT-g.rdBoRWrd6B","LocationType":"point","DisplayPosition":{"Latitude":50.7280703,"Longitude":-1.8144582},"MapView":{"TopLeft":{"Latitude":50.78037,"Longitude":-1.93725},"BottomRight":{"Latitude":50.70946,"Longitude":-1.77612}},"Address":{"Label":"Bournemouth, England, United Kingdom","Country":"GBR","State":"England","County":"Dorset","City":"Bournemouth","District":"Bournemouth","PostalCode":"BH2 5","AdditionalData":[{"value":"United Kingdom","key":"CountryName"},{"value":"England","key":"StateName"},{"value":"Dorset","key":"CountyName"}]},"MapReference":{"ReferenceId":"26526010","SideOfStreet":"neither","StateId":"20248595","CountyId":"20335105","CityId":"20350301","DistrictId":"20350302"}}},{"Relevance":1.0,"Distance":19.5,"MatchLevel":"houseNumber","MatchQuality":{"Country":1.0,"State":1.0,"County":1.0,"City":1.0,"District":1.0,"Street":[1.0],"HouseNumber":1.0,"PostalCode":1.0},"MatchType":"interpolated","Location":{"LocationId":"NT_vxQ3VIgRNT.xvXviLASQ0C_l_26524150_L_zkD","LocationType":"point","DisplayPosition":{"Latitude":50.7277783,"Longitude":-1.8143022},"MapView":{"TopLeft":{"Latitude":50.7289025,"Longitude":-1.8160781},"BottomRight":{"Latitude":50.7266542,"Longitude":-1.8125263}},"Address":{"Label":"39 Douglas Mews, Bournemouth, BH6 5BE, United Kingdom","Country":"GBR","State":"England","County":"Dorset","City":"Bournemouth","District":"Bournemouth","Street":"Douglas Mews","HouseNumber":"39","PostalCode":"BH6 5BE","AdditionalData":[{"value":"United Kingdom","key":"CountryName"},{"value":"England","key":"StateName"},{"value":"Dorset","key":"CountyName"}]},"MapReference":{"ReferenceId":"26524150","Spot":0.8,"SideOfStreet":"left","StateId":"20248595","CountyId":"20335105","CityId":"20350301","DistrictId":"20350302"}}},{"Relevance":1.0,"Distance":29.7,"MatchLevel":"postalCode","MatchQuality":{"PostalCode":1.0},"MatchType":"interpolated","Location":{"LocationId":"NT_fCHQlBrN.tPoNDZDcZu0NB_l_26523939_R_xcD","LocationType":"point","DisplayPosition":{"Latitude":50.72792,"Longitude":-1.81411},"MapView":{"TopLeft":{"Latitude":50.7369132,"Longitude":-1.8283172},"BottomRight":{"Latitude":50.7189268,"Longitude":-1.7999028}},"Address":{"Label":"BH6 5BF, Bournemouth, England, United Kingdom","Country":"GBR","State":"England","County":"Dorset","City":"Bournemouth","PostalCode":"BH6 5BF","AdditionalData":[{"value":"United Kingdom","key":"CountryName"},{"value":"England","key":"StateName"},{"value":"Dorset","key":"CountyName"}]},"MapReference":{"ReferenceId":"26523939","Spot":0.28,"SideOfStreet":"neither","StateId":"20248595","CountyId":"20335105","CityId":"20350301"}}},{"Relevance":1.0,"Distance":34.3,"MatchLevel":"houseNumber","MatchQuality":{"Country":1.0,"State":1.0,"County":1.0,"City":1.0,"District":1.0,"Street":[1.0],"HouseNumber":1.0,"PostalCode":1.0},"MatchType":"interpolated","Location":{"LocationId":"NT_fCHQlBrN.tPoNDZDcZu0NB_l_26523939_R_xcD","LocationType":"point","DisplayPosition":{"Latitude":50.7284072,"Longitude":-1.8148963},"MapView":{"TopLeft":{"Latitude":50.7295314,"Longitude":-1.8166722},"BottomRight":{"Latitude":50.7272831,"Longitude":-1.8131204}},"Address":{"Label":"17 Beaufort Road, Bournemouth, BH6 5BF, United Kingdom","Country":"GBR","State":"England","County":"Dorset","City":"Bournemouth","District":"Bournemouth","Street":"Beaufort Road","HouseNumber":"17","PostalCode":"BH6 5BF","AdditionalData":[{"value":"United Kingdom","key":"CountryName"},{"value":"England","key":"StateName"},{"value":"Dorset","key":"CountyName"}]},"MapReference":{"ReferenceId":"26523939","Spot":0.28,"SideOfStreet":"right","StateId":"20248595","CountyId":"20335105","CityId":"20350301","DistrictId":"20350302"}}},{"Relevance":1.0,"Distance":37.4,"MatchLevel":"postalCode","MatchQuality":{"PostalCode":1.0},"MatchType":"interpolated","Location":{"LocationId":"NT_vxQ3VIgRNT.xvXviLASQ0C_l_26524150_L_zkD","LocationType":"point","DisplayPosition":{"Latitude":50.72778,"Longitude":-1.81419},"MapView":{"TopLeft":{"Latitude":50.7367732,"Longitude":-1.8283972},"BottomRight":{"Latitude":50.7187868,"Longitude":-1.7999828}},"Address":{"Label":"BH6 5BE, Bournemouth, England, United Kingdom","Country":"GBR","State":"England","County":"Dorset","City":"Bournemouth","PostalCode":"BH6 5BE","AdditionalData":[{"value":"United Kingdom","key":"CountryName"},{"value":"England","key":"StateName"},{"value":"Dorset","key":"CountyName"}]},"MapReference":{"ReferenceId":"26524150","Spot":0.8,"SideOfStreet":"neither","StateId":"20248595","CountyId":"20335105","CityId":"20350301"}}},{"Relevance":1.0,"Distance":70.7,"MatchLevel":"houseNumber","MatchQuality":{"Country":1.0,"State":1.0,"County":1.0,"City":1.0,"District":1.0,"Street":[1.0],"HouseNumber":1.0,"PostalCode":1.0},"MatchType":"interpolated","Location":{"LocationId":"NT_KSad.wVv3IHw7.wmDV15OB_l_26523940_R_0QD","LocationType":"point","DisplayPosition":{"Latitude":50.72823,"Longitude":-1.8154301},"MapView":{"TopLeft":{"Latitude":50.7293542,"Longitude":-1.817206},"BottomRight":{"Latitude":50.7271059,"Longitude":-1.8136542}},"Address":{"Label":"44 Oxford Avenue, Bournemouth, BH6 5HT, United Kingdom","Country":"GBR","State":"England","County":"Dorset","City":"Bournemouth","District":"Bournemouth","Street":"Oxford Avenue","HouseNumber":"44","PostalCode":"BH6 5HT","AdditionalData":[{"value":"United Kingdom","key":"CountryName"},{"value":"England","key":"StateName"},{"value":"Dorset","key":"CountyName"}]},"MapReference":{"ReferenceId":"26523940","Spot":0.12,"SideOfStreet":"right","StateId":"20248595","CountyId":"20335105","CityId":"20350301","DistrictId":"20350302"}}},{"Relevance":1.0,"Distance":74.5,"MatchLevel":"houseNumber","MatchQuality":{"Country":1.0,"State":1.0,"County":1.0,"City":1.0,"District":1.0,"Street":[1.0],"HouseNumber":1.0,"PostalCode":1.0},"MatchType":"interpolated","Location":{"LocationId":"NT_fCHQlBrN.tPoNDZDcZu0NB_l_26524090_R_5A","LocationType":"point","DisplayPosition":{"Latitude":50.727968,"Longitude":-1.8155336},"MapView":{"TopLeft":{"Latitude":50.7290922,"Longitude":-1.8173095},"BottomRight":{"Latitude":50.7268439,"Longitude":-1.8137577}},"Address":{"Label":"9 Beaufort Road, Bournemouth, BH6 5AJ, United Kingdom","Country":"GBR","State":"England","County":"Dorset","City":"Bournemouth","District":"Bournemouth","Street":"Beaufort Road","HouseNumber":"9","PostalCode":"BH6 5AJ","AdditionalData":[{"value":"United Kingdom","key":"CountryName"},{"value":"England","key":"StateName"},{"value":"Dorset","key":"CountyName"}]},"MapReference":{"ReferenceId":"26524090","Spot":0.69,"SideOfStreet":"right","StateId":"20248595","CountyId":"20335105","CityId":"20350301","DistrictId":"20350302"}}},{"Relevance":1.0,"Distance":84.4,"MatchLevel":"houseNumber","MatchQuality":{"Country":1.0,"State":1.0,"County":1.0,"City":1.0,"District":1.0,"Street":[1.0],"HouseNumber":1.0,"PostalCode":1.0},"MatchType":"interpolated","Location":{"LocationId":"NT_FhFlbLwdSQh21VLqAeK0cB_l_26524210_R_4ID","LocationType":"point","DisplayPosition":{"Latitude":50.72718,"Longitude":-1.81458},"MapView":{"TopLeft":{"Latitude":50.7283042,"Longitude":-1.8163559},"BottomRight":{"Latitude":50.7260559,"Longitude":-1.8128041}},"Address":{"Label":"82 Southbourne Road, Bournemouth, BH6 5, United Kingdom","Country":"GBR","State":"England","County":"Dorset","City":"Bournemouth","District":"Bournemouth","Street":"Southbourne Road","HouseNumber":"82","PostalCode":"BH6 5","AdditionalData":[{"value":"United Kingdom","key":"CountryName"},{"value":"England","key":"StateName"},{"value":"Dorset","key":"CountyName"}]},"MapReference":{"ReferenceId":"26524210","Spot":0.49,"SideOfStreet":"right","StateId":"20248595","CountyId":"20335105","CityId":"20350301","DistrictId":"20350302"}}},{"Relevance":1.0,"Distance":98.0,"MatchLevel":"houseNumber","MatchQuality":{"Country":1.0,"State":1.0,"County":1.0,"City":1.0,"District":1.0,"Street":[1.0],"HouseNumber":1.0,"PostalCode":1.0},"MatchType":"interpolated","Location":{"LocationId":"NT_FhFlbLwdSQh21VLqAeK0cB_l_26524151_L_2cD","LocationType":"point","DisplayPosition":{"Latitude":50.72735,"Longitude":-1.8152601},"MapView":{"TopLeft":{"Latitude":50.7284742,"Longitude":-1.8170359},"BottomRight":{"Latitude":50.7262259,"Longitude":-1.8134842}},"Address":{"Label":"67 Southbourne Road, Bournemouth, BH6 5, United Kingdom","Country":"GBR","State":"England","County":"Dorset","City":"Bournemouth","District":"Bournemouth","Street":"Southbourne Road","HouseNumber":"67","PostalCode":"BH6 5","AdditionalData":[{"value":"United Kingdom","key":"CountryName"},{"value":"England","key":"StateName"},{"value":"Dorset","key":"CountyName"}]},"MapReference":{"ReferenceId":"26524151","Spot":0.19,"SideOfStreet":"left","StateId":"20248595","CountyId":"20335105","CityId":"20350301","DistrictId":"20350302"}}},{"Relevance":1.0,"Distance":99.0,"MatchLevel":"houseNumber","MatchQuality":{"Country":1.0,"State":1.0,"County":1.0,"City":1.0,"District":1.0,"Street":[1.0],"HouseNumber":1.0,"PostalCode":1.0},"MatchType":"interpolated","Location":{"LocationId":"NT_ElD5vnM.CxU6j0x8.zNlWA_l_26523961_L_1A","LocationType":"point","DisplayPosition":{"Latitude":50.728854,"Longitude":-1.813436},"MapView":{"TopLeft":{"Latitude":50.7299782,"Longitude":-1.815212},"BottomRight":{"Latitude":50.7277299,"Longitude":-1.8116601}},"Address":{"Label":"5 Ravenscourt Road, Bournemouth, BH6 5EF, United Kingdom","Country":"GBR","State":"England","County":"Dorset","City":"Bournemouth","District":"Bournemouth","Street":"Ravenscourt Road","HouseNumber":"5","PostalCode":"BH6 5EF","AdditionalData":[{"value":"United Kingdom","key":"CountryName"},{"value":"England","key":"StateName"},{"value":"Dorset","key":"CountyName"}]},"MapReference":{"ReferenceId":"26523961","Spot":0.75,"SideOfStreet":"left","StateId":"20248595","CountyId":"20335105","CityId":"20350301","DistrictId":"20350302"}}}]}]}}