{"Response":{"MetaInfo":{"Timestamp":"2020-03-28T11:30:54.972+0000","NextPageInformation":"2"},"View":[{"_type":"SearchResultsViewType","ViewId":0,"Result":[{"Relevance":1.0,"Distance":0.0,"Direction":0.0,"MatchLevel":"district","MatchQuality":{"Country":1.0,"State":1.0,"County":1.0,"City":1.0,"District":1.0,"PostalCode":1.0},"Location":{"LocationId":"NT_pXpoICmNYhFeORYOOc-jjC","LocationType":"point","DisplayPosition":{"Latitude":50.7013106,"Longitude":22.436027},"MapView":{"TopLeft":{"Latitude":50.72444,"Longitude":22.36999},"BottomRight":{"Latitude":50.67782,"Longitude":22.45436}},"Address":{"Label":"Janów Lubelski, Woj. Lubelskie, Polska","Country":"POL","State":"Woj. Lubelskie","County":"Powiat Janowski","City":"Janów Lubelski","District":"Janów Lubelski","PostalCode":"23-300","AdditionalData":[{"value":"Polska","key":"CountryName"},{"value":"Woj. Lubelskie","key":"StateName"},{"value":"Powiat Janowski","key":"CountyName"}]},"MapReference":{"ReferenceId":"841837513","SideOfStreet":"neither","CountryId":"20624059","StateId":"20626116","CountyId":"20626238","CityId":"20626247","DistrictId":"20683965"}}},{"Relevance":1.0,"Distance":5.8,"MatchLevel":"street","MatchQuality":{"Country":1.0,"State":1.0,"County":1.0,"City":1.0,"District":1.0,"Street":[1.0],"PostalCode":1.0},"Location":{"LocationId":"NT_4IfbEY5s23-Z42eOlAZ3YC_l_1203522674_L","LocationType":"point","DisplayPosition":{"Latitude":50.7013267,"Longitude":22.4361046},"MapView":{"TopLeft":{"Latitude":50.70183,"Longitude":22.436},"BottomRight":{"Latitude":50.70106,"Longitude":22.43616}},"Address":{"Label":"ulica Różana, 23-300 Janów Lubelski, Polska","Country":"POL","State":"Woj. Lubelskie","County":"Powiat Janowski","City":"Janów Lubelski","District":"Janów Lubelski","Street":"ulica Różana","PostalCode":"23-300","AdditionalData":[{"value":"Polska","key":"CountryName"},{"value":"Woj. Lubelskie","key":"StateName"},{"value":"Powiat Janowski","key":"CountyName"}]},"MapReference":{"ReferenceId":"1203522674","Spot":0.35,"SideOfStreet":"left","CountryId":"20624059","StateId":"20626116","CountyId":"20626238","CityId":"20626247","DistrictId":"20683965"}}},{"Relevance":1.0,"Distance":28.1,"MatchLevel":"street","MatchQuality":{"Country":1.0,"State":1.0,"County":1.0,"City":1.0,"District":1.0,"Street":[1.0],"PostalCode":1.0},"Location":{"LocationId":"NT_mKO11Sm3-5SBKPG7r6Yr5D_l_1194251226_L","LocationType":"point","DisplayPosition":{"Latitude":50.7010582,"Longitude":22.4360304},"MapView":{"TopLeft":{"Latitude":50.70106,"Longitude":22.43542},"BottomRight":{"Latitude":50.70105,"Longitude":22.43616}},"Address":{"Label":"ulica Jana Zamojskiego, 23-300 Janów Lubelski, Polska","Country":"POL","State":"Woj. Lubelskie","County":"Powiat Janowski","City":"Janów Lubelski","District":"Janów Lubelski","Street":"ulica Jana Zamojskiego","PostalCode":"23-300","AdditionalData":[{"value":"Polska","key":"CountryName"},{"value":"Woj. Lubelskie","key":"StateName"},{"value":"Powiat Janowski","key":"CountyName"}]},"MapReference":{"ReferenceId":"1194251226","Spot":0.82,"SideOfStreet":"left","CountryId":"20624059","StateId":"20626116","CountyId":"20626238","CityId":"20626247","DistrictId":"20683965"}}},{"Relevance":1.0,"Distance":29.4,"MatchLevel":"street","MatchQuality":{"Country":1.0,"State":1.0,"County":1.0,"City":1.0,"District":1.0,"Street":[1.0],"PostalCode":1.0},"Location":{"LocationId":"NT_mKO11Sm3-5SBKPG7r6Yr5D_l_943479539_L","LocationType":"point","DisplayPosition":{"Latitude":50.70106,"Longitude":22.43616},"MapView":{"TopLeft":{"Latitude":50.70106,"Longitude":22.43616},"BottomRight":{"Latitude":50.70106,"Longitude":22.43664}},"Address":{"Label":"ulica Jana Zamojskiego, 23-300 Janów Lubelski, Polska","Country":"POL","State":"Woj. Lubelskie","County":"Powiat Janowski","City":"Janów Lubelski","District":"Janów Lubelski","Street":"ulica Jana Zamojskiego","PostalCode":"23-300","AdditionalData":[{"value":"Polska","key":"CountryName"},{"value":"Woj. Lubelskie","key":"StateName"},{"value":"Powiat Janowski","key":"CountyName"}]},"MapReference":{"ReferenceId":"943479539","Spot":0.0,"SideOfStreet":"left","CountryId":"20624059","StateId":"20626116","CountyId":"20626238","CityId":"20626247","DistrictId":"20683965"}}},{"Relevance":1.0,"Distance":51.4,"MatchLevel":"street","MatchQuality":{"Country":1.0,"State":1.0,"County":1.0,"City":1.0,"District":1.0,"Street":[1.0],"PostalCode":1.0},"Location":{"LocationId":"NT_mKO11Sm3-5SBKPG7r6Yr5D_l_943479540_L","LocationType":"point","DisplayPosition":{"Latitude":50.70106,"Longitude":22.43664},"MapView":{"TopLeft":{"Latitude":50.70106,"Longitude":22.43664},"BottomRight":{"Latitude":50.70106,"Longitude":22.43687}},"Address":{"Label":"ulica Jana Zamojskiego, 23-300 Janów Lubelski, Polska","Country":"POL","State":"Woj. Lubelskie","County":"Powiat Janowski","City":"Janów Lubelski","District":"Janów Lubelski","Street":"ulica Jana Zamojskiego","PostalCode":"23-300","AdditionalData":[{"value":"Polska","key":"CountryName"},{"value":"Woj. Lubelskie","key":"StateName"},{"value":"Powiat Janowski","key":"CountyName"}]},"MapReference":{"ReferenceId":"943479540","Spot":0.0,"SideOfStreet":"left","CountryId":"20624059","StateId":"20626116","CountyId":"20626238","CityId":"20626247","DistrictId":"20683965"}}},{"Relevance":1.0,"Distance":51.6,"MatchLevel":"street","MatchQuality":{"Country":1.0,"State":1.0,"County":1.0,"City":1.0,"District":1.0,"Street":[1.0],"PostalCode":1.0},"Location":{"LocationId":"NT_mKO11Sm3-5SBKPG7r6Yr5D_l_1194251225_L","LocationType":"point","DisplayPosition":{"Latitude":50.70105,"Longitude":22.43542},"MapView":{"TopLeft":{"Latitude":50.70105,"Longitude":22.43459},"BottomRight":{"Latitude":50.70105,"Longitude":22.43542}},"Address":{"Label":"ulica Jana Zamojskiego, 23-300 Janów Lubelski, Polska","Country":"POL","State":"Woj. Lubelskie","County":"Powiat Janowski","City":"Janów Lubelski","District":"Janów Lubelski","Street":"ulica Jana Zamojskiego","PostalCode":"23-300","AdditionalData":[{"value":"Polska","key":"CountryName"},{"value":"Woj. Lubelskie","key":"StateName"},{"value":"Powiat Janowski","key":"CountyName"}]},"MapReference":{"ReferenceId":"1194251225","Spot":1.0,"SideOfStreet":"left","CountryId":"20624059","StateId":"20626116","CountyId":"20626238","CityId":"20626247","DistrictId":"20683965"}}},{"Relevance":1.0,"Distance":57.8,"MatchLevel":"street","MatchQuality":{"Country":1.0,"State":1.0,"County":1.0,"City":1.0,"District":1.0,"Street":[1.0],"PostalCode":1.0},"Location":{"LocationId":"NT_4IfbEY5s23-Z42eOlAZ3YC_l_1203522675_L","LocationType":"point","DisplayPosition":{"Latitude":50.70183,"Longitude":22.436},"MapView":{"TopLeft":{"Latitude":50.70411,"Longitude":22.43561},"BottomRight":{"Latitude":50.70183,"Longitude":22.436}},"Address":{"Label":"ulica Różana, 23-300 Janów Lubelski, Polska","Country":"POL","State":"Woj. Lubelskie","County":"Powiat Janowski","City":"Janów Lubelski","District":"Janów Lubelski","Street":"ulica Różana","PostalCode":"23-300","AdditionalData":[{"value":"Polska","key":"CountryName"},{"value":"Woj. Lubelskie","key":"StateName"},{"value":"Powiat Janowski","key":"CountyName"}]},"MapReference":{"ReferenceId":"1203522675","Spot":0.0,"SideOfStreet":"left","CountryId":"20624059","StateId":"20626116","CountyId":"20626238","CityId":"20626247","DistrictId":"20683965"}}},{"Relevance":1.0,"Distance":65.6,"MatchLevel":"street","MatchQuality":{"Country":1.0,"State":1.0,"County":1.0,"City":1.0,"Street":[1.0],"PostalCode":1.0},"Location":{"LocationId":"NT_h5T.fd4QL0lV8eYOXsD0lD_l_1193637736_L","LocationType":"point","DisplayPosition":{"Latitude":50.70106,"Longitude":22.43687},"MapView":{"TopLeft":{"Latitude":50.70106,"Longitude":22.43687},"BottomRight":{"Latitude":50.70106,"Longitude":22.43786}},"Address":{"Label":"74, 23-300, Polska","Country":"POL","State":"Woj. Lubelskie","County":"Powiat Janowski","City":"Janów Lubelski","Street":"74","PostalCode":"23-300","AdditionalData":[{"value":"Polska","key":"CountryName"},{"value":"Woj. Lubelskie","key":"StateName"},{"value":"Powiat Janowski","key":"CountyName"}]},"MapReference":{"ReferenceId":"1193637736","Spot":0.0,"SideOfStreet":"left","CountryId":"20624059","StateId":"20626116","CountyId":"20626238","CityId":"20626247"}}},{"Relevance":1.0,"Distance":74.6,"MatchLevel":"houseNumber","MatchQuality":{"Country":1.0,"State":1.0,"County":1.0,"City":1.0,"District":1.0,"Street":[1.0],"HouseNumber":1.0,"PostalCode":1.0},"MatchType":"interpolated","Location":{"LocationId":"NT_n8N6Rp6UQAqrCtnJF1uLQC_yA","LocationType":"point","DisplayPosition":{"Latitude":50.70065,"Longitude":22.43623},"MapView":{"TopLeft":{"Latitude":50.7017742,"Longitude":22.4344551},"BottomRight":{"Latitude":50.6995258,"Longitude":22.4380049}},"Address":{"Label":"ulica Przyborowie 2, 23-300 Janów Lubelski, Polska","Country":"POL","State":"Woj. Lubelskie","County":"Powiat Janowski","City":"Janów Lubelski","District":"Janów Lubelski","Street":"ulica Przyborowie","HouseNumber":"2","PostalCode":"23-300","AdditionalData":[{"value":"Polska","key":"CountryName"},{"value":"Woj. Lubelskie","key":"StateName"},{"value":"Powiat Janowski","key":"CountyName"}]},"MapReference":{"ReferenceId":"762744632","Spot":0.47,"SideOfStreet":"left","CountryId":"20624059","StateId":"20626116","CountyId":"20626238","CityId":"20626247","DistrictId":"20683965","AddressId":"688954582","RoadLinkId":"156970493"}}},{"Relevance":1.0,"Distance":78.3,"MatchLevel":"houseNumber","MatchQuality":{"Country":1.0,"State":1.0,"County":1.0,"City":1.0,"District":1.0,"Street":[1.0],"HouseNumber":1.0,"PostalCode":1.0},"MatchType":"interpolated","Location":{"LocationId":"NT_fqRq4iD6GRnxR8PAnkyU-D_0cD","LocationType":"point","DisplayPosition":{"Latitude":50.70027,"Longitude":22.43592},"MapView":{"TopLeft":{"Latitude":50.7013942,"Longitude":22.4341451},"BottomRight":{"Latitude":50.6991458,"Longitude":22.4376949}},"Address":{"Label":"ulica Dębowa 47, 23-300 Janów Lubelski, Polska","Country":"POL","State":"Woj. Lubelskie","County":"Powiat Janowski","City":"Janów Lubelski","District":"Janów Lubelski","Street":"ulica Dębowa","HouseNumber":"47","PostalCode":"23-300","AdditionalData":[{"value":"Polska","key":"CountryName"},{"value":"Woj. Lubelskie","key":"StateName"},{"value":"Powiat Janowski","key":"CountyName"}]},"MapReference":{"ReferenceId":"762744631","Spot":0.87,"SideOfStreet":"left","CountryId":"20624059","StateId":"20626116","CountyId":"20626238","CityId":"20626247","DistrictId":"20683965","AddressId":"689042016","RoadLinkId":"156970484"}}}]}]}}