{"Response":{"MetaInfo":{"Timestamp":"2020-03-28T11:42:20.486+0000","NextPageInformation":"2"},"View":[{"_type":"SearchResultsViewType","ViewId":0,"Result":[{"Relevance":1.0,"Distance":0.0,"Direction":0.0,"MatchLevel":"district","MatchQuality":{"Country":1.0,"State":1.0,"County":1.0,"City":1.0,"District":1.0,"PostalCode":1.0},"Location":{"LocationId":"NT_CCR65AA1Yoki1dcHCRRpKB","LocationType":"point","DisplayPosition":{"Latitude":50.756879,"Longitude":6.2157561},"MapView":{"TopLeft":{"Latitude":50.77053,"Longitude":6.20632},"BottomRight":{"Latitude":50.74869,"Longitude":6.23069}},"Address":{"Label":"Büsbach, Stolberg (Rheinland), Nordrhein-Westfalen, Deutschland","Country":"DEU","State":"Nordrhein-Westfalen","County":"Aachen","City":"Stolberg (Rheinland)","District":"Büsbach","PostalCode":"52223","AdditionalData":[{"value":"Deutschland","key":"CountryName"},{"value":"Nordrhein-Westfalen","key":"StateName"},{"value":"Aachen","key":"CountyName"}]},"MapReference":{"ReferenceId":"572296460","SideOfStreet":"neither","CountryId":"20147700","StateId":"20157369","CountyId":"20158069","CityId":"20158140","DistrictId":"20158152"}}},{"Relevance":1.0,"Distance":5.7,"MatchLevel":"houseNumber","MatchQuality":{"Country":1.0,"State":1.0,"County":1.0,"City":1.0,"District":1.0,"Street":[1.0],"HouseNumber":1.0,"PostalCode":1.0},"MatchType":"interpolated","Location":{"LocationId":"NT_1jYsyyAApzagq8-S5F0bEB_xMTM","LocationType":"point","DisplayPosition":{"Latitude":50.75685,"Longitude":6.21589},"MapView":{"TopLeft":{"Latitude":50.7579742,"Longitude":6.214113},"BottomRight":{"Latitude":50.7557258,"Longitude":6.217667}},"Address":{"Label":"Konrad-Adenauer-Straße 131, 52223 Stolberg (Rheinland), Deutschland","Country":"DEU","State":"Nordrhein-Westfalen","County":"Aachen","City":"Stolberg (Rheinland)","District":"Büsbach","Street":"Konrad-Adenauer-Straße","HouseNumber":"131","PostalCode":"52223","AdditionalData":[{"value":"Deutschland","key":"CountryName"},{"value":"Nordrhein-Westfalen","key":"StateName"},{"value":"Aachen","key":"CountyName"}]},"MapReference":{"ReferenceId":"920287576","Spot":0.73,"SideOfStreet":"left","CountryId":"20147700","StateId":"20157369","CountyId":"20158069","CityId":"20158140","DistrictId":"20158152","AddressId":"195661447","RoadLinkId":"277118892"}}},{"Relevance":1.0,"Distance":8.3,"MatchLevel":"houseNumber","MatchQuality":{"Country":1.0,"State":1.0,"County":1.0,"City":1.0,"District":1.0,"Street":[1.0],"HouseNumber":1.0,"PostalCode":1.0},"MatchType":"interpolated","Location":{"LocationId":"NT_1jYsyyAApzagq8-S5F0bEB_xMTMCB","LocationType":"point","DisplayPosition":{"Latitude":50.75695,"Longitude":6.21585},"MapView":{"TopLeft":{"Latitude":50.7580742,"Longitude":6.214073},"BottomRight":{"Latitude":50.7558258,"Longitude":6.217627}},"Address":{"Label":"Konrad-Adenauer-Straße 131B, 52223 Stolberg (Rheinland), Deutschland","Country":"DEU","State":"Nordrhein-Westfalen","County":"Aachen","City":"Stolberg (Rheinland)","District":"Büsbach","Street":"Konrad-Adenauer-Straße","HouseNumber":"131B","PostalCode":"52223","AdditionalData":[{"value":"Deutschland","key":"CountryName"},{"value":"Nordrhein-Westfalen","key":"StateName"},{"value":"Aachen","key":"CountyName"}]},"MapReference":{"ReferenceId":"51621581","Spot":0.05,"SideOfStreet":"left","CountryId":"20147700","StateId":"20157369","CountyId":"20158069","CityId":"20158140","DistrictId":"20158152","AddressId":"195466336","RoadLinkId":"39404034"}}},{"Relevance":1.0,"Distance":13.3,"MatchLevel":"houseNumber","MatchQuality":{"Country":1.0,"State":1.0,"County":1.0,"City":1.0,"District":1.0,"Street":[1.0],"HouseNumber":1.0,"PostalCode":1.0},"MatchType":"interpolated","Location":{"LocationId":"NT_MfqeT.QOi0wiXQU8CA6tGC_yYD","LocationType":"point","DisplayPosition":{"Latitude":50.757,"Longitude":6.2152},"MapView":{"TopLeft":{"Latitude":50.7581242,"Longitude":6.213423},"BottomRight":{"Latitude":50.7558758,"Longitude":6.216977}},"Address":{"Label":"Wilhelmbusch 26, 52223 Stolberg (Rheinland), Deutschland","Country":"DEU","State":"Nordrhein-Westfalen","County":"Aachen","City":"Stolberg (Rheinland)","District":"Büsbach","Street":"Wilhelmbusch","HouseNumber":"26","PostalCode":"52223","AdditionalData":[{"value":"Deutschland","key":"CountryName"},{"value":"Nordrhein-Westfalen","key":"StateName"},{"value":"Aachen","key":"CountyName"}]},"MapReference":{"ReferenceId":"51620601","Spot":0.73,"SideOfStreet":"right","CountryId":"20147700","StateId":"20157369","CountyId":"20158069","CityId":"20158140","DistrictId":"20158152","AddressId":"622132475","RoadLinkId":"39031065"}}},{"Relevance":1.0,"Distance":31.6,"MatchLevel":"houseNumber","MatchQuality":{"Country":1.0,"State":1.0,"County":1.0,"City":1.0,"District":1.0,"Street":[1.0],"HouseNumber":1.0,"PostalCode":1.0},"MatchType":"interpolated","Location":{"LocationId":"NT_1jYsyyAApzagq8-S5F0bEB_xITN","LocationType":"point","DisplayPosition":{"Latitude":50.75661,"Longitude":6.21596},"MapView":{"TopLeft":{"Latitude":50.7577342,"Longitude":6.214183},"BottomRight":{"Latitude":50.7554858,"Longitude":6.217737}},"Address":{"Label":"Konrad-Adenauer-Straße 125, 52223 Stolberg (Rheinland), Deutschland","Country":"DEU","State":"Nordrhein-Westfalen","County":"Aachen","City":"Stolberg (Rheinland)","District":"Büsbach","Street":"Konrad-Adenauer-Straße","HouseNumber":"125","PostalCode":"52223","AdditionalData":[{"value":"Deutschland","key":"CountryName"},{"value":"Nordrhein-Westfalen","key":"StateName"},{"value":"Aachen","key":"CountyName"}]},"MapReference":{"ReferenceId":"1205519324","Spot":0.93,"SideOfStreet":"left","CountryId":"20147700","StateId":"20157369","CountyId":"20158069","CityId":"20158140","DistrictId":"20158152","AddressId":"196561193","RoadLinkId":"519186889"}}},{"Relevance":1.0,"Distance":37.2,"MatchLevel":"houseNumber","MatchQuality":{"Country":1.0,"State":1.0,"County":1.0,"City":1.0,"District":1.0,"Street":[1.0],"HouseNumber":1.0,"PostalCode":1.0},"MatchType":"interpolated","Location":{"LocationId":"NT_Na274UOZbyn1Uqx3ol4eNB_yA","LocationType":"point","DisplayPosition":{"Latitude":50.75698,"Longitude":6.21626},"MapView":{"TopLeft":{"Latitude":50.7581042,"Longitude":6.214483},"BottomRight":{"Latitude":50.7558558,"Longitude":6.218037}},"Address":{"Label":"Galmeistraße 2, 52223 Stolberg (Rheinland), Deutschland","Country":"DEU","State":"Nordrhein-Westfalen","County":"Aachen","City":"Stolberg (Rheinland)","District":"Büsbach","Street":"Galmeistraße","HouseNumber":"2","PostalCode":"52223","AdditionalData":[{"value":"Deutschland","key":"CountryName"},{"value":"Nordrhein-Westfalen","key":"StateName"},{"value":"Aachen","key":"CountyName"}]},"MapReference":{"ReferenceId":"51620546","Spot":0.28,"SideOfStreet":"right","CountryId":"20147700","StateId":"20157369","CountyId":"20158069","CityId":"20158140","DistrictId":"20158152","AddressId":"194018539","RoadLinkId":"39250152"}}},{"Relevance":1.0,"Distance":50.6,"MatchLevel":"street","MatchQuality":{"Country":1.0,"State":1.0,"County":1.0,"City":1.0,"District":1.0,"Street":[1.0],"PostalCode":1.0},"Location":{"LocationId":"NT_MfqeT.QOi0wiXQU8CA6tGC_l_51620600_R","LocationType":"point","DisplayPosition":{"Latitude":50.7573312,"Longitude":6.2156786},"MapView":{"TopLeft":{"Latitude":50.75734,"Longitude":6.21538},"BottomRight":{"Latitude":50.75728,"Longitude":6.21573}},"Address":{"Label":"Wilhelmbusch, 52223 Stolberg (Rheinland), Deutschland","Country":"DEU","State":"Nordrhein-Westfalen","County":"Aachen","City":"Stolberg (Rheinland)","District":"Büsbach","Street":"Wilhelmbusch","PostalCode":"52223","AdditionalData":[{"value":"Deutschland","key":"CountryName"},{"value":"Nordrhein-Westfalen","key":"StateName"},{"value":"Aachen","key":"CountyName"}]},"MapReference":{"ReferenceId":"51620600","Spot":0.85,"SideOfStreet":"right","CountryId":"20147700","StateId":"20157369","CountyId":"20158069","CityId":"20158140","DistrictId":"20158152"}}},{"Relevance":1.0,"Distance":56.9,"MatchLevel":"houseNumber","MatchQuality":{"Country":1.0,"State":1.0,"County":1.0,"City":1.0,"District":1.0,"Street":[1.0],"HouseNumber":1.0,"PostalCode":1.0},"MatchType":"interpolated","Location":{"LocationId":"NT_1jYsyyAApzagq8-S5F0bEB_xMzN","LocationType":"point","DisplayPosition":{"Latitude":50.75739,"Longitude":6.21571},"MapView":{"TopLeft":{"Latitude":50.7585142,"Longitude":6.213933},"BottomRight":{"Latitude":50.7562658,"Longitude":6.217487}},"Address":{"Label":"Konrad-Adenauer-Straße 137, 52223 Stolberg (Rheinland), Deutschland","Country":"DEU","State":"Nordrhein-Westfalen","County":"Aachen","City":"Stolberg (Rheinland)","District":"Büsbach","Street":"Konrad-Adenauer-Straße","HouseNumber":"137","PostalCode":"52223","AdditionalData":[{"value":"Deutschland","key":"CountryName"},{"value":"Nordrhein-Westfalen","key":"StateName"},{"value":"Aachen","key":"CountyName"}]},"MapReference":{"ReferenceId":"51621580","Spot":0.07,"SideOfStreet":"left","CountryId":"20147700","StateId":"20157369","CountyId":"20158069","CityId":"20158140","DistrictId":"20158152","AddressId":"195605037","RoadLinkId":"39321015"}}},{"Relevance":1.0,"Distance":63.6,"MatchLevel":"houseNumber","MatchQuality":{"Country":1.0,"State":1.0,"County":1.0,"City":1.0,"District":1.0,"Street":[1.0],"HouseNumber":1.0,"PostalCode":1.0},"MatchType":"interpolated","Location":{"LocationId":"NT_MfqeT.QOi0wiXQU8CA6tGC_1MD","LocationType":"point","DisplayPosition":{"Latitude":50.75732,"Longitude":6.21518},"MapView":{"TopLeft":{"Latitude":50.7584442,"Longitude":6.213403},"BottomRight":{"Latitude":50.7561958,"Longitude":6.216957}},"Address":{"Label":"Wilhelmbusch 53, 52223 Stolberg (Rheinland), Deutschland","Country":"DEU","State":"Nordrhein-Westfalen","County":"Aachen","City":"Stolberg (Rheinland)","District":"Büsbach","Street":"Wilhelmbusch","HouseNumber":"53","PostalCode":"52223","AdditionalData":[{"value":"Deutschland","key":"CountryName"},{"value":"Nordrhein-Westfalen","key":"StateName"},{"value":"Aachen","key":"CountyName"}]},"MapReference":{"ReferenceId":"51620602","Spot":0.39,"SideOfStreet":"left","CountryId":"20147700","StateId":"20157369","CountyId":"20158069","CityId":"20158140","DistrictId":"20158152","AddressId":"199488146","RoadLinkId":"39456640"}}},{"Relevance":1.0,"Distance":78.7,"MatchLevel":"street","MatchQuality":{"Country":1.0,"State":1.0,"County":1.0,"City":1.0,"District":1.0,"Street":[1.0],"PostalCode":1.0},"Location":{"LocationId":"NT_FbuO0vuRTDJo.OoSgnPzgD_l_51620622_L","LocationType":"point","DisplayPosition":{"Latitude":50.75666,"Longitude":6.21682},"MapView":{"TopLeft":{"Latitude":50.75698,"Longitude":6.21682},"BottomRight":{"Latitude":50.75666,"Longitude":6.21777}},"Address":{"Label":"In der Dell, 52223 Stolberg (Rheinland), Deutschland","Country":"DEU","State":"Nordrhein-Westfalen","County":"Aachen","City":"Stolberg (Rheinland)","District":"Büsbach","Street":"In der Dell","PostalCode":"52223","AdditionalData":[{"value":"Deutschland","key":"CountryName"},{"value":"Nordrhein-Westfalen","key":"StateName"},{"value":"Aachen","key":"CountyName"}]},"MapReference":{"ReferenceId":"51620622","Spot":0.0,"SideOfStreet":"left","CountryId":"20147700","StateId":"20157369","CountyId":"20158069","CityId":"20158140","DistrictId":"20158152"}}}]}]}}