{"Response":{"MetaInfo":{"Timestamp":"2020-03-28T11:38:27.159+0000","NextPageInformation":"2"},"View":[{"_type":"SearchResultsViewType","ViewId":0,"Result":[{"Relevance":1.0,"Distance":0.0,"Direction":0.0,"MatchLevel":"district","MatchQuality":{"Country":1.0,"State":1.0,"County":1.0,"City":1.0,"District":1.0,"PostalCode":1.0},"Location":{"LocationId":"NT_8u0L6i917S00cQ6Gu4q5sD","LocationType":"point","DisplayPosition":{"Latitude":50.7940804,"Longitude":4.9381525},"MapView":{"TopLeft":{"Latitude":50.79972,"Longitude":4.93004},"BottomRight":{"Latitude":50.78497,"Longitude":4.94972}},"Address":{"Label":"Bost, Tienen, Vlaanderen, België","Country":"BEL","State":"Vlaanderen","County":"Vlaams Brabant","City":"Tienen","District":"Bost","PostalCode":"3300","AdditionalData":[{"value":"België","key":"CountryName"},{"value":"Vlaanderen","key":"StateName"},{"value":"Vlaams Brabant","key":"CountyName"}]},"MapReference":{"ReferenceId":"53732246","SideOfStreet":"neither","CountryId":"20128886","StateId":"20204377","CountyId":"20207856","CityId":"20208174","DistrictId":"20208177"}}},{"Relevance":1.0,"Distance":7.1,"MatchLevel":"houseNumber","MatchQuality":{"Country":1.0,"State":1.0,"County":1.0,"City":1.0,"District":1.0,"Street":[1.0],"HouseNumber":1.0,"PostalCode":1.0},"MatchType":"interpolated","Location":{"LocationId":"NT_GBZIdEXMcd2v.KKoYKrFID_1UD","LocationType":"point","DisplayPosition":{"Latitude":50.7941,"Longitude":4.9384},"MapView":{"TopLeft":{"Latitude":50.7952242,"Longitude":4.9366216},"BottomRight":{"Latitude":50.7929758,"Longitude":4.9401784}},"Address":{"Label":"Hannuitsesteenweg 55, 3300 Tienen, België","Country":"BEL","State":"Vlaanderen","County":"Vlaams Brabant","City":"Tienen","District":"Bost","Street":"Hannuitsesteenweg","HouseNumber":"55","PostalCode":"3300","AdditionalData":[{"value":"België","key":"CountryName"},{"value":"Vlaanderen","key":"StateName"},{"value":"Vlaams Brabant","key":"CountyName"}]},"MapReference":{"ReferenceId":"567238739","Spot":0.57,"SideOfStreet":"left","CountryId":"20128886","StateId":"20204377","CountyId":"20207856","CityId":"20208174","DistrictId":"20208177","AddressId":"400013854","RoadLinkId":"30937056"}}},{"Relevance":1.0,"Distance":38.9,"MatchLevel":"street","MatchQuality":{"Country":1.0,"State":1.0,"County":1.0,"City":1.0,"District":1.0,"Street":[1.0],"PostalCode":1.0},"Location":{"LocationId":"NT_CHIjxULwc3376QDwa9GW1D_l_567238743_R","LocationType":"point","DisplayPosition":{"Latitude":50.79443,"Longitude":4.93812},"MapView":{"TopLeft":{"Latitude":50.79468,"Longitude":4.93812},"BottomRight":{"Latitude":50.79443,"Longitude":4.93944}},"Address":{"Label":"Spanuitpad, 3300 Tienen, België","Country":"BEL","State":"Vlaanderen","County":"Vlaams Brabant","City":"Tienen","District":"Bost","Street":"Spanuitpad","PostalCode":"3300","AdditionalData":[{"value":"België","key":"CountryName"},{"value":"Vlaanderen","key":"StateName"},{"value":"Vlaams Brabant","key":"CountyName"}]},"MapReference":{"ReferenceId":"567238743","Spot":0.0,"SideOfStreet":"right","CountryId":"20128886","StateId":"20204377","CountyId":"20207856","CityId":"20208174","DistrictId":"20208177"}}},{"Relevance":1.0,"Distance":44.7,"MatchLevel":"houseNumber","MatchQuality":{"Country":1.0,"State":1.0,"County":1.0,"City":1.0,"District":1.0,"Street":[1.0],"HouseNumber":1.0,"PostalCode":1.0},"MatchType":"interpolated","Location":{"LocationId":"NT_GBZIdEXMcd2v.KKoYKrFID_0cD","LocationType":"point","DisplayPosition":{"Latitude":50.79448,"Longitude":4.93808},"MapView":{"TopLeft":{"Latitude":50.7956042,"Longitude":4.9363016},"BottomRight":{"Latitude":50.7933558,"Longitude":4.9398584}},"Address":{"Label":"Hannuitsesteenweg 47, 3300 Tienen, België","Country":"BEL","State":"Vlaanderen","County":"Vlaams Brabant","City":"Tienen","District":"Bost","Street":"Hannuitsesteenweg","HouseNumber":"47","PostalCode":"3300","AdditionalData":[{"value":"België","key":"CountryName"},{"value":"Vlaanderen","key":"StateName"},{"value":"Vlaams Brabant","key":"CountyName"}]},"MapReference":{"ReferenceId":"905952333","Spot":0.13,"SideOfStreet":"left","CountryId":"20128886","StateId":"20204377","CountyId":"20207856","CityId":"20208174","DistrictId":"20208177","AddressId":"399596194","RoadLinkId":"266855312"}}},{"Relevance":1.0,"Distance":51.5,"MatchLevel":"houseNumber","MatchQuality":{"Country":1.0,"State":1.0,"County":1.0,"City":1.0,"District":1.0,"Street":[1.0],"HouseNumber":1.0,"PostalCode":1.0},"MatchType":"interpolated","Location":{"LocationId":"NT_5mmCnbPEmB0TDa-cS-NoXA_zQD","LocationType":"point","DisplayPosition":{"Latitude":50.79357,"Longitude":4.93776},"MapView":{"TopLeft":{"Latitude":50.7946942,"Longitude":4.9359816},"BottomRight":{"Latitude":50.7924458,"Longitude":4.9395384}},"Address":{"Label":"Spanuit 34, 3300 Tienen, België","Country":"BEL","State":"Vlaanderen","County":"Vlaams Brabant","City":"Tienen","District":"Bost","Street":"Spanuit","HouseNumber":"34","PostalCode":"3300","AdditionalData":[{"value":"België","key":"CountryName"},{"value":"Vlaanderen","key":"StateName"},{"value":"Vlaams Brabant","key":"CountyName"}]},"MapReference":{"ReferenceId":"53731738","Spot":0.51,"SideOfStreet":"right","CountryId":"20128886","StateId":"20204377","CountyId":"20207856","CityId":"20208174","DistrictId":"20208177","AddressId":"401486141","RoadLinkId":"30725805"}}},{"Relevance":1.0,"Distance":68.9,"MatchLevel":"houseNumber","MatchQuality":{"Country":1.0,"State":1.0,"County":1.0,"City":1.0,"District":1.0,"Street":[1.0],"HouseNumber":1.0,"PostalCode":1.0},"MatchType":"interpolated","Location":{"LocationId":"NT_5mmCnbPEmB0TDa-cS-NoXA_yID","LocationType":"point","DisplayPosition":{"Latitude":50.79425,"Longitude":4.93689},"MapView":{"TopLeft":{"Latitude":50.7953742,"Longitude":4.9351116},"BottomRight":{"Latitude":50.7931258,"Longitude":4.9386684}},"Address":{"Label":"Spanuit 22, 3300 Tienen, België","Country":"BEL","State":"Vlaanderen","County":"Vlaams Brabant","City":"Tienen","District":"Bost","Street":"Spanuit","HouseNumber":"22","PostalCode":"3300","AdditionalData":[{"value":"België","key":"CountryName"},{"value":"Vlaanderen","key":"StateName"},{"value":"Vlaams Brabant","key":"CountyName"}]},"MapReference":{"ReferenceId":"567238736","Spot":0.25,"SideOfStreet":"right","CountryId":"20128886","StateId":"20204377","CountyId":"20207856","CityId":"20208174","DistrictId":"20208177","AddressId":"401486140","RoadLinkId":"30598685"}}},{"Relevance":1.0,"Distance":71.5,"MatchLevel":"houseNumber","MatchQuality":{"Country":1.0,"State":1.0,"County":1.0,"City":1.0,"District":1.0,"Street":[1.0],"HouseNumber":1.0,"PostalCode":1.0},"MatchType":"interpolated","Location":{"LocationId":"NT_GBZIdEXMcd2v.KKoYKrFID_3ED","LocationType":"point","DisplayPosition":{"Latitude":50.79358,"Longitude":4.93883},"MapView":{"TopLeft":{"Latitude":50.7947042,"Longitude":4.9370516},"BottomRight":{"Latitude":50.7924558,"Longitude":4.9406084}},"Address":{"Label":"Hannuitsesteenweg 71, 3300 Tienen, België","Country":"BEL","State":"Vlaanderen","County":"Vlaams Brabant","City":"Tienen","District":"Bost","Street":"Hannuitsesteenweg","HouseNumber":"71","PostalCode":"3300","AdditionalData":[{"value":"België","key":"CountryName"},{"value":"Vlaanderen","key":"StateName"},{"value":"Vlaams Brabant","key":"CountyName"}]},"MapReference":{"ReferenceId":"53731815","Spot":0.9,"SideOfStreet":"left","CountryId":"20128886","StateId":"20204377","CountyId":"20207856","CityId":"20208174","DistrictId":"20208177","AddressId":"400168271","RoadLinkId":"30529385"}}},{"Relevance":1.0,"Distance":89.0,"MatchLevel":"houseNumber","MatchQuality":{"Country":1.0,"State":1.0,"County":1.0,"City":1.0,"District":1.0,"Street":[1.0],"HouseNumber":1.0,"PostalCode":1.0},"MatchType":"interpolated","Location":{"LocationId":"NT_VVydcwMPQrXCGevR2tLnrC_1ED","LocationType":"point","DisplayPosition":{"Latitude":50.79374,"Longitude":4.93677},"MapView":{"TopLeft":{"Latitude":50.7948642,"Longitude":4.9349916},"BottomRight":{"Latitude":50.7926158,"Longitude":4.9385484}},"Address":{"Label":"Bostenberg 51, 3300 Tienen, België","Country":"BEL","State":"Vlaanderen","County":"Vlaams Brabant","City":"Tienen","District":"Bost","Street":"Bostenberg","HouseNumber":"51","PostalCode":"3300","AdditionalData":[{"value":"België","key":"CountryName"},{"value":"Vlaanderen","key":"StateName"},{"value":"Vlaams Brabant","key":"CountyName"}]},"MapReference":{"ReferenceId":"567238735","Spot":0.85,"SideOfStreet":"right","CountryId":"20128886","StateId":"20204377","CountyId":"20207856","CityId":"20208174","DistrictId":"20208177","AddressId":"399472947","RoadLinkId":"30863561"}}},{"Relevance":1.0,"Distance":100.0,"MatchLevel":"houseNumber","MatchQuality":{"Country":1.0,"State":1.0,"County":1.0,"City":1.0,"District":1.0,"Street":[1.0],"HouseNumber":1.0,"PostalCode":1.0},"MatchType":"interpolated","Location":{"LocationId":"NT_d0btvKa14LDc4ZbTz-nWMD_0AD","LocationType":"point","DisplayPosition":{"Latitude":50.79466,"Longitude":4.93945},"MapView":{"TopLeft":{"Latitude":50.7957842,"Longitude":4.9376716},"BottomRight":{"Latitude":50.7935358,"Longitude":4.9412284}},"Address":{"Label":"Klein Spanuit 40, 3300 Tienen, België","Country":"BEL","State":"Vlaanderen","County":"Vlaams Brabant","City":"Tienen","District":"Bost","Street":"Klein Spanuit","HouseNumber":"40","PostalCode":"3300","AdditionalData":[{"value":"België","key":"CountryName"},{"value":"Vlaanderen","key":"StateName"},{"value":"Vlaams Brabant","key":"CountyName"}]},"MapReference":{"ReferenceId":"567238741","Spot":0.99,"SideOfStreet":"left","CountryId":"20128886","StateId":"20204377","CountyId":"20207856","CityId":"20208174","DistrictId":"20208177","AddressId":"737430067","RoadLinkId":"30462976"}}},{"Relevance":1.0,"Distance":105.6,"MatchLevel":"houseNumber","MatchQuality":{"Country":1.0,"State":1.0,"County":1.0,"City":1.0,"District":1.0,"Street":[1.0],"HouseNumber":1.0,"PostalCode":1.0},"MatchType":"interpolated","Location":{"LocationId":"NT_GBZIdEXMcd2v.KKoYKrFID_zUD","LocationType":"point","DisplayPosition":{"Latitude":50.79498,"Longitude":4.93767},"MapView":{"TopLeft":{"Latitude":50.7961042,"Longitude":4.9358916},"BottomRight":{"Latitude":50.7938558,"Longitude":4.9394484}},"Address":{"Label":"Hannuitsesteenweg 35, 3300 Tienen, België","Country":"BEL","State":"Vlaanderen","County":"Vlaams Brabant","City":"Tienen","District":"Bost","Street":"Hannuitsesteenweg","HouseNumber":"35","PostalCode":"3300","AdditionalData":[{"value":"België","key":"CountryName"},{"value":"Vlaanderen","key":"StateName"},{"value":"Vlaams Brabant","key":"CountyName"}]},"MapReference":{"ReferenceId":"905952334","Spot":0.45,"SideOfStreet":"left","CountryId":"20128886","StateId":"20204377","CountyId":"20207856","CityId":"20208174","DistrictId":"20208177","AddressId":"400936096","RoadLinkId":"266855313"}}}]}]}}