{"Response":{"MetaInfo":{"Timestamp":"2020-03-28T11:43:35.253+0000","NextPageInformation":"2"},"View":[{"_type":"SearchResultsViewType","ViewId":0,"Result":[{"Relevance":1.0,"Distance":0.0,"Direction":0.0,"MatchLevel":"district","MatchQuality":{"Country":1.0,"State":1.0,"County":1.0,"City":1.0,"District":1.0,"PostalCode":1.0},"Location":{"LocationId":"NT_4gkYDKh1lBwYzHnDk4YpyB","LocationType":"point","DisplayPosition":{"Latitude":50.7384681,"Longitude":7.9680204},"MapView":{"TopLeft":{"Latitude":50.74594,"Longitude":7.95669},"BottomRight":{"Latitude":50.72811,"Longitude":7.98704}},"Address":{"Label":"Daaden, Rheinland-Pfalz, Deutschland","Country":"DEU","State":"Rheinland-Pfalz","County":"Altenkirchen (Westerwald)","City":"Daaden","District":"Daaden","PostalCode":"57567","AdditionalData":[{"value":"Deutschland","key":"CountryName"},{"value":"Rheinland-Pfalz","key":"StateName"},{"value":"Altenkirchen (Westerwald)","key":"CountyName"}]},"MapReference":{"ReferenceId":"548271781","SideOfStreet":"neither","CountryId":"20147700","StateId":"20164001","CountyId":"20164281","CityId":"20164325","DistrictId":"20164328"}}},{"Relevance":1.0,"Distance":15.0,"MatchLevel":"houseNumber","MatchQuality":{"Country":1.0,"State":1.0,"County":1.0,"City":1.0,"District":1.0,"Street":[1.0],"HouseNumber":1.0,"PostalCode":1.0},"MatchType":"interpolated","Location":{"LocationId":"NT_pxYYBav.F32ufFZXNdu2IC_xID","LocationType":"point","DisplayPosition":{"Latitude":50.73851,"Longitude":7.96769},"MapView":{"TopLeft":{"Latitude":50.7396342,"Longitude":7.9659137},"BottomRight":{"Latitude":50.7373858,"Longitude":7.9694663}},"Address":{"Label":"Im Schützenhof 12, 57567 Daaden, Deutschland","Country":"DEU","State":"Rheinland-Pfalz","County":"Altenkirchen (Westerwald)","City":"Daaden","District":"Daaden","Street":"Im Schützenhof","HouseNumber":"12","PostalCode":"57567","AdditionalData":[{"value":"Deutschland","key":"CountryName"},{"value":"Rheinland-Pfalz","key":"StateName"},{"value":"Altenkirchen (Westerwald)","key":"CountyName"}]},"MapReference":{"ReferenceId":"548327691","Spot":0.5,"SideOfStreet":"right","CountryId":"20147700","StateId":"20164001","CountyId":"20164281","CityId":"20164325","DistrictId":"20164328","AddressId":"188346624","RoadLinkId":"34706762"}}},{"Relevance":1.0,"Distance":24.9,"MatchLevel":"houseNumber","MatchQuality":{"Country":1.0,"State":1.0,"County":1.0,"City":1.0,"District":1.0,"Street":[1.0],"HouseNumber":1.0,"PostalCode":1.0},"MatchType":"interpolated","Location":{"LocationId":"NT_DvfPTmfelnM0hWIcsHvB8A_xID","LocationType":"point","DisplayPosition":{"Latitude":50.7387,"Longitude":7.96856},"MapView":{"TopLeft":{"Latitude":50.7398242,"Longitude":7.9667837},"BottomRight":{"Latitude":50.7375758,"Longitude":7.9703363}},"Address":{"Label":"Mühlhofsweg 12, 57567 Daaden, Deutschland","Country":"DEU","State":"Rheinland-Pfalz","County":"Altenkirchen (Westerwald)","City":"Daaden","District":"Daaden","Street":"Mühlhofsweg","HouseNumber":"12","PostalCode":"57567","AdditionalData":[{"value":"Deutschland","key":"CountryName"},{"value":"Rheinland-Pfalz","key":"StateName"},{"value":"Altenkirchen (Westerwald)","key":"CountyName"}]},"MapReference":{"ReferenceId":"576418084","Spot":0.85,"SideOfStreet":"left","CountryId":"20147700","StateId":"20164001","CountyId":"20164281","CityId":"20164325","DistrictId":"20164328","AddressId":"187917622","RoadLinkId":"34481931"}}},{"Relevance":1.0,"Distance":34.5,"MatchLevel":"houseNumber","MatchQuality":{"Country":1.0,"State":1.0,"County":1.0,"City":1.0,"District":1.0,"Street":[1.0],"HouseNumber":1.0,"PostalCode":1.0},"MatchType":"interpolated","Location":{"LocationId":"NT_pxYYBav.F32ufFZXNdu2IC_xAD","LocationType":"point","DisplayPosition":{"Latitude":50.73813,"Longitude":7.96776},"MapView":{"TopLeft":{"Latitude":50.7392542,"Longitude":7.9659837},"BottomRight":{"Latitude":50.7370058,"Longitude":7.9695363}},"Address":{"Label":"Im Schützenhof 10, 57567 Daaden, Deutschland","Country":"DEU","State":"Rheinland-Pfalz","County":"Altenkirchen (Westerwald)","City":"Daaden","District":"Daaden","Street":"Im Schützenhof","HouseNumber":"10","PostalCode":"57567","AdditionalData":[{"value":"Deutschland","key":"CountryName"},{"value":"Rheinland-Pfalz","key":"StateName"},{"value":"Altenkirchen (Westerwald)","key":"CountyName"}]},"MapReference":{"ReferenceId":"548271586","Spot":0.0,"SideOfStreet":"right","CountryId":"20147700","StateId":"20164001","CountyId":"20164281","CityId":"20164325","DistrictId":"20164328","AddressId":"188685665","RoadLinkId":"422236811"}}},{"Relevance":1.0,"Distance":38.2,"MatchLevel":"houseNumber","MatchQuality":{"Country":1.0,"State":1.0,"County":1.0,"City":1.0,"District":1.0,"Street":[1.0],"HouseNumber":1.0,"PostalCode":1.0},"MatchType":"interpolated","Location":{"LocationId":"NT_DvfPTmfelnM0hWIcsHvB8A_xAD","LocationType":"point","DisplayPosition":{"Latitude":50.73873,"Longitude":7.96854},"MapView":{"TopLeft":{"Latitude":50.7398542,"Longitude":7.9667637},"BottomRight":{"Latitude":50.7376058,"Longitude":7.9703163}},"Address":{"Label":"Mühlhofsweg 10, 57567 Daaden, Deutschland","Country":"DEU","State":"Rheinland-Pfalz","County":"Altenkirchen (Westerwald)","City":"Daaden","District":"Daaden","Street":"Mühlhofsweg","HouseNumber":"10","PostalCode":"57567","AdditionalData":[{"value":"Deutschland","key":"CountryName"},{"value":"Rheinland-Pfalz","key":"StateName"},{"value":"Altenkirchen (Westerwald)","key":"CountyName"}]},"MapReference":{"ReferenceId":"576418085","Spot":0.0,"SideOfStreet":"left","CountryId":"20147700","StateId":"20164001","CountyId":"20164281","CityId":"20164325","DistrictId":"20164328","AddressId":"249757866","RoadLinkId":"34111481"}}},{"Relevance":1.0,"Distance":44.7,"MatchLevel":"houseNumber","MatchQuality":{"Country":1.0,"State":1.0,"County":1.0,"City":1.0,"District":1.0,"Street":[1.0],"HouseNumber":1.0,"PostalCode":1.0},"MatchType":"interpolated","Location":{"LocationId":"NT_0aH95rfj9y58jAOYZ2UKWB_yA","LocationType":"point","DisplayPosition":{"Latitude":50.73894,"Longitude":7.96807},"MapView":{"TopLeft":{"Latitude":50.7400642,"Longitude":7.9662937},"BottomRight":{"Latitude":50.7378158,"Longitude":7.9698463}},"Address":{"Label":"Saynische Straße 2, 57567 Daaden, Deutschland","Country":"DEU","State":"Rheinland-Pfalz","County":"Altenkirchen (Westerwald)","City":"Daaden","District":"Daaden","Street":"Saynische Straße","HouseNumber":"2","PostalCode":"57567","AdditionalData":[{"value":"Deutschland","key":"CountryName"},{"value":"Rheinland-Pfalz","key":"StateName"},{"value":"Altenkirchen (Westerwald)","key":"CountyName"}]},"MapReference":{"ReferenceId":"1178121597","Spot":0.82,"SideOfStreet":"left","CountryId":"20147700","StateId":"20164001","CountyId":"20164281","CityId":"20164325","DistrictId":"20164328","AddressId":"188446423","RoadLinkId":"485711338"}}},{"Relevance":1.0,"Distance":50.2,"MatchLevel":"houseNumber","MatchQuality":{"Country":1.0,"State":1.0,"County":1.0,"City":1.0,"District":1.0,"Street":[1.0],"HouseNumber":1.0,"PostalCode":1.0},"MatchType":"interpolated","Location":{"LocationId":"NT_CjTKFMZ1-eH0YLVFOqKGjA_2A","LocationType":"point","DisplayPosition":{"Latitude":50.73877,"Longitude":7.96749},"MapView":{"TopLeft":{"Latitude":50.7398942,"Longitude":7.9657137},"BottomRight":{"Latitude":50.7376458,"Longitude":7.9692663}},"Address":{"Label":"Hachenburger Straße 6, 57567 Daaden, Deutschland","Country":"DEU","State":"Rheinland-Pfalz","County":"Altenkirchen (Westerwald)","City":"Daaden","District":"Daaden","Street":"Hachenburger Straße","HouseNumber":"6","PostalCode":"57567","AdditionalData":[{"value":"Deutschland","key":"CountryName"},{"value":"Rheinland-Pfalz","key":"StateName"},{"value":"Altenkirchen (Westerwald)","key":"CountyName"}]},"MapReference":{"ReferenceId":"548271593","Spot":0.93,"SideOfStreet":"left","CountryId":"20147700","StateId":"20164001","CountyId":"20164281","CityId":"20164325","DistrictId":"20164328","AddressId":"187983300","RoadLinkId":"34090332"}}},{"Relevance":1.0,"Distance":51.3,"MatchLevel":"houseNumber","MatchQuality":{"Country":1.0,"State":1.0,"County":1.0,"City":1.0,"District":1.0,"Street":[1.0],"HouseNumber":1.0,"PostalCode":1.0},"MatchType":"interpolated","Location":{"LocationId":"NT_pxYYBav.F32ufFZXNdu2IC_2A","LocationType":"point","DisplayPosition":{"Latitude":50.73818,"Longitude":7.96746},"MapView":{"TopLeft":{"Latitude":50.7393042,"Longitude":7.9656837},"BottomRight":{"Latitude":50.7370558,"Longitude":7.9692363}},"Address":{"Label":"Im Schützenhof 6, 57567 Daaden, Deutschland","Country":"DEU","State":"Rheinland-Pfalz","County":"Altenkirchen (Westerwald)","City":"Daaden","District":"Daaden","Street":"Im Schützenhof","HouseNumber":"6","PostalCode":"57567","AdditionalData":[{"value":"Deutschland","key":"CountryName"},{"value":"Rheinland-Pfalz","key":"StateName"},{"value":"Altenkirchen (Westerwald)","key":"CountyName"}]},"MapReference":{"ReferenceId":"548271591","Spot":0.13,"SideOfStreet":"right","CountryId":"20147700","StateId":"20164001","CountyId":"20164281","CityId":"20164325","DistrictId":"20164328","AddressId":"188173423","RoadLinkId":"34026436"}}},{"Relevance":1.0,"Distance":52.6,"MatchLevel":"street","MatchQuality":{"Country":1.0,"State":1.0,"County":1.0,"City":1.0,"District":1.0,"PostalCode":1.0},"Location":{"LocationId":"NT_NrPfxRdPJUcODr8iHLYhSD_l_1178121600_R","LocationType":"point","DisplayPosition":{"Latitude":50.73893,"Longitude":7.96786},"MapView":{"TopLeft":{"Latitude":50.73897,"Longitude":7.96771},"BottomRight":{"Latitude":50.73891,"Longitude":7.9679}},"Address":{"Label":"57567 Daaden, Deutschland","Country":"DEU","State":"Rheinland-Pfalz","County":"Altenkirchen (Westerwald)","City":"Daaden","District":"Daaden","PostalCode":"57567","AdditionalData":[{"value":"Deutschland","key":"CountryName"},{"value":"Rheinland-Pfalz","key":"StateName"},{"value":"Altenkirchen (Westerwald)","key":"CountyName"}]},"MapReference":{"ReferenceId":"1178121600","Spot":0.73,"SideOfStreet":"right","CountryId":"20147700","StateId":"20164001","CountyId":"20164281","CityId":"20164325","DistrictId":"20164328"}}},{"Relevance":1.0,"Distance":54.9,"MatchLevel":"street","MatchQuality":{"Country":1.0,"State":1.0,"County":1.0,"City":1.0,"District":1.0,"Street":[1.0],"PostalCode":1.0},"Location":{"LocationId":"NT_0aH95rfj9y58jAOYZ2UKWB_l_1178121598_L","LocationType":"point","DisplayPosition":{"Latitude":50.73896,"Longitude":7.96795},"MapView":{"TopLeft":{"Latitude":50.73897,"Longitude":7.9679},"BottomRight":{"Latitude":50.73896,"Longitude":7.96795}},"Address":{"Label":"Saynische Straße, 57567 Daaden, Deutschland","Country":"DEU","State":"Rheinland-Pfalz","County":"Altenkirchen (Westerwald)","City":"Daaden","District":"Daaden","Street":"Saynische Straße","PostalCode":"57567","AdditionalData":[{"value":"Deutschland","key":"CountryName"},{"value":"Rheinland-Pfalz","key":"StateName"},{"value":"Altenkirchen (Westerwald)","key":"CountyName"}]},"MapReference":{"ReferenceId":"1178121598","Spot":0.0,"SideOfStreet":"left","CountryId":"20147700","StateId":"20164001","CountyId":"20164281","CityId":"20164325","DistrictId":"20164328"}}}]}]}}