{"Response":{"MetaInfo":{"Timestamp":"2020-03-28T10:57:44.765+0000","NextPageInformation":"2"},"View":[{"_type":"SearchResultsViewType","ViewId":0,"Result":[{"Relevance":1.0,"Distance":0.0,"Direction":0.0,"MatchLevel":"district","MatchQuality":{"Country":1.0,"State":1.0,"County":1.0,"City":1.0,"District":1.0,"PostalCode":1.0},"Location":{"LocationId":"NT_idq6gH.I7LY6guTTH4mxLB","LocationType":"point","DisplayPosition":{"Latitude":50.7943794,"Longitude":8.3205629},"MapView":{"TopLeft":{"Latitude":50.79764,"Longitude":8.31434},"BottomRight":{"Latitude":50.78376,"Longitude":8.32903}},"Address":{"Label":"Wissenbach, Eschenburg, Hessen, Deutschland","Country":"DEU","State":"Hessen","County":"Lahn-Dill-Kreis","City":"Eschenburg","District":"Wissenbach","PostalCode":"35713","AdditionalData":[{"value":"Deutschland","key":"CountryName"},{"value":"Hessen","key":"StateName"},{"value":"Lahn-Dill-Kreis","key":"CountyName"}]},"MapReference":{"ReferenceId":"1038934005","SideOfStreet":"neither","CountryId":"20147700","StateId":"20160993","CountyId":"20162290","CityId":"20162353","DistrictId":"20162357"}}},{"Relevance":1.0,"Distance":41.8,"MatchLevel":"houseNumber","MatchQuality":{"Country":1.0,"State":1.0,"County":1.0,"City":1.0,"District":1.0,"Street":[1.0],"HouseNumber":1.0,"PostalCode":1.0},"MatchType":"interpolated","Location":{"LocationId":"NT_mxuIwvTS20-I8w1zqPtPKC_zQD","LocationType":"point","DisplayPosition":{"Latitude":50.79394,"Longitude":8.32037},"MapView":{"TopLeft":{"Latitude":50.7950642,"Longitude":8.3185916},"BottomRight":{"Latitude":50.7928158,"Longitude":8.3221484}},"Address":{"Label":"Forsthausstraße 34, 35713 Eschenburg, Deutschland","Country":"DEU","State":"Hessen","County":"Lahn-Dill-Kreis","City":"Eschenburg","District":"Wissenbach","Street":"Forsthausstraße","HouseNumber":"34","PostalCode":"35713","AdditionalData":[{"value":"Deutschland","key":"CountryName"},{"value":"Hessen","key":"StateName"},{"value":"Lahn-Dill-Kreis","key":"CountyName"}]},"MapReference":{"ReferenceId":"61569647","Spot":0.74,"SideOfStreet":"right","CountryId":"20147700","StateId":"20160993","CountyId":"20162290","CityId":"20162353","DistrictId":"20162357","AddressId":"186656271","RoadLinkId":"34635703"}}},{"Relevance":1.0,"Distance":42.7,"MatchLevel":"houseNumber","MatchQuality":{"Country":1.0,"State":1.0,"County":1.0,"City":1.0,"District":1.0,"Street":[1.0],"HouseNumber":1.0,"PostalCode":1.0},"MatchType":"interpolated","Location":{"LocationId":"NT_uMaDDaVkliBAf6taNRUMbC_xA","LocationType":"point","DisplayPosition":{"Latitude":50.79408,"Longitude":8.32102},"MapView":{"TopLeft":{"Latitude":50.7952042,"Longitude":8.3192416},"BottomRight":{"Latitude":50.7929558,"Longitude":8.3227984}},"Address":{"Label":"An der Hardt 1, 35713 Eschenburg, Deutschland","Country":"DEU","State":"Hessen","County":"Lahn-Dill-Kreis","City":"Eschenburg","District":"Wissenbach","Street":"An der Hardt","HouseNumber":"1","PostalCode":"35713","AdditionalData":[{"value":"Deutschland","key":"CountryName"},{"value":"Hessen","key":"StateName"},{"value":"Lahn-Dill-Kreis","key":"CountyName"}]},"MapReference":{"ReferenceId":"61569762","Spot":0.69,"SideOfStreet":"right","CountryId":"20147700","StateId":"20160993","CountyId":"20162290","CityId":"20162353","DistrictId":"20162357","AddressId":"186671747","RoadLinkId":"34203794"}}},{"Relevance":1.0,"Distance":52.2,"MatchLevel":"houseNumber","MatchQuality":{"Country":1.0,"State":1.0,"County":1.0,"City":1.0,"District":1.0,"Street":[1.0],"HouseNumber":1.0,"PostalCode":1.0},"MatchType":"interpolated","Location":{"LocationId":"NT_mxuIwvTS20-I8w1zqPtPKC_zYD","LocationType":"point","DisplayPosition":{"Latitude":50.79431,"Longitude":8.3197},"MapView":{"TopLeft":{"Latitude":50.7954342,"Longitude":8.3179216},"BottomRight":{"Latitude":50.7931858,"Longitude":8.3214784}},"Address":{"Label":"Forsthausstraße 36, 35713 Eschenburg, Deutschland","Country":"DEU","State":"Hessen","County":"Lahn-Dill-Kreis","City":"Eschenburg","District":"Wissenbach","Street":"Forsthausstraße","HouseNumber":"36","PostalCode":"35713","AdditionalData":[{"value":"Deutschland","key":"CountryName"},{"value":"Hessen","key":"StateName"},{"value":"Lahn-Dill-Kreis","key":"CountyName"}]},"MapReference":{"ReferenceId":"61569626","Spot":0.24,"SideOfStreet":"right","CountryId":"20147700","StateId":"20160993","CountyId":"20162290","CityId":"20162353","DistrictId":"20162357","AddressId":"186730224","RoadLinkId":"34058277"}}},{"Relevance":1.0,"Distance":84.3,"MatchLevel":"houseNumber","MatchQuality":{"Country":1.0,"State":1.0,"County":1.0,"City":1.0,"District":1.0,"Street":[1.0],"HouseNumber":1.0,"PostalCode":1.0},"MatchType":"interpolated","Location":{"LocationId":"NT_p6gFtAyjwNkLm.2fuKq9tC_zQTQ","LocationType":"point","DisplayPosition":{"Latitude":50.7936,"Longitude":8.31997},"MapView":{"TopLeft":{"Latitude":50.7947242,"Longitude":8.3181916},"BottomRight":{"Latitude":50.7924758,"Longitude":8.3217484}},"Address":{"Label":"Bombergstraße 34A, 35713 Eschenburg, Deutschland","Country":"DEU","State":"Hessen","County":"Lahn-Dill-Kreis","City":"Eschenburg","District":"Wissenbach","Street":"Bombergstraße","HouseNumber":"34A","PostalCode":"35713","AdditionalData":[{"value":"Deutschland","key":"CountryName"},{"value":"Hessen","key":"StateName"},{"value":"Lahn-Dill-Kreis","key":"CountyName"}]},"MapReference":{"ReferenceId":"61569813","Spot":0.68,"SideOfStreet":"right","CountryId":"20147700","StateId":"20160993","CountyId":"20162290","CityId":"20162353","DistrictId":"20162357","AddressId":"198498257","RoadLinkId":"34129834"}}},{"Relevance":1.0,"Distance":88.5,"MatchLevel":"houseNumber","MatchQuality":{"Country":1.0,"State":1.0,"County":1.0,"City":1.0,"District":1.0,"Street":[1.0],"HouseNumber":1.0,"PostalCode":1.0},"MatchType":"interpolated","Location":{"LocationId":"NT_p6gFtAyjwNkLm.2fuKq9tC_yED","LocationType":"point","DisplayPosition":{"Latitude":50.79409,"Longitude":8.31939},"MapView":{"TopLeft":{"Latitude":50.7952142,"Longitude":8.3176116},"BottomRight":{"Latitude":50.7929658,"Longitude":8.3211684}},"Address":{"Label":"Bombergstraße 21, 35713 Eschenburg, Deutschland","Country":"DEU","State":"Hessen","County":"Lahn-Dill-Kreis","City":"Eschenburg","District":"Wissenbach","Street":"Bombergstraße","HouseNumber":"21","PostalCode":"35713","AdditionalData":[{"value":"Deutschland","key":"CountryName"},{"value":"Hessen","key":"StateName"},{"value":"Lahn-Dill-Kreis","key":"CountyName"}]},"MapReference":{"ReferenceId":"61569584","Spot":0.04,"SideOfStreet":"left","CountryId":"20147700","StateId":"20160993","CountyId":"20162290","CityId":"20162353","DistrictId":"20162357","AddressId":"341556038","RoadLinkId":"34673748"}}},{"Relevance":1.0,"Distance":113.7,"MatchLevel":"houseNumber","MatchQuality":{"Country":1.0,"State":1.0,"County":1.0,"City":1.0,"District":1.0,"Street":[1.0],"HouseNumber":1.0,"PostalCode":1.0},"MatchType":"interpolated","Location":{"LocationId":"NT_p6gFtAyjwNkLm.2fuKq9tC_zYD","LocationType":"point","DisplayPosition":{"Latitude":50.79456,"Longitude":8.31897},"MapView":{"TopLeft":{"Latitude":50.7956842,"Longitude":8.3171916},"BottomRight":{"Latitude":50.7934358,"Longitude":8.3207484}},"Address":{"Label":"Bombergstraße 36, 35713 Eschenburg, Deutschland","Country":"DEU","State":"Hessen","County":"Lahn-Dill-Kreis","City":"Eschenburg","District":"Wissenbach","Street":"Bombergstraße","HouseNumber":"36","PostalCode":"35713","AdditionalData":[{"value":"Deutschland","key":"CountryName"},{"value":"Hessen","key":"StateName"},{"value":"Lahn-Dill-Kreis","key":"CountyName"}]},"MapReference":{"ReferenceId":"61569562","Spot":0.7,"SideOfStreet":"left","CountryId":"20147700","StateId":"20160993","CountyId":"20162290","CityId":"20162353","DistrictId":"20162357","AddressId":"198496075","RoadLinkId":"33952820"}}},{"Relevance":1.0,"Distance":123.8,"MatchLevel":"houseNumber","MatchQuality":{"Country":1.0,"State":1.0,"County":1.0,"City":1.0,"District":1.0,"Street":[1.0],"HouseNumber":1.0,"PostalCode":1.0},"MatchType":"interpolated","Location":{"LocationId":"NT_mxuIwvTS20-I8w1zqPtPKC_zUD","LocationType":"point","DisplayPosition":{"Latitude":50.79354,"Longitude":8.32172},"MapView":{"TopLeft":{"Latitude":50.7946642,"Longitude":8.3199416},"BottomRight":{"Latitude":50.7924158,"Longitude":8.3234984}},"Address":{"Label":"Forsthausstraße 35, 35713 Eschenburg, Deutschland","Country":"DEU","State":"Hessen","County":"Lahn-Dill-Kreis","City":"Eschenburg","District":"Wissenbach","Street":"Forsthausstraße","HouseNumber":"35","PostalCode":"35713","AdditionalData":[{"value":"Deutschland","key":"CountryName"},{"value":"Hessen","key":"StateName"},{"value":"Lahn-Dill-Kreis","key":"CountyName"}]},"MapReference":{"ReferenceId":"61569583","Spot":0.83,"SideOfStreet":"left","CountryId":"20147700","StateId":"20160993","CountyId":"20162290","CityId":"20162353","DistrictId":"20162357","AddressId":"187479614","RoadLinkId":"34630263"}}},{"Relevance":1.0,"Distance":128.3,"MatchLevel":"street","MatchQuality":{"Country":1.0,"State":1.0,"County":1.0,"City":1.0,"District":1.0,"PostalCode":1.0},"Location":{"LocationId":"NT_dBQ3BDbhMAmdHej0xdDpjA_l_61569670_R","LocationType":"point","DisplayPosition":{"Latitude":50.79484,"Longitude":8.31889},"MapView":{"TopLeft":{"Latitude":50.79484,"Longitude":8.31876},"BottomRight":{"Latitude":50.79478,"Longitude":8.31889}},"Address":{"Label":"35713 Eschenburg, Deutschland","Country":"DEU","State":"Hessen","County":"Lahn-Dill-Kreis","City":"Eschenburg","District":"Wissenbach","PostalCode":"35713","AdditionalData":[{"value":"Deutschland","key":"CountryName"},{"value":"Hessen","key":"StateName"},{"value":"Lahn-Dill-Kreis","key":"CountyName"}]},"MapReference":{"ReferenceId":"61569670","Spot":1.0,"SideOfStreet":"right","CountryId":"20147700","StateId":"20160993","CountyId":"20162290","CityId":"20162353","DistrictId":"20162357"}}},{"Relevance":1.0,"Distance":141.1,"MatchLevel":"houseNumber","MatchQuality":{"Country":1.0,"State":1.0,"County":1.0,"City":1.0,"District":1.0,"Street":[1.0],"HouseNumber":1.0,"PostalCode":1.0},"MatchType":"interpolated","Location":{"LocationId":"NT_p6gFtAyjwNkLm.2fuKq9tC_ygD","LocationType":"point","DisplayPosition":{"Latitude":50.79322,"Longitude":8.32138},"MapView":{"TopLeft":{"Latitude":50.7943442,"Longitude":8.3196016},"BottomRight":{"Latitude":50.7920958,"Longitude":8.3231584}},"Address":{"Label":"Bombergstraße 28, 35713 Eschenburg, Deutschland","Country":"DEU","State":"Hessen","County":"Lahn-Dill-Kreis","City":"Eschenburg","District":"Wissenbach","Street":"Bombergstraße","HouseNumber":"28","PostalCode":"35713","AdditionalData":[{"value":"Deutschland","key":"CountryName"},{"value":"Hessen","key":"StateName"},{"value":"Lahn-Dill-Kreis","key":"CountyName"}]},"MapReference":{"ReferenceId":"61569801","Spot":0.45,"SideOfStreet":"right","CountryId":"20147700","StateId":"20160993","CountyId":"20162290","CityId":"20162353","DistrictId":"20162357","AddressId":"673391866","RoadLinkId":"407360608"}}}]}]}}