{"Response":{"MetaInfo":{"Timestamp":"2020-03-28T10:15:57.763+0000","NextPageInformation":"2"},"View":[{"_type":"SearchResultsViewType","ViewId":0,"Result":[{"Relevance":1.0,"Distance":0.0,"Direction":0.0,"MatchLevel":"district","MatchQuality":{"Country":1.0,"State":1.0,"County":1.0,"City":1.0,"District":1.0,"PostalCode":1.0},"Location":{"LocationId":"NT_ydQaeZTJw-M0BKTT3pDydC","LocationType":"point","DisplayPosition":{"Latitude":50.7074272,"Longitude":5.6185519},"MapView":{"TopLeft":{"Latitude":50.72208,"Longitude":5.61024},"BottomRight":{"Latitude":50.69667,"Longitude":5.63969}},"Address":{"Label":"Hermée, Oupeye, Wallonie, Belgique","Country":"BEL","State":"Wallonie","County":"Liège","City":"Oupeye","District":"Hermée","PostalCode":"4680","AdditionalData":[{"value":"Belgique","key":"CountryName"},{"value":"Wallonie","key":"StateName"},{"value":"Liège","key":"CountyName"}]},"MapReference":{"ReferenceId":"853215482","SideOfStreet":"neither","CountryId":"20128886","StateId":"20205526","CountyId":"20206134","CityId":"20206333","DistrictId":"20206337"}}},{"Relevance":1.0,"Distance":12.6,"MatchLevel":"houseNumber","MatchQuality":{"Country":1.0,"State":1.0,"County":1.0,"City":1.0,"District":1.0,"Street":[1.0],"HouseNumber":1.0,"PostalCode":1.0},"MatchType":"interpolated","Location":{"LocationId":"NT_CAEIUgqlNKgiZdf2L15NHD_xUD","LocationType":"point","DisplayPosition":{"Latitude":50.70733,"Longitude":5.61834},"MapView":{"TopLeft":{"Latitude":50.7084542,"Longitude":5.6165649},"BottomRight":{"Latitude":50.7062058,"Longitude":5.6201151}},"Address":{"Label":"Rue de Milmort 15, 4680 Oupeye, Belgique","Country":"BEL","State":"Wallonie","County":"Liège","City":"Oupeye","District":"Hermée","Street":"Rue de Milmort","HouseNumber":"15","PostalCode":"4680","AdditionalData":[{"value":"Belgique","key":"CountryName"},{"value":"Wallonie","key":"StateName"},{"value":"Liège","key":"CountyName"}]},"MapReference":{"ReferenceId":"773915730","Spot":0.51,"SideOfStreet":"right","CountryId":"20128886","StateId":"20205526","CountyId":"20206134","CityId":"20206333","DistrictId":"20206337","AddressId":"809223964","RoadLinkId":"167596204"}}},{"Relevance":1.0,"Distance":40.5,"MatchLevel":"houseNumber","MatchQuality":{"Country":1.0,"State":1.0,"County":1.0,"City":1.0,"District":1.0,"Street":[1.0],"HouseNumber":1.0,"PostalCode":1.0},"MatchType":"interpolated","Location":{"LocationId":"NT_fGAsChtzh5aHcpnNCCFcCA_xMD","LocationType":"point","DisplayPosition":{"Latitude":50.70783,"Longitude":5.61914},"MapView":{"TopLeft":{"Latitude":50.7089542,"Longitude":5.6173649},"BottomRight":{"Latitude":50.7067058,"Longitude":5.6209151}},"Address":{"Label":"Rue de Fexhe-Slins 13, 4680 Oupeye, Belgique","Country":"BEL","State":"Wallonie","County":"Liège","City":"Oupeye","District":"Hermée","Street":"Rue de Fexhe-Slins","HouseNumber":"13","PostalCode":"4680","AdditionalData":[{"value":"Belgique","key":"CountryName"},{"value":"Wallonie","key":"StateName"},{"value":"Liège","key":"CountyName"}]},"MapReference":{"ReferenceId":"854688984","Spot":0.81,"SideOfStreet":"left","CountryId":"20128886","StateId":"20205526","CountyId":"20206134","CityId":"20206333","DistrictId":"20206337","AddressId":"368503402","RoadLinkId":"232856067"}}},{"Relevance":1.0,"Distance":57.6,"MatchLevel":"street","MatchQuality":{"Country":1.0,"State":1.0,"County":1.0,"City":1.0,"District":1.0,"Street":[1.0],"PostalCode":1.0},"Location":{"LocationId":"NT_fGAsChtzh5aHcpnNCCFcCA_l_853215475_L","LocationType":"point","DisplayPosition":{"Latitude":50.7079397,"Longitude":5.6186715},"MapView":{"TopLeft":{"Latitude":50.70794,"Longitude":5.61867},"BottomRight":{"Latitude":50.70787,"Longitude":5.61897}},"Address":{"Label":"Rue de Fexhe-Slins, 4680 Oupeye, Belgique","Country":"BEL","State":"Wallonie","County":"Liège","City":"Oupeye","District":"Hermée","Street":"Rue de Fexhe-Slins","PostalCode":"4680","AdditionalData":[{"value":"Belgique","key":"CountryName"},{"value":"Wallonie","key":"StateName"},{"value":"Liège","key":"CountyName"}]},"MapReference":{"ReferenceId":"853215475","Spot":1.0,"SideOfStreet":"left","CountryId":"20128886","StateId":"20205526","CountyId":"20206134","CityId":"20206333","DistrictId":"20206337"}}},{"Relevance":1.0,"Distance":61.6,"MatchLevel":"houseNumber","MatchQuality":{"Country":1.0,"State":1.0,"County":1.0,"City":1.0,"District":1.0,"Street":[1.0],"HouseNumber":1.0,"PostalCode":1.0},"MatchType":"interpolated","Location":{"LocationId":"NT_fGAsChtzh5aHcpnNCCFcCA_xQD","LocationType":"point","DisplayPosition":{"Latitude":50.70798,"Longitude":5.61849},"MapView":{"TopLeft":{"Latitude":50.7091042,"Longitude":5.6167149},"BottomRight":{"Latitude":50.7068558,"Longitude":5.6202651}},"Address":{"Label":"Rue de Fexhe-Slins 14, 4680 Oupeye, Belgique","Country":"BEL","State":"Wallonie","County":"Liège","City":"Oupeye","District":"Hermée","Street":"Rue de Fexhe-Slins","HouseNumber":"14","PostalCode":"4680","AdditionalData":[{"value":"Belgique","key":"CountryName"},{"value":"Wallonie","key":"StateName"},{"value":"Liège","key":"CountyName"}]},"MapReference":{"ReferenceId":"732151128","Spot":0.9,"SideOfStreet":"right","CountryId":"20128886","StateId":"20205526","CountyId":"20206134","CityId":"20206333","DistrictId":"20206337","AddressId":"368737433","RoadLinkId":"134333413"}}},{"Relevance":1.0,"Distance":61.7,"MatchLevel":"street","MatchQuality":{"Country":1.0,"State":1.0,"County":1.0,"City":1.0,"District":1.0,"Street":[1.0],"PostalCode":1.0},"Location":{"LocationId":"NT_fGAsChtzh5aHcpnNCCFcCA_l_853252058_L","LocationType":"point","DisplayPosition":{"Latitude":50.70798,"Longitude":5.61847},"MapView":{"TopLeft":{"Latitude":50.70802,"Longitude":5.61827},"BottomRight":{"Latitude":50.70798,"Longitude":5.61847}},"Address":{"Label":"Rue de Fexhe-Slins, 4680 Oupeye, Belgique","Country":"BEL","State":"Wallonie","County":"Liège","City":"Oupeye","District":"Hermée","Street":"Rue de Fexhe-Slins","PostalCode":"4680","AdditionalData":[{"value":"Belgique","key":"CountryName"},{"value":"Wallonie","key":"StateName"},{"value":"Liège","key":"CountyName"}]},"MapReference":{"ReferenceId":"853252058","Spot":0.0,"SideOfStreet":"left","CountryId":"20128886","StateId":"20205526","CountyId":"20206134","CityId":"20206333","DistrictId":"20206337"}}},{"Relevance":1.0,"Distance":67.0,"MatchLevel":"houseNumber","MatchQuality":{"Country":1.0,"State":1.0,"County":1.0,"City":1.0,"District":1.0,"Street":[1.0],"HouseNumber":1.0,"PostalCode":1.0},"MatchType":"interpolated","Location":{"LocationId":"NT_fGAsChtzh5aHcpnNCCFcCA_xkD","LocationType":"point","DisplayPosition":{"Latitude":50.70808,"Longitude":5.618},"MapView":{"TopLeft":{"Latitude":50.7092042,"Longitude":5.6162249},"BottomRight":{"Latitude":50.7069558,"Longitude":5.6197751}},"Address":{"Label":"Rue de Fexhe-Slins 19, 4680 Oupeye, Belgique","Country":"BEL","State":"Wallonie","County":"Liège","City":"Oupeye","District":"Hermée","Street":"Rue de Fexhe-Slins","HouseNumber":"19","PostalCode":"4680","AdditionalData":[{"value":"Belgique","key":"CountryName"},{"value":"Wallonie","key":"StateName"},{"value":"Liège","key":"CountyName"}]},"MapReference":{"ReferenceId":"853252059","Spot":0.56,"SideOfStreet":"left","CountryId":"20128886","StateId":"20205526","CountyId":"20206134","CityId":"20206333","DistrictId":"20206337","AddressId":"368649196","RoadLinkId":"232084897"}}},{"Relevance":1.0,"Distance":95.5,"MatchLevel":"houseNumber","MatchQuality":{"Country":1.0,"State":1.0,"County":1.0,"City":1.0,"District":1.0,"Street":[1.0],"HouseNumber":1.0,"PostalCode":1.0},"MatchType":"interpolated","Location":{"LocationId":"NT_i2vo0xup.oohPBQRvMPjzA_xYD","LocationType":"point","DisplayPosition":{"Latitude":50.70782,"Longitude":5.62016},"MapView":{"TopLeft":{"Latitude":50.7089442,"Longitude":5.6183849},"BottomRight":{"Latitude":50.7066958,"Longitude":5.6219351}},"Address":{"Label":"Rue du Midi 16, 4680 Oupeye, Belgique","Country":"BEL","State":"Wallonie","County":"Liège","City":"Oupeye","District":"Hermée","Street":"Rue du Midi","HouseNumber":"16","PostalCode":"4680","AdditionalData":[{"value":"Belgique","key":"CountryName"},{"value":"Wallonie","key":"StateName"},{"value":"Liège","key":"CountyName"}]},"MapReference":{"ReferenceId":"53741004","Spot":0.23,"SideOfStreet":"left","CountryId":"20128886","StateId":"20205526","CountyId":"20206134","CityId":"20206333","DistrictId":"20206337","AddressId":"368387382","RoadLinkId":"30299895"}}},{"Relevance":1.0,"Distance":102.1,"MatchLevel":"houseNumber","MatchQuality":{"Country":1.0,"State":1.0,"County":1.0,"City":1.0,"District":1.0,"Street":[1.0],"HouseNumber":1.0,"PostalCode":1.0},"MatchType":"interpolated","Location":{"LocationId":"NT_83zO0GBnESCl3oKheG708D_1A","LocationType":"point","DisplayPosition":{"Latitude":50.70833,"Longitude":5.61882},"MapView":{"TopLeft":{"Latitude":50.7094542,"Longitude":5.6170448},"BottomRight":{"Latitude":50.7072058,"Longitude":5.6205952}},"Address":{"Label":"Rue du Curé Gonissen 5, 4680 Oupeye, Belgique","Country":"BEL","State":"Wallonie","County":"Liège","City":"Oupeye","District":"Hermée","Street":"Rue du Curé Gonissen","HouseNumber":"5","PostalCode":"4680","AdditionalData":[{"value":"Belgique","key":"CountryName"},{"value":"Wallonie","key":"StateName"},{"value":"Liège","key":"CountyName"}]},"MapReference":{"ReferenceId":"53740947","Spot":0.44,"SideOfStreet":"right","CountryId":"20128886","StateId":"20205526","CountyId":"20206134","CityId":"20206333","DistrictId":"20206337","AddressId":"368448115","RoadLinkId":"30829859"}}},{"Relevance":1.0,"Distance":107.6,"MatchLevel":"houseNumber","MatchQuality":{"Country":1.0,"State":1.0,"County":1.0,"City":1.0,"District":1.0,"Street":[1.0],"HouseNumber":1.0,"PostalCode":1.0},"MatchType":"interpolated","Location":{"LocationId":"NT_CAEIUgqlNKgiZdf2L15NHD_yED","LocationType":"point","DisplayPosition":{"Latitude":50.70648,"Longitude":5.61825},"MapView":{"TopLeft":{"Latitude":50.7076042,"Longitude":5.6164749},"BottomRight":{"Latitude":50.7053558,"Longitude":5.6200251}},"Address":{"Label":"Rue de Milmort 21, 4680 Oupeye, Belgique","Country":"BEL","State":"Wallonie","County":"Liège","City":"Oupeye","District":"Hermée","Street":"Rue de Milmort","HouseNumber":"21","PostalCode":"4680","AdditionalData":[{"value":"Belgique","key":"CountryName"},{"value":"Wallonie","key":"StateName"},{"value":"Liège","key":"CountyName"}]},"MapReference":{"ReferenceId":"995136269","Spot":0.41,"SideOfStreet":"right","CountryId":"20128886","StateId":"20205526","CountyId":"20206134","CityId":"20206333","DistrictId":"20206337","AddressId":"368636543","RoadLinkId":"322969329"}}}]}]}}