{"Response":{"MetaInfo":{"Timestamp":"2020-03-28T11:43:17.444+0000","NextPageInformation":"2"},"View":[{"_type":"SearchResultsViewType","ViewId":0,"Result":[{"Relevance":1.0,"Distance":0.0,"Direction":0.0,"MatchLevel":"district","MatchQuality":{"Country":1.0,"State":1.0,"County":1.0,"City":1.0,"District":1.0,"PostalCode":1.0},"Location":{"LocationId":"NT_acnZC9jq8EGL.QE5whdsXC","LocationType":"point","DisplayPosition":{"Latitude":50.7742106,"Longitude":7.0917099},"MapView":{"TopLeft":{"Latitude":50.78233,"Longitude":7.07996},"BottomRight":{"Latitude":50.77169,"Longitude":7.1044}},"Address":{"Label":"Bergheim, Troisdorf, Nordrhein-Westfalen, Deutschland","Country":"DEU","State":"Nordrhein-Westfalen","County":"Rhein-Sieg-Kreis","City":"Troisdorf","District":"Bergheim","PostalCode":"53844","AdditionalData":[{"value":"Deutschland","key":"CountryName"},{"value":"Nordrhein-Westfalen","key":"StateName"},{"value":"Rhein-Sieg-Kreis","key":"CountyName"}]},"MapReference":{"ReferenceId":"51073094","SideOfStreet":"neither","CountryId":"20147700","StateId":"20157369","CountyId":"20158889","CityId":"20159037","DistrictId":"20242059"}}},{"Relevance":1.0,"Distance":14.2,"MatchLevel":"houseNumber","MatchQuality":{"Country":1.0,"State":1.0,"County":1.0,"City":1.0,"District":1.0,"Street":[1.0],"HouseNumber":1.0,"PostalCode":1.0},"MatchType":"interpolated","Location":{"LocationId":"NT_7mXAQWD6Y4oPJq4OZ3dCTA_4A","LocationType":"point","DisplayPosition":{"Latitude":50.77428,"Longitude":7.092},"MapView":{"TopLeft":{"Latitude":50.7754042,"Longitude":7.0902223},"BottomRight":{"Latitude":50.7731558,"Longitude":7.0937777}},"Address":{"Label":"Bergstraße 8, 53844 Troisdorf, Deutschland","Country":"DEU","State":"Nordrhein-Westfalen","County":"Rhein-Sieg-Kreis","City":"Troisdorf","District":"Bergheim","Street":"Bergstraße","HouseNumber":"8","PostalCode":"53844","AdditionalData":[{"value":"Deutschland","key":"CountryName"},{"value":"Nordrhein-Westfalen","key":"StateName"},{"value":"Rhein-Sieg-Kreis","key":"CountyName"}]},"MapReference":{"ReferenceId":"572263837","Spot":0.44,"SideOfStreet":"left","CountryId":"20147700","StateId":"20157369","CountyId":"20158889","CityId":"20159037","DistrictId":"20242059","AddressId":"249431798","RoadLinkId":"202458817"}}},{"Relevance":1.0,"Distance":16.8,"MatchLevel":"houseNumber","MatchQuality":{"Country":1.0,"State":1.0,"County":1.0,"City":1.0,"District":1.0,"Street":[1.0],"HouseNumber":1.0,"PostalCode":1.0},"MatchType":"interpolated","Location":{"LocationId":"NT_7mXAQWD6Y4oPJq4OZ3dCTA_xIjQ","LocationType":"point","DisplayPosition":{"Latitude":50.77408,"Longitude":7.09204},"MapView":{"TopLeft":{"Latitude":50.7752042,"Longitude":7.0902623},"BottomRight":{"Latitude":50.7729558,"Longitude":7.0938177}},"Address":{"Label":"Bergstraße 12B, 53844 Troisdorf, Deutschland","Country":"DEU","State":"Nordrhein-Westfalen","County":"Rhein-Sieg-Kreis","City":"Troisdorf","District":"Bergheim","Street":"Bergstraße","HouseNumber":"12B","PostalCode":"53844","AdditionalData":[{"value":"Deutschland","key":"CountryName"},{"value":"Nordrhein-Westfalen","key":"StateName"},{"value":"Rhein-Sieg-Kreis","key":"CountyName"}]},"MapReference":{"ReferenceId":"815123425","Spot":0.92,"SideOfStreet":"left","CountryId":"20147700","StateId":"20157369","CountyId":"20158889","CityId":"20159037","DistrictId":"20242059","AddressId":"768348520","RoadLinkId":"202458815"}}},{"Relevance":1.0,"Distance":31.0,"MatchLevel":"houseNumber","MatchQuality":{"Country":1.0,"State":1.0,"County":1.0,"City":1.0,"District":1.0,"Street":[1.0],"HouseNumber":1.0,"PostalCode":1.0},"MatchType":"interpolated","Location":{"LocationId":"NT_nK4u9ZYVlMOJ.tf46LeHjA_yIE","LocationType":"point","DisplayPosition":{"Latitude":50.77405,"Longitude":7.09135},"MapView":{"TopLeft":{"Latitude":50.7751742,"Longitude":7.0895723},"BottomRight":{"Latitude":50.7729258,"Longitude":7.0931277}},"Address":{"Label":"Junkershof 2B, 53844 Troisdorf, Deutschland","Country":"DEU","State":"Nordrhein-Westfalen","County":"Rhein-Sieg-Kreis","City":"Troisdorf","District":"Bergheim","Street":"Junkershof","HouseNumber":"2B","PostalCode":"53844","AdditionalData":[{"value":"Deutschland","key":"CountryName"},{"value":"Nordrhein-Westfalen","key":"StateName"},{"value":"Rhein-Sieg-Kreis","key":"CountyName"}]},"MapReference":{"ReferenceId":"572263843","Spot":0.37,"SideOfStreet":"left","CountryId":"20147700","StateId":"20157369","CountyId":"20158889","CityId":"20159037","DistrictId":"20242059","AddressId":"193520748","RoadLinkId":"39187731"}}},{"Relevance":1.0,"Distance":33.5,"MatchLevel":"houseNumber","MatchQuality":{"Country":1.0,"State":1.0,"County":1.0,"City":1.0,"District":1.0,"Street":[1.0],"HouseNumber":1.0,"PostalCode":1.0},"MatchType":"interpolated","Location":{"LocationId":"NT_N-h8CWPS-UfGm9zpbV6gmC_xA","LocationType":"point","DisplayPosition":{"Latitude":50.77416,"Longitude":7.09218},"MapView":{"TopLeft":{"Latitude":50.7752842,"Longitude":7.0904023},"BottomRight":{"Latitude":50.7730358,"Longitude":7.0939577}},"Address":{"Label":"Siegstraße 1, 53844 Troisdorf, Deutschland","Country":"DEU","State":"Nordrhein-Westfalen","County":"Rhein-Sieg-Kreis","City":"Troisdorf","District":"Bergheim","Street":"Siegstraße","HouseNumber":"1","PostalCode":"53844","AdditionalData":[{"value":"Deutschland","key":"CountryName"},{"value":"Nordrhein-Westfalen","key":"StateName"},{"value":"Rhein-Sieg-Kreis","key":"CountyName"}]},"MapReference":{"ReferenceId":"51073178","Spot":0.88,"SideOfStreet":"right","CountryId":"20147700","StateId":"20157369","CountyId":"20158889","CityId":"20159037","DistrictId":"20242059","AddressId":"193252231","RoadLinkId":"39310571"}}},{"Relevance":1.0,"Distance":41.2,"MatchLevel":"houseNumber","MatchQuality":{"Country":1.0,"State":1.0,"County":1.0,"City":1.0,"District":1.0,"Street":[1.0],"HouseNumber":1.0,"PostalCode":1.0},"MatchType":"interpolated","Location":{"LocationId":"NT_7mXAQWD6Y4oPJq4OZ3dCTA_yA","LocationType":"point","DisplayPosition":{"Latitude":50.77457,"Longitude":7.09194},"MapView":{"TopLeft":{"Latitude":50.7756942,"Longitude":7.0901623},"BottomRight":{"Latitude":50.7734458,"Longitude":7.0937177}},"Address":{"Label":"Bergstraße 2, 53844 Troisdorf, Deutschland","Country":"DEU","State":"Nordrhein-Westfalen","County":"Rhein-Sieg-Kreis","City":"Troisdorf","District":"Bergheim","Street":"Bergstraße","HouseNumber":"2","PostalCode":"53844","AdditionalData":[{"value":"Deutschland","key":"CountryName"},{"value":"Nordrhein-Westfalen","key":"StateName"},{"value":"Rhein-Sieg-Kreis","key":"CountyName"}]},"MapReference":{"ReferenceId":"572263838","Spot":0.4,"SideOfStreet":"left","CountryId":"20147700","StateId":"20157369","CountyId":"20158889","CityId":"20159037","DistrictId":"20242059","AddressId":"249488202","RoadLinkId":"202458818"}}},{"Relevance":1.0,"Distance":56.8,"MatchLevel":"houseNumber","MatchQuality":{"Country":1.0,"State":1.0,"County":1.0,"City":1.0,"District":1.0,"Street":[1.0],"HouseNumber":1.0,"PostalCode":1.0},"MatchType":"interpolated","Location":{"LocationId":"NT_PRILvD1ZyFZhteQGuW.BGD_0A","LocationType":"point","DisplayPosition":{"Latitude":50.77472,"Longitude":7.09166},"MapView":{"TopLeft":{"Latitude":50.7758442,"Longitude":7.0898823},"BottomRight":{"Latitude":50.7735958,"Longitude":7.0934377}},"Address":{"Label":"Mondorfer Straße 4, 53844 Troisdorf, Deutschland","Country":"DEU","State":"Nordrhein-Westfalen","County":"Rhein-Sieg-Kreis","City":"Troisdorf","District":"Bergheim","Street":"Mondorfer Straße","HouseNumber":"4","PostalCode":"53844","AdditionalData":[{"value":"Deutschland","key":"CountryName"},{"value":"Nordrhein-Westfalen","key":"StateName"},{"value":"Rhein-Sieg-Kreis","key":"CountyName"}]},"MapReference":{"ReferenceId":"51073094","Spot":0.42,"SideOfStreet":"left","CountryId":"20147700","StateId":"20157369","CountyId":"20158889","CityId":"20159037","DistrictId":"20242059","AddressId":"195912686","RoadLinkId":"39193236"}}},{"Relevance":1.0,"Distance":64.2,"MatchLevel":"houseNumber","MatchQuality":{"Country":1.0,"State":1.0,"County":1.0,"City":1.0,"District":1.0,"Street":[1.0],"HouseNumber":1.0,"PostalCode":1.0},"MatchType":"interpolated","Location":{"LocationId":"NT_DNjeTb-5noNzbXrRRVHmPA_yA","LocationType":"point","DisplayPosition":{"Latitude":50.7748,"Longitude":7.09203},"MapView":{"TopLeft":{"Latitude":50.7759242,"Longitude":7.0902523},"BottomRight":{"Latitude":50.7736758,"Longitude":7.0938077}},"Address":{"Label":"Zum Kalkofen 2, 53844 Troisdorf, Deutschland","Country":"DEU","State":"Nordrhein-Westfalen","County":"Rhein-Sieg-Kreis","City":"Troisdorf","District":"Bergheim","Street":"Zum Kalkofen","HouseNumber":"2","PostalCode":"53844","AdditionalData":[{"value":"Deutschland","key":"CountryName"},{"value":"Nordrhein-Westfalen","key":"StateName"},{"value":"Rhein-Sieg-Kreis","key":"CountyName"}]},"MapReference":{"ReferenceId":"51073136","Spot":0.24,"SideOfStreet":"right","CountryId":"20147700","StateId":"20157369","CountyId":"20158889","CityId":"20159037","DistrictId":"20242059","AddressId":"194458737","RoadLinkId":"39472426"}}},{"Relevance":1.0,"Distance":66.2,"MatchLevel":"houseNumber","MatchQuality":{"Country":1.0,"State":1.0,"County":1.0,"City":1.0,"District":1.0,"Street":[1.0],"HouseNumber":1.0,"PostalCode":1.0},"MatchType":"interpolated","Location":{"LocationId":"NT_YphmvE-mUmZfCwZgqRBMYB_2A","LocationType":"point","DisplayPosition":{"Latitude":50.77417,"Longitude":7.09075},"MapView":{"TopLeft":{"Latitude":50.7752942,"Longitude":7.0889723},"BottomRight":{"Latitude":50.7730458,"Longitude":7.0925277}},"Address":{"Label":"Klostergasse 6, 53844 Troisdorf, Deutschland","Country":"DEU","State":"Nordrhein-Westfalen","County":"Rhein-Sieg-Kreis","City":"Troisdorf","District":"Bergheim","Street":"Klostergasse","HouseNumber":"6","PostalCode":"53844","AdditionalData":[{"value":"Deutschland","key":"CountryName"},{"value":"Nordrhein-Westfalen","key":"StateName"},{"value":"Rhein-Sieg-Kreis","key":"CountyName"}]},"MapReference":{"ReferenceId":"572263840","Spot":0.05,"SideOfStreet":"right","CountryId":"20147700","StateId":"20157369","CountyId":"20158889","CityId":"20159037","DistrictId":"20242059","AddressId":"194561460","RoadLinkId":"39372586"}}},{"Relevance":1.0,"Distance":86.6,"MatchLevel":"houseNumber","MatchQuality":{"Country":1.0,"State":1.0,"County":1.0,"City":1.0,"District":1.0,"Street":[1.0],"HouseNumber":1.0,"PostalCode":1.0},"MatchType":"interpolated","Location":{"LocationId":"NT_5TZlOsoC0WQQG1KG6-gPiD_xYD","LocationType":"point","DisplayPosition":{"Latitude":50.77319,"Longitude":7.09091},"MapView":{"TopLeft":{"Latitude":50.7743142,"Longitude":7.0891324},"BottomRight":{"Latitude":50.7720658,"Longitude":7.0926876}},"Address":{"Label":"Zum Discholls 16, 53844 Troisdorf, Deutschland","Country":"DEU","State":"Nordrhein-Westfalen","County":"Rhein-Sieg-Kreis","City":"Troisdorf","District":"Bergheim","Street":"Zum Discholls","HouseNumber":"16","PostalCode":"53844","AdditionalData":[{"value":"Deutschland","key":"CountryName"},{"value":"Nordrhein-Westfalen","key":"StateName"},{"value":"Rhein-Sieg-Kreis","key":"CountyName"}]},"MapReference":{"ReferenceId":"51073099","Spot":0.12,"SideOfStreet":"right","CountryId":"20147700","StateId":"20157369","CountyId":"20158889","CityId":"20159037","DistrictId":"20242059","AddressId":"622130576","RoadLinkId":"39529170"}}}]}]}}