{"Response":{"MetaInfo":{"Timestamp":"2020-03-28T10:16:08.119+0000","NextPageInformation":"2"},"View":[{"_type":"SearchResultsViewType","ViewId":0,"Result":[{"Relevance":1.0,"Distance":0.0,"Direction":0.0,"MatchLevel":"city","MatchQuality":{"Country":1.0,"State":1.0,"County":1.0,"City":1.0,"PostalCode":1.0},"Location":{"LocationId":"NT_ttsePH1-fB2JLNBqlWSsIC","LocationType":"point","DisplayPosition":{"Latitude":50.729547,"Longitude":4.3837963},"MapView":{"TopLeft":{"Latitude":50.73589,"Longitude":4.35424},"BottomRight":{"Latitude":50.67102,"Longitude":4.44128}},"Address":{"Label":"Waterloo, Wallonie, Belgique","Country":"BEL","State":"Wallonie","County":"Brabant Wallon","City":"Waterloo","PostalCode":"1410","AdditionalData":[{"value":"Belgique","key":"CountryName"},{"value":"Wallonie","key":"StateName"},{"value":"Brabant Wallon","key":"CountyName"}]},"MapReference":{"ReferenceId":"1133974887","SideOfStreet":"neither","CountryId":"20128886","StateId":"20205526","CountyId":"20208226","CityId":"20208336"}}},{"Relevance":1.0,"Distance":6.8,"MatchLevel":"houseNumber","MatchQuality":{"Country":1.0,"State":1.0,"County":1.0,"City":1.0,"Street":[1.0],"HouseNumber":1.0,"PostalCode":1.0},"MatchType":"interpolated","Location":{"LocationId":"NT_VW7o4eSKjj9JkgmmuXRe5D_3ED","LocationType":"point","DisplayPosition":{"Latitude":50.72952,"Longitude":4.38419},"MapView":{"TopLeft":{"Latitude":50.7306442,"Longitude":4.382414},"BottomRight":{"Latitude":50.7283958,"Longitude":4.385966}},"Address":{"Label":"Avenue des Nations Unies 71, 1410 Waterloo, Belgique","Country":"BEL","State":"Wallonie","County":"Brabant Wallon","City":"Waterloo","Street":"Avenue des Nations Unies","HouseNumber":"71","PostalCode":"1410","AdditionalData":[{"value":"Belgique","key":"CountryName"},{"value":"Wallonie","key":"StateName"},{"value":"Brabant Wallon","key":"CountyName"}]},"MapReference":{"ReferenceId":"59446243","Spot":0.75,"SideOfStreet":"left","CountryId":"20128886","StateId":"20205526","CountyId":"20208226","CityId":"20208336","AddressId":"368846980","RoadLinkId":"30899906"}}},{"Relevance":1.0,"Distance":51.8,"MatchLevel":"houseNumber","MatchQuality":{"Country":1.0,"State":1.0,"County":1.0,"City":1.0,"Street":[1.0],"HouseNumber":1.0,"PostalCode":1.0},"MatchType":"interpolated","Location":{"LocationId":"NT_5MSmsxtm6uwpPAxEcr48gC_xUD","LocationType":"point","DisplayPosition":{"Latitude":50.72988,"Longitude":4.38284},"MapView":{"TopLeft":{"Latitude":50.7310042,"Longitude":4.381064},"BottomRight":{"Latitude":50.7287558,"Longitude":4.384616}},"Address":{"Label":"Clos des Campanules 15, 1410 Waterloo, Belgique","Country":"BEL","State":"Wallonie","County":"Brabant Wallon","City":"Waterloo","Street":"Clos des Campanules","HouseNumber":"15","PostalCode":"1410","AdditionalData":[{"value":"Belgique","key":"CountryName"},{"value":"Wallonie","key":"StateName"},{"value":"Brabant Wallon","key":"CountyName"}]},"MapReference":{"ReferenceId":"59446204","Spot":0.62,"SideOfStreet":"right","CountryId":"20128886","StateId":"20205526","CountyId":"20208226","CityId":"20208336","AddressId":"369236128","RoadLinkId":"30747917"}}},{"Relevance":1.0,"Distance":59.8,"MatchLevel":"houseNumber","MatchQuality":{"Country":1.0,"State":1.0,"County":1.0,"City":1.0,"Street":[1.0],"HouseNumber":1.0,"PostalCode":1.0},"MatchType":"interpolated","Location":{"LocationId":"NT_Q0HSPQtFw5LbdYMXFiNHwB_yMD","LocationType":"point","DisplayPosition":{"Latitude":50.73018,"Longitude":4.3837},"MapView":{"TopLeft":{"Latitude":50.7313042,"Longitude":4.381924},"BottomRight":{"Latitude":50.7290558,"Longitude":4.385476}},"Address":{"Label":"Avenue des Coquelicots 23, 1410 Waterloo, Belgique","Country":"BEL","State":"Wallonie","County":"Brabant Wallon","City":"Waterloo","Street":"Avenue des Coquelicots","HouseNumber":"23","PostalCode":"1410","AdditionalData":[{"value":"Belgique","key":"CountryName"},{"value":"Wallonie","key":"StateName"},{"value":"Brabant Wallon","key":"CountyName"}]},"MapReference":{"ReferenceId":"59443958","Spot":0.48,"SideOfStreet":"left","CountryId":"20128886","StateId":"20205526","CountyId":"20208226","CityId":"20208336","AddressId":"369228088","RoadLinkId":"30342425"}}},{"Relevance":1.0,"Distance":69.2,"MatchLevel":"houseNumber","MatchQuality":{"Country":1.0,"State":1.0,"County":1.0,"City":1.0,"Street":[1.0],"HouseNumber":1.0,"PostalCode":1.0},"MatchType":"interpolated","Location":{"LocationId":"NT_EUOKp1XQO3piog2Xk6et3D_xYD","LocationType":"point","DisplayPosition":{"Latitude":50.72917,"Longitude":4.38275},"MapView":{"TopLeft":{"Latitude":50.7302942,"Longitude":4.3809741},"BottomRight":{"Latitude":50.7280458,"Longitude":4.3845259}},"Address":{"Label":"Clos des Tulipes 16, 1410 Waterloo, Belgique","Country":"BEL","State":"Wallonie","County":"Brabant Wallon","City":"Waterloo","Street":"Clos des Tulipes","HouseNumber":"16","PostalCode":"1410","AdditionalData":[{"value":"Belgique","key":"CountryName"},{"value":"Wallonie","key":"StateName"},{"value":"Brabant Wallon","key":"CountyName"}]},"MapReference":{"ReferenceId":"59446241","Spot":1.0,"SideOfStreet":"left","CountryId":"20128886","StateId":"20205526","CountyId":"20208226","CityId":"20208336","AddressId":"767418247","RoadLinkId":"30660320"}}},{"Relevance":1.0,"Distance":72.9,"MatchLevel":"houseNumber","MatchQuality":{"Country":1.0,"State":1.0,"County":1.0,"City":1.0,"Street":[1.0],"HouseNumber":1.0,"PostalCode":1.0},"MatchType":"interpolated","Location":{"LocationId":"NT_Q0HSPQtFw5LbdYMXFiNHwB_yED","LocationType":"point","DisplayPosition":{"Latitude":50.73009,"Longitude":4.38463},"MapView":{"TopLeft":{"Latitude":50.7312142,"Longitude":4.382854},"BottomRight":{"Latitude":50.7289658,"Longitude":4.386406}},"Address":{"Label":"Avenue des Coquelicots 21, 1410 Waterloo, Belgique","Country":"BEL","State":"Wallonie","County":"Brabant Wallon","City":"Waterloo","Street":"Avenue des Coquelicots","HouseNumber":"21","PostalCode":"1410","AdditionalData":[{"value":"Belgique","key":"CountryName"},{"value":"Wallonie","key":"StateName"},{"value":"Brabant Wallon","key":"CountyName"}]},"MapReference":{"ReferenceId":"59443959","Spot":0.81,"SideOfStreet":"left","CountryId":"20128886","StateId":"20205526","CountyId":"20208226","CityId":"20208336","AddressId":"368994244","RoadLinkId":"30762282"}}},{"Relevance":1.0,"Distance":93.6,"MatchLevel":"houseNumber","MatchQuality":{"Country":1.0,"State":1.0,"County":1.0,"City":1.0,"Street":[1.0],"HouseNumber":1.0,"PostalCode":1.0},"MatchType":"interpolated","Location":{"LocationId":"NT_VW7o4eSKjj9JkgmmuXRe5D_4ED","LocationType":"point","DisplayPosition":{"Latitude":50.73034,"Longitude":4.38439},"MapView":{"TopLeft":{"Latitude":50.7314642,"Longitude":4.382614},"BottomRight":{"Latitude":50.7292158,"Longitude":4.386166}},"Address":{"Label":"Avenue des Nations Unies 81, 1410 Waterloo, Belgique","Country":"BEL","State":"Wallonie","County":"Brabant Wallon","City":"Waterloo","Street":"Avenue des Nations Unies","HouseNumber":"81","PostalCode":"1410","AdditionalData":[{"value":"Belgique","key":"CountryName"},{"value":"Wallonie","key":"StateName"},{"value":"Brabant Wallon","key":"CountyName"}]},"MapReference":{"ReferenceId":"59446291","Spot":0.18,"SideOfStreet":"left","CountryId":"20128886","StateId":"20205526","CountyId":"20208226","CityId":"20208336","AddressId":"369049773","RoadLinkId":"30671331"}}},{"Relevance":1.0,"Distance":108.7,"MatchLevel":"houseNumber","MatchQuality":{"Country":1.0,"State":1.0,"County":1.0,"City":1.0,"Street":[1.0],"HouseNumber":1.0,"PostalCode":1.0},"MatchType":"interpolated","Location":{"LocationId":"NT_5S3XmJb8yYq-pp7kOZZ3NC_0kD","LocationType":"point","DisplayPosition":{"Latitude":50.72916,"Longitude":4.38564},"MapView":{"TopLeft":{"Latitude":50.7302842,"Longitude":4.3838641},"BottomRight":{"Latitude":50.7280358,"Longitude":4.3874159}},"Address":{"Label":"Avenue des Croix du Feu 49, 1410 Waterloo, Belgique","Country":"BEL","State":"Wallonie","County":"Brabant Wallon","City":"Waterloo","Street":"Avenue des Croix du Feu","HouseNumber":"49","PostalCode":"1410","AdditionalData":[{"value":"Belgique","key":"CountryName"},{"value":"Wallonie","key":"StateName"},{"value":"Brabant Wallon","key":"CountyName"}]},"MapReference":{"ReferenceId":"59446288","Spot":0.43,"SideOfStreet":"left","CountryId":"20128886","StateId":"20205526","CountyId":"20208226","CityId":"20208336","AddressId":"369261910","RoadLinkId":"30507578"}}},{"Relevance":1.0,"Distance":119.8,"MatchLevel":"houseNumber","MatchQuality":{"Country":1.0,"State":1.0,"County":1.0,"City":1.0,"Street":[1.0],"HouseNumber":1.0,"PostalCode":1.0},"MatchType":"interpolated","Location":{"LocationId":"NT_5MSmsxtm6uwpPAxEcr48gC_3A","LocationType":"point","DisplayPosition":{"Latitude":50.73062,"Longitude":4.38308},"MapView":{"TopLeft":{"Latitude":50.7317442,"Longitude":4.381304},"BottomRight":{"Latitude":50.7294958,"Longitude":4.384856}},"Address":{"Label":"Clos des Campanules 7, 1410 Waterloo, Belgique","Country":"BEL","State":"Wallonie","County":"Brabant Wallon","City":"Waterloo","Street":"Clos des Campanules","HouseNumber":"7","PostalCode":"1410","AdditionalData":[{"value":"Belgique","key":"CountryName"},{"value":"Wallonie","key":"StateName"},{"value":"Brabant Wallon","key":"CountyName"}]},"MapReference":{"ReferenceId":"59446283","Spot":0.84,"SideOfStreet":"right","CountryId":"20128886","StateId":"20205526","CountyId":"20208226","CityId":"20208336","AddressId":"368817309","RoadLinkId":"30831161"}}},{"Relevance":1.0,"Distance":136.2,"MatchLevel":"street","MatchQuality":{"Country":1.0,"State":1.0,"County":1.0,"City":1.0,"Street":[1.0],"PostalCode":1.0},"Location":{"LocationId":"NT_Xc-09cdwLutsUkdLS6iPOD_l_68167469_L","LocationType":"point","DisplayPosition":{"Latitude":50.73069,"Longitude":4.3831},"MapView":{"TopLeft":{"Latitude":50.7307,"Longitude":4.3825},"BottomRight":{"Latitude":50.73069,"Longitude":4.3831}},"Address":{"Label":"Clos des Anémones, 1410 Waterloo, Belgique","Country":"BEL","State":"Wallonie","County":"Brabant Wallon","City":"Waterloo","Street":"Clos des Anémones","PostalCode":"1410","AdditionalData":[{"value":"Belgique","key":"CountryName"},{"value":"Wallonie","key":"StateName"},{"value":"Brabant Wallon","key":"CountyName"}]},"MapReference":{"ReferenceId":"68167469","Spot":0.0,"SideOfStreet":"left","CountryId":"20128886","StateId":"20205526","CountyId":"20208226","CityId":"20208336"}}}]}]}}