{"Response":{"MetaInfo":{"Timestamp":"2020-03-28T11:38:10.539+0000","NextPageInformation":"2"},"View":[{"_type":"SearchResultsViewType","ViewId":0,"Result":[{"Relevance":1.0,"Distance":0.0,"Direction":0.0,"MatchLevel":"city","MatchQuality":{"Country":1.0,"State":1.0,"County":1.0,"City":1.0,"PostalCode":1.0},"Location":{"LocationId":"NT_ADYcxBq8fOw.UIR0kubjIA","LocationType":"point","DisplayPosition":{"Latitude":50.798012,"Longitude":3.1083743},"MapView":{"TopLeft":{"Latitude":50.83211,"Longitude":3.08015},"BottomRight":{"Latitude":50.75545,"Longitude":3.21887}},"Address":{"Label":"Menen, Vlaanderen, België","Country":"BEL","State":"Vlaanderen","County":"West-Vlaanderen","City":"Menen","PostalCode":"8930","AdditionalData":[{"value":"België","key":"CountryName"},{"value":"Vlaanderen","key":"StateName"},{"value":"West-Vlaanderen","key":"CountyName"}]},"MapReference":{"ReferenceId":"59217902","SideOfStreet":"neither","CountryId":"20128886","StateId":"20204377","CountyId":"20204694","CityId":"20204896"}}},{"Relevance":1.0,"Distance":3.2,"MatchLevel":"houseNumber","MatchQuality":{"Country":1.0,"State":1.0,"County":1.0,"City":1.0,"Street":[1.0],"HouseNumber":1.0,"PostalCode":1.0},"MatchType":"interpolated","Location":{"LocationId":"NT_VZTyFEPaq5.LDOfLO65k6D_0AD","LocationType":"point","DisplayPosition":{"Latitude":50.79804,"Longitude":3.10828},"MapView":{"TopLeft":{"Latitude":50.7991642,"Longitude":3.1065014},"BottomRight":{"Latitude":50.7969158,"Longitude":3.1100586}},"Address":{"Label":"Gen. Lemanstraat 40, 8930 Menen, België","Country":"BEL","State":"Vlaanderen","County":"West-Vlaanderen","City":"Menen","Street":"Gen. Lemanstraat","HouseNumber":"40","PostalCode":"8930","AdditionalData":[{"value":"België","key":"CountryName"},{"value":"Vlaanderen","key":"StateName"},{"value":"West-Vlaanderen","key":"CountyName"}]},"MapReference":{"ReferenceId":"59216539","Spot":0.32,"SideOfStreet":"right","CountryId":"20128886","StateId":"20204377","CountyId":"20204694","CityId":"20204896","AddressId":"626312280","RoadLinkId":"30771721"}}},{"Relevance":1.0,"Distance":46.2,"MatchLevel":"houseNumber","MatchQuality":{"Country":1.0,"State":1.0,"County":1.0,"City":1.0,"Street":[1.0],"HouseNumber":1.0,"PostalCode":1.0},"MatchType":"interpolated","Location":{"LocationId":"NT_VZTyFEPaq5.LDOfLO65k6D_1YD","LocationType":"point","DisplayPosition":{"Latitude":50.79762,"Longitude":3.10819},"MapView":{"TopLeft":{"Latitude":50.7987442,"Longitude":3.1064115},"BottomRight":{"Latitude":50.7964958,"Longitude":3.1099685}},"Address":{"Label":"Gen. Lemanstraat 56, 8930 Menen, België","Country":"BEL","State":"Vlaanderen","County":"West-Vlaanderen","City":"Menen","Street":"Gen. Lemanstraat","HouseNumber":"56","PostalCode":"8930","AdditionalData":[{"value":"België","key":"CountryName"},{"value":"Vlaanderen","key":"StateName"},{"value":"West-Vlaanderen","key":"CountyName"}]},"MapReference":{"ReferenceId":"59216554","Spot":0.94,"SideOfStreet":"right","CountryId":"20128886","StateId":"20204377","CountyId":"20204694","CityId":"20204896","AddressId":"626291798","RoadLinkId":"30418085"}}},{"Relevance":1.0,"Distance":57.1,"MatchLevel":"houseNumber","MatchQuality":{"Country":1.0,"State":1.0,"County":1.0,"City":1.0,"Street":[1.0],"HouseNumber":1.0,"PostalCode":1.0},"MatchType":"interpolated","Location":{"LocationId":"NT_hJog0M0TGDlfGmcTLQyZ3A_1MD","LocationType":"point","DisplayPosition":{"Latitude":50.79762,"Longitude":3.10911},"MapView":{"TopLeft":{"Latitude":50.7987442,"Longitude":3.1073315},"BottomRight":{"Latitude":50.7964958,"Longitude":3.1108885}},"Address":{"Label":"Binnenhof 53, 8930 Menen, België","Country":"BEL","State":"Vlaanderen","County":"West-Vlaanderen","City":"Menen","Street":"Binnenhof","HouseNumber":"53","PostalCode":"8930","AdditionalData":[{"value":"België","key":"CountryName"},{"value":"Vlaanderen","key":"StateName"},{"value":"West-Vlaanderen","key":"CountyName"}]},"MapReference":{"ReferenceId":"59216492","Spot":0.49,"SideOfStreet":"right","CountryId":"20128886","StateId":"20204377","CountyId":"20204694","CityId":"20204896","AddressId":"399630480","RoadLinkId":"30377263"}}},{"Relevance":1.0,"Distance":67.4,"MatchLevel":"houseNumber","MatchQuality":{"Country":1.0,"State":1.0,"County":1.0,"City":1.0,"Street":[1.0],"HouseNumber":1.0,"PostalCode":1.0},"MatchType":"interpolated","Location":{"LocationId":"NT_GyQLsJr-0F4Ut5xINIKVEB_xID","LocationType":"point","DisplayPosition":{"Latitude":50.7987,"Longitude":3.10801},"MapView":{"TopLeft":{"Latitude":50.7998242,"Longitude":3.1062314},"BottomRight":{"Latitude":50.7975758,"Longitude":3.1097886}},"Address":{"Label":"Vredesplein 12, 8930 Menen, België","Country":"BEL","State":"Vlaanderen","County":"West-Vlaanderen","City":"Menen","Street":"Vredesplein","HouseNumber":"12","PostalCode":"8930","AdditionalData":[{"value":"België","key":"CountryName"},{"value":"Vlaanderen","key":"StateName"},{"value":"West-Vlaanderen","key":"CountyName"}]},"MapReference":{"ReferenceId":"59216531","Spot":0.52,"SideOfStreet":"right","CountryId":"20128886","StateId":"20204377","CountyId":"20204694","CityId":"20204896","AddressId":"626346237","RoadLinkId":"30361476"}}},{"Relevance":1.0,"Distance":69.3,"MatchLevel":"houseNumber","MatchQuality":{"Country":1.0,"State":1.0,"County":1.0,"City":1.0,"Street":[1.0],"HouseNumber":1.0,"PostalCode":1.0},"MatchType":"interpolated","Location":{"LocationId":"NT_5Vl3XFLcIZo..GiSOeRMYD_yA","LocationType":"point","DisplayPosition":{"Latitude":50.79826,"Longitude":3.10747},"MapView":{"TopLeft":{"Latitude":50.7993842,"Longitude":3.1056914},"BottomRight":{"Latitude":50.7971358,"Longitude":3.1092486}},"Address":{"Label":"Diksmuideplein 2, 8930 Menen, België","Country":"BEL","State":"Vlaanderen","County":"West-Vlaanderen","City":"Menen","Street":"Diksmuideplein","HouseNumber":"2","PostalCode":"8930","AdditionalData":[{"value":"België","key":"CountryName"},{"value":"Vlaanderen","key":"StateName"},{"value":"West-Vlaanderen","key":"CountyName"}]},"MapReference":{"ReferenceId":"59216573","Spot":0.58,"SideOfStreet":"left","CountryId":"20128886","StateId":"20204377","CountyId":"20204694","CityId":"20204896","AddressId":"399921210","RoadLinkId":"31020177"}}},{"Relevance":1.0,"Distance":77.3,"MatchLevel":"houseNumber","MatchQuality":{"Country":1.0,"State":1.0,"County":1.0,"City":1.0,"Street":[1.0],"HouseNumber":1.0,"PostalCode":1.0},"MatchType":"interpolated","Location":{"LocationId":"NT_90IZlUNcIs6VOJCVF8K8XC_4A","LocationType":"point","DisplayPosition":{"Latitude":50.79771,"Longitude":3.10711},"MapView":{"TopLeft":{"Latitude":50.7988342,"Longitude":3.1053314},"BottomRight":{"Latitude":50.7965858,"Longitude":3.1088886}},"Address":{"Label":"Veurnestraat 8, 8930 Menen, België","Country":"BEL","State":"Vlaanderen","County":"West-Vlaanderen","City":"Menen","Street":"Veurnestraat","HouseNumber":"8","PostalCode":"8930","AdditionalData":[{"value":"België","key":"CountryName"},{"value":"Vlaanderen","key":"StateName"},{"value":"West-Vlaanderen","key":"CountyName"}]},"MapReference":{"ReferenceId":"59216608","Spot":0.64,"SideOfStreet":"right","CountryId":"20128886","StateId":"20204377","CountyId":"20204694","CityId":"20204896","AddressId":"401108601","RoadLinkId":"31035458"}}},{"Relevance":1.0,"Distance":84.6,"MatchLevel":"street","MatchQuality":{"Country":1.0,"State":1.0,"County":1.0,"City":1.0,"Street":[1.0],"PostalCode":1.0},"Location":{"LocationId":"NT_5Vl3XFLcIZo..GiSOeRMYD_l_59216574_R","LocationType":"point","DisplayPosition":{"Latitude":50.79839,"Longitude":3.10733},"MapView":{"TopLeft":{"Latitude":50.79862,"Longitude":3.10731},"BottomRight":{"Latitude":50.79839,"Longitude":3.10733}},"Address":{"Label":"Diksmuideplein, 8930 Menen, België","Country":"BEL","State":"Vlaanderen","County":"West-Vlaanderen","City":"Menen","Street":"Diksmuideplein","PostalCode":"8930","AdditionalData":[{"value":"België","key":"CountryName"},{"value":"Vlaanderen","key":"StateName"},{"value":"West-Vlaanderen","key":"CountyName"}]},"MapReference":{"ReferenceId":"59216574","Spot":0.0,"SideOfStreet":"right","CountryId":"20128886","StateId":"20204377","CountyId":"20204694","CityId":"20204896"}}},{"Relevance":1.0,"Distance":87.1,"MatchLevel":"houseNumber","MatchQuality":{"Country":1.0,"State":1.0,"County":1.0,"City":1.0,"Street":[1.0],"HouseNumber":1.0,"PostalCode":1.0},"MatchType":"interpolated","Location":{"LocationId":"NT_5Vl3XFLcIZo..GiSOeRMYD_4A","LocationType":"point","DisplayPosition":{"Latitude":50.79835,"Longitude":3.10708},"MapView":{"TopLeft":{"Latitude":50.7994742,"Longitude":3.1053014},"BottomRight":{"Latitude":50.7972258,"Longitude":3.1088586}},"Address":{"Label":"Diksmuideplein 8, 8930 Menen, België","Country":"BEL","State":"Vlaanderen","County":"West-Vlaanderen","City":"Menen","Street":"Diksmuideplein","HouseNumber":"8","PostalCode":"8930","AdditionalData":[{"value":"België","key":"CountryName"},{"value":"Vlaanderen","key":"StateName"},{"value":"West-Vlaanderen","key":"CountyName"}]},"MapReference":{"ReferenceId":"59216488","Spot":0.51,"SideOfStreet":"right","CountryId":"20128886","StateId":"20204377","CountyId":"20204694","CityId":"20204896","AddressId":"399727876","RoadLinkId":"31037346"}}},{"Relevance":1.0,"Distance":91.2,"MatchLevel":"houseNumber","MatchQuality":{"Country":1.0,"State":1.0,"County":1.0,"City":1.0,"Street":[1.0],"HouseNumber":1.0,"PostalCode":1.0},"MatchType":"interpolated","Location":{"LocationId":"NT_VZTyFEPaq5.LDOfLO65k6D_yAD","LocationType":"point","DisplayPosition":{"Latitude":50.79883,"Longitude":3.10846},"MapView":{"TopLeft":{"Latitude":50.7999542,"Longitude":3.1066814},"BottomRight":{"Latitude":50.7977058,"Longitude":3.1102386}},"Address":{"Label":"Gen. Lemanstraat 20, 8930 Menen, België","Country":"BEL","State":"Vlaanderen","County":"West-Vlaanderen","City":"Menen","Street":"Gen. Lemanstraat","HouseNumber":"20","PostalCode":"8930","AdditionalData":[{"value":"België","key":"CountryName"},{"value":"Vlaanderen","key":"StateName"},{"value":"West-Vlaanderen","key":"CountyName"}]},"MapReference":{"ReferenceId":"59216564","Spot":0.17,"SideOfStreet":"right","CountryId":"20128886","StateId":"20204377","CountyId":"20204694","CityId":"20204896","AddressId":"759612807","RoadLinkId":"30281607"}}}]}]}}