{"Response":{"MetaInfo":{"Timestamp":"2020-03-28T11:20:21.110+0000","NextPageInformation":"2"},"View":[{"_type":"SearchResultsViewType","ViewId":0,"Result":[{"Relevance":1.0,"Distance":0.0,"Direction":0.0,"MatchLevel":"district","MatchQuality":{"Country":1.0,"State":1.0,"County":1.0,"City":1.0,"District":1.0,"PostalCode":1.0},"Location":{"LocationId":"NT_GdGyZL09.Vfok1Yy4f8JxA","LocationType":"point","DisplayPosition":{"Latitude":50.7321248,"Longitude":-3.4818246},"MapView":{"TopLeft":{"Latitude":50.73345,"Longitude":-3.51477},"BottomRight":{"Latitude":50.71187,"Longitude":-3.47457}},"Address":{"Label":"Heavitree, Exeter, England, United Kingdom","Country":"GBR","State":"England","County":"Devon","City":"Exeter","District":"Heavitree","PostalCode":"EX2 5","AdditionalData":[{"value":"United Kingdom","key":"CountryName"},{"value":"England","key":"StateName"},{"value":"Devon","key":"CountyName"}]},"MapReference":{"ReferenceId":"26663744","SideOfStreet":"neither","StateId":"20248595","CountyId":"20353913","CityId":"20354201","DistrictId":"20354228"}}},{"Relevance":1.0,"Distance":2.2,"MatchLevel":"houseNumber","MatchQuality":{"Country":1.0,"State":1.0,"County":1.0,"City":1.0,"District":1.0,"Street":[1.0],"HouseNumber":1.0,"PostalCode":1.0},"MatchType":"interpolated","Location":{"LocationId":"NT_w4NF7UZFlPhCrPazQXy39C_l_1036599146_L_zA","LocationType":"point","DisplayPosition":{"Latitude":50.73211,"Longitude":-3.481845},"MapView":{"TopLeft":{"Latitude":50.7332342,"Longitude":-3.483621},"BottomRight":{"Latitude":50.7309859,"Longitude":-3.4800689}},"Address":{"Label":"3 Harts Lane, Exeter, EX1 3, United Kingdom","Country":"GBR","State":"England","County":"Devon","City":"Exeter","District":"Heavitree","Street":"Harts Lane","HouseNumber":"3","PostalCode":"EX1 3","AdditionalData":[{"value":"United Kingdom","key":"CountryName"},{"value":"England","key":"StateName"},{"value":"Devon","key":"CountyName"}]},"MapReference":{"ReferenceId":"1036599146","Spot":0.5,"SideOfStreet":"left","StateId":"20248595","CountyId":"20353913","CityId":"20354201","DistrictId":"20354228"}}},{"Relevance":1.0,"Distance":7.5,"MatchLevel":"postalCode","MatchQuality":{"PostalCode":1.0},"MatchType":"interpolated","Location":{"LocationId":"NT_w4NF7UZFlPhCrPazQXy39C_l_1036599146_L_zA","LocationType":"point","DisplayPosition":{"Latitude":50.73219,"Longitude":-3.4818},"MapView":{"TopLeft":{"Latitude":50.7411832,"Longitude":-3.4960085},"BottomRight":{"Latitude":50.7231968,"Longitude":-3.4675915}},"Address":{"Label":"EX1 3PG, Exeter, England, United Kingdom","Country":"GBR","State":"England","County":"Devon","City":"Exeter","PostalCode":"EX1 3PG","AdditionalData":[{"value":"United Kingdom","key":"CountryName"},{"value":"England","key":"StateName"},{"value":"Devon","key":"CountyName"}]},"MapReference":{"ReferenceId":"1036599146","Spot":0.5,"SideOfStreet":"neither","StateId":"20248595","CountyId":"20353913","CityId":"20354201"}}},{"Relevance":1.0,"Distance":31.1,"MatchLevel":"houseNumber","MatchQuality":{"Country":1.0,"State":1.0,"County":1.0,"City":1.0,"District":1.0,"Street":[1.0],"HouseNumber":1.0,"PostalCode":1.0},"MatchType":"interpolated","Location":{"LocationId":"NT_AvMqgA4ruesVSfTV76vkYA_l_26662140_L_xgD","LocationType":"point","DisplayPosition":{"Latitude":50.7324101,"Longitude":-3.48139},"MapView":{"TopLeft":{"Latitude":50.7335342,"Longitude":-3.4831661},"BottomRight":{"Latitude":50.7312859,"Longitude":-3.4796139}},"Address":{"Label":"18 Hill Barton Road, Exeter, EX1 3PF, United Kingdom","Country":"GBR","State":"England","County":"Devon","City":"Exeter","District":"Heavitree","Street":"Hill Barton Road","HouseNumber":"18","PostalCode":"EX1 3PF","AdditionalData":[{"value":"United Kingdom","key":"CountryName"},{"value":"England","key":"StateName"},{"value":"Devon","key":"CountyName"}]},"MapReference":{"ReferenceId":"26662140","Spot":0.11,"SideOfStreet":"left","StateId":"20248595","CountyId":"20353913","CityId":"20354201","DistrictId":"20354228"}}},{"Relevance":1.0,"Distance":35.0,"MatchLevel":"street","MatchQuality":{"Country":1.0,"State":1.0,"County":1.0,"City":1.0,"District":1.0,"Street":[1.0],"PostalCode":1.0},"Location":{"LocationId":"NT_AvMqgA4ruesVSfTV76vkYA_l_26662321_L","LocationType":"point","DisplayPosition":{"Latitude":50.7322131,"Longitude":-3.4813476},"MapView":{"TopLeft":{"Latitude":50.73228,"Longitude":-3.48136},"BottomRight":{"Latitude":50.73116,"Longitude":-3.48126}},"Address":{"Label":"Hill Barton Road, Exeter, EX1 3, United Kingdom","Country":"GBR","State":"England","County":"Devon","City":"Exeter","District":"Heavitree","Street":"Hill Barton Road","PostalCode":"EX1 3","AdditionalData":[{"value":"United Kingdom","key":"CountryName"},{"value":"England","key":"StateName"},{"value":"Devon","key":"CountyName"}]},"MapReference":{"ReferenceId":"26662321","Spot":0.94,"SideOfStreet":"left","StateId":"20248595","CountyId":"20353913","CityId":"20354201","DistrictId":"20354228"}}},{"Relevance":1.0,"Distance":37.0,"MatchLevel":"street","MatchQuality":{"Country":1.0,"State":1.0,"County":1.0,"City":1.0,"District":1.0,"Street":[1.0],"PostalCode":1.0},"Location":{"LocationId":"NT_807qPz-RkVwg4OYDI2EifC_l_26662139_R","LocationType":"point","DisplayPosition":{"Latitude":50.73228,"Longitude":-3.48136},"MapView":{"TopLeft":{"Latitude":50.7338,"Longitude":-3.48136},"BottomRight":{"Latitude":50.73228,"Longitude":-3.47615}},"Address":{"Label":"Harts Lane, Exeter, EX1 3, United Kingdom","Country":"GBR","State":"England","County":"Devon","City":"Exeter","District":"Pinhoe","Street":"Harts Lane","PostalCode":"EX1 3","AdditionalData":[{"value":"United Kingdom","key":"CountryName"},{"value":"England","key":"StateName"},{"value":"Devon","key":"CountyName"}]},"MapReference":{"ReferenceId":"26662139","Spot":0.0,"SideOfStreet":"right","StateId":"20248595","CountyId":"20353913","CityId":"20354201","DistrictId":"20354249"}}},{"Relevance":1.0,"Distance":41.2,"MatchLevel":"street","MatchQuality":{"Country":1.0,"State":1.0,"County":1.0,"City":1.0,"District":1.0,"Street":[1.0],"PostalCode":1.0},"Location":{"LocationId":"NT_w4NF7UZFlPhCrPazQXy39C_l_1036599145_R","LocationType":"point","DisplayPosition":{"Latitude":50.73195,"Longitude":-3.48234},"MapView":{"TopLeft":{"Latitude":50.73195,"Longitude":-3.48273},"BottomRight":{"Latitude":50.73171,"Longitude":-3.48234}},"Address":{"Label":"Harts Lane, Exeter, EX1 3, United Kingdom","Country":"GBR","State":"England","County":"Devon","City":"Exeter","District":"Heavitree","Street":"Harts Lane","PostalCode":"EX1 3","AdditionalData":[{"value":"United Kingdom","key":"CountryName"},{"value":"England","key":"StateName"},{"value":"Devon","key":"CountyName"}]},"MapReference":{"ReferenceId":"1036599145","Spot":1.0,"SideOfStreet":"right","StateId":"20248595","CountyId":"20353913","CityId":"20354201","DistrictId":"20354228"}}},{"Relevance":1.0,"Distance":52.5,"MatchLevel":"houseNumber","MatchQuality":{"Country":1.0,"State":1.0,"County":1.0,"City":1.0,"District":1.0,"Street":[1.0],"HouseNumber":1.0,"PostalCode":1.0},"MatchType":"interpolated","Location":{"LocationId":"NT_z.3NNGN2NGrVzItPzVKzNA_l_26662245_R_xA","LocationType":"point","DisplayPosition":{"Latitude":50.73171,"Longitude":-3.4824248},"MapView":{"TopLeft":{"Latitude":50.7328342,"Longitude":-3.4842008},"BottomRight":{"Latitude":50.7305858,"Longitude":-3.4806487}},"Address":{"Label":"1 Hospital Lane, Exeter, EX1 3QQ, United Kingdom","Country":"GBR","State":"England","County":"Devon","City":"Exeter","District":"Heavitree","Street":"Hospital Lane","HouseNumber":"1","PostalCode":"EX1 3QQ","AdditionalData":[{"value":"United Kingdom","key":"CountryName"},{"value":"England","key":"StateName"},{"value":"Devon","key":"CountyName"}]},"MapReference":{"ReferenceId":"26662245","Spot":0.47,"SideOfStreet":"right","StateId":"20248595","CountyId":"20353913","CityId":"20354201","DistrictId":"20354228"}}},{"Relevance":1.0,"Distance":56.0,"MatchLevel":"postalCode","MatchQuality":{"PostalCode":1.0},"MatchType":"interpolated","Location":{"LocationId":"NT_z.3NNGN2NGrVzItPzVKzNA_l_26662245_R_xA","LocationType":"point","DisplayPosition":{"Latitude":50.73177,"Longitude":-3.48239},"MapView":{"TopLeft":{"Latitude":50.7407632,"Longitude":-3.4965984},"BottomRight":{"Latitude":50.7227768,"Longitude":-3.4681816}},"Address":{"Label":"EX1 3PQ, Exeter, England, United Kingdom","Country":"GBR","State":"England","County":"Devon","City":"Exeter","PostalCode":"EX1 3PQ","AdditionalData":[{"value":"United Kingdom","key":"CountryName"},{"value":"England","key":"StateName"},{"value":"Devon","key":"CountyName"}]},"MapReference":{"ReferenceId":"26662245","Spot":0.47,"SideOfStreet":"neither","StateId":"20248595","CountyId":"20353913","CityId":"20354201"}}},{"Relevance":1.0,"Distance":58.1,"MatchLevel":"street","MatchQuality":{"Country":1.0,"State":1.0,"County":1.0,"City":1.0,"District":1.0,"PostalCode":1.0},"Location":{"LocationId":"NT_3ZfVgFAA7Lngp9vsmbuFDC_l_26662288_L","LocationType":"point","DisplayPosition":{"Latitude":50.73165,"Longitude":-3.48217},"MapView":{"TopLeft":{"Latitude":50.73165,"Longitude":-3.48265},"BottomRight":{"Latitude":50.73137,"Longitude":-3.48217}},"Address":{"Label":"Exeter, EX1 3, United Kingdom","Country":"GBR","State":"England","County":"Devon","City":"Exeter","District":"Heavitree","PostalCode":"EX1 3","AdditionalData":[{"value":"United Kingdom","key":"CountryName"},{"value":"England","key":"StateName"},{"value":"Devon","key":"CountyName"}]},"MapReference":{"ReferenceId":"26662288","Spot":1.0,"SideOfStreet":"left","StateId":"20248595","CountyId":"20353913","CityId":"20354201","DistrictId":"20354228"}}}]}]}}