{"Response":{"MetaInfo":{"Timestamp":"2020-03-28T11:01:40.839+0000","NextPageInformation":"2"},"View":[{"_type":"SearchResultsViewType","ViewId":0,"Result":[{"Relevance":1.0,"Distance":0.0,"Direction":0.0,"MatchLevel":"district","MatchQuality":{"Country":1.0,"State":1.0,"County":1.0,"City":1.0,"District":1.0,"PostalCode":1.0},"Location":{"LocationId":"NT_tHNcGqcSTNKf46640fDC.D","LocationType":"point","DisplayPosition":{"Latitude":50.7676585,"Longitude":7.4524952},"MapView":{"TopLeft":{"Latitude":50.77966,"Longitude":7.41916},"BottomRight":{"Latitude":50.75584,"Longitude":7.47813}},"Address":{"Label":"Eitorf, Nordrhein-Westfalen, Deutschland","Country":"DEU","State":"Nordrhein-Westfalen","County":"Rhein-Sieg-Kreis","City":"Eitorf","District":"Eitorf","PostalCode":"53783","AdditionalData":[{"value":"Deutschland","key":"CountryName"},{"value":"Nordrhein-Westfalen","key":"StateName"},{"value":"Rhein-Sieg-Kreis","key":"CountyName"}]},"MapReference":{"ReferenceId":"766541283","SideOfStreet":"neither","CountryId":"20147700","StateId":"20157369","CountyId":"20158889","CityId":"20158910","DistrictId":"20158916"}}},{"Relevance":1.0,"Distance":31.1,"MatchLevel":"houseNumber","MatchQuality":{"Country":1.0,"State":1.0,"County":1.0,"City":1.0,"District":1.0,"Street":[1.0],"HouseNumber":1.0,"PostalCode":1.0},"MatchType":"interpolated","Location":{"LocationId":"NT_5sNlvCSc-Xu9AtHu8TTkBC_3A","LocationType":"point","DisplayPosition":{"Latitude":50.76738,"Longitude":7.45254},"MapView":{"TopLeft":{"Latitude":50.7685042,"Longitude":7.4507626},"BottomRight":{"Latitude":50.7662558,"Longitude":7.4543174}},"Address":{"Label":"Hospitalstraße 7, 53783 Eitorf, Deutschland","Country":"DEU","State":"Nordrhein-Westfalen","County":"Rhein-Sieg-Kreis","City":"Eitorf","District":"Eitorf","Street":"Hospitalstraße","HouseNumber":"7","PostalCode":"53783","AdditionalData":[{"value":"Deutschland","key":"CountryName"},{"value":"Nordrhein-Westfalen","key":"StateName"},{"value":"Rhein-Sieg-Kreis","key":"CountyName"}]},"MapReference":{"ReferenceId":"536947839","Spot":0.5,"SideOfStreet":"left","CountryId":"20147700","StateId":"20157369","CountyId":"20158889","CityId":"20158910","DistrictId":"20158916","AddressId":"196440647","RoadLinkId":"39173622"}}},{"Relevance":1.0,"Distance":66.9,"MatchLevel":"street","MatchQuality":{"Country":1.0,"State":1.0,"County":1.0,"City":1.0,"District":1.0,"PostalCode":1.0},"Location":{"LocationId":"NT_vKvcvvBoLPlglD6VazZeQB_l_1255461305_R","LocationType":"point","DisplayPosition":{"Latitude":50.76816,"Longitude":7.45197},"MapView":{"TopLeft":{"Latitude":50.76873,"Longitude":7.45075},"BottomRight":{"Latitude":50.76814,"Longitude":7.4523}},"Address":{"Label":"53783 Eitorf, Deutschland","Country":"DEU","State":"Nordrhein-Westfalen","County":"Rhein-Sieg-Kreis","City":"Eitorf","District":"Eitorf","PostalCode":"53783","AdditionalData":[{"value":"Deutschland","key":"CountryName"},{"value":"Nordrhein-Westfalen","key":"StateName"},{"value":"Rhein-Sieg-Kreis","key":"CountyName"}]},"MapReference":{"ReferenceId":"1255461305","Spot":0.63,"SideOfStreet":"right","CountryId":"20147700","StateId":"20157369","CountyId":"20158889","CityId":"20158910","DistrictId":"20158916"}}},{"Relevance":1.0,"Distance":68.6,"MatchLevel":"houseNumber","MatchQuality":{"Country":1.0,"State":1.0,"County":1.0,"City":1.0,"District":1.0,"Street":[1.0],"HouseNumber":1.0,"PostalCode":1.0},"MatchType":"interpolated","Location":{"LocationId":"NT_CquH-xEm0k7oeETRTcJvjB_yA","LocationType":"point","DisplayPosition":{"Latitude":50.76772,"Longitude":7.45353},"MapView":{"TopLeft":{"Latitude":50.7688442,"Longitude":7.4517526},"BottomRight":{"Latitude":50.7665958,"Longitude":7.4553074}},"Address":{"Label":"Buchenweg 2, 53783 Eitorf, Deutschland","Country":"DEU","State":"Nordrhein-Westfalen","County":"Rhein-Sieg-Kreis","City":"Eitorf","District":"Eitorf","Street":"Buchenweg","HouseNumber":"2","PostalCode":"53783","AdditionalData":[{"value":"Deutschland","key":"CountryName"},{"value":"Nordrhein-Westfalen","key":"StateName"},{"value":"Rhein-Sieg-Kreis","key":"CountyName"}]},"MapReference":{"ReferenceId":"536947834","Spot":0.79,"SideOfStreet":"left","CountryId":"20147700","StateId":"20157369","CountyId":"20158889","CityId":"20158910","DistrictId":"20158916","AddressId":"196548801","RoadLinkId":"39414053"}}},{"Relevance":1.0,"Distance":72.5,"MatchLevel":"houseNumber","MatchQuality":{"Country":1.0,"State":1.0,"County":1.0,"City":1.0,"District":1.0,"Street":[1.0],"HouseNumber":1.0,"PostalCode":1.0},"MatchType":"interpolated","Location":{"LocationId":"NT_YqQJy9UuVGomzzi5bQzuWD_xA","LocationType":"point","DisplayPosition":{"Latitude":50.76682,"Longitude":7.45236},"MapView":{"TopLeft":{"Latitude":50.7679442,"Longitude":7.4505826},"BottomRight":{"Latitude":50.7656958,"Longitude":7.4541374}},"Address":{"Label":"Zum Höhenstein 1, 53783 Eitorf, Deutschland","Country":"DEU","State":"Nordrhein-Westfalen","County":"Rhein-Sieg-Kreis","City":"Eitorf","District":"Eitorf","Street":"Zum Höhenstein","HouseNumber":"1","PostalCode":"53783","AdditionalData":[{"value":"Deutschland","key":"CountryName"},{"value":"Nordrhein-Westfalen","key":"StateName"},{"value":"Rhein-Sieg-Kreis","key":"CountyName"}]},"MapReference":{"ReferenceId":"536947843","Spot":0.96,"SideOfStreet":"right","CountryId":"20147700","StateId":"20157369","CountyId":"20158889","CityId":"20158910","DistrictId":"20158916","AddressId":"192916201","RoadLinkId":"39277529"}}},{"Relevance":1.0,"Distance":79.7,"MatchLevel":"street","MatchQuality":{"Country":1.0,"State":1.0,"County":1.0,"City":1.0,"District":1.0,"Street":[1.0],"PostalCode":1.0},"Location":{"LocationId":"NT_YqQJy9UuVGomzzi5bQzuWD_l_536947845_R","LocationType":"point","DisplayPosition":{"Latitude":50.7669916,"Longitude":7.4520817},"MapView":{"TopLeft":{"Latitude":50.76716,"Longitude":7.45181},"BottomRight":{"Latitude":50.76685,"Longitude":7.45231}},"Address":{"Label":"Zum Höhenstein, 53783 Eitorf, Deutschland","Country":"DEU","State":"Nordrhein-Westfalen","County":"Rhein-Sieg-Kreis","City":"Eitorf","District":"Eitorf","Street":"Zum Höhenstein","PostalCode":"53783","AdditionalData":[{"value":"Deutschland","key":"CountryName"},{"value":"Nordrhein-Westfalen","key":"StateName"},{"value":"Rhein-Sieg-Kreis","key":"CountyName"}]},"MapReference":{"ReferenceId":"536947845","Spot":0.46,"SideOfStreet":"right","CountryId":"20147700","StateId":"20157369","CountyId":"20158889","CityId":"20158910","DistrictId":"20158916"}}},{"Relevance":1.0,"Distance":83.7,"MatchLevel":"houseNumber","MatchQuality":{"Country":1.0,"State":1.0,"County":1.0,"City":1.0,"District":1.0,"Street":[1.0],"HouseNumber":1.0,"PostalCode":1.0},"MatchType":"interpolated","Location":{"LocationId":"NT_5sNlvCSc-Xu9AtHu8TTkBC_xcD","LocationType":"point","DisplayPosition":{"Latitude":50.76822,"Longitude":7.45338},"MapView":{"TopLeft":{"Latitude":50.7693442,"Longitude":7.4516026},"BottomRight":{"Latitude":50.7670958,"Longitude":7.4551574}},"Address":{"Label":"Hospitalstraße 17, 53783 Eitorf, Deutschland","Country":"DEU","State":"Nordrhein-Westfalen","County":"Rhein-Sieg-Kreis","City":"Eitorf","District":"Eitorf","Street":"Hospitalstraße","HouseNumber":"17","PostalCode":"53783","AdditionalData":[{"value":"Deutschland","key":"CountryName"},{"value":"Nordrhein-Westfalen","key":"StateName"},{"value":"Rhein-Sieg-Kreis","key":"CountyName"}]},"MapReference":{"ReferenceId":"536947835","Spot":0.8,"SideOfStreet":"left","CountryId":"20147700","StateId":"20157369","CountyId":"20158889","CityId":"20158910","DistrictId":"20158916","AddressId":"195298626","RoadLinkId":"39192588"}}},{"Relevance":1.0,"Distance":96.7,"MatchLevel":"houseNumber","MatchQuality":{"Country":1.0,"State":1.0,"County":1.0,"City":1.0,"District":1.0,"Street":[1.0],"HouseNumber":1.0,"PostalCode":1.0},"MatchType":"interpolated","Location":{"LocationId":"NT_gRb00u3hHKWpJ69WWhOdJA_2cD","LocationType":"point","DisplayPosition":{"Latitude":50.76677,"Longitude":7.45222},"MapView":{"TopLeft":{"Latitude":50.7678942,"Longitude":7.4504426},"BottomRight":{"Latitude":50.7656458,"Longitude":7.4539974}},"Address":{"Label":"Am Alten Weingarten 67, 53783 Eitorf, Deutschland","Country":"DEU","State":"Nordrhein-Westfalen","County":"Rhein-Sieg-Kreis","City":"Eitorf","District":"Eitorf","Street":"Am Alten Weingarten","HouseNumber":"67","PostalCode":"53783","AdditionalData":[{"value":"Deutschland","key":"CountryName"},{"value":"Nordrhein-Westfalen","key":"StateName"},{"value":"Rhein-Sieg-Kreis","key":"CountyName"}]},"MapReference":{"ReferenceId":"1255205809","Spot":0.94,"SideOfStreet":"left","CountryId":"20147700","StateId":"20157369","CountyId":"20158889","CityId":"20158910","DistrictId":"20158916","AddressId":"192686545","RoadLinkId":"578600655"}}},{"Relevance":1.0,"Distance":98.4,"MatchLevel":"houseNumber","MatchQuality":{"Country":1.0,"State":1.0,"County":1.0,"City":1.0,"District":1.0,"Street":[1.0],"HouseNumber":1.0,"PostalCode":1.0},"MatchType":"interpolated","Location":{"LocationId":"NT_5sNlvCSc-Xu9AtHu8TTkBC_1A","LocationType":"point","DisplayPosition":{"Latitude":50.76703,"Longitude":7.45151},"MapView":{"TopLeft":{"Latitude":50.7681542,"Longitude":7.4497326},"BottomRight":{"Latitude":50.7659058,"Longitude":7.4532874}},"Address":{"Label":"Hospitalstraße 5, 53783 Eitorf, Deutschland","Country":"DEU","State":"Nordrhein-Westfalen","County":"Rhein-Sieg-Kreis","City":"Eitorf","District":"Eitorf","Street":"Hospitalstraße","HouseNumber":"5","PostalCode":"53783","AdditionalData":[{"value":"Deutschland","key":"CountryName"},{"value":"Nordrhein-Westfalen","key":"StateName"},{"value":"Rhein-Sieg-Kreis","key":"CountyName"}]},"MapReference":{"ReferenceId":"536947851","Spot":0.82,"SideOfStreet":"left","CountryId":"20147700","StateId":"20157369","CountyId":"20158889","CityId":"20158910","DistrictId":"20158916","AddressId":"209401650","RoadLinkId":"39505972"}}},{"Relevance":1.0,"Distance":107.2,"MatchLevel":"houseNumber","MatchQuality":{"Country":1.0,"State":1.0,"County":1.0,"City":1.0,"District":1.0,"Street":[1.0],"HouseNumber":1.0,"PostalCode":1.0},"MatchType":"interpolated","Location":{"LocationId":"NT_bjfYxYBhGQH401PYQ3aXVB_0A","LocationType":"point","DisplayPosition":{"Latitude":50.76862,"Longitude":7.4526},"MapView":{"TopLeft":{"Latitude":50.7697442,"Longitude":7.4508226},"BottomRight":{"Latitude":50.7674958,"Longitude":7.4543774}},"Address":{"Label":"Finkenweg 4, 53783 Eitorf, Deutschland","Country":"DEU","State":"Nordrhein-Westfalen","County":"Rhein-Sieg-Kreis","City":"Eitorf","District":"Eitorf","Street":"Finkenweg","HouseNumber":"4","PostalCode":"53783","AdditionalData":[{"value":"Deutschland","key":"CountryName"},{"value":"Nordrhein-Westfalen","key":"StateName"},{"value":"Rhein-Sieg-Kreis","key":"CountyName"}]},"MapReference":{"ReferenceId":"1255466469","Spot":0.74,"SideOfStreet":"right","CountryId":"20147700","StateId":"20157369","CountyId":"20158889","CityId":"20158910","DistrictId":"20158916","AddressId":"196722459","RoadLinkId":"578911853"}}}]}]}}