{"Response":{"MetaInfo":{"Timestamp":"2020-03-28T10:54:39.577+0000","NextPageInformation":"2"},"View":[{"_type":"SearchResultsViewType","ViewId":0,"Result":[{"Relevance":1.0,"Distance":0.0,"Direction":0.0,"MatchLevel":"district","MatchQuality":{"Country":1.0,"State":1.0,"County":1.0,"City":1.0,"District":1.0,"PostalCode":1.0},"Location":{"LocationId":"NT_iuC1M0Trm3SZjXaTIszbJC","LocationType":"point","DisplayPosition":{"Latitude":50.7715719,"Longitude":6.0812264},"MapView":{"TopLeft":{"Latitude":50.80336,"Longitude":6.04891},"BottomRight":{"Latitude":50.73952,"Longitude":6.18136}},"Address":{"Label":"Aachen, Nordrhein-Westfalen, Deutschland","Country":"DEU","State":"Nordrhein-Westfalen","County":"Aachen","City":"Aachen","District":"Aachen","PostalCode":"52062","AdditionalData":[{"value":"Deutschland","key":"CountryName"},{"value":"Nordrhein-Westfalen","key":"StateName"},{"value":"Aachen","key":"CountyName"}]},"MapReference":{"ReferenceId":"1205547206","SideOfStreet":"neither","CountryId":"20147700","StateId":"20157369","CountyId":"20158069","CityId":"20157982","DistrictId":"20158001"}}},{"Relevance":1.0,"Distance":15.9,"MatchLevel":"houseNumber","MatchQuality":{"Country":1.0,"State":1.0,"County":1.0,"City":1.0,"District":1.0,"Street":[1.0],"HouseNumber":1.0,"PostalCode":1.0},"MatchType":"interpolated","Location":{"LocationId":"NT_vpSwN9H31MDNGU.RXOERUA_18SO","LocationType":"point","DisplayPosition":{"Latitude":50.77143,"Longitude":6.0812},"MapView":{"TopLeft":{"Latitude":50.7725542,"Longitude":6.0794224},"BottomRight":{"Latitude":50.7703058,"Longitude":6.0829776}},"Address":{"Label":"Mörgensstraße 5/9, 52064 Aachen, Deutschland","Country":"DEU","State":"Nordrhein-Westfalen","County":"Aachen","City":"Aachen","District":"Aachen","Street":"Mörgensstraße","HouseNumber":"5/9","PostalCode":"52064","AdditionalData":[{"value":"Deutschland","key":"CountryName"},{"value":"Nordrhein-Westfalen","key":"StateName"},{"value":"Aachen","key":"CountyName"}]},"MapReference":{"ReferenceId":"51366778","Spot":0.37,"SideOfStreet":"right","CountryId":"20147700","StateId":"20157369","CountyId":"20158069","CityId":"20157982","DistrictId":"20158001","AddressId":"196538682","RoadLinkId":"39472964"}}},{"Relevance":1.0,"Distance":65.7,"MatchLevel":"houseNumber","MatchQuality":{"Country":1.0,"State":1.0,"County":1.0,"City":1.0,"District":1.0,"Street":[1.0],"HouseNumber":1.0,"PostalCode":1.0},"MatchType":"interpolated","Location":{"LocationId":"NT_gvaplTs1BQGDV3Ik6ZX0fB_zUzLwMTO","LocationType":"point","DisplayPosition":{"Latitude":50.77243,"Longitude":6.08125},"MapView":{"TopLeft":{"Latitude":50.7735542,"Longitude":6.0794724},"BottomRight":{"Latitude":50.7713058,"Longitude":6.0830276}},"Address":{"Label":"Alexianergraben 35/039, 52062 Aachen, Deutschland","Country":"DEU","State":"Nordrhein-Westfalen","County":"Aachen","City":"Aachen","District":"Aachen","Street":"Alexianergraben","HouseNumber":"35/039","PostalCode":"52062","AdditionalData":[{"value":"Deutschland","key":"CountryName"},{"value":"Nordrhein-Westfalen","key":"StateName"},{"value":"Aachen","key":"CountyName"}]},"MapReference":{"ReferenceId":"851203666","Spot":0.02,"SideOfStreet":"left","CountryId":"20147700","StateId":"20157369","CountyId":"20158069","CityId":"20157982","DistrictId":"20158001","AddressId":"195183785","RoadLinkId":"230433085"}}},{"Relevance":1.0,"Distance":72.4,"MatchLevel":"houseNumber","MatchQuality":{"Country":1.0,"State":1.0,"County":1.0,"City":1.0,"District":1.0,"Street":[1.0],"HouseNumber":1.0,"PostalCode":1.0},"MatchType":"interpolated","Location":{"LocationId":"NT_i22DrXweTE0gziytmMuE5A_x8CMwMD","LocationType":"point","DisplayPosition":{"Latitude":50.77214,"Longitude":6.08032},"MapView":{"TopLeft":{"Latitude":50.7732642,"Longitude":6.0785424},"BottomRight":{"Latitude":50.7710158,"Longitude":6.0820976}},"Address":{"Label":"Rosstraße 1/003, 52064 Aachen, Deutschland","Country":"DEU","State":"Nordrhein-Westfalen","County":"Aachen","City":"Aachen","District":"Aachen","Street":"Rosstraße","HouseNumber":"1/003","PostalCode":"52064","AdditionalData":[{"value":"Deutschland","key":"CountryName"},{"value":"Nordrhein-Westfalen","key":"StateName"},{"value":"Aachen","key":"CountyName"}]},"MapReference":{"ReferenceId":"51367809","Spot":0.94,"SideOfStreet":"right","CountryId":"20147700","StateId":"20157369","CountyId":"20158069","CityId":"20157982","DistrictId":"20158001","AddressId":"195249272","RoadLinkId":"39034585"}}},{"Relevance":1.0,"Distance":73.2,"MatchLevel":"houseNumber","MatchQuality":{"Country":1.0,"State":1.0,"County":1.0,"City":1.0,"District":1.0,"Street":[1.0],"HouseNumber":1.0,"PostalCode":1.0},"MatchType":"interpolated","Location":{"LocationId":"NT_7d.fUw2WYt4JHrYyq-LrVA_xA","LocationType":"point","DisplayPosition":{"Latitude":50.77083,"Longitude":6.08157},"MapView":{"TopLeft":{"Latitude":50.7719542,"Longitude":6.0797925},"BottomRight":{"Latitude":50.7697058,"Longitude":6.0833475}},"Address":{"Label":"Matthiashofstraße 1, 52064 Aachen, Deutschland","Country":"DEU","State":"Nordrhein-Westfalen","County":"Aachen","City":"Aachen","District":"Aachen","Street":"Matthiashofstraße","HouseNumber":"1","PostalCode":"52064","AdditionalData":[{"value":"Deutschland","key":"CountryName"},{"value":"Nordrhein-Westfalen","key":"StateName"},{"value":"Aachen","key":"CountyName"}]},"MapReference":{"ReferenceId":"834095083","Spot":0.19,"SideOfStreet":"left","CountryId":"20147700","StateId":"20157369","CountyId":"20158069","CityId":"20157982","DistrictId":"20158001","AddressId":"195397724","RoadLinkId":"217354407"}}},{"Relevance":1.0,"Distance":79.7,"MatchLevel":"houseNumber","MatchQuality":{"Country":1.0,"State":1.0,"County":1.0,"City":1.0,"District":1.0,"Street":[1.0],"HouseNumber":1.0,"PostalCode":1.0},"MatchType":"interpolated","Location":{"LocationId":"NT_P6l4f0goJQi1cz1AP71nTD_zUzLzkD","LocationType":"point","DisplayPosition":{"Latitude":50.77241,"Longitude":6.08143},"MapView":{"TopLeft":{"Latitude":50.7735342,"Longitude":6.0796524},"BottomRight":{"Latitude":50.7712858,"Longitude":6.0832076}},"Address":{"Label":"Alexianergraben 35/39, 52064 Aachen, Deutschland","Country":"DEU","State":"Nordrhein-Westfalen","County":"Aachen","City":"Aachen","District":"Aachen","Street":"Alexianergraben","HouseNumber":"35/39","PostalCode":"52064","AdditionalData":[{"value":"Deutschland","key":"CountryName"},{"value":"Nordrhein-Westfalen","key":"StateName"},{"value":"Aachen","key":"CountyName"}]},"MapReference":{"ReferenceId":"51470714","Spot":0.91,"SideOfStreet":"left","CountryId":"20147700","StateId":"20157369","CountyId":"20158069","CityId":"20157982","DistrictId":"20158001","AddressId":"195691875","RoadLinkId":"39199661"}}},{"Relevance":1.0,"Distance":87.2,"MatchLevel":"street","MatchQuality":{"Country":1.0,"State":1.0,"County":1.0,"City":1.0,"District":1.0,"Street":[1.0],"PostalCode":1.0},"Location":{"LocationId":"NT_vpSwN9H31MDNGU.RXOERUA_l_51366779_L","LocationType":"point","DisplayPosition":{"Latitude":50.77079,"Longitude":6.08133},"MapView":{"TopLeft":{"Latitude":50.77079,"Longitude":6.08129},"BottomRight":{"Latitude":50.7706,"Longitude":6.08133}},"Address":{"Label":"Mörgensstraße, 52064 Aachen, Deutschland","Country":"DEU","State":"Nordrhein-Westfalen","County":"Aachen","City":"Aachen","District":"Aachen","Street":"Mörgensstraße","PostalCode":"52064","AdditionalData":[{"value":"Deutschland","key":"CountryName"},{"value":"Nordrhein-Westfalen","key":"StateName"},{"value":"Aachen","key":"CountyName"}]},"MapReference":{"ReferenceId":"51366779","Spot":1.0,"SideOfStreet":"left","CountryId":"20147700","StateId":"20157369","CountyId":"20158069","CityId":"20157982","DistrictId":"20158001"}}},{"Relevance":1.0,"Distance":95.4,"MatchLevel":"street","MatchQuality":{"Country":1.0,"State":1.0,"County":1.0,"City":1.0,"District":1.0,"Street":[1.0],"PostalCode":1.0},"Location":{"LocationId":"NT_GWXBKM-BLadFIq.RRii-zC_l_51366321_R","LocationType":"point","DisplayPosition":{"Latitude":50.77243,"Longitude":6.08126},"MapView":{"TopLeft":{"Latitude":50.77256,"Longitude":6.08126},"BottomRight":{"Latitude":50.77243,"Longitude":6.08129}},"Address":{"Label":"Hans-Stercken-Platz, 52062 Aachen, Deutschland","Country":"DEU","State":"Nordrhein-Westfalen","County":"Aachen","City":"Aachen","District":"Aachen","Street":"Hans-Stercken-Platz","PostalCode":"52062","AdditionalData":[{"value":"Deutschland","key":"CountryName"},{"value":"Nordrhein-Westfalen","key":"StateName"},{"value":"Aachen","key":"CountyName"}]},"MapReference":{"ReferenceId":"51366321","Spot":0.0,"SideOfStreet":"right","CountryId":"20147700","StateId":"20157369","CountyId":"20158069","CityId":"20157982","DistrictId":"20158001"}}},{"Relevance":1.0,"Distance":102.8,"MatchLevel":"houseNumber","MatchQuality":{"Country":1.0,"State":1.0,"County":1.0,"City":1.0,"District":1.0,"Street":[1.0],"HouseNumber":1.0,"PostalCode":1.0},"MatchType":"interpolated","Location":{"LocationId":"NT_h777J5SR.tHcJJkiYX2LNC_yA","LocationType":"point","DisplayPosition":{"Latitude":50.77056,"Longitude":6.0812},"MapView":{"TopLeft":{"Latitude":50.7716842,"Longitude":6.0794225},"BottomRight":{"Latitude":50.7694358,"Longitude":6.0829775}},"Address":{"Label":"Hubertusstraße 2, 52064 Aachen, Deutschland","Country":"DEU","State":"Nordrhein-Westfalen","County":"Aachen","City":"Aachen","District":"Aachen","Street":"Hubertusstraße","HouseNumber":"2","PostalCode":"52064","AdditionalData":[{"value":"Deutschland","key":"CountryName"},{"value":"Nordrhein-Westfalen","key":"StateName"},{"value":"Aachen","key":"CountyName"}]},"MapReference":{"ReferenceId":"51366229","Spot":0.93,"SideOfStreet":"left","CountryId":"20147700","StateId":"20157369","CountyId":"20158069","CityId":"20157982","DistrictId":"20158001","AddressId":"195161321","RoadLinkId":"39086535"}}},{"Relevance":1.0,"Distance":104.1,"MatchLevel":"street","MatchQuality":{"Country":1.0,"State":1.0,"County":1.0,"City":1.0,"District":1.0,"Street":[1.0],"PostalCode":1.0},"Location":{"LocationId":"NT_gvaplTs1BQGDV3Ik6ZX0fB_l_851203667_R","LocationType":"point","DisplayPosition":{"Latitude":50.77247,"Longitude":6.08081},"MapView":{"TopLeft":{"Latitude":50.77247,"Longitude":6.08046},"BottomRight":{"Latitude":50.77247,"Longitude":6.08081}},"Address":{"Label":"Alexianergraben, 52062 Aachen, Deutschland","Country":"DEU","State":"Nordrhein-Westfalen","County":"Aachen","City":"Aachen","District":"Aachen","Street":"Alexianergraben","PostalCode":"52062","AdditionalData":[{"value":"Deutschland","key":"CountryName"},{"value":"Nordrhein-Westfalen","key":"StateName"},{"value":"Aachen","key":"CountyName"}]},"MapReference":{"ReferenceId":"851203667","Spot":1.0,"SideOfStreet":"right","CountryId":"20147700","StateId":"20157369","CountyId":"20158069","CityId":"20157982","DistrictId":"20158001"}}}]}]}}