{"Response":{"MetaInfo":{"Timestamp":"2020-03-28T11:43:38.384+0000","NextPageInformation":"2"},"View":[{"_type":"SearchResultsViewType","ViewId":0,"Result":[{"Relevance":1.0,"Distance":0.0,"Direction":0.0,"MatchLevel":"district","MatchQuality":{"Country":1.0,"State":1.0,"County":1.0,"City":1.0,"District":1.0,"PostalCode":1.0},"Location":{"LocationId":"NT_d7-X3yyhWFM4lTP0mzoqRB","LocationType":"point","DisplayPosition":{"Latitude":50.7908547,"Longitude":7.0411133},"MapView":{"TopLeft":{"Latitude":50.80135,"Longitude":7.03641},"BottomRight":{"Latitude":50.77887,"Longitude":7.06089}},"Address":{"Label":"Rheidt, Niederkassel, Nordrhein-Westfalen, Deutschland","Country":"DEU","State":"Nordrhein-Westfalen","County":"Rhein-Sieg-Kreis","City":"Niederkassel","District":"Rheidt","PostalCode":"53859","AdditionalData":[{"value":"Deutschland","key":"CountryName"},{"value":"Nordrhein-Westfalen","key":"StateName"},{"value":"Rhein-Sieg-Kreis","key":"CountyName"}]},"MapReference":{"ReferenceId":"849225975","SideOfStreet":"neither","CountryId":"20147700","StateId":"20157369","CountyId":"20158889","CityId":"20158988","DistrictId":"20158990"}}},{"Relevance":1.0,"Distance":5.0,"MatchLevel":"street","MatchQuality":{"Country":1.0,"State":1.0,"County":1.0,"City":1.0,"District":1.0,"PostalCode":1.0},"Location":{"LocationId":"NT_xjttG-ODUcyhqh4.FsIIcD_l_849225979_R","LocationType":"point","DisplayPosition":{"Latitude":50.7908197,"Longitude":7.041068},"MapView":{"TopLeft":{"Latitude":50.79105,"Longitude":7.04089},"BottomRight":{"Latitude":50.79045,"Longitude":7.04136}},"Address":{"Label":"53859 Niederkassel, Deutschland","Country":"DEU","State":"Nordrhein-Westfalen","County":"Rhein-Sieg-Kreis","City":"Niederkassel","District":"Rheidt","PostalCode":"53859","AdditionalData":[{"value":"Deutschland","key":"CountryName"},{"value":"Nordrhein-Westfalen","key":"StateName"},{"value":"Rhein-Sieg-Kreis","key":"CountyName"}]},"MapReference":{"ReferenceId":"849225979","Spot":0.62,"SideOfStreet":"right","CountryId":"20147700","StateId":"20157369","CountyId":"20158889","CityId":"20158988","DistrictId":"20158990"}}},{"Relevance":1.0,"Distance":11.9,"MatchLevel":"street","MatchQuality":{"Country":1.0,"State":1.0,"County":1.0,"City":1.0,"District":1.0,"PostalCode":1.0},"Location":{"LocationId":"NT_xjttG-ODUcyhqh4.FsIIcD_l_536990082_R","LocationType":"point","DisplayPosition":{"Latitude":50.790775,"Longitude":7.0410012},"MapView":{"TopLeft":{"Latitude":50.79103,"Longitude":7.04082},"BottomRight":{"Latitude":50.78999,"Longitude":7.04149}},"Address":{"Label":"53859 Niederkassel, Deutschland","Country":"DEU","State":"Nordrhein-Westfalen","County":"Rhein-Sieg-Kreis","City":"Niederkassel","District":"Rheidt","PostalCode":"53859","AdditionalData":[{"value":"Deutschland","key":"CountryName"},{"value":"Nordrhein-Westfalen","key":"StateName"},{"value":"Rhein-Sieg-Kreis","key":"CountyName"}]},"MapReference":{"ReferenceId":"536990082","Spot":0.75,"SideOfStreet":"right","CountryId":"20147700","StateId":"20157369","CountyId":"20158889","CityId":"20158988","DistrictId":"20158990"}}},{"Relevance":1.0,"Distance":22.8,"MatchLevel":"houseNumber","MatchQuality":{"Country":1.0,"State":1.0,"County":1.0,"City":1.0,"District":1.0,"Street":[1.0],"HouseNumber":1.0,"PostalCode":1.0},"MatchType":"interpolated","Location":{"LocationId":"NT_oIigOWedO6I9WLpSyRf8XA_yA","LocationType":"point","DisplayPosition":{"Latitude":50.79108,"Longitude":7.04151},"MapView":{"TopLeft":{"Latitude":50.7922042,"Longitude":7.0397317},"BottomRight":{"Latitude":50.7899558,"Longitude":7.0432883}},"Address":{"Label":"Oberstraße 2, 53859 Niederkassel, Deutschland","Country":"DEU","State":"Nordrhein-Westfalen","County":"Rhein-Sieg-Kreis","City":"Niederkassel","District":"Rheidt","Street":"Oberstraße","HouseNumber":"2","PostalCode":"53859","AdditionalData":[{"value":"Deutschland","key":"CountryName"},{"value":"Nordrhein-Westfalen","key":"StateName"},{"value":"Rhein-Sieg-Kreis","key":"CountyName"}]},"MapReference":{"ReferenceId":"849225975","Spot":1.0,"SideOfStreet":"left","CountryId":"20147700","StateId":"20157369","CountyId":"20158889","CityId":"20158988","DistrictId":"20158990","AddressId":"622167497","RoadLinkId":"229242646"}}},{"Relevance":1.0,"Distance":26.8,"MatchLevel":"street","MatchQuality":{"Country":1.0,"State":1.0,"County":1.0,"City":1.0,"District":1.0,"Street":[1.0],"PostalCode":1.0},"Location":{"LocationId":"NT_xHUoMXb8e-Y6NpIK1fbhBA_l_849242922_R","LocationType":"point","DisplayPosition":{"Latitude":50.79105,"Longitude":7.04089},"MapView":{"TopLeft":{"Latitude":50.79105,"Longitude":7.04082},"BottomRight":{"Latitude":50.79103,"Longitude":7.04089}},"Address":{"Label":"Liehgasse, 53859 Niederkassel, Deutschland","Country":"DEU","State":"Nordrhein-Westfalen","County":"Rhein-Sieg-Kreis","City":"Niederkassel","District":"Rheidt","Street":"Liehgasse","PostalCode":"53859","AdditionalData":[{"value":"Deutschland","key":"CountryName"},{"value":"Nordrhein-Westfalen","key":"StateName"},{"value":"Rhein-Sieg-Kreis","key":"CountyName"}]},"MapReference":{"ReferenceId":"849242922","Spot":1.0,"SideOfStreet":"right","CountryId":"20147700","StateId":"20157369","CountyId":"20158889","CityId":"20158988","DistrictId":"20158990"}}},{"Relevance":1.0,"Distance":26.8,"MatchLevel":"street","MatchQuality":{"Country":1.0,"State":1.0,"County":1.0,"City":1.0,"District":1.0,"PostalCode":1.0},"Location":{"LocationId":"NT_xjttG-ODUcyhqh4.FsIIcD_l_849242916_R","LocationType":"point","DisplayPosition":{"Latitude":50.79105,"Longitude":7.04089},"MapView":{"TopLeft":{"Latitude":50.79414,"Longitude":7.03773},"BottomRight":{"Latitude":50.79105,"Longitude":7.04089}},"Address":{"Label":"53859 Niederkassel, Deutschland","Country":"DEU","State":"Nordrhein-Westfalen","County":"Rhein-Sieg-Kreis","City":"Niederkassel","District":"Rheidt","PostalCode":"53859","AdditionalData":[{"value":"Deutschland","key":"CountryName"},{"value":"Nordrhein-Westfalen","key":"StateName"},{"value":"Rhein-Sieg-Kreis","key":"CountyName"}]},"MapReference":{"ReferenceId":"849242916","Spot":0.0,"SideOfStreet":"right","CountryId":"20147700","StateId":"20157369","CountyId":"20158889","CityId":"20158988","DistrictId":"20158990"}}},{"Relevance":1.0,"Distance":27.4,"MatchLevel":"street","MatchQuality":{"Country":1.0,"State":1.0,"County":1.0,"City":1.0,"District":1.0,"Street":[1.0],"PostalCode":1.0},"Location":{"LocationId":"NT_xHUoMXb8e-Y6NpIK1fbhBA_l_849242923_R","LocationType":"point","DisplayPosition":{"Latitude":50.7910964,"Longitude":7.041037},"MapView":{"TopLeft":{"Latitude":50.79118,"Longitude":7.04089},"BottomRight":{"Latitude":50.79105,"Longitude":7.04152}},"Address":{"Label":"Liehgasse, 53859 Niederkassel, Deutschland","Country":"DEU","State":"Nordrhein-Westfalen","County":"Rhein-Sieg-Kreis","City":"Niederkassel","District":"Rheidt","Street":"Liehgasse","PostalCode":"53859","AdditionalData":[{"value":"Deutschland","key":"CountryName"},{"value":"Nordrhein-Westfalen","key":"StateName"},{"value":"Rhein-Sieg-Kreis","key":"CountyName"}]},"MapReference":{"ReferenceId":"849242923","Spot":0.23,"SideOfStreet":"right","CountryId":"20147700","StateId":"20157369","CountyId":"20158889","CityId":"20158988","DistrictId":"20158990"}}},{"Relevance":1.0,"Distance":28.4,"MatchLevel":"street","MatchQuality":{"Country":1.0,"State":1.0,"County":1.0,"City":1.0,"District":1.0,"Street":[1.0],"PostalCode":1.0},"Location":{"LocationId":"NT_EocgGpTemIkf9RVZE2S.ZB_l_849242917_R","LocationType":"point","DisplayPosition":{"Latitude":50.79103,"Longitude":7.04082},"MapView":{"TopLeft":{"Latitude":50.79336,"Longitude":7.03808},"BottomRight":{"Latitude":50.79103,"Longitude":7.04082}},"Address":{"Label":"Auf dem Werthchen, 53859 Niederkassel, Deutschland","Country":"DEU","State":"Nordrhein-Westfalen","County":"Rhein-Sieg-Kreis","City":"Niederkassel","District":"Rheidt","Street":"Auf dem Werthchen","PostalCode":"53859","AdditionalData":[{"value":"Deutschland","key":"CountryName"},{"value":"Nordrhein-Westfalen","key":"StateName"},{"value":"Rhein-Sieg-Kreis","key":"CountyName"}]},"MapReference":{"ReferenceId":"849242917","Spot":0.0,"SideOfStreet":"right","CountryId":"20147700","StateId":"20157369","CountyId":"20158889","CityId":"20158988","DistrictId":"20158990"}}},{"Relevance":1.0,"Distance":32.8,"MatchLevel":"houseNumber","MatchQuality":{"Country":1.0,"State":1.0,"County":1.0,"City":1.0,"District":1.0,"Street":[1.0],"HouseNumber":1.0,"PostalCode":1.0},"MatchType":"interpolated","Location":{"LocationId":"NT_oIigOWedO6I9WLpSyRf8XA_4A","LocationType":"point","DisplayPosition":{"Latitude":50.79054,"Longitude":7.04163},"MapView":{"TopLeft":{"Latitude":50.7916642,"Longitude":7.0398517},"BottomRight":{"Latitude":50.7894158,"Longitude":7.0434083}},"Address":{"Label":"Oberstraße 8, 53859 Niederkassel, Deutschland","Country":"DEU","State":"Nordrhein-Westfalen","County":"Rhein-Sieg-Kreis","City":"Niederkassel","District":"Rheidt","Street":"Oberstraße","HouseNumber":"8","PostalCode":"53859","AdditionalData":[{"value":"Deutschland","key":"CountryName"},{"value":"Nordrhein-Westfalen","key":"StateName"},{"value":"Rhein-Sieg-Kreis","key":"CountyName"}]},"MapReference":{"ReferenceId":"849225977","Spot":0.46,"SideOfStreet":"left","CountryId":"20147700","StateId":"20157369","CountyId":"20158889","CityId":"20158988","DistrictId":"20158990","AddressId":"196446140","RoadLinkId":"229242652"}}},{"Relevance":1.0,"Distance":37.1,"MatchLevel":"landmark","MatchQuality":{"Country":1.0,"State":1.0,"County":1.0,"City":1.0,"PostalCode":1.0,"Name":1.0},"Location":{"LocationId":"NT_eq8aKn6z6O3.POqQdsH1hD","LocationType":"river","Name":"Die Laach","DisplayPosition":{"Latitude":50.79203,"Longitude":7.039},"MapView":{"TopLeft":{"Latitude":50.79556,"Longitude":7.03298},"BottomRight":{"Latitude":50.7885,"Longitude":7.0418}},"Address":{"Label":"53859 Niederkassel, Deutschland","Country":"DEU","State":"Nordrhein-Westfalen","County":"Rhein-Sieg-Kreis","City":"Niederkassel","PostalCode":"53859","AdditionalData":[{"value":"Deutschland","key":"CountryName"},{"value":"Nordrhein-Westfalen","key":"StateName"},{"value":"Rhein-Sieg-Kreis","key":"CountyName"}]},"MapReference":{"CountryId":"20147700","StateId":"20157369","CountyId":"20158889","CityId":"20158988","PlaceId":"64689757"}}}]}]}}