{"Response":{"MetaInfo":{"Timestamp":"2020-03-28T10:53:59.125+0000","NextPageInformation":"2"},"View":[{"_type":"SearchResultsViewType","ViewId":0,"Result":[{"Relevance":1.0,"Distance":-5.8,"MatchLevel":"landmark","MatchQuality":{"Country":1.0,"State":1.0,"County":1.0,"City":1.0,"District":1.0,"Street":[1.0],"PostalCode":1.0,"Name":1.0},"Location":{"LocationId":"NT_E6UXjaKoinFJgApg3xy3JA_p_FkHDWFAl3eN6YOesL7OPBC","LocationType":"hospital","Name":"Nemocnice Děčín","DisplayPosition":{"Latitude":50.78138,"Longitude":14.22484},"MapView":{"TopLeft":{"Latitude":50.78298,"Longitude":14.22418},"BottomRight":{"Latitude":50.78093,"Longitude":14.23038}},"Address":{"Label":"U Nemocnice, 405 02 Děčín, Česká Republika","Country":"CZE","State":"Ústecký kraj","County":"Děčín","City":"Děčín","District":"Děčín","Street":"U Nemocnice","PostalCode":"405 02","AdditionalData":[{"value":"Česká Republika","key":"CountryName"},{"value":"Ústecký kraj","key":"StateName"},{"value":"Děčín","key":"CountyName"}]},"MapReference":{"CountryId":"20427915","StateId":"20446117","CountyId":"20446251","CityId":"20446267","DistrictId":"20446268","PlaceId":"844555378"}}},{"Relevance":1.0,"Distance":0.0,"Direction":0.0,"MatchLevel":"district","MatchQuality":{"Country":1.0,"State":1.0,"County":1.0,"City":1.0,"District":1.0,"PostalCode":1.0},"Location":{"LocationId":"NT_beCtFbDl-rcOy4NEf7iggB","LocationType":"point","DisplayPosition":{"Latitude":50.782775,"Longitude":14.2249729},"MapView":{"TopLeft":{"Latitude":50.7993,"Longitude":14.13847},"BottomRight":{"Latitude":50.74129,"Longitude":14.26117}},"Address":{"Label":"Děčín, Ústecký kraj, Česká Republika","Country":"CZE","State":"Ústecký kraj","County":"Děčín","City":"Děčín","District":"Děčín","PostalCode":"405 02","AdditionalData":[{"value":"Česká Republika","key":"CountryName"},{"value":"Ústecký kraj","key":"StateName"},{"value":"Děčín","key":"CountyName"}]},"MapReference":{"ReferenceId":"704394994","SideOfStreet":"neither","CountryId":"20427915","StateId":"20446117","CountyId":"20446251","CityId":"20446267","DistrictId":"20446268"}}},{"Relevance":1.0,"Distance":24.6,"MatchLevel":"houseNumber","MatchQuality":{"Country":1.0,"State":1.0,"County":1.0,"City":1.0,"District":1.0,"Street":[1.0],"HouseNumber":1.0,"PostalCode":1.0},"MatchType":"interpolated","Location":{"LocationId":"NT_uaoeA2P.LRKHox3E5Mz8vD_4QDNvEDO","LocationType":"point","DisplayPosition":{"Latitude":50.78286,"Longitude":14.22465},"MapView":{"TopLeft":{"Latitude":50.7839842,"Longitude":14.222872},"BottomRight":{"Latitude":50.7817358,"Longitude":14.226428}},"Address":{"Label":"Lužická 844/18, 405 02 Děčín, Česká Republika","Country":"CZE","State":"Ústecký kraj","County":"Děčín","City":"Děčín","District":"Děčín","Street":"Lužická","HouseNumber":"844/18","PostalCode":"405 02","AdditionalData":[{"value":"Česká Republika","key":"CountryName"},{"value":"Ústecký kraj","key":"StateName"},{"value":"Děčín","key":"CountyName"}]},"MapReference":{"ReferenceId":"704477657","Spot":0.2,"SideOfStreet":"left","CountryId":"20427915","StateId":"20446117","CountyId":"20446251","CityId":"20446267","DistrictId":"20446268","AddressId":"239631825","RoadLinkId":"105871680"}}},{"Relevance":1.0,"Distance":30.5,"MatchLevel":"houseNumber","MatchQuality":{"Country":1.0,"State":1.0,"County":1.0,"City":1.0,"District":1.0,"Street":[1.0],"HouseNumber":1.0,"PostalCode":1.0},"MatchType":"interpolated","Location":{"LocationId":"NT_VsGL4yL3ORfGt3mAVU9R6C_4YzNvIzN","LocationType":"point","DisplayPosition":{"Latitude":50.78251,"Longitude":14.22486},"MapView":{"TopLeft":{"Latitude":50.7836342,"Longitude":14.223082},"BottomRight":{"Latitude":50.7813858,"Longitude":14.226638}},"Address":{"Label":"Purkyňova 867/27, 405 02 Děčín, Česká Republika","Country":"CZE","State":"Ústecký kraj","County":"Děčín","City":"Děčín","District":"Děčín","Street":"Purkyňova","HouseNumber":"867/27","PostalCode":"405 02","AdditionalData":[{"value":"Česká Republika","key":"CountryName"},{"value":"Ústecký kraj","key":"StateName"},{"value":"Děčín","key":"CountyName"}]},"MapReference":{"ReferenceId":"704477634","Spot":0.83,"SideOfStreet":"left","CountryId":"20427915","StateId":"20446117","CountyId":"20446251","CityId":"20446267","DistrictId":"20446268","AddressId":"240630117","RoadLinkId":"105871653"}}},{"Relevance":1.0,"Distance":32.9,"MatchLevel":"houseNumber","MatchQuality":{"Country":1.0,"State":1.0,"County":1.0,"City":1.0,"District":1.0,"Street":[1.0],"HouseNumber":1.0,"PostalCode":1.0},"MatchType":"interpolated","Location":{"LocationId":"NT_VsGL4yL3ORfGt3mAVU9R6C_4kjNvEDM","LocationType":"point","DisplayPosition":{"Latitude":50.78307,"Longitude":14.22501},"MapView":{"TopLeft":{"Latitude":50.7841942,"Longitude":14.223232},"BottomRight":{"Latitude":50.7819458,"Longitude":14.226788}},"Address":{"Label":"Purkyňova 896/10, 405 02 Děčín, Česká Republika","Country":"CZE","State":"Ústecký kraj","County":"Děčín","City":"Děčín","District":"Děčín","Street":"Purkyňova","HouseNumber":"896/10","PostalCode":"405 02","AdditionalData":[{"value":"Česká Republika","key":"CountryName"},{"value":"Ústecký kraj","key":"StateName"},{"value":"Děčín","key":"CountyName"}]},"MapReference":{"ReferenceId":"756061923","Spot":0.33,"SideOfStreet":"right","CountryId":"20427915","StateId":"20446117","CountyId":"20446251","CityId":"20446267","DistrictId":"20446268","AddressId":"239280620","RoadLinkId":"151232411"}}},{"Relevance":1.0,"Distance":66.0,"MatchLevel":"houseNumber","MatchQuality":{"Country":1.0,"State":1.0,"County":1.0,"City":1.0,"District":1.0,"Street":[1.0],"HouseNumber":1.0,"PostalCode":1.0},"MatchType":"interpolated","Location":{"LocationId":"NT_uaoeA2P.LRKHox3E5Mz8vD_4YjNvETO","LocationType":"point","DisplayPosition":{"Latitude":50.78281,"Longitude":14.22591},"MapView":{"TopLeft":{"Latitude":50.7839342,"Longitude":14.224132},"BottomRight":{"Latitude":50.7816858,"Longitude":14.227688}},"Address":{"Label":"Lužická 866/19, 405 02 Děčín, Česká Republika","Country":"CZE","State":"Ústecký kraj","County":"Děčín","City":"Děčín","District":"Děčín","Street":"Lužická","HouseNumber":"866/19","PostalCode":"405 02","AdditionalData":[{"value":"Česká Republika","key":"CountryName"},{"value":"Ústecký kraj","key":"StateName"},{"value":"Děčín","key":"CountyName"}]},"MapReference":{"ReferenceId":"704477659","Spot":0.37,"SideOfStreet":"right","CountryId":"20427915","StateId":"20446117","CountyId":"20446251","CityId":"20446267","DistrictId":"20446268","AddressId":"240241799","RoadLinkId":"105871682"}}},{"Relevance":1.0,"Distance":68.3,"MatchLevel":"street","MatchQuality":{"Country":1.0,"State":1.0,"County":1.0,"City":1.0,"District":1.0,"Street":[1.0],"PostalCode":1.0},"Location":{"LocationId":"NT_Mhcydcsw0dgXMz1TYQgcdD_l_1145269681_L","LocationType":"point","DisplayPosition":{"Latitude":50.78219,"Longitude":14.22527},"MapView":{"TopLeft":{"Latitude":50.78219,"Longitude":14.22509},"BottomRight":{"Latitude":50.78184,"Longitude":14.22527}},"Address":{"Label":"U Nemocnice, 405 02 Děčín, Česká Republika","Country":"CZE","State":"Ústecký kraj","County":"Děčín","City":"Děčín","District":"Děčín","Street":"U Nemocnice","PostalCode":"405 02","AdditionalData":[{"value":"Česká Republika","key":"CountryName"},{"value":"Ústecký kraj","key":"StateName"},{"value":"Děčín","key":"CountyName"}]},"MapReference":{"ReferenceId":"1145269681","Spot":1.0,"SideOfStreet":"left","CountryId":"20427915","StateId":"20446117","CountyId":"20446251","CityId":"20446267","DistrictId":"20446268"}}},{"Relevance":1.0,"Distance":73.9,"MatchLevel":"houseNumber","MatchQuality":{"Country":1.0,"State":1.0,"County":1.0,"City":1.0,"District":1.0,"Street":[1.0],"HouseNumber":1.0,"PostalCode":1.0},"MatchType":"interpolated","Location":{"LocationId":"NT_ZEeLfJBzbgSJ9EpZuvBvgC_xIDM28SN","LocationType":"point","DisplayPosition":{"Latitude":50.7835,"Longitude":14.22561},"MapView":{"TopLeft":{"Latitude":50.7846242,"Longitude":14.223832},"BottomRight":{"Latitude":50.7823758,"Longitude":14.227388}},"Address":{"Label":"Stoliční 1206/5, 405 02 Děčín, Česká Republika","Country":"CZE","State":"Ústecký kraj","County":"Děčín","City":"Děčín","District":"Děčín","Street":"Stoliční","HouseNumber":"1206/5","PostalCode":"405 02","AdditionalData":[{"value":"Česká Republika","key":"CountryName"},{"value":"Ústecký kraj","key":"StateName"},{"value":"Děčín","key":"CountyName"}]},"MapReference":{"ReferenceId":"1085624054","Spot":0.56,"SideOfStreet":"left","CountryId":"20427915","StateId":"20446117","CountyId":"20446251","CityId":"20446267","DistrictId":"20446268","AddressId":"240427571","RoadLinkId":"401696524"}}},{"Relevance":1.0,"Distance":75.3,"MatchLevel":"houseNumber","MatchQuality":{"Country":1.0,"State":1.0,"County":1.0,"City":1.0,"District":1.0,"Street":[1.0],"HouseNumber":1.0,"PostalCode":1.0},"MatchType":"interpolated","Location":{"LocationId":"NT_uCdT4swy3Y3QOwz.ujGhpD_lZnLgQcjuASM0gTO","LocationType":"point","DisplayPosition":{"Latitude":50.78347,"Longitude":14.22406},"MapView":{"TopLeft":{"Latitude":50.7845942,"Longitude":14.222282},"BottomRight":{"Latitude":50.7823458,"Longitude":14.225838}},"Address":{"Label":"El. Krásnohorské ev. č. 1489, 405 02 Děčín, Česká Republika","Country":"CZE","State":"Ústecký kraj","County":"Děčín","City":"Děčín","District":"Děčín","Street":"El. Krásnohorské","HouseNumber":"ev. č. 1489","PostalCode":"405 02","AdditionalData":[{"value":"Česká Republika","key":"CountryName"},{"value":"Ústecký kraj","key":"StateName"},{"value":"Děčín","key":"CountyName"}]},"MapReference":{"ReferenceId":"704477656","Spot":0.35,"SideOfStreet":"right","CountryId":"20427915","StateId":"20446117","CountyId":"20446251","CityId":"20446267","DistrictId":"20446268","AddressId":"589453575","RoadLinkId":"105871679"}}},{"Relevance":1.0,"Distance":82.2,"MatchLevel":"houseNumber","MatchQuality":{"Country":1.0,"State":1.0,"County":1.0,"City":1.0,"District":1.0,"Street":[1.0],"HouseNumber":1.0,"PostalCode":1.0},"MatchType":"interpolated","Location":{"LocationId":"NT_ZEeLfJBzbgSJ9EpZuvBvgC_lZnLgQcjuASM0YDM","LocationType":"point","DisplayPosition":{"Latitude":50.78314,"Longitude":14.22608},"MapView":{"TopLeft":{"Latitude":50.7842642,"Longitude":14.224302},"BottomRight":{"Latitude":50.7820158,"Longitude":14.227858}},"Address":{"Label":"Stoliční ev. č. 1460, 405 02 Děčín, Česká Republika","Country":"CZE","State":"Ústecký kraj","County":"Děčín","City":"Děčín","District":"Děčín","Street":"Stoliční","HouseNumber":"ev. č. 1460","PostalCode":"405 02","AdditionalData":[{"value":"Česká Republika","key":"CountryName"},{"value":"Ústecký kraj","key":"StateName"},{"value":"Děčín","key":"CountyName"}]},"MapReference":{"ReferenceId":"1085624057","Spot":0.03,"SideOfStreet":"left","CountryId":"20427915","StateId":"20446117","CountyId":"20446251","CityId":"20446267","DistrictId":"20446268","AddressId":"589416735","RoadLinkId":"401696528"}}}]}]}}