{"Response":{"MetaInfo":{"Timestamp":"2020-03-28T10:23:25.882+0000","NextPageInformation":"2"},"View":[{"_type":"SearchResultsViewType","ViewId":0,"Result":[{"Relevance":1.0,"Distance":0.0,"Direction":0.0,"MatchLevel":"city","MatchQuality":{"Country":1.0,"State":1.0,"County":1.0,"City":1.0,"PostalCode":1.0},"Location":{"LocationId":"NT_irnJlD.-SZH16Enk5e2sYA","LocationType":"point","DisplayPosition":{"Latitude":50.7785805,"Longitude":7.0907607},"MapView":{"TopLeft":{"Latitude":50.87453,"Longitude":7.07728},"BottomRight":{"Latitude":50.76158,"Longitude":7.21507}},"Address":{"Label":"Troisdorf, Nordrhein-Westfalen, Deutschland","Country":"DEU","State":"Nordrhein-Westfalen","County":"Rhein-Sieg-Kreis","City":"Troisdorf","PostalCode":"53840","AdditionalData":[{"value":"Deutschland","key":"CountryName"},{"value":"Nordrhein-Westfalen","key":"StateName"},{"value":"Rhein-Sieg-Kreis","key":"CountyName"}]},"MapReference":{"ReferenceId":"1199565227","SideOfStreet":"neither","CountryId":"20147700","StateId":"20157369","CountyId":"20158889","CityId":"20159037"}}},{"Relevance":1.0,"Distance":13.5,"MatchLevel":"houseNumber","MatchQuality":{"Country":1.0,"State":1.0,"County":1.0,"City":1.0,"Street":[1.0],"HouseNumber":1.0,"PostalCode":1.0},"MatchType":"interpolated","Location":{"LocationId":"NT_iyWcbRTQ2i3Qk0NEqBaLoB_xMD","LocationType":"point","DisplayPosition":{"Latitude":50.77857,"Longitude":7.09101},"MapView":{"TopLeft":{"Latitude":50.7796942,"Longitude":7.0892322},"BottomRight":{"Latitude":50.7774458,"Longitude":7.0927878}},"Address":{"Label":"Stifterstraße 13, 53844 Troisdorf, Deutschland","Country":"DEU","State":"Nordrhein-Westfalen","County":"Rhein-Sieg-Kreis","City":"Troisdorf","Street":"Stifterstraße","HouseNumber":"13","PostalCode":"53844","AdditionalData":[{"value":"Deutschland","key":"CountryName"},{"value":"Nordrhein-Westfalen","key":"StateName"},{"value":"Rhein-Sieg-Kreis","key":"CountyName"}]},"MapReference":{"ReferenceId":"51073151","Spot":0.92,"SideOfStreet":"left","CountryId":"20147700","StateId":"20157369","CountyId":"20158889","CityId":"20159037","AddressId":"196255524","RoadLinkId":"39180657"}}},{"Relevance":1.0,"Distance":30.2,"MatchLevel":"houseNumber","MatchQuality":{"Country":1.0,"State":1.0,"County":1.0,"City":1.0,"District":1.0,"Street":[1.0],"HouseNumber":1.0,"PostalCode":1.0},"MatchType":"interpolated","Location":{"LocationId":"NT_gwqjqWEt5ULdwiQbBfdsMD_yA","LocationType":"point","DisplayPosition":{"Latitude":50.77822,"Longitude":7.09083},"MapView":{"TopLeft":{"Latitude":50.7793442,"Longitude":7.0890522},"BottomRight":{"Latitude":50.7770958,"Longitude":7.0926078}},"Address":{"Label":"Max-Hirsch-Straße 2, 53844 Troisdorf, Deutschland","Country":"DEU","State":"Nordrhein-Westfalen","County":"Rhein-Sieg-Kreis","City":"Troisdorf","District":"Bergheim","Street":"Max-Hirsch-Straße","HouseNumber":"2","PostalCode":"53844","AdditionalData":[{"value":"Deutschland","key":"CountryName"},{"value":"Nordrhein-Westfalen","key":"StateName"},{"value":"Rhein-Sieg-Kreis","key":"CountyName"}]},"MapReference":{"ReferenceId":"51073156","Spot":0.83,"SideOfStreet":"left","CountryId":"20147700","StateId":"20157369","CountyId":"20158889","CityId":"20159037","DistrictId":"20242059","AddressId":"193871572","RoadLinkId":"39364357"}}},{"Relevance":1.0,"Distance":58.7,"MatchLevel":"houseNumber","MatchQuality":{"Country":1.0,"State":1.0,"County":1.0,"City":1.0,"District":1.0,"Street":[1.0],"HouseNumber":1.0,"PostalCode":1.0},"MatchType":"interpolated","Location":{"LocationId":"NT_7Yv6WqJbCCuNfMCNyS3g9B_xED","LocationType":"point","DisplayPosition":{"Latitude":50.77812,"Longitude":7.09122},"MapView":{"TopLeft":{"Latitude":50.7792442,"Longitude":7.0894422},"BottomRight":{"Latitude":50.7769958,"Longitude":7.0929978}},"Address":{"Label":"Stifterstraße 11, 53844 Troisdorf, Deutschland","Country":"DEU","State":"Nordrhein-Westfalen","County":"Rhein-Sieg-Kreis","City":"Troisdorf","District":"Bergheim","Street":"Stifterstraße","HouseNumber":"11","PostalCode":"53844","AdditionalData":[{"value":"Deutschland","key":"CountryName"},{"value":"Nordrhein-Westfalen","key":"StateName"},{"value":"Rhein-Sieg-Kreis","key":"CountyName"}]},"MapReference":{"ReferenceId":"51073150","Spot":0.8,"SideOfStreet":"left","CountryId":"20147700","StateId":"20157369","CountyId":"20158889","CityId":"20159037","DistrictId":"20242059","AddressId":"745804807","RoadLinkId":"39163459"}}},{"Relevance":1.0,"Distance":60.5,"MatchLevel":"houseNumber","MatchQuality":{"Country":1.0,"State":1.0,"County":1.0,"City":1.0,"District":1.0,"Street":[1.0],"HouseNumber":1.0,"PostalCode":1.0},"MatchType":"interpolated","Location":{"LocationId":"NT_9fOV6qdkwZDfOVFuZ5ol8D_xAD","LocationType":"point","DisplayPosition":{"Latitude":50.77836,"Longitude":7.0917},"MapView":{"TopLeft":{"Latitude":50.7794842,"Longitude":7.0899222},"BottomRight":{"Latitude":50.7772358,"Longitude":7.0934778}},"Address":{"Label":"Alfred-Meier-Straße 10, 53844 Troisdorf, Deutschland","Country":"DEU","State":"Nordrhein-Westfalen","County":"Rhein-Sieg-Kreis","City":"Troisdorf","District":"Bergheim","Street":"Alfred-Meier-Straße","HouseNumber":"10","PostalCode":"53844","AdditionalData":[{"value":"Deutschland","key":"CountryName"},{"value":"Nordrhein-Westfalen","key":"StateName"},{"value":"Rhein-Sieg-Kreis","key":"CountyName"}]},"MapReference":{"ReferenceId":"537794548","Spot":0.29,"SideOfStreet":"left","CountryId":"20147700","StateId":"20157369","CountyId":"20158889","CityId":"20159037","DistrictId":"20242059","AddressId":"732665630","RoadLinkId":"39270111"}}},{"Relevance":1.0,"Distance":107.1,"MatchLevel":"houseNumber","MatchQuality":{"Country":1.0,"State":1.0,"County":1.0,"City":1.0,"District":1.0,"Street":[1.0],"HouseNumber":1.0,"PostalCode":1.0},"MatchType":"interpolated","Location":{"LocationId":"NT_EwmZRWEMU1yg9dzeH6Z33A_xQD","LocationType":"point","DisplayPosition":{"Latitude":50.77832,"Longitude":7.0892},"MapView":{"TopLeft":{"Latitude":50.7794442,"Longitude":7.0874222},"BottomRight":{"Latitude":50.7771958,"Longitude":7.0909778}},"Address":{"Label":"Am Mittelpfad 14, 53844 Troisdorf, Deutschland","Country":"DEU","State":"Nordrhein-Westfalen","County":"Rhein-Sieg-Kreis","City":"Troisdorf","District":"Bergheim","Street":"Am Mittelpfad","HouseNumber":"14","PostalCode":"53844","AdditionalData":[{"value":"Deutschland","key":"CountryName"},{"value":"Nordrhein-Westfalen","key":"StateName"},{"value":"Rhein-Sieg-Kreis","key":"CountyName"}]},"MapReference":{"ReferenceId":"991045242","Spot":0.15,"SideOfStreet":"right","CountryId":"20147700","StateId":"20157369","CountyId":"20158889","CityId":"20159037","DistrictId":"20242059","AddressId":"193483191","RoadLinkId":"319714905"}}},{"Relevance":1.0,"Distance":110.5,"MatchLevel":"houseNumber","MatchQuality":{"Country":1.0,"State":1.0,"County":1.0,"City":1.0,"District":1.0,"Street":[1.0],"HouseNumber":1.0,"PostalCode":1.0},"MatchType":"interpolated","Location":{"LocationId":"NT_EwmZRWEMU1yg9dzeH6Z33A_xITQ","LocationType":"point","DisplayPosition":{"Latitude":50.77812,"Longitude":7.08924},"MapView":{"TopLeft":{"Latitude":50.7792442,"Longitude":7.0874622},"BottomRight":{"Latitude":50.7769958,"Longitude":7.0910178}},"Address":{"Label":"Am Mittelpfad 12A, 53844 Troisdorf, Deutschland","Country":"DEU","State":"Nordrhein-Westfalen","County":"Rhein-Sieg-Kreis","City":"Troisdorf","District":"Bergheim","Street":"Am Mittelpfad","HouseNumber":"12A","PostalCode":"53844","AdditionalData":[{"value":"Deutschland","key":"CountryName"},{"value":"Nordrhein-Westfalen","key":"StateName"},{"value":"Rhein-Sieg-Kreis","key":"CountyName"}]},"MapReference":{"ReferenceId":"991045241","Spot":0.47,"SideOfStreet":"right","CountryId":"20147700","StateId":"20157369","CountyId":"20158889","CityId":"20159037","DistrictId":"20242059","AddressId":"195192264","RoadLinkId":"319714904"}}},{"Relevance":1.0,"Distance":114.4,"MatchLevel":"houseNumber","MatchQuality":{"Country":1.0,"State":1.0,"County":1.0,"City":1.0,"District":1.0,"Street":[1.0],"HouseNumber":1.0,"PostalCode":1.0},"MatchType":"interpolated","Location":{"LocationId":"NT_PdawWQ11e3wfjRa55lPuuB_xID","LocationType":"point","DisplayPosition":{"Latitude":50.7775,"Longitude":7.09129},"MapView":{"TopLeft":{"Latitude":50.7786242,"Longitude":7.0895122},"BottomRight":{"Latitude":50.7763758,"Longitude":7.0930678}},"Address":{"Label":"Markusstraße 12, 53844 Troisdorf, Deutschland","Country":"DEU","State":"Nordrhein-Westfalen","County":"Rhein-Sieg-Kreis","City":"Troisdorf","District":"Bergheim","Street":"Markusstraße","HouseNumber":"12","PostalCode":"53844","AdditionalData":[{"value":"Deutschland","key":"CountryName"},{"value":"Nordrhein-Westfalen","key":"StateName"},{"value":"Rhein-Sieg-Kreis","key":"CountyName"}]},"MapReference":{"ReferenceId":"51073148","Spot":0.89,"SideOfStreet":"left","CountryId":"20147700","StateId":"20157369","CountyId":"20158889","CityId":"20159037","DistrictId":"20242059","AddressId":"196259108","RoadLinkId":"39484871"}}},{"Relevance":1.0,"Distance":117.3,"MatchLevel":"houseNumber","MatchQuality":{"Country":1.0,"State":1.0,"County":1.0,"City":1.0,"District":1.0,"Street":[1.0],"HouseNumber":1.0,"PostalCode":1.0},"MatchType":"interpolated","Location":{"LocationId":"NT_PdawWQ11e3wfjRa55lPuuB_4A","LocationType":"point","DisplayPosition":{"Latitude":50.77774,"Longitude":7.09196},"MapView":{"TopLeft":{"Latitude":50.7788642,"Longitude":7.0901822},"BottomRight":{"Latitude":50.7766158,"Longitude":7.0937378}},"Address":{"Label":"Markusstraße 8, 53844 Troisdorf, Deutschland","Country":"DEU","State":"Nordrhein-Westfalen","County":"Rhein-Sieg-Kreis","City":"Troisdorf","District":"Bergheim","Street":"Markusstraße","HouseNumber":"8","PostalCode":"53844","AdditionalData":[{"value":"Deutschland","key":"CountryName"},{"value":"Nordrhein-Westfalen","key":"StateName"},{"value":"Rhein-Sieg-Kreis","key":"CountyName"}]},"MapReference":{"ReferenceId":"51073149","Spot":0.28,"SideOfStreet":"left","CountryId":"20147700","StateId":"20157369","CountyId":"20158889","CityId":"20159037","DistrictId":"20242059","AddressId":"192775690","RoadLinkId":"39430935"}}},{"Relevance":1.0,"Distance":124.4,"MatchLevel":"landmark","MatchQuality":{"Country":1.0,"State":1.0,"County":1.0,"City":1.0,"District":1.0,"PostalCode":1.0,"Name":1.0},"Location":{"LocationId":"NT_W1hQmE.OkLGjuxH44ncbXB","LocationType":"industrialComplex","Name":"Gewerbegebiet Rheinstraße","DisplayPosition":{"Latitude":50.78013,"Longitude":7.08515},"MapView":{"TopLeft":{"Latitude":50.78233,"Longitude":7.0806},"BottomRight":{"Latitude":50.77793,"Longitude":7.08906}},"Address":{"Label":"53844 Troisdorf, Deutschland","Country":"DEU","State":"Nordrhein-Westfalen","County":"Rhein-Sieg-Kreis","City":"Troisdorf","District":"Bergheim","PostalCode":"53844","AdditionalData":[{"value":"Deutschland","key":"CountryName"},{"value":"Nordrhein-Westfalen","key":"StateName"},{"value":"Rhein-Sieg-Kreis","key":"CountyName"}]},"MapReference":{"CountryId":"20147700","StateId":"20157369","CountyId":"20158889","CityId":"20159037","DistrictId":"20242059","PlaceId":"1410624726"}}}]}]}}