{"Response":{"MetaInfo":{"Timestamp":"2020-03-28T09:33:52.432+0000","NextPageInformation":"2"},"View":[{"_type":"SearchResultsViewType","ViewId":0,"Result":[{"Relevance":1.0,"Distance":0.0,"Direction":0.0,"MatchLevel":"city","MatchQuality":{"Country":1.0,"State":1.0,"County":1.0,"City":1.0,"PostalCode":1.0},"Location":{"LocationId":"NT_NXJsBOhsox1pU4meUWUhPC","LocationType":"point","DisplayPosition":{"Latitude":50.7110046,"Longitude":4.5208314},"MapView":{"TopLeft":{"Latitude":50.74818,"Longitude":4.47713},"BottomRight":{"Latitude":50.69491,"Longitude":4.56715}},"Address":{"Label":"Rixensart, Wallonie, Belgique","Country":"BEL","State":"Wallonie","County":"Brabant Wallon","City":"Rixensart","PostalCode":"1330","AdditionalData":[{"value":"Belgique","key":"CountryName"},{"value":"Wallonie","key":"StateName"},{"value":"Brabant Wallon","key":"CountyName"}]},"MapReference":{"ReferenceId":"799892666","SideOfStreet":"neither","CountryId":"20128886","StateId":"20205526","CountyId":"20208226","CityId":"20208318"}}},{"Relevance":1.0,"Distance":11.4,"MatchLevel":"houseNumber","MatchQuality":{"Country":1.0,"State":1.0,"County":1.0,"City":1.0,"Street":[1.0],"HouseNumber":1.0,"PostalCode":1.0},"MatchType":"interpolated","Location":{"LocationId":"NT_eoG2gbjBcQSnpQJCVqSa2D_1A","LocationType":"point","DisplayPosition":{"Latitude":50.71097,"Longitude":4.52106},"MapView":{"TopLeft":{"Latitude":50.7120942,"Longitude":4.5192847},"BottomRight":{"Latitude":50.7098458,"Longitude":4.5228353}},"Address":{"Label":"Avenue John Kennedy 5, 1330 Rixensart, Belgique","Country":"BEL","State":"Wallonie","County":"Brabant Wallon","City":"Rixensart","Street":"Avenue John Kennedy","HouseNumber":"5","PostalCode":"1330","AdditionalData":[{"value":"Belgique","key":"CountryName"},{"value":"Wallonie","key":"StateName"},{"value":"Brabant Wallon","key":"CountyName"}]},"MapReference":{"ReferenceId":"53743258","Spot":0.36,"SideOfStreet":"left","CountryId":"20128886","StateId":"20205526","CountyId":"20208226","CityId":"20208318","AddressId":"809264166","RoadLinkId":"30368399"}}},{"Relevance":1.0,"Distance":48.5,"MatchLevel":"street","MatchQuality":{"Country":1.0,"State":1.0,"County":1.0,"City":1.0,"Street":[1.0],"PostalCode":1.0},"Location":{"LocationId":"NT_YYZPQ6kzKnHbq4ttnRgpVD_l_53917581_R","LocationType":"point","DisplayPosition":{"Latitude":50.71144,"Longitude":4.5208},"MapView":{"TopLeft":{"Latitude":50.71159,"Longitude":4.5208},"BottomRight":{"Latitude":50.71144,"Longitude":4.52091}},"Address":{"Label":"Avenue de Mérode, 1330 Rixensart, Belgique","Country":"BEL","State":"Wallonie","County":"Brabant Wallon","City":"Rixensart","Street":"Avenue de Mérode","PostalCode":"1330","AdditionalData":[{"value":"Belgique","key":"CountryName"},{"value":"Wallonie","key":"StateName"},{"value":"Brabant Wallon","key":"CountyName"}]},"MapReference":{"ReferenceId":"53917581","Spot":0.0,"SideOfStreet":"right","CountryId":"20128886","StateId":"20205526","CountyId":"20208226","CityId":"20208318"}}},{"Relevance":1.0,"Distance":48.5,"MatchLevel":"street","MatchQuality":{"Country":1.0,"State":1.0,"County":1.0,"City":1.0,"Street":[1.0],"PostalCode":1.0},"Location":{"LocationId":"NT_YYZPQ6kzKnHbq4ttnRgpVD_l_53917582_L","LocationType":"point","DisplayPosition":{"Latitude":50.71144,"Longitude":4.5208},"MapView":{"TopLeft":{"Latitude":50.71154,"Longitude":4.52061},"BottomRight":{"Latitude":50.71144,"Longitude":4.5208}},"Address":{"Label":"Avenue de Mérode, 1330 Rixensart, Belgique","Country":"BEL","State":"Wallonie","County":"Brabant Wallon","City":"Rixensart","Street":"Avenue de Mérode","PostalCode":"1330","AdditionalData":[{"value":"Belgique","key":"CountryName"},{"value":"Wallonie","key":"StateName"},{"value":"Brabant Wallon","key":"CountyName"}]},"MapReference":{"ReferenceId":"53917582","Spot":0.0,"SideOfStreet":"left","CountryId":"20128886","StateId":"20205526","CountyId":"20208226","CityId":"20208318"}}},{"Relevance":1.0,"Distance":49.0,"MatchLevel":"houseNumber","MatchQuality":{"Country":1.0,"State":1.0,"County":1.0,"City":1.0,"Street":[1.0],"HouseNumber":1.0,"PostalCode":1.0},"MatchType":"interpolated","Location":{"LocationId":"NT_eoG2gbjBcQSnpQJCVqSa2D_0A","LocationType":"point","DisplayPosition":{"Latitude":50.71062,"Longitude":4.52117},"MapView":{"TopLeft":{"Latitude":50.7117442,"Longitude":4.5193948},"BottomRight":{"Latitude":50.7094958,"Longitude":4.5229452}},"Address":{"Label":"Avenue John Kennedy 4, 1330 Rixensart, Belgique","Country":"BEL","State":"Wallonie","County":"Brabant Wallon","City":"Rixensart","Street":"Avenue John Kennedy","HouseNumber":"4","PostalCode":"1330","AdditionalData":[{"value":"Belgique","key":"CountryName"},{"value":"Wallonie","key":"StateName"},{"value":"Brabant Wallon","key":"CountyName"}]},"MapReference":{"ReferenceId":"68174627","Spot":0.7,"SideOfStreet":"right","CountryId":"20128886","StateId":"20205526","CountyId":"20208226","CityId":"20208318","AddressId":"369195266","RoadLinkId":"30935238"}}},{"Relevance":1.0,"Distance":52.1,"MatchLevel":"houseNumber","MatchQuality":{"Country":1.0,"State":1.0,"County":1.0,"City":1.0,"Street":[1.0],"HouseNumber":1.0,"PostalCode":1.0},"MatchType":"interpolated","Location":{"LocationId":"NT_kqW6Nu330sA9Y55pxf9u8B_5YF","LocationType":"point","DisplayPosition":{"Latitude":50.71042,"Longitude":4.52047},"MapView":{"TopLeft":{"Latitude":50.7115442,"Longitude":4.5186948},"BottomRight":{"Latitude":50.7092958,"Longitude":4.5222452}},"Address":{"Label":"Rue de Messe 9V, 1330 Rixensart, Belgique","Country":"BEL","State":"Wallonie","County":"Brabant Wallon","City":"Rixensart","Street":"Rue de Messe","HouseNumber":"9V","PostalCode":"1330","AdditionalData":[{"value":"Belgique","key":"CountryName"},{"value":"Wallonie","key":"StateName"},{"value":"Brabant Wallon","key":"CountyName"}]},"MapReference":{"ReferenceId":"972106839","Spot":0.44,"SideOfStreet":"left","CountryId":"20128886","StateId":"20205526","CountyId":"20208226","CityId":"20208318","AddressId":"369270547","RoadLinkId":"308510775"}}},{"Relevance":1.0,"Distance":61.5,"MatchLevel":"street","MatchQuality":{"Country":1.0,"State":1.0,"County":1.0,"City":1.0,"Street":[1.0],"PostalCode":1.0},"Location":{"LocationId":"NT_YYZPQ6kzKnHbq4ttnRgpVD_l_53917580_R","LocationType":"point","DisplayPosition":{"Latitude":50.71154,"Longitude":4.52061},"MapView":{"TopLeft":{"Latitude":50.71161,"Longitude":4.52061},"BottomRight":{"Latitude":50.71154,"Longitude":4.5207}},"Address":{"Label":"Avenue de Mérode, 1330 Rixensart, Belgique","Country":"BEL","State":"Wallonie","County":"Brabant Wallon","City":"Rixensart","Street":"Avenue de Mérode","PostalCode":"1330","AdditionalData":[{"value":"Belgique","key":"CountryName"},{"value":"Wallonie","key":"StateName"},{"value":"Brabant Wallon","key":"CountyName"}]},"MapReference":{"ReferenceId":"53917580","Spot":0.0,"SideOfStreet":"right","CountryId":"20128886","StateId":"20205526","CountyId":"20208226","CityId":"20208318"}}},{"Relevance":1.0,"Distance":68.4,"MatchLevel":"houseNumber","MatchQuality":{"Country":1.0,"State":1.0,"County":1.0,"City":1.0,"Street":[1.0],"HouseNumber":1.0,"PostalCode":1.0},"MatchType":"interpolated","Location":{"LocationId":"NT_YYZPQ6kzKnHbq4ttnRgpVD_5MD","LocationType":"point","DisplayPosition":{"Latitude":50.71162,"Longitude":4.52081},"MapView":{"TopLeft":{"Latitude":50.7127442,"Longitude":4.5190347},"BottomRight":{"Latitude":50.7104958,"Longitude":4.5225853}},"Address":{"Label":"Avenue de Mérode 93, 1330 Rixensart, Belgique","Country":"BEL","State":"Wallonie","County":"Brabant Wallon","City":"Rixensart","Street":"Avenue de Mérode","HouseNumber":"93","PostalCode":"1330","AdditionalData":[{"value":"Belgique","key":"CountryName"},{"value":"Wallonie","key":"StateName"},{"value":"Brabant Wallon","key":"CountyName"}]},"MapReference":{"ReferenceId":"53917579","Spot":0.41,"SideOfStreet":"right","CountryId":"20128886","StateId":"20205526","CountyId":"20208226","CityId":"20208318","AddressId":"369086043","RoadLinkId":"30799137"}}},{"Relevance":1.0,"Distance":68.9,"MatchLevel":"houseNumber","MatchQuality":{"Country":1.0,"State":1.0,"County":1.0,"City":1.0,"Street":[1.0],"HouseNumber":1.0,"PostalCode":1.0},"MatchType":"interpolated","Location":{"LocationId":"NT_YYZPQ6kzKnHbq4ttnRgpVD_4kD","LocationType":"point","DisplayPosition":{"Latitude":50.7116,"Longitude":4.5211},"MapView":{"TopLeft":{"Latitude":50.7127242,"Longitude":4.5193247},"BottomRight":{"Latitude":50.7104758,"Longitude":4.5228753}},"Address":{"Label":"Avenue de Mérode 89, 1330 Rixensart, Belgique","Country":"BEL","State":"Wallonie","County":"Brabant Wallon","City":"Rixensart","Street":"Avenue de Mérode","HouseNumber":"89","PostalCode":"1330","AdditionalData":[{"value":"Belgique","key":"CountryName"},{"value":"Wallonie","key":"StateName"},{"value":"Brabant Wallon","key":"CountyName"}]},"MapReference":{"ReferenceId":"916370188","Spot":0.55,"SideOfStreet":"left","CountryId":"20128886","StateId":"20205526","CountyId":"20208226","CityId":"20208318","AddressId":"368862827","RoadLinkId":"273910458"}}},{"Relevance":1.0,"Distance":77.6,"MatchLevel":"houseNumber","MatchQuality":{"Country":1.0,"State":1.0,"County":1.0,"City":1.0,"Street":[1.0],"HouseNumber":1.0,"PostalCode":1.0},"MatchType":"interpolated","Location":{"LocationId":"NT_YYZPQ6kzKnHbq4ttnRgpVD_4UD","LocationType":"point","DisplayPosition":{"Latitude":50.71163,"Longitude":4.52132},"MapView":{"TopLeft":{"Latitude":50.7127542,"Longitude":4.5195447},"BottomRight":{"Latitude":50.7105058,"Longitude":4.5230953}},"Address":{"Label":"Avenue de Mérode 85, 1330 Rixensart, Belgique","Country":"BEL","State":"Wallonie","County":"Brabant Wallon","City":"Rixensart","Street":"Avenue de Mérode","HouseNumber":"85","PostalCode":"1330","AdditionalData":[{"value":"Belgique","key":"CountryName"},{"value":"Wallonie","key":"StateName"},{"value":"Brabant Wallon","key":"CountyName"}]},"MapReference":{"ReferenceId":"916370189","Spot":0.07,"SideOfStreet":"left","CountryId":"20128886","StateId":"20205526","CountyId":"20208226","CityId":"20208318","AddressId":"368900478","RoadLinkId":"273910459"}}}]}]}}