{"Response":{"MetaInfo":{"Timestamp":"2020-03-28T11:45:39.825+0000","NextPageInformation":"2"},"View":[{"_type":"SearchResultsViewType","ViewId":0,"Result":[{"Relevance":1.0,"Distance":0.0,"Direction":0.0,"MatchLevel":"district","MatchQuality":{"Country":1.0,"State":1.0,"County":1.0,"City":1.0,"District":1.0,"PostalCode":1.0},"Location":{"LocationId":"NT_FmNrYHfteI6Bg2x71WITNB","LocationType":"point","DisplayPosition":{"Latitude":50.7476726,"Longitude":10.8101005},"MapView":{"TopLeft":{"Latitude":50.76097,"Longitude":10.79436},"BottomRight":{"Latitude":50.73187,"Longitude":10.83499}},"Address":{"Label":"Gräfenroda, Geratal, Thüringen, Deutschland","Country":"DEU","State":"Thüringen","County":"Ilm-Kreis","City":"Geratal","District":"Gräfenroda","PostalCode":"99330","AdditionalData":[{"value":"Deutschland","key":"CountryName"},{"value":"Thüringen","key":"StateName"},{"value":"Ilm-Kreis","key":"CountyName"}]},"MapReference":{"ReferenceId":"548071713","SideOfStreet":"neither","CountryId":"20147700","StateId":"20196974","CountyId":"20198413","CityId":"20212350","DistrictId":"20198483"}}},{"Relevance":1.0,"Distance":7.3,"MatchLevel":"houseNumber","MatchQuality":{"Country":1.0,"State":1.0,"County":1.0,"City":1.0,"District":1.0,"Street":[1.0],"HouseNumber":1.0,"PostalCode":1.0},"MatchType":"interpolated","Location":{"LocationId":"NT_YcjVcfTxfGke4yFisg7N3B_xAD","LocationType":"point","DisplayPosition":{"Latitude":50.74765,"Longitude":10.81024},"MapView":{"TopLeft":{"Latitude":50.7487742,"Longitude":10.8084634},"BottomRight":{"Latitude":50.7465258,"Longitude":10.8120166}},"Address":{"Label":"Waldstraße 10, 99330 Geratal, Deutschland","Country":"DEU","State":"Thüringen","County":"Ilm-Kreis","City":"Geratal","District":"Gräfenroda","Street":"Waldstraße","HouseNumber":"10","PostalCode":"99330","AdditionalData":[{"value":"Deutschland","key":"CountryName"},{"value":"Thüringen","key":"StateName"},{"value":"Ilm-Kreis","key":"CountyName"}]},"MapReference":{"ReferenceId":"548071814","Spot":0.61,"SideOfStreet":"left","CountryId":"20147700","StateId":"20196974","CountyId":"20198413","CityId":"20212350","DistrictId":"20198483","AddressId":"189581701","RoadLinkId":"40007694"}}},{"Relevance":1.0,"Distance":29.8,"MatchLevel":"houseNumber","MatchQuality":{"Country":1.0,"State":1.0,"County":1.0,"City":1.0,"District":1.0,"Street":[1.0],"HouseNumber":1.0,"PostalCode":1.0},"MatchType":"interpolated","Location":{"LocationId":"NT_jTSHKmAAvKIFUr3kmDXBbC_yYD","LocationType":"point","DisplayPosition":{"Latitude":50.74809,"Longitude":10.81024},"MapView":{"TopLeft":{"Latitude":50.7492142,"Longitude":10.8084633},"BottomRight":{"Latitude":50.7469658,"Longitude":10.8120167}},"Address":{"Label":"Heinrich-Heine-Straße 26, 99330 Geratal, Deutschland","Country":"DEU","State":"Thüringen","County":"Ilm-Kreis","City":"Geratal","District":"Gräfenroda","Street":"Heinrich-Heine-Straße","HouseNumber":"26","PostalCode":"99330","AdditionalData":[{"value":"Deutschland","key":"CountryName"},{"value":"Thüringen","key":"StateName"},{"value":"Ilm-Kreis","key":"CountyName"}]},"MapReference":{"ReferenceId":"548070706","Spot":0.41,"SideOfStreet":"left","CountryId":"20147700","StateId":"20196974","CountyId":"20198413","CityId":"20212350","DistrictId":"20198483","AddressId":"189291452","RoadLinkId":"39907141"}}},{"Relevance":1.0,"Distance":62.7,"MatchLevel":"houseNumber","MatchQuality":{"Country":1.0,"State":1.0,"County":1.0,"City":1.0,"District":1.0,"Street":[1.0],"HouseNumber":1.0,"PostalCode":1.0},"MatchType":"interpolated","Location":{"LocationId":"NT_N57C8ac1jMF.v9WZR9miCD_yUD","LocationType":"point","DisplayPosition":{"Latitude":50.74781,"Longitude":10.80907},"MapView":{"TopLeft":{"Latitude":50.7489342,"Longitude":10.8072933},"BottomRight":{"Latitude":50.7466858,"Longitude":10.8108467}},"Address":{"Label":"Goethestraße 25, 99330 Geratal, Deutschland","Country":"DEU","State":"Thüringen","County":"Ilm-Kreis","City":"Geratal","District":"Gräfenroda","Street":"Goethestraße","HouseNumber":"25","PostalCode":"99330","AdditionalData":[{"value":"Deutschland","key":"CountryName"},{"value":"Thüringen","key":"StateName"},{"value":"Ilm-Kreis","key":"CountyName"}]},"MapReference":{"ReferenceId":"813580596","Spot":0.48,"SideOfStreet":"right","CountryId":"20147700","StateId":"20196974","CountyId":"20198413","CityId":"20212350","DistrictId":"20198483","AddressId":"249515969","RoadLinkId":"200861233"}}},{"Relevance":1.0,"Distance":64.4,"MatchLevel":"houseNumber","MatchQuality":{"Country":1.0,"State":1.0,"County":1.0,"City":1.0,"District":1.0,"Street":[1.0],"HouseNumber":1.0,"PostalCode":1.0},"MatchType":"interpolated","Location":{"LocationId":"NT_YcjVcfTxfGke4yFisg7N3B_2A","LocationType":"point","DisplayPosition":{"Latitude":50.74796,"Longitude":10.81088},"MapView":{"TopLeft":{"Latitude":50.7490842,"Longitude":10.8091033},"BottomRight":{"Latitude":50.7468358,"Longitude":10.8126567}},"Address":{"Label":"Waldstraße 6, 99330 Geratal, Deutschland","Country":"DEU","State":"Thüringen","County":"Ilm-Kreis","City":"Geratal","District":"Gräfenroda","Street":"Waldstraße","HouseNumber":"6","PostalCode":"99330","AdditionalData":[{"value":"Deutschland","key":"CountryName"},{"value":"Thüringen","key":"StateName"},{"value":"Ilm-Kreis","key":"CountyName"}]},"MapReference":{"ReferenceId":"548071812","Spot":0.2,"SideOfStreet":"left","CountryId":"20147700","StateId":"20196974","CountyId":"20198413","CityId":"20212350","DistrictId":"20198483","AddressId":"189399585","RoadLinkId":"40137121"}}},{"Relevance":1.0,"Distance":89.5,"MatchLevel":"houseNumber","MatchQuality":{"Country":1.0,"State":1.0,"County":1.0,"City":1.0,"District":1.0,"Street":[1.0],"HouseNumber":1.0,"PostalCode":1.0},"MatchType":"interpolated","Location":{"LocationId":"NT_YcjVcfTxfGke4yFisg7N3B_yAD","LocationType":"point","DisplayPosition":{"Latitude":50.74708,"Longitude":10.80924},"MapView":{"TopLeft":{"Latitude":50.7482042,"Longitude":10.8074634},"BottomRight":{"Latitude":50.7459558,"Longitude":10.8110166}},"Address":{"Label":"Waldstraße 20, 99330 Geratal, Deutschland","Country":"DEU","State":"Thüringen","County":"Ilm-Kreis","City":"Geratal","District":"Gräfenroda","Street":"Waldstraße","HouseNumber":"20","PostalCode":"99330","AdditionalData":[{"value":"Deutschland","key":"CountryName"},{"value":"Thüringen","key":"StateName"},{"value":"Ilm-Kreis","key":"CountyName"}]},"MapReference":{"ReferenceId":"548070746","Spot":0.36,"SideOfStreet":"left","CountryId":"20147700","StateId":"20196974","CountyId":"20198413","CityId":"20212350","DistrictId":"20198483","AddressId":"189314411","RoadLinkId":"39635523"}}},{"Relevance":1.0,"Distance":94.1,"MatchLevel":"houseNumber","MatchQuality":{"Country":1.0,"State":1.0,"County":1.0,"City":1.0,"District":1.0,"Street":[1.0],"HouseNumber":1.0,"PostalCode":1.0},"MatchType":"interpolated","Location":{"LocationId":"NT_mcMHdm2WBWh2Zt86vQYaqD_zUD","LocationType":"point","DisplayPosition":{"Latitude":50.74725,"Longitude":10.8087},"MapView":{"TopLeft":{"Latitude":50.7483742,"Longitude":10.8069234},"BottomRight":{"Latitude":50.7461258,"Longitude":10.8104766}},"Address":{"Label":"Schillerstraße 35, 99330 Geratal, Deutschland","Country":"DEU","State":"Thüringen","County":"Ilm-Kreis","City":"Geratal","District":"Gräfenroda","Street":"Schillerstraße","HouseNumber":"35","PostalCode":"99330","AdditionalData":[{"value":"Deutschland","key":"CountryName"},{"value":"Thüringen","key":"StateName"},{"value":"Ilm-Kreis","key":"CountyName"}]},"MapReference":{"ReferenceId":"548070719","Spot":0.52,"SideOfStreet":"right","CountryId":"20147700","StateId":"20196974","CountyId":"20198413","CityId":"20212350","DistrictId":"20198483","AddressId":"189635825","RoadLinkId":"39971326"}}},{"Relevance":1.0,"Distance":102.6,"MatchLevel":"houseNumber","MatchQuality":{"Country":1.0,"State":1.0,"County":1.0,"City":1.0,"District":1.0,"Street":[1.0],"HouseNumber":1.0,"PostalCode":1.0},"MatchType":"interpolated","Location":{"LocationId":"NT_yab8MksYRKsr.OVLtQlErC_yA","LocationType":"point","DisplayPosition":{"Latitude":50.74681,"Longitude":10.81062},"MapView":{"TopLeft":{"Latitude":50.7479342,"Longitude":10.8088434},"BottomRight":{"Latitude":50.7456858,"Longitude":10.8123966}},"Address":{"Label":"An der Keramik 2, 99330 Geratal, Deutschland","Country":"DEU","State":"Thüringen","County":"Ilm-Kreis","City":"Geratal","District":"Gräfenroda","Street":"An der Keramik","HouseNumber":"2","PostalCode":"99330","AdditionalData":[{"value":"Deutschland","key":"CountryName"},{"value":"Thüringen","key":"StateName"},{"value":"Ilm-Kreis","key":"CountyName"}]},"MapReference":{"ReferenceId":"1160158294","Spot":0.0,"SideOfStreet":"left","CountryId":"20147700","StateId":"20196974","CountyId":"20198413","CityId":"20212350","DistrictId":"20198483","AddressId":"732475099","RoadLinkId":"466644384"}}},{"Relevance":1.0,"Distance":115.5,"MatchLevel":"street","MatchQuality":{"Country":1.0,"State":1.0,"County":1.0,"City":1.0,"District":1.0,"PostalCode":1.0},"Location":{"LocationId":"NT_bxsNPFqY2QuIuQkvpnTdhA_l_548070714_R","LocationType":"point","DisplayPosition":{"Latitude":50.74869,"Longitude":10.80977},"MapView":{"TopLeft":{"Latitude":50.74869,"Longitude":10.8088},"BottomRight":{"Latitude":50.74851,"Longitude":10.80977}},"Address":{"Label":"99330 Geratal, Deutschland","Country":"DEU","State":"Thüringen","County":"Ilm-Kreis","City":"Geratal","District":"Gräfenroda","PostalCode":"99330","AdditionalData":[{"value":"Deutschland","key":"CountryName"},{"value":"Thüringen","key":"StateName"},{"value":"Ilm-Kreis","key":"CountyName"}]},"MapReference":{"ReferenceId":"548070714","Spot":1.0,"SideOfStreet":"right","CountryId":"20147700","StateId":"20196974","CountyId":"20198413","CityId":"20212350","DistrictId":"20198483"}}},{"Relevance":1.0,"Distance":115.6,"MatchLevel":"houseNumber","MatchQuality":{"Country":1.0,"State":1.0,"County":1.0,"City":1.0,"District":1.0,"Street":[1.0],"HouseNumber":1.0,"PostalCode":1.0},"MatchType":"interpolated","Location":{"LocationId":"NT_YcjVcfTxfGke4yFisg7N3B_xkD","LocationType":"point","DisplayPosition":{"Latitude":50.7469,"Longitude":10.809},"MapView":{"TopLeft":{"Latitude":50.7480242,"Longitude":10.8072234},"BottomRight":{"Latitude":50.7457758,"Longitude":10.8107766}},"Address":{"Label":"Waldstraße 19, 99330 Geratal, Deutschland","Country":"DEU","State":"Thüringen","County":"Ilm-Kreis","City":"Geratal","District":"Gräfenroda","Street":"Waldstraße","HouseNumber":"19","PostalCode":"99330","AdditionalData":[{"value":"Deutschland","key":"CountryName"},{"value":"Thüringen","key":"StateName"},{"value":"Ilm-Kreis","key":"CountyName"}]},"MapReference":{"ReferenceId":"781464217","Spot":0.89,"SideOfStreet":"right","CountryId":"20147700","StateId":"20196974","CountyId":"20198413","CityId":"20212350","DistrictId":"20198483","AddressId":"189243290","RoadLinkId":"174382922"}}}]}]}}