{"Response":{"MetaInfo":{"Timestamp":"2020-03-28T10:20:59.147+0000","NextPageInformation":"2"},"View":[{"_type":"SearchResultsViewType","ViewId":0,"Result":[{"Relevance":1.0,"Distance":-19.4,"MatchLevel":"landmark","MatchQuality":{"Country":1.0,"State":1.0,"County":1.0,"City":1.0,"District":1.0,"PostalCode":1.0,"Name":1.0},"Location":{"LocationId":"NT_G72m7AXLUN367s-RePcRsB","LocationType":"industrialComplex","Name":"Gewerbegebiet Industriestraße","DisplayPosition":{"Latitude":50.77019,"Longitude":8.58816},"MapView":{"TopLeft":{"Latitude":50.77248,"Longitude":8.58418},"BottomRight":{"Latitude":50.7679,"Longitude":8.59167}},"Address":{"Label":"35075 Gladenbach, Deutschland","Country":"DEU","State":"Hessen","County":"Marburg-Biedenkopf","City":"Gladenbach","District":"Gladenbach","PostalCode":"35075","AdditionalData":[{"value":"Deutschland","key":"CountryName"},{"value":"Hessen","key":"StateName"},{"value":"Marburg-Biedenkopf","key":"CountyName"}]},"MapReference":{"CountryId":"20147700","StateId":"20160993","CountyId":"20162617","CityId":"20162690","DistrictId":"20162696","PlaceId":"1410240472"}}},{"Relevance":1.0,"Distance":0.0,"Direction":0.0,"MatchLevel":"district","MatchQuality":{"Country":1.0,"State":1.0,"County":1.0,"City":1.0,"District":1.0,"PostalCode":1.0},"Location":{"LocationId":"NT_.dKbuJW6pkk16akLPlKJ8C","LocationType":"point","DisplayPosition":{"Latitude":50.7685883,"Longitude":8.584725},"MapView":{"TopLeft":{"Latitude":50.77607,"Longitude":8.5683},"BottomRight":{"Latitude":50.75603,"Longitude":8.59336}},"Address":{"Label":"Gladenbach, Hessen, Deutschland","Country":"DEU","State":"Hessen","County":"Marburg-Biedenkopf","City":"Gladenbach","District":"Gladenbach","PostalCode":"35075","AdditionalData":[{"value":"Deutschland","key":"CountryName"},{"value":"Hessen","key":"StateName"},{"value":"Marburg-Biedenkopf","key":"CountyName"}]},"MapReference":{"ReferenceId":"78678905","SideOfStreet":"neither","CountryId":"20147700","StateId":"20160993","CountyId":"20162617","CityId":"20162690","DistrictId":"20162696"}}},{"Relevance":1.0,"Distance":11.5,"MatchLevel":"houseNumber","MatchQuality":{"Country":1.0,"State":1.0,"County":1.0,"City":1.0,"District":1.0,"Street":[1.0],"HouseNumber":1.0,"PostalCode":1.0},"MatchType":"interpolated","Location":{"LocationId":"NT_FcAbeEbUMu7PozNPxY3xZC_xMD","LocationType":"point","DisplayPosition":{"Latitude":50.76847,"Longitude":8.58452},"MapView":{"TopLeft":{"Latitude":50.7695942,"Longitude":8.5827426},"BottomRight":{"Latitude":50.7673458,"Longitude":8.5862974}},"Address":{"Label":"Bahnhofstraße 13, 35075 Gladenbach, Deutschland","Country":"DEU","State":"Hessen","County":"Marburg-Biedenkopf","City":"Gladenbach","District":"Gladenbach","Street":"Bahnhofstraße","HouseNumber":"13","PostalCode":"35075","AdditionalData":[{"value":"Deutschland","key":"CountryName"},{"value":"Hessen","key":"StateName"},{"value":"Marburg-Biedenkopf","key":"CountyName"}]},"MapReference":{"ReferenceId":"61982627","Spot":0.58,"SideOfStreet":"right","CountryId":"20147700","StateId":"20160993","CountyId":"20162617","CityId":"20162690","DistrictId":"20162696","AddressId":"732607668","RoadLinkId":"34570438"}}},{"Relevance":1.0,"Distance":21.8,"MatchLevel":"houseNumber","MatchQuality":{"Country":1.0,"State":1.0,"County":1.0,"City":1.0,"District":1.0,"Street":[1.0],"HouseNumber":1.0,"PostalCode":1.0},"MatchType":"interpolated","Location":{"LocationId":"NT_FcAbeEbUMu7PozNPxY3xZC_5A","LocationType":"point","DisplayPosition":{"Latitude":50.76864,"Longitude":8.58435},"MapView":{"TopLeft":{"Latitude":50.7697642,"Longitude":8.5825726},"BottomRight":{"Latitude":50.7675158,"Longitude":8.5861274}},"Address":{"Label":"Bahnhofstraße 9, 35075 Gladenbach, Deutschland","Country":"DEU","State":"Hessen","County":"Marburg-Biedenkopf","City":"Gladenbach","District":"Gladenbach","Street":"Bahnhofstraße","HouseNumber":"9","PostalCode":"35075","AdditionalData":[{"value":"Deutschland","key":"CountryName"},{"value":"Hessen","key":"StateName"},{"value":"Marburg-Biedenkopf","key":"CountyName"}]},"MapReference":{"ReferenceId":"61982730","Spot":0.4,"SideOfStreet":"right","CountryId":"20147700","StateId":"20160993","CountyId":"20162617","CityId":"20162690","DistrictId":"20162696","AddressId":"186676930","RoadLinkId":"34794708"}}},{"Relevance":1.0,"Distance":36.5,"MatchLevel":"houseNumber","MatchQuality":{"Country":1.0,"State":1.0,"County":1.0,"City":1.0,"District":1.0,"Street":[1.0],"HouseNumber":1.0,"PostalCode":1.0},"MatchType":"interpolated","Location":{"LocationId":"NT_FcAbeEbUMu7PozNPxY3xZC_xUD","LocationType":"point","DisplayPosition":{"Latitude":50.76825,"Longitude":8.58456},"MapView":{"TopLeft":{"Latitude":50.7693742,"Longitude":8.5827826},"BottomRight":{"Latitude":50.7671258,"Longitude":8.5863374}},"Address":{"Label":"Bahnhofstraße 15, 35075 Gladenbach, Deutschland","Country":"DEU","State":"Hessen","County":"Marburg-Biedenkopf","City":"Gladenbach","District":"Gladenbach","Street":"Bahnhofstraße","HouseNumber":"15","PostalCode":"35075","AdditionalData":[{"value":"Deutschland","key":"CountryName"},{"value":"Hessen","key":"StateName"},{"value":"Marburg-Biedenkopf","key":"CountyName"}]},"MapReference":{"ReferenceId":"61982413","Spot":0.91,"SideOfStreet":"right","CountryId":"20147700","StateId":"20160993","CountyId":"20162617","CityId":"20162690","DistrictId":"20162696","AddressId":"186644245","RoadLinkId":"34325907"}}},{"Relevance":1.0,"Distance":39.9,"MatchLevel":"houseNumber","MatchQuality":{"Country":1.0,"State":1.0,"County":1.0,"City":1.0,"District":1.0,"Street":[1.0],"HouseNumber":1.0,"PostalCode":1.0},"MatchType":"interpolated","Location":{"LocationId":"NT_Ky63mkpexkA0.1z7kdQYyD_xA","LocationType":"point","DisplayPosition":{"Latitude":50.76826,"Longitude":8.58502},"MapView":{"TopLeft":{"Latitude":50.7693842,"Longitude":8.5832426},"BottomRight":{"Latitude":50.7671358,"Longitude":8.5867974}},"Address":{"Label":"Schlachthausweg 1, 35075 Gladenbach, Deutschland","Country":"DEU","State":"Hessen","County":"Marburg-Biedenkopf","City":"Gladenbach","District":"Gladenbach","Street":"Schlachthausweg","HouseNumber":"1","PostalCode":"35075","AdditionalData":[{"value":"Deutschland","key":"CountryName"},{"value":"Hessen","key":"StateName"},{"value":"Marburg-Biedenkopf","key":"CountyName"}]},"MapReference":{"ReferenceId":"61982628","Spot":0.68,"SideOfStreet":"right","CountryId":"20147700","StateId":"20160993","CountyId":"20162617","CityId":"20162690","DistrictId":"20162696","AddressId":"187053215","RoadLinkId":"34123175"}}},{"Relevance":1.0,"Distance":49.4,"MatchLevel":"houseNumber","MatchQuality":{"Country":1.0,"State":1.0,"County":1.0,"City":1.0,"District":1.0,"Street":[1.0],"HouseNumber":1.0,"PostalCode":1.0},"MatchType":"interpolated","Location":{"LocationId":"NT_STslO.YTTsAgMIsBvtMzJB_yA","LocationType":"point","DisplayPosition":{"Latitude":50.76909,"Longitude":8.58451},"MapView":{"TopLeft":{"Latitude":50.7702142,"Longitude":8.5827325},"BottomRight":{"Latitude":50.7679658,"Longitude":8.5862875}},"Address":{"Label":"Adolf-Theis-Straße 2, 35075 Gladenbach, Deutschland","Country":"DEU","State":"Hessen","County":"Marburg-Biedenkopf","City":"Gladenbach","District":"Gladenbach","Street":"Adolf-Theis-Straße","HouseNumber":"2","PostalCode":"35075","AdditionalData":[{"value":"Deutschland","key":"CountryName"},{"value":"Hessen","key":"StateName"},{"value":"Marburg-Biedenkopf","key":"CountyName"}]},"MapReference":{"ReferenceId":"61982731","Spot":0.21,"SideOfStreet":"right","CountryId":"20147700","StateId":"20160993","CountyId":"20162617","CityId":"20162690","DistrictId":"20162696","AddressId":"187475335","RoadLinkId":"34521502"}}},{"Relevance":1.0,"Distance":55.0,"MatchLevel":"houseNumber","MatchQuality":{"Country":1.0,"State":1.0,"County":1.0,"City":1.0,"District":1.0,"Street":[1.0],"HouseNumber":1.0,"PostalCode":1.0},"MatchType":"interpolated","Location":{"LocationId":"NT_FcAbeEbUMu7PozNPxY3xZC_3A","LocationType":"point","DisplayPosition":{"Latitude":50.76887,"Longitude":8.58407},"MapView":{"TopLeft":{"Latitude":50.7699942,"Longitude":8.5822925},"BottomRight":{"Latitude":50.7677458,"Longitude":8.5858475}},"Address":{"Label":"Bahnhofstraße 7, 35075 Gladenbach, Deutschland","Country":"DEU","State":"Hessen","County":"Marburg-Biedenkopf","City":"Gladenbach","District":"Gladenbach","Street":"Bahnhofstraße","HouseNumber":"7","PostalCode":"35075","AdditionalData":[{"value":"Deutschland","key":"CountryName"},{"value":"Hessen","key":"StateName"},{"value":"Marburg-Biedenkopf","key":"CountyName"}]},"MapReference":{"ReferenceId":"61982414","Spot":0.11,"SideOfStreet":"right","CountryId":"20147700","StateId":"20160993","CountyId":"20162617","CityId":"20162690","DistrictId":"20162696","AddressId":"186679141","RoadLinkId":"34514914"}}},{"Relevance":1.0,"Distance":55.3,"MatchLevel":"houseNumber","MatchQuality":{"Country":1.0,"State":1.0,"County":1.0,"City":1.0,"District":1.0,"Street":[1.0],"HouseNumber":1.0,"PostalCode":1.0},"MatchType":"interpolated","Location":{"LocationId":"NT_7UEyR8G9KacdLQBCImzDUC_5A","LocationType":"point","DisplayPosition":{"Latitude":50.76823,"Longitude":8.58418},"MapView":{"TopLeft":{"Latitude":50.7693542,"Longitude":8.5824026},"BottomRight":{"Latitude":50.7671058,"Longitude":8.5859574}},"Address":{"Label":"An der Martinskirche 9, 35075 Gladenbach, Deutschland","Country":"DEU","State":"Hessen","County":"Marburg-Biedenkopf","City":"Gladenbach","District":"Gladenbach","Street":"An der Martinskirche","HouseNumber":"9","PostalCode":"35075","AdditionalData":[{"value":"Deutschland","key":"CountryName"},{"value":"Hessen","key":"StateName"},{"value":"Marburg-Biedenkopf","key":"CountyName"}]},"MapReference":{"ReferenceId":"61982467","Spot":0.81,"SideOfStreet":"left","CountryId":"20147700","StateId":"20160993","CountyId":"20162617","CityId":"20162690","DistrictId":"20162696","AddressId":"187579222","RoadLinkId":"34625460"}}},{"Relevance":1.0,"Distance":114.3,"MatchLevel":"houseNumber","MatchQuality":{"Country":1.0,"State":1.0,"County":1.0,"City":1.0,"District":1.0,"Street":[1.0],"HouseNumber":1.0,"PostalCode":1.0},"MatchType":"interpolated","Location":{"LocationId":"NT_4u0mteqri-piaz7pwOw5yC_xcD","LocationType":"point","DisplayPosition":{"Latitude":50.76797,"Longitude":8.58614},"MapView":{"TopLeft":{"Latitude":50.7690942,"Longitude":8.5843626},"BottomRight":{"Latitude":50.7668458,"Longitude":8.5879174}},"Address":{"Label":"Bornsbachstraße 17, 35075 Gladenbach, Deutschland","Country":"DEU","State":"Hessen","County":"Marburg-Biedenkopf","City":"Gladenbach","District":"Gladenbach","Street":"Bornsbachstraße","HouseNumber":"17","PostalCode":"35075","AdditionalData":[{"value":"Deutschland","key":"CountryName"},{"value":"Hessen","key":"StateName"},{"value":"Marburg-Biedenkopf","key":"CountyName"}]},"MapReference":{"ReferenceId":"61982582","Spot":0.11,"SideOfStreet":"left","CountryId":"20147700","StateId":"20160993","CountyId":"20162617","CityId":"20162690","DistrictId":"20162696","AddressId":"187429915","RoadLinkId":"34033792"}}}]}]}}