{"Response":{"MetaInfo":{"Timestamp":"2020-03-28T10:10:49.246+0000","NextPageInformation":"2"},"View":[{"_type":"SearchResultsViewType","ViewId":0,"Result":[{"Relevance":1.0,"Distance":0.0,"Direction":0.0,"MatchLevel":"district","MatchQuality":{"Country":1.0,"State":1.0,"County":1.0,"City":1.0,"District":1.0,"PostalCode":1.0},"Location":{"LocationId":"NT_86qMg7CTA-E-.k4fn4Z9WB","LocationType":"point","DisplayPosition":{"Latitude":50.7239289,"Longitude":-3.5185497},"MapView":{"TopLeft":{"Latitude":50.75197,"Longitude":-3.57357},"BottomRight":{"Latitude":50.69031,"Longitude":-3.45693}},"Address":{"Label":"Exeter, England, United Kingdom","Country":"GBR","State":"England","County":"Devon","City":"Exeter","District":"Exeter","PostalCode":"EX1 1","AdditionalData":[{"value":"United Kingdom","key":"CountryName"},{"value":"England","key":"StateName"},{"value":"Devon","key":"CountyName"}]},"MapReference":{"ReferenceId":"877978687","SideOfStreet":"neither","StateId":"20248595","CountyId":"20353913","CityId":"20354201","DistrictId":"20354202"}}},{"Relevance":1.0,"Distance":9.3,"MatchLevel":"houseNumber","MatchQuality":{"Country":1.0,"State":1.0,"County":1.0,"City":1.0,"District":1.0,"Street":[1.0],"HouseNumber":1.0,"PostalCode":1.0},"MatchType":"interpolated","Location":{"LocationId":"NT_NRV4ZhEojJUKT7cYmeXN2D_l_1119749396_L_3ID","LocationType":"point","DisplayPosition":{"Latitude":50.72401,"Longitude":-3.51842},"MapView":{"TopLeft":{"Latitude":50.7251342,"Longitude":-3.5201958},"BottomRight":{"Latitude":50.7228859,"Longitude":-3.5166443}},"Address":{"Label":"72 Heavitree Road, Exeter, EX1 2LP, United Kingdom","Country":"GBR","State":"England","County":"Devon","City":"Exeter","District":"Exeter","Street":"Heavitree Road","HouseNumber":"72","PostalCode":"EX1 2LP","AdditionalData":[{"value":"United Kingdom","key":"CountryName"},{"value":"England","key":"StateName"},{"value":"Devon","key":"CountyName"}]},"MapReference":{"ReferenceId":"1119749396","Spot":0.5,"SideOfStreet":"left","StateId":"20248595","CountyId":"20353913","CityId":"20354201","DistrictId":"20354202"}}},{"Relevance":1.0,"Distance":14.0,"MatchLevel":"houseNumber","MatchQuality":{"Country":1.0,"State":1.0,"County":1.0,"City":1.0,"District":1.0,"Street":[1.0],"HouseNumber":1.0,"PostalCode":1.0},"MatchType":"interpolated","Location":{"LocationId":"NT_NRV4ZhEojJUKT7cYmeXN2D_l_1119749397_L_3AD","LocationType":"point","DisplayPosition":{"Latitude":50.7240901,"Longitude":-3.5187104},"MapView":{"TopLeft":{"Latitude":50.7252142,"Longitude":-3.5204861},"BottomRight":{"Latitude":50.7229659,"Longitude":-3.5169346}},"Address":{"Label":"70 Heavitree Road, Exeter, EX1 2, United Kingdom","Country":"GBR","State":"England","County":"Devon","City":"Exeter","District":"Exeter","Street":"Heavitree Road","HouseNumber":"70","PostalCode":"EX1 2","AdditionalData":[{"value":"United Kingdom","key":"CountryName"},{"value":"England","key":"StateName"},{"value":"Devon","key":"CountyName"}]},"MapReference":{"ReferenceId":"1119749397","Spot":0.5,"SideOfStreet":"left","StateId":"20248595","CountyId":"20353913","CityId":"20354201","DistrictId":"20354202"}}},{"Relevance":1.0,"Distance":17.2,"MatchLevel":"houseNumber","MatchQuality":{"Country":1.0,"State":1.0,"County":1.0,"City":1.0,"District":1.0,"Street":[1.0],"HouseNumber":1.0,"PostalCode":1.0},"MatchType":"interpolated","Location":{"LocationId":"NT_NRV4ZhEojJUKT7cYmeXN2D_l_565696815_L_2AD","LocationType":"point","DisplayPosition":{"Latitude":50.7241,"Longitude":-3.5187501},"MapView":{"TopLeft":{"Latitude":50.7252242,"Longitude":-3.5205258},"BottomRight":{"Latitude":50.7229759,"Longitude":-3.5169743}},"Address":{"Label":"60 Heavitree Road, Exeter, EX1 2LQ, United Kingdom","Country":"GBR","State":"England","County":"Devon","City":"Exeter","District":"Exeter","Street":"Heavitree Road","HouseNumber":"60","PostalCode":"EX1 2LQ","AdditionalData":[{"value":"United Kingdom","key":"CountryName"},{"value":"England","key":"StateName"},{"value":"Devon","key":"CountyName"}]},"MapReference":{"ReferenceId":"565696815","Spot":0.0,"SideOfStreet":"left","StateId":"20248595","CountyId":"20353913","CityId":"20354201","DistrictId":"20354202"}}},{"Relevance":1.0,"Distance":17.6,"MatchLevel":"houseNumber","MatchQuality":{"Country":1.0,"State":1.0,"County":1.0,"City":1.0,"District":1.0,"Street":[1.0],"HouseNumber":1.0,"PostalCode":1.0},"MatchType":"interpolated","Location":{"LocationId":"NT_h0I1bHq4Pup7uSmBMBYCiB_l_863853552_R_yA","LocationType":"point","DisplayPosition":{"Latitude":50.7239207,"Longitude":-3.5188745},"MapView":{"TopLeft":{"Latitude":50.7250448,"Longitude":-3.5206503},"BottomRight":{"Latitude":50.7227965,"Longitude":-3.5170988}},"Address":{"Label":"2 Spicer Road, Exeter, EX1 1SX, United Kingdom","Country":"GBR","State":"England","County":"Devon","City":"Exeter","District":"Exeter","Street":"Spicer Road","HouseNumber":"2","PostalCode":"EX1 1SX","AdditionalData":[{"value":"United Kingdom","key":"CountryName"},{"value":"England","key":"StateName"},{"value":"Devon","key":"CountyName"}]},"MapReference":{"ReferenceId":"863853552","Spot":0.5,"SideOfStreet":"right","StateId":"20248595","CountyId":"20353913","CityId":"20354201","DistrictId":"20354202"}}},{"Relevance":1.0,"Distance":18.8,"MatchLevel":"street","MatchQuality":{"Country":1.0,"State":1.0,"County":1.0,"City":1.0,"District":1.0,"PostalCode":1.0},"Location":{"LocationId":"NT_wjjirfe7fC6muC9cEt3YLB_l_1119749400_R","LocationType":"point","DisplayPosition":{"Latitude":50.72408,"Longitude":-3.51867},"MapView":{"TopLeft":{"Latitude":50.72421,"Longitude":-3.51867},"BottomRight":{"Latitude":50.72408,"Longitude":-3.5186}},"Address":{"Label":"Exeter, EX1 2, United Kingdom","Country":"GBR","State":"England","County":"Devon","City":"Exeter","District":"Exeter","PostalCode":"EX1 2","AdditionalData":[{"value":"United Kingdom","key":"CountryName"},{"value":"England","key":"StateName"},{"value":"Devon","key":"CountyName"}]},"MapReference":{"ReferenceId":"1119749400","Spot":0.0,"SideOfStreet":"right","StateId":"20248595","CountyId":"20353913","CityId":"20354201","DistrictId":"20354202"}}},{"Relevance":1.0,"Distance":27.0,"MatchLevel":"street","MatchQuality":{"Country":1.0,"State":1.0,"County":1.0,"City":1.0,"District":1.0,"Street":[1.0],"PostalCode":1.0},"Location":{"LocationId":"NT_sCsdwSV9X4lHCLcUQmLEeB_l_1119749403_L","LocationType":"point","DisplayPosition":{"Latitude":50.72396,"Longitude":-3.51817},"MapView":{"TopLeft":{"Latitude":50.72473,"Longitude":-3.51817},"BottomRight":{"Latitude":50.72396,"Longitude":-3.51791}},"Address":{"Label":"Higher Summerlands, Exeter, EX1 2, United Kingdom","Country":"GBR","State":"England","County":"Devon","City":"Exeter","District":"Exeter","Street":"Higher Summerlands","PostalCode":"EX1 2","AdditionalData":[{"value":"United Kingdom","key":"CountryName"},{"value":"England","key":"StateName"},{"value":"Devon","key":"CountyName"}]},"MapReference":{"ReferenceId":"1119749403","Spot":0.0,"SideOfStreet":"left","StateId":"20248595","CountyId":"20353913","CityId":"20354201","DistrictId":"20354202"}}},{"Relevance":1.0,"Distance":31.5,"MatchLevel":"street","MatchQuality":{"Country":1.0,"State":1.0,"County":1.0,"City":1.0,"District":1.0,"PostalCode":1.0},"Location":{"LocationId":"NT_wjjirfe7fC6muC9cEt3YLB_l_1119749401_R","LocationType":"point","DisplayPosition":{"Latitude":50.72421,"Longitude":-3.5186},"MapView":{"TopLeft":{"Latitude":50.72488,"Longitude":-3.5186},"BottomRight":{"Latitude":50.72421,"Longitude":-3.51834}},"Address":{"Label":"Exeter, EX1 2, United Kingdom","Country":"GBR","State":"England","County":"Devon","City":"Exeter","District":"Exeter","PostalCode":"EX1 2","AdditionalData":[{"value":"United Kingdom","key":"CountryName"},{"value":"England","key":"StateName"},{"value":"Devon","key":"CountyName"}]},"MapReference":{"ReferenceId":"1119749401","Spot":0.0,"SideOfStreet":"right","StateId":"20248595","CountyId":"20353913","CityId":"20354201","DistrictId":"20354202"}}},{"Relevance":1.0,"Distance":31.5,"MatchLevel":"street","MatchQuality":{"Country":1.0,"State":1.0,"County":1.0,"City":1.0,"District":1.0,"PostalCode":1.0},"Location":{"LocationId":"NT_wjjirfe7fC6muC9cEt3YLB_l_1119749402_L","LocationType":"point","DisplayPosition":{"Latitude":50.72421,"Longitude":-3.5186},"MapView":{"TopLeft":{"Latitude":50.72432,"Longitude":-3.51903},"BottomRight":{"Latitude":50.72421,"Longitude":-3.5186}},"Address":{"Label":"Exeter, EX1 2, United Kingdom","Country":"GBR","State":"England","County":"Devon","City":"Exeter","District":"Exeter","PostalCode":"EX1 2","AdditionalData":[{"value":"United Kingdom","key":"CountryName"},{"value":"England","key":"StateName"},{"value":"Devon","key":"CountyName"}]},"MapReference":{"ReferenceId":"1119749402","Spot":0.0,"SideOfStreet":"left","StateId":"20248595","CountyId":"20353913","CityId":"20354201","DistrictId":"20354202"}}},{"Relevance":1.0,"Distance":38.0,"MatchLevel":"street","MatchQuality":{"Country":1.0,"State":1.0,"County":1.0,"City":1.0,"District":1.0,"Street":[1.0],"PostalCode":1.0},"Location":{"LocationId":"NT_cJz2NgDFwhja9GzweI9R3D_l_863853553_R","LocationType":"point","DisplayPosition":{"Latitude":50.72375,"Longitude":-3.51901},"MapView":{"TopLeft":{"Latitude":50.72435,"Longitude":-3.52103},"BottomRight":{"Latitude":50.72375,"Longitude":-3.51901}},"Address":{"Label":"Summerlands Court, Exeter, EX1 1, United Kingdom","Country":"GBR","State":"England","County":"Devon","City":"Exeter","District":"Exeter","Street":"Summerlands Court","PostalCode":"EX1 1","AdditionalData":[{"value":"United Kingdom","key":"CountryName"},{"value":"England","key":"StateName"},{"value":"Devon","key":"CountyName"}]},"MapReference":{"ReferenceId":"863853553","Spot":0.0,"SideOfStreet":"right","StateId":"20248595","CountyId":"20353913","CityId":"20354201","DistrictId":"20354202"}}}]}]}}