{"Response":{"MetaInfo":{"Timestamp":"2020-03-28T11:44:46.088+0000","NextPageInformation":"2"},"View":[{"_type":"SearchResultsViewType","ViewId":0,"Result":[{"Relevance":1.0,"Distance":0.0,"Direction":0.0,"MatchLevel":"district","MatchQuality":{"Country":1.0,"State":1.0,"County":1.0,"City":1.0,"District":1.0,"PostalCode":1.0},"Location":{"LocationId":"NT_c6zsuKx26tBFsqdh1dqWMB","LocationType":"point","DisplayPosition":{"Latitude":50.7808293,"Longitude":7.5100492},"MapView":{"TopLeft":{"Latitude":50.78537,"Longitude":7.50492},"BottomRight":{"Latitude":50.77507,"Longitude":7.51971}},"Address":{"Label":"Herchen, Windeck, Nordrhein-Westfalen, Deutschland","Country":"DEU","State":"Nordrhein-Westfalen","County":"Rhein-Sieg-Kreis","City":"Windeck","District":"Herchen","PostalCode":"51570","AdditionalData":[{"value":"Deutschland","key":"CountryName"},{"value":"Nordrhein-Westfalen","key":"StateName"},{"value":"Rhein-Sieg-Kreis","key":"CountyName"}]},"MapReference":{"ReferenceId":"77178494","SideOfStreet":"neither","CountryId":"20147700","StateId":"20157369","CountyId":"20158889","CityId":"20159053","DistrictId":"20241851"}}},{"Relevance":1.0,"Distance":12.5,"MatchLevel":"houseNumber","MatchQuality":{"Country":1.0,"State":1.0,"County":1.0,"City":1.0,"District":1.0,"Street":[1.0],"HouseNumber":1.0,"PostalCode":1.0},"MatchType":"interpolated","Location":{"LocationId":"NT_LbnmYTVWu3QZKecJliQuHA_zQD","LocationType":"point","DisplayPosition":{"Latitude":50.7807,"Longitude":7.51019},"MapView":{"TopLeft":{"Latitude":50.7818242,"Longitude":7.5084121},"BottomRight":{"Latitude":50.7795758,"Longitude":7.5119679}},"Address":{"Label":"Siegtalstraße 34, 51570 Windeck, Deutschland","Country":"DEU","State":"Nordrhein-Westfalen","County":"Rhein-Sieg-Kreis","City":"Windeck","District":"Herchen","Street":"Siegtalstraße","HouseNumber":"34","PostalCode":"51570","AdditionalData":[{"value":"Deutschland","key":"CountryName"},{"value":"Nordrhein-Westfalen","key":"StateName"},{"value":"Rhein-Sieg-Kreis","key":"CountyName"}]},"MapReference":{"ReferenceId":"536938632","Spot":0.71,"SideOfStreet":"left","CountryId":"20147700","StateId":"20157369","CountyId":"20158889","CityId":"20159053","DistrictId":"20241851","AddressId":"195338757","RoadLinkId":"39049095"}}},{"Relevance":1.0,"Distance":35.8,"MatchLevel":"houseNumber","MatchQuality":{"Country":1.0,"State":1.0,"County":1.0,"City":1.0,"District":1.0,"Street":[1.0],"HouseNumber":1.0,"PostalCode":1.0},"MatchType":"interpolated","Location":{"LocationId":"NT_LbnmYTVWu3QZKecJliQuHA_zID","LocationType":"point","DisplayPosition":{"Latitude":50.78073,"Longitude":7.51059},"MapView":{"TopLeft":{"Latitude":50.7818542,"Longitude":7.5088121},"BottomRight":{"Latitude":50.7796058,"Longitude":7.5123679}},"Address":{"Label":"Siegtalstraße 32, 51570 Windeck, Deutschland","Country":"DEU","State":"Nordrhein-Westfalen","County":"Rhein-Sieg-Kreis","City":"Windeck","District":"Herchen","Street":"Siegtalstraße","HouseNumber":"32","PostalCode":"51570","AdditionalData":[{"value":"Deutschland","key":"CountryName"},{"value":"Nordrhein-Westfalen","key":"StateName"},{"value":"Rhein-Sieg-Kreis","key":"CountyName"}]},"MapReference":{"ReferenceId":"536938634","Spot":0.13,"SideOfStreet":"left","CountryId":"20147700","StateId":"20157369","CountyId":"20158889","CityId":"20159053","DistrictId":"20241851","AddressId":"195647481","RoadLinkId":"39443053"}}},{"Relevance":1.0,"Distance":60.1,"MatchLevel":"houseNumber","MatchQuality":{"Country":1.0,"State":1.0,"County":1.0,"City":1.0,"District":1.0,"Street":[1.0],"HouseNumber":1.0,"PostalCode":1.0},"MatchType":"interpolated","Location":{"LocationId":"NT_yOOSqBkoCeVOV-PWMqyPQD_2A","LocationType":"point","DisplayPosition":{"Latitude":50.78143,"Longitude":7.50978},"MapView":{"TopLeft":{"Latitude":50.7825542,"Longitude":7.5080021},"BottomRight":{"Latitude":50.7803058,"Longitude":7.5115579}},"Address":{"Label":"Am Knippen 6, 51570 Windeck, Deutschland","Country":"DEU","State":"Nordrhein-Westfalen","County":"Rhein-Sieg-Kreis","City":"Windeck","District":"Herchen","Street":"Am Knippen","HouseNumber":"6","PostalCode":"51570","AdditionalData":[{"value":"Deutschland","key":"CountryName"},{"value":"Nordrhein-Westfalen","key":"StateName"},{"value":"Rhein-Sieg-Kreis","key":"CountyName"}]},"MapReference":{"ReferenceId":"1255459286","Spot":0.87,"SideOfStreet":"right","CountryId":"20147700","StateId":"20157369","CountyId":"20158889","CityId":"20159053","DistrictId":"20241851","AddressId":"194474159","RoadLinkId":"578902375"}}},{"Relevance":1.0,"Distance":70.9,"MatchLevel":"houseNumber","MatchQuality":{"Country":1.0,"State":1.0,"County":1.0,"City":1.0,"District":1.0,"Street":[1.0],"HouseNumber":1.0,"PostalCode":1.0},"MatchType":"interpolated","Location":{"LocationId":"NT_iR09gP.A6meWm2SxNFpL.D_yA","LocationType":"point","DisplayPosition":{"Latitude":50.78065,"Longitude":7.51113},"MapView":{"TopLeft":{"Latitude":50.7817742,"Longitude":7.5093521},"BottomRight":{"Latitude":50.7795258,"Longitude":7.5129079}},"Address":{"Label":"Zur Alten Schmiede 2, 51570 Windeck, Deutschland","Country":"DEU","State":"Nordrhein-Westfalen","County":"Rhein-Sieg-Kreis","City":"Windeck","District":"Herchen","Street":"Zur Alten Schmiede","HouseNumber":"2","PostalCode":"51570","AdditionalData":[{"value":"Deutschland","key":"CountryName"},{"value":"Nordrhein-Westfalen","key":"StateName"},{"value":"Rhein-Sieg-Kreis","key":"CountyName"}]},"MapReference":{"ReferenceId":"77178503","Spot":0.83,"SideOfStreet":"left","CountryId":"20147700","StateId":"20157369","CountyId":"20158889","CityId":"20159053","DistrictId":"20241851","AddressId":"192950929","RoadLinkId":"39418317"}}},{"Relevance":1.0,"Distance":72.2,"MatchLevel":"houseNumber","MatchQuality":{"Country":1.0,"State":1.0,"County":1.0,"City":1.0,"District":1.0,"Street":[1.0],"HouseNumber":1.0,"PostalCode":1.0},"MatchType":"interpolated","Location":{"LocationId":"NT_LbnmYTVWu3QZKecJliQuHA_ygD","LocationType":"point","DisplayPosition":{"Latitude":50.78086,"Longitude":7.51109},"MapView":{"TopLeft":{"Latitude":50.7819842,"Longitude":7.5093121},"BottomRight":{"Latitude":50.7797358,"Longitude":7.5128679}},"Address":{"Label":"Siegtalstraße 28, 51570 Windeck, Deutschland","Country":"DEU","State":"Nordrhein-Westfalen","County":"Rhein-Sieg-Kreis","City":"Windeck","District":"Herchen","Street":"Siegtalstraße","HouseNumber":"28","PostalCode":"51570","AdditionalData":[{"value":"Deutschland","key":"CountryName"},{"value":"Nordrhein-Westfalen","key":"StateName"},{"value":"Rhein-Sieg-Kreis","key":"CountyName"}]},"MapReference":{"ReferenceId":"536938633","Spot":0.16,"SideOfStreet":"left","CountryId":"20147700","StateId":"20157369","CountyId":"20158889","CityId":"20159053","DistrictId":"20241851","AddressId":"196191915","RoadLinkId":"39011627"}}},{"Relevance":1.0,"Distance":78.5,"MatchLevel":"street","MatchQuality":{"Country":1.0,"State":1.0,"County":1.0,"City":1.0,"District":1.0,"PostalCode":1.0},"Location":{"LocationId":"NT_bAoga4-FazxLrTFHqmB9jD_l_1255459284_L","LocationType":"point","DisplayPosition":{"Latitude":50.7815291,"Longitude":7.5098992},"MapView":{"TopLeft":{"Latitude":50.78244,"Longitude":7.50944},"BottomRight":{"Latitude":50.78148,"Longitude":7.51006}},"Address":{"Label":"51570 Windeck, Deutschland","Country":"DEU","State":"Nordrhein-Westfalen","County":"Rhein-Sieg-Kreis","City":"Windeck","District":"Herchen","PostalCode":"51570","AdditionalData":[{"value":"Deutschland","key":"CountryName"},{"value":"Nordrhein-Westfalen","key":"StateName"},{"value":"Rhein-Sieg-Kreis","key":"CountyName"}]},"MapReference":{"ReferenceId":"1255459284","Spot":0.03,"SideOfStreet":"left","CountryId":"20147700","StateId":"20157369","CountyId":"20158889","CityId":"20159053","DistrictId":"20241851"}}},{"Relevance":1.0,"Distance":80.9,"MatchLevel":"houseNumber","MatchQuality":{"Country":1.0,"State":1.0,"County":1.0,"City":1.0,"District":1.0,"Street":[1.0],"HouseNumber":1.0,"PostalCode":1.0},"MatchType":"interpolated","Location":{"LocationId":"NT_k2h6fajRsqHqzK1myoo00B_xA","LocationType":"point","DisplayPosition":{"Latitude":50.78087,"Longitude":7.5089},"MapView":{"TopLeft":{"Latitude":50.7819942,"Longitude":7.5071221},"BottomRight":{"Latitude":50.7797458,"Longitude":7.5106779}},"Address":{"Label":"In der Raubach 1, 51570 Windeck, Deutschland","Country":"DEU","State":"Nordrhein-Westfalen","County":"Rhein-Sieg-Kreis","City":"Windeck","District":"Herchen","Street":"In der Raubach","HouseNumber":"1","PostalCode":"51570","AdditionalData":[{"value":"Deutschland","key":"CountryName"},{"value":"Nordrhein-Westfalen","key":"StateName"},{"value":"Rhein-Sieg-Kreis","key":"CountyName"}]},"MapReference":{"ReferenceId":"77178471","Spot":0.62,"SideOfStreet":"left","CountryId":"20147700","StateId":"20157369","CountyId":"20158889","CityId":"20159053","DistrictId":"20241851","AddressId":"194637456","RoadLinkId":"39375499"}}},{"Relevance":1.0,"Distance":92.5,"MatchLevel":"houseNumber","MatchQuality":{"Country":1.0,"State":1.0,"County":1.0,"City":1.0,"District":1.0,"Street":[1.0],"HouseNumber":1.0,"PostalCode":1.0},"MatchType":"interpolated","Location":{"LocationId":"NT_ip57M3J.-7jESBKZ0wkbPA_2A","LocationType":"point","DisplayPosition":{"Latitude":50.78007,"Longitude":7.51071},"MapView":{"TopLeft":{"Latitude":50.7811942,"Longitude":7.5089321},"BottomRight":{"Latitude":50.7789458,"Longitude":7.5124879}},"Address":{"Label":"Alte Brücke 6, 51570 Windeck, Deutschland","Country":"DEU","State":"Nordrhein-Westfalen","County":"Rhein-Sieg-Kreis","City":"Windeck","District":"Herchen","Street":"Alte Brücke","HouseNumber":"6","PostalCode":"51570","AdditionalData":[{"value":"Deutschland","key":"CountryName"},{"value":"Nordrhein-Westfalen","key":"StateName"},{"value":"Rhein-Sieg-Kreis","key":"CountyName"}]},"MapReference":{"ReferenceId":"77178501","Spot":0.31,"SideOfStreet":"left","CountryId":"20147700","StateId":"20157369","CountyId":"20158889","CityId":"20159053","DistrictId":"20241851","AddressId":"196433177","RoadLinkId":"39261107"}}},{"Relevance":1.0,"Distance":96.3,"MatchLevel":"houseNumber","MatchQuality":{"Country":1.0,"State":1.0,"County":1.0,"City":1.0,"District":1.0,"Street":[1.0],"HouseNumber":1.0,"PostalCode":1.0},"MatchType":"interpolated","Location":{"LocationId":"NT_LbnmYTVWu3QZKecJliQuHA_zkD","LocationType":"point","DisplayPosition":{"Latitude":50.78053,"Longitude":7.50878},"MapView":{"TopLeft":{"Latitude":50.7816542,"Longitude":7.5070021},"BottomRight":{"Latitude":50.7794058,"Longitude":7.5105579}},"Address":{"Label":"Siegtalstraße 39, 51570 Windeck, Deutschland","Country":"DEU","State":"Nordrhein-Westfalen","County":"Rhein-Sieg-Kreis","City":"Windeck","District":"Herchen","Street":"Siegtalstraße","HouseNumber":"39","PostalCode":"51570","AdditionalData":[{"value":"Deutschland","key":"CountryName"},{"value":"Nordrhein-Westfalen","key":"StateName"},{"value":"Rhein-Sieg-Kreis","key":"CountyName"}]},"MapReference":{"ReferenceId":"77189625","Spot":0.59,"SideOfStreet":"right","CountryId":"20147700","StateId":"20157369","CountyId":"20158889","CityId":"20159053","DistrictId":"20241851","AddressId":"195633219","RoadLinkId":"39427812"}}}]}]}}