{"Response":{"MetaInfo":{"Timestamp":"2020-03-28T10:55:46.299+0000","NextPageInformation":"2"},"View":[{"_type":"SearchResultsViewType","ViewId":0,"Result":[{"Relevance":1.0,"Distance":0.0,"Direction":0.0,"MatchLevel":"district","MatchQuality":{"Country":1.0,"State":1.0,"County":1.0,"City":1.0,"District":1.0,"PostalCode":1.0},"Location":{"LocationId":"NT_VU9lpM1lJhgEdkGt2dDKvB","LocationType":"point","DisplayPosition":{"Latitude":50.7464545,"Longitude":8.2846436},"MapView":{"TopLeft":{"Latitude":50.76555,"Longitude":8.26356},"BottomRight":{"Latitude":50.72231,"Longitude":8.29881}},"Address":{"Label":"Dillenburg, Hessen, Deutschland","Country":"DEU","State":"Hessen","County":"Lahn-Dill-Kreis","City":"Dillenburg","District":"Dillenburg","PostalCode":"35683","AdditionalData":[{"value":"Deutschland","key":"CountryName"},{"value":"Hessen","key":"StateName"},{"value":"Lahn-Dill-Kreis","key":"CountyName"}]},"MapReference":{"ReferenceId":"1199234175","SideOfStreet":"neither","CountryId":"20147700","StateId":"20160993","CountyId":"20162290","CityId":"20162326","DistrictId":"20162332"}}},{"Relevance":1.0,"Distance":78.4,"MatchLevel":"houseNumber","MatchQuality":{"Country":1.0,"State":1.0,"County":1.0,"City":1.0,"District":1.0,"Street":[1.0],"HouseNumber":1.0,"PostalCode":1.0},"MatchType":"interpolated","Location":{"LocationId":"NT_ZqOlZhhrQbyaEteNiGosbA_yA","LocationType":"point","DisplayPosition":{"Latitude":50.74639,"Longitude":8.28339},"MapView":{"TopLeft":{"Latitude":50.7475142,"Longitude":8.2816134},"BottomRight":{"Latitude":50.7452658,"Longitude":8.2851666}},"Address":{"Label":"Gierlichstraße 2, 35683 Dillenburg, Deutschland","Country":"DEU","State":"Hessen","County":"Lahn-Dill-Kreis","City":"Dillenburg","District":"Dillenburg","Street":"Gierlichstraße","HouseNumber":"2","PostalCode":"35683","AdditionalData":[{"value":"Deutschland","key":"CountryName"},{"value":"Hessen","key":"StateName"},{"value":"Lahn-Dill-Kreis","key":"CountyName"}]},"MapReference":{"ReferenceId":"61997426","Spot":0.74,"SideOfStreet":"right","CountryId":"20147700","StateId":"20160993","CountyId":"20162290","CityId":"20162326","DistrictId":"20162332","AddressId":"187625833","RoadLinkId":"34102917"}}},{"Relevance":1.0,"Distance":92.9,"MatchLevel":"houseNumber","MatchQuality":{"Country":1.0,"State":1.0,"County":1.0,"City":1.0,"District":1.0,"Street":[1.0],"HouseNumber":1.0,"PostalCode":1.0},"MatchType":"interpolated","Location":{"LocationId":"NT_ZqOlZhhrQbyaEteNiGosbA_0A","LocationType":"point","DisplayPosition":{"Latitude":50.74657,"Longitude":8.28322},"MapView":{"TopLeft":{"Latitude":50.7476942,"Longitude":8.2814434},"BottomRight":{"Latitude":50.7454458,"Longitude":8.2849966}},"Address":{"Label":"Gierlichstraße 4, 35683 Dillenburg, Deutschland","Country":"DEU","State":"Hessen","County":"Lahn-Dill-Kreis","City":"Dillenburg","District":"Dillenburg","Street":"Gierlichstraße","HouseNumber":"4","PostalCode":"35683","AdditionalData":[{"value":"Deutschland","key":"CountryName"},{"value":"Hessen","key":"StateName"},{"value":"Lahn-Dill-Kreis","key":"CountyName"}]},"MapReference":{"ReferenceId":"61996784","Spot":0.26,"SideOfStreet":"right","CountryId":"20147700","StateId":"20160993","CountyId":"20162290","CityId":"20162326","DistrictId":"20162332","AddressId":"186642617","RoadLinkId":"34009173"}}},{"Relevance":1.0,"Distance":99.0,"MatchLevel":"houseNumber","MatchQuality":{"Country":1.0,"State":1.0,"County":1.0,"City":1.0,"District":1.0,"Street":[1.0],"HouseNumber":1.0,"PostalCode":1.0},"MatchType":"interpolated","Location":{"LocationId":"NT_S-qM2UTy3fCsp.4w7W47xD_5A","LocationType":"point","DisplayPosition":{"Latitude":50.74591,"Longitude":8.28353},"MapView":{"TopLeft":{"Latitude":50.7470342,"Longitude":8.2817534},"BottomRight":{"Latitude":50.7447858,"Longitude":8.2853066}},"Address":{"Label":"Wolframstraße 9, 35683 Dillenburg, Deutschland","Country":"DEU","State":"Hessen","County":"Lahn-Dill-Kreis","City":"Dillenburg","District":"Dillenburg","Street":"Wolframstraße","HouseNumber":"9","PostalCode":"35683","AdditionalData":[{"value":"Deutschland","key":"CountryName"},{"value":"Hessen","key":"StateName"},{"value":"Lahn-Dill-Kreis","key":"CountyName"}]},"MapReference":{"ReferenceId":"61997425","Spot":0.82,"SideOfStreet":"left","CountryId":"20147700","StateId":"20160993","CountyId":"20162290","CityId":"20162326","DistrictId":"20162332","AddressId":"187009204","RoadLinkId":"34757317"}}},{"Relevance":1.0,"Distance":105.2,"MatchLevel":"houseNumber","MatchQuality":{"Country":1.0,"State":1.0,"County":1.0,"City":1.0,"District":1.0,"Street":[1.0],"HouseNumber":1.0,"PostalCode":1.0},"MatchType":"interpolated","Location":{"LocationId":"NT_o4lkfZsW2nNQ2vWmtj2OSD_2A","LocationType":"point","DisplayPosition":{"Latitude":50.74731,"Longitude":8.28373},"MapView":{"TopLeft":{"Latitude":50.7484342,"Longitude":8.2819534},"BottomRight":{"Latitude":50.7461858,"Longitude":8.2855066}},"Address":{"Label":"Georg-Poppe-Straße 6, 35683 Dillenburg, Deutschland","Country":"DEU","State":"Hessen","County":"Lahn-Dill-Kreis","City":"Dillenburg","District":"Dillenburg","Street":"Georg-Poppe-Straße","HouseNumber":"6","PostalCode":"35683","AdditionalData":[{"value":"Deutschland","key":"CountryName"},{"value":"Hessen","key":"StateName"},{"value":"Lahn-Dill-Kreis","key":"CountyName"}]},"MapReference":{"ReferenceId":"61998138","Spot":0.66,"SideOfStreet":"right","CountryId":"20147700","StateId":"20160993","CountyId":"20162290","CityId":"20162326","DistrictId":"20162332","AddressId":"186978954","RoadLinkId":"34769656"}}},{"Relevance":1.0,"Distance":116.5,"MatchLevel":"street","MatchQuality":{"Country":1.0,"State":1.0,"County":1.0,"City":1.0,"District":1.0,"PostalCode":1.0},"Location":{"LocationId":"NT_RAzSkDyy7bcgVofJ-hvPjC_l_590222614_R","LocationType":"point","DisplayPosition":{"Latitude":50.74541,"Longitude":8.28451},"MapView":{"TopLeft":{"Latitude":50.74541,"Longitude":8.2844},"BottomRight":{"Latitude":50.74529,"Longitude":8.2846}},"Address":{"Label":"35683 Dillenburg, Deutschland","Country":"DEU","State":"Hessen","County":"Lahn-Dill-Kreis","City":"Dillenburg","District":"Dillenburg","PostalCode":"35683","AdditionalData":[{"value":"Deutschland","key":"CountryName"},{"value":"Hessen","key":"StateName"},{"value":"Lahn-Dill-Kreis","key":"CountyName"}]},"MapReference":{"ReferenceId":"590222614","Spot":0.68,"SideOfStreet":"right","CountryId":"20147700","StateId":"20160993","CountyId":"20162290","CityId":"20162326","DistrictId":"20162332"}}},{"Relevance":1.0,"Distance":119.1,"MatchLevel":"street","MatchQuality":{"Country":1.0,"State":1.0,"County":1.0,"City":1.0,"District":1.0,"PostalCode":1.0},"Location":{"LocationId":"NT_RAzSkDyy7bcgVofJ-hvPjC_l_78667834_L","LocationType":"point","DisplayPosition":{"Latitude":50.74548,"Longitude":8.28394},"MapView":{"TopLeft":{"Latitude":50.74548,"Longitude":8.2838},"BottomRight":{"Latitude":50.74536,"Longitude":8.28394}},"Address":{"Label":"35683 Dillenburg, Deutschland","Country":"DEU","State":"Hessen","County":"Lahn-Dill-Kreis","City":"Dillenburg","District":"Dillenburg","PostalCode":"35683","AdditionalData":[{"value":"Deutschland","key":"CountryName"},{"value":"Hessen","key":"StateName"},{"value":"Lahn-Dill-Kreis","key":"CountyName"}]},"MapReference":{"ReferenceId":"78667834","Spot":1.0,"SideOfStreet":"left","CountryId":"20147700","StateId":"20160993","CountyId":"20162290","CityId":"20162326","DistrictId":"20162332"}}},{"Relevance":1.0,"Distance":119.5,"MatchLevel":"houseNumber","MatchQuality":{"Country":1.0,"State":1.0,"County":1.0,"City":1.0,"District":1.0,"Street":[1.0],"HouseNumber":1.0,"PostalCode":1.0},"MatchType":"interpolated","Location":{"LocationId":"NT_EEXRGKNMsPh0FYxXBfirPC_yA","LocationType":"point","DisplayPosition":{"Latitude":50.74529,"Longitude":8.28395},"MapView":{"TopLeft":{"Latitude":50.7464142,"Longitude":8.2821734},"BottomRight":{"Latitude":50.7441658,"Longitude":8.2857266}},"Address":{"Label":"Rotebergstraße 2, 35683 Dillenburg, Deutschland","Country":"DEU","State":"Hessen","County":"Lahn-Dill-Kreis","City":"Dillenburg","District":"Dillenburg","Street":"Rotebergstraße","HouseNumber":"2","PostalCode":"35683","AdditionalData":[{"value":"Deutschland","key":"CountryName"},{"value":"Hessen","key":"StateName"},{"value":"Lahn-Dill-Kreis","key":"CountyName"}]},"MapReference":{"ReferenceId":"590222612","Spot":0.52,"SideOfStreet":"right","CountryId":"20147700","StateId":"20160993","CountyId":"20162290","CityId":"20162326","DistrictId":"20162332","AddressId":"186943495","RoadLinkId":"34710225"}}},{"Relevance":1.0,"Distance":121.5,"MatchLevel":"landmark","MatchQuality":{"Country":1.0,"State":1.0,"County":1.0,"Name":1.0},"Location":{"LocationId":"NT_mfgEMRjxOaf9MCIOzXjrtA","LocationType":"woodland","Name":"Dillenburger Stadtwald","DisplayPosition":{"Latitude":50.7633,"Longitude":8.31073},"MapView":{"TopLeft":{"Latitude":50.7986,"Longitude":8.27882},"BottomRight":{"Latitude":50.72799,"Longitude":8.37916}},"Address":{"Label":"Deutschland","Country":"DEU","State":"Hessen","County":"Lahn-Dill-Kreis","AdditionalData":[{"value":"Deutschland","key":"CountryName"},{"value":"Hessen","key":"StateName"},{"value":"Lahn-Dill-Kreis","key":"CountyName"}]},"MapReference":{"CountryId":"20147700","StateId":"20160993","CountyId":"20162290","PlaceId":"77672737"}}},{"Relevance":1.0,"Distance":125.1,"MatchLevel":"street","MatchQuality":{"Country":1.0,"State":1.0,"County":1.0,"City":1.0,"District":1.0,"PostalCode":1.0},"Location":{"LocationId":"NT_RAzSkDyy7bcgVofJ-hvPjC_l_590222616_L","LocationType":"point","DisplayPosition":{"Latitude":50.74534,"Longitude":8.2844},"MapView":{"TopLeft":{"Latitude":50.74534,"Longitude":8.28409},"BottomRight":{"Latitude":50.74518,"Longitude":8.2844}},"Address":{"Label":"35683 Dillenburg, Deutschland","Country":"DEU","State":"Hessen","County":"Lahn-Dill-Kreis","City":"Dillenburg","District":"Dillenburg","PostalCode":"35683","AdditionalData":[{"value":"Deutschland","key":"CountryName"},{"value":"Hessen","key":"StateName"},{"value":"Lahn-Dill-Kreis","key":"CountyName"}]},"MapReference":{"ReferenceId":"590222616","Spot":1.0,"SideOfStreet":"left","CountryId":"20147700","StateId":"20160993","CountyId":"20162290","CityId":"20162326","DistrictId":"20162332"}}}]}]}}