{"Response":{"MetaInfo":{"Timestamp":"2020-03-28T10:59:26.244+0000","NextPageInformation":"2"},"View":[{"_type":"SearchResultsViewType","ViewId":0,"Result":[{"Relevance":1.0,"Distance":0.0,"Direction":0.0,"MatchLevel":"district","MatchQuality":{"Country":1.0,"State":1.0,"County":1.0,"City":1.0,"District":1.0,"PostalCode":1.0},"Location":{"LocationId":"NT_-1nuFqaYdk5B2mpI8XwHuD","LocationType":"point","DisplayPosition":{"Latitude":50.7356647,"Longitude":13.0776241},"MapView":{"TopLeft":{"Latitude":50.76171,"Longitude":13.05782},"BottomRight":{"Latitude":50.73339,"Longitude":13.08827}},"Address":{"Label":"Zschopau, Sachsen, Deutschland","Country":"DEU","State":"Sachsen","County":"Erzgebirgskreis","City":"Zschopau","District":"Zschopau","PostalCode":"09405","AdditionalData":[{"value":"Deutschland","key":"CountryName"},{"value":"Sachsen","key":"StateName"},{"value":"Erzgebirgskreis","key":"CountyName"}]},"MapReference":{"ReferenceId":"75049411","SideOfStreet":"neither","CountryId":"20147700","StateId":"20191185","CountyId":"23409366","CityId":"20212850","DistrictId":"20212852"}}},{"Relevance":1.0,"Distance":4.5,"MatchLevel":"landmark","MatchQuality":{"Country":1.0,"State":1.0,"County":1.0,"City":1.0,"District":1.0,"Street":[1.0],"HouseNumber":1.0,"PostalCode":1.0,"Name":1.0},"Location":{"LocationId":"NT_k4AmbaXZCPuAUzxU-rmSIA_p_gijv7nEpe0A7GfDa5SZx3B","LocationType":"hospital","Name":"Klinikum Haus Zschopau","DisplayPosition":{"Latitude":50.73488,"Longitude":13.07964},"MapView":{"TopLeft":{"Latitude":50.7360042,"Longitude":13.0778638},"BottomRight":{"Latitude":50.7337558,"Longitude":13.0814162}},"Address":{"Label":"Alte Marienberger Straße 52, 09405 Zschopau, Deutschland","Country":"DEU","State":"Sachsen","County":"Erzgebirgskreis","City":"Zschopau","District":"Zschopau","Street":"Alte Marienberger Straße","HouseNumber":"52","PostalCode":"09405","AdditionalData":[{"value":"Deutschland","key":"CountryName"},{"value":"Sachsen","key":"StateName"},{"value":"Erzgebirgskreis","key":"CountyName"}]},"MapReference":{"CountryId":"20147700","StateId":"20191185","CountyId":"23409366","CityId":"20212850","DistrictId":"20212852","PlaceId":"69938060"}}},{"Relevance":1.0,"Distance":133.8,"MatchLevel":"houseNumber","MatchQuality":{"Country":1.0,"State":1.0,"County":1.0,"City":1.0,"District":1.0,"Street":[1.0],"HouseNumber":1.0,"PostalCode":1.0},"MatchType":"interpolated","Location":{"LocationId":"NT_kM0WIVdIEqPH6JYPdZZw0B_xED","LocationType":"point","DisplayPosition":{"Latitude":50.73646,"Longitude":13.07905},"MapView":{"TopLeft":{"Latitude":50.7375842,"Longitude":13.0772738},"BottomRight":{"Latitude":50.7353358,"Longitude":13.0808262}},"Address":{"Label":"Neue Heimat 11, 09405 Zschopau, Deutschland","Country":"DEU","State":"Sachsen","County":"Erzgebirgskreis","City":"Zschopau","District":"Zschopau","Street":"Neue Heimat","HouseNumber":"11","PostalCode":"09405","AdditionalData":[{"value":"Deutschland","key":"CountryName"},{"value":"Sachsen","key":"StateName"},{"value":"Erzgebirgskreis","key":"CountyName"}]},"MapReference":{"ReferenceId":"543872485","Spot":0.75,"SideOfStreet":"right","CountryId":"20147700","StateId":"20191185","CountyId":"23409366","CityId":"20212850","DistrictId":"20212852","AddressId":"190315722","RoadLinkId":"39731564"}}},{"Relevance":1.0,"Distance":159.2,"MatchLevel":"houseNumber","MatchQuality":{"Country":1.0,"State":1.0,"County":1.0,"City":1.0,"District":1.0,"Street":[1.0],"HouseNumber":1.0,"PostalCode":1.0},"MatchType":"interpolated","Location":{"LocationId":"NT_LPDkHBcQJdrCCGKQXSBL6B_1AD","LocationType":"point","DisplayPosition":{"Latitude":50.73595,"Longitude":13.08003},"MapView":{"TopLeft":{"Latitude":50.7370742,"Longitude":13.0782538},"BottomRight":{"Latitude":50.7348258,"Longitude":13.0818062}},"Address":{"Label":"Alte Marienberger Straße 50, 09405 Zschopau, Deutschland","Country":"DEU","State":"Sachsen","County":"Erzgebirgskreis","City":"Zschopau","District":"Zschopau","Street":"Alte Marienberger Straße","HouseNumber":"50","PostalCode":"09405","AdditionalData":[{"value":"Deutschland","key":"CountryName"},{"value":"Sachsen","key":"StateName"},{"value":"Erzgebirgskreis","key":"CountyName"}]},"MapReference":{"ReferenceId":"799384763","Spot":0.81,"SideOfStreet":"left","CountryId":"20147700","StateId":"20191185","CountyId":"23409366","CityId":"20212850","DistrictId":"20212852","AddressId":"190156734","RoadLinkId":"190124952"}}},{"Relevance":1.0,"Distance":160.2,"MatchLevel":"houseNumber","MatchQuality":{"Country":1.0,"State":1.0,"County":1.0,"City":1.0,"District":1.0,"Street":[1.0],"HouseNumber":1.0,"PostalCode":1.0},"MatchType":"interpolated","Location":{"LocationId":"NT_LPDkHBcQJdrCCGKQXSBL6B_1QD","LocationType":"point","DisplayPosition":{"Latitude":50.73536,"Longitude":13.08021},"MapView":{"TopLeft":{"Latitude":50.7364842,"Longitude":13.0784338},"BottomRight":{"Latitude":50.7342358,"Longitude":13.0819862}},"Address":{"Label":"Alte Marienberger Straße 54, 09405 Zschopau, Deutschland","Country":"DEU","State":"Sachsen","County":"Erzgebirgskreis","City":"Zschopau","District":"Zschopau","Street":"Alte Marienberger Straße","HouseNumber":"54","PostalCode":"09405","AdditionalData":[{"value":"Deutschland","key":"CountryName"},{"value":"Sachsen","key":"StateName"},{"value":"Erzgebirgskreis","key":"CountyName"}]},"MapReference":{"ReferenceId":"586819749","Spot":0.52,"SideOfStreet":"left","CountryId":"20147700","StateId":"20191185","CountyId":"23409366","CityId":"20212850","DistrictId":"20212852","AddressId":"622321918","RoadLinkId":"39911994"}}},{"Relevance":1.0,"Distance":165.4,"MatchLevel":"houseNumber","MatchQuality":{"Country":1.0,"State":1.0,"County":1.0,"City":1.0,"District":1.0,"Street":[1.0],"HouseNumber":1.0,"PostalCode":1.0},"MatchType":"interpolated","Location":{"LocationId":"NT_LPDkHBcQJdrCCGKQXSBL6B_1ID","LocationType":"point","DisplayPosition":{"Latitude":50.7349,"Longitude":13.07964},"MapView":{"TopLeft":{"Latitude":50.7360242,"Longitude":13.0778638},"BottomRight":{"Latitude":50.7337758,"Longitude":13.0814162}},"Address":{"Label":"Alte Marienberger Straße 52, 09405 Zschopau, Deutschland","Country":"DEU","State":"Sachsen","County":"Erzgebirgskreis","City":"Zschopau","District":"Zschopau","Street":"Alte Marienberger Straße","HouseNumber":"52","PostalCode":"09405","AdditionalData":[{"value":"Deutschland","key":"CountryName"},{"value":"Sachsen","key":"StateName"},{"value":"Erzgebirgskreis","key":"CountyName"}]},"MapReference":{"ReferenceId":"799384769","Spot":1.0,"SideOfStreet":"right","CountryId":"20147700","StateId":"20191185","CountyId":"23409366","CityId":"20212850","DistrictId":"20212852","AddressId":"208947132","RoadLinkId":"190124957"}}},{"Relevance":1.0,"Distance":179.1,"MatchLevel":"street","MatchQuality":{"Country":1.0,"State":1.0,"County":1.0,"City":1.0,"District":1.0,"Street":[1.0],"PostalCode":1.0},"Location":{"LocationId":"NT_LPDkHBcQJdrCCGKQXSBL6B_l_799384764_L","LocationType":"point","DisplayPosition":{"Latitude":50.7364734,"Longitude":13.0798255},"MapView":{"TopLeft":{"Latitude":50.73657,"Longitude":13.07979},"BottomRight":{"Latitude":50.73608,"Longitude":13.07997}},"Address":{"Label":"Alte Marienberger Straße, 09405 Zschopau, Deutschland","Country":"DEU","State":"Sachsen","County":"Erzgebirgskreis","City":"Zschopau","District":"Zschopau","Street":"Alte Marienberger Straße","PostalCode":"09405","AdditionalData":[{"value":"Deutschland","key":"CountryName"},{"value":"Sachsen","key":"StateName"},{"value":"Erzgebirgskreis","key":"CountyName"}]},"MapReference":{"ReferenceId":"799384764","Spot":0.8,"SideOfStreet":"left","CountryId":"20147700","StateId":"20191185","CountyId":"23409366","CityId":"20212850","DistrictId":"20212852"}}},{"Relevance":1.0,"Distance":197.4,"MatchLevel":"street","MatchQuality":{"Country":1.0,"State":1.0,"County":1.0,"City":1.0,"District":1.0,"Street":[1.0],"PostalCode":1.0},"Location":{"LocationId":"NT_LPDkHBcQJdrCCGKQXSBL6B_l_586819748_L","LocationType":"point","DisplayPosition":{"Latitude":50.73546,"Longitude":13.08041},"MapView":{"TopLeft":{"Latitude":50.73546,"Longitude":13.08041},"BottomRight":{"Latitude":50.735,"Longitude":13.08089}},"Address":{"Label":"Alte Marienberger Straße, 09405 Zschopau, Deutschland","Country":"DEU","State":"Sachsen","County":"Erzgebirgskreis","City":"Zschopau","District":"Zschopau","Street":"Alte Marienberger Straße","PostalCode":"09405","AdditionalData":[{"value":"Deutschland","key":"CountryName"},{"value":"Sachsen","key":"StateName"},{"value":"Erzgebirgskreis","key":"CountyName"}]},"MapReference":{"ReferenceId":"586819748","Spot":1.0,"SideOfStreet":"left","CountryId":"20147700","StateId":"20191185","CountyId":"23409366","CityId":"20212850","DistrictId":"20212852"}}},{"Relevance":1.0,"Distance":241.4,"MatchLevel":"street","MatchQuality":{"Country":1.0,"State":1.0,"County":1.0,"City":1.0,"District":1.0,"Street":[1.0],"PostalCode":1.0},"Location":{"LocationId":"NT_VBc3VMjVVjuFz4FhMipd6A_l_586824441_L","LocationType":"point","DisplayPosition":{"Latitude":50.735,"Longitude":13.08089},"MapView":{"TopLeft":{"Latitude":50.735,"Longitude":13.08089},"BottomRight":{"Latitude":50.73445,"Longitude":13.08147}},"Address":{"Label":"Alte Marienberger Straße, 09405 Zschopau, Deutschland","Country":"DEU","State":"Sachsen","County":"Erzgebirgskreis","City":"Zschopau","District":"Zschopau","Street":"Alte Marienberger Straße","PostalCode":"09405","AdditionalData":[{"value":"Deutschland","key":"CountryName"},{"value":"Sachsen","key":"StateName"},{"value":"Erzgebirgskreis","key":"CountyName"}]},"MapReference":{"ReferenceId":"586824441","Spot":1.0,"SideOfStreet":"left","CountryId":"20147700","StateId":"20191185","CountyId":"23409366","CityId":"20212850","DistrictId":"20212852"}}},{"Relevance":1.0,"Distance":262.1,"MatchLevel":"houseNumber","MatchQuality":{"Country":1.0,"State":1.0,"County":1.0,"City":1.0,"District":1.0,"Street":[1.0],"HouseNumber":1.0,"PostalCode":1.0},"MatchType":"interpolated","Location":{"LocationId":"NT_LPDkHBcQJdrCCGKQXSBL6B_0YD","LocationType":"point","DisplayPosition":{"Latitude":50.73799,"Longitude":13.07916},"MapView":{"TopLeft":{"Latitude":50.7391142,"Longitude":13.0773837},"BottomRight":{"Latitude":50.7368658,"Longitude":13.0809363}},"Address":{"Label":"Alte Marienberger Straße 46, 09405 Zschopau, Deutschland","Country":"DEU","State":"Sachsen","County":"Erzgebirgskreis","City":"Zschopau","District":"Zschopau","Street":"Alte Marienberger Straße","HouseNumber":"46","PostalCode":"09405","AdditionalData":[{"value":"Deutschland","key":"CountryName"},{"value":"Sachsen","key":"StateName"},{"value":"Erzgebirgskreis","key":"CountyName"}]},"MapReference":{"ReferenceId":"548104924","Spot":0.17,"SideOfStreet":"left","CountryId":"20147700","StateId":"20191185","CountyId":"23409366","CityId":"20212850","DistrictId":"20212852","AddressId":"189957064","RoadLinkId":"39954638"}}}]}]}}