{"Response":{"MetaInfo":{"Timestamp":"2020-03-28T10:02:54.463+0000","NextPageInformation":"2"},"View":[{"_type":"SearchResultsViewType","ViewId":0,"Result":[{"Relevance":1.0,"Distance":0.0,"Direction":0.0,"MatchLevel":"district","MatchQuality":{"Country":1.0,"State":1.0,"County":1.0,"City":1.0,"District":1.0,"PostalCode":1.0},"Location":{"LocationId":"NT_B0EI7Q8U3L11LF8uBPFy-A","LocationType":"point","DisplayPosition":{"Latitude":50.7956271,"Longitude":7.1153407},"MapView":{"TopLeft":{"Latitude":50.79759,"Longitude":7.10358},"BottomRight":{"Latitude":50.78607,"Longitude":7.1187}},"Address":{"Label":"Eschmar, Troisdorf, Nordrhein-Westfalen, Deutschland","Country":"DEU","State":"Nordrhein-Westfalen","County":"Rhein-Sieg-Kreis","City":"Troisdorf","District":"Eschmar","PostalCode":"53844","AdditionalData":[{"value":"Deutschland","key":"CountryName"},{"value":"Nordrhein-Westfalen","key":"StateName"},{"value":"Rhein-Sieg-Kreis","key":"CountyName"}]},"MapReference":{"ReferenceId":"764533471","SideOfStreet":"neither","CountryId":"20147700","StateId":"20157369","CountyId":"20158889","CityId":"20159037","DistrictId":"23416484"}}},{"Relevance":1.0,"Distance":10.1,"MatchLevel":"houseNumber","MatchQuality":{"Country":1.0,"State":1.0,"County":1.0,"City":1.0,"District":1.0,"Street":[1.0],"HouseNumber":1.0,"PostalCode":1.0},"MatchType":"interpolated","Location":{"LocationId":"NT_g88GA9PxqHcAkcD6EuvPfD_xkD","LocationType":"point","DisplayPosition":{"Latitude":50.7958,"Longitude":7.11555},"MapView":{"TopLeft":{"Latitude":50.7969242,"Longitude":7.1137715},"BottomRight":{"Latitude":50.7946758,"Longitude":7.1173285}},"Address":{"Label":"Vorgebirgsblick 19, 53844 Troisdorf, Deutschland","Country":"DEU","State":"Nordrhein-Westfalen","County":"Rhein-Sieg-Kreis","City":"Troisdorf","District":"Eschmar","Street":"Vorgebirgsblick","HouseNumber":"19","PostalCode":"53844","AdditionalData":[{"value":"Deutschland","key":"CountryName"},{"value":"Nordrhein-Westfalen","key":"StateName"},{"value":"Rhein-Sieg-Kreis","key":"CountyName"}]},"MapReference":{"ReferenceId":"51026183","Spot":0.9,"SideOfStreet":"left","CountryId":"20147700","StateId":"20157369","CountyId":"20158889","CityId":"20159037","DistrictId":"23416484","AddressId":"195729629","RoadLinkId":"39429656"}}},{"Relevance":1.0,"Distance":27.9,"MatchLevel":"houseNumber","MatchQuality":{"Country":1.0,"State":1.0,"County":1.0,"City":1.0,"District":1.0,"Street":[1.0],"HouseNumber":1.0,"PostalCode":1.0},"MatchType":"interpolated","Location":{"LocationId":"NT_g88GA9PxqHcAkcD6EuvPfD_yED","LocationType":"point","DisplayPosition":{"Latitude":50.79594,"Longitude":7.11536},"MapView":{"TopLeft":{"Latitude":50.7970642,"Longitude":7.1135815},"BottomRight":{"Latitude":50.7948158,"Longitude":7.1171385}},"Address":{"Label":"Vorgebirgsblick 21, 53844 Troisdorf, Deutschland","Country":"DEU","State":"Nordrhein-Westfalen","County":"Rhein-Sieg-Kreis","City":"Troisdorf","District":"Eschmar","Street":"Vorgebirgsblick","HouseNumber":"21","PostalCode":"53844","AdditionalData":[{"value":"Deutschland","key":"CountryName"},{"value":"Nordrhein-Westfalen","key":"StateName"},{"value":"Rhein-Sieg-Kreis","key":"CountyName"}]},"MapReference":{"ReferenceId":"51026184","Spot":0.13,"SideOfStreet":"left","CountryId":"20147700","StateId":"20157369","CountyId":"20158889","CityId":"20159037","DistrictId":"23416484","AddressId":"193744526","RoadLinkId":"39414433"}}},{"Relevance":1.0,"Distance":56.5,"MatchLevel":"houseNumber","MatchQuality":{"Country":1.0,"State":1.0,"County":1.0,"City":1.0,"District":1.0,"Street":[1.0],"HouseNumber":1.0,"PostalCode":1.0},"MatchType":"interpolated","Location":{"LocationId":"NT_8oAHxhHUrIilCSzh2zMSKA_yA","LocationType":"point","DisplayPosition":{"Latitude":50.79602,"Longitude":7.11585},"MapView":{"TopLeft":{"Latitude":50.7971442,"Longitude":7.1140715},"BottomRight":{"Latitude":50.7948958,"Longitude":7.1176285}},"Address":{"Label":"Robert-Koch-Straße 2, 53844 Troisdorf, Deutschland","Country":"DEU","State":"Nordrhein-Westfalen","County":"Rhein-Sieg-Kreis","City":"Troisdorf","District":"Sieglar","Street":"Robert-Koch-Straße","HouseNumber":"2","PostalCode":"53844","AdditionalData":[{"value":"Deutschland","key":"CountryName"},{"value":"Nordrhein-Westfalen","key":"StateName"},{"value":"Rhein-Sieg-Kreis","key":"CountyName"}]},"MapReference":{"ReferenceId":"51026366","Spot":0.27,"SideOfStreet":"right","CountryId":"20147700","StateId":"20157369","CountyId":"20158889","CityId":"20159037","DistrictId":"20159040","AddressId":"196267129","RoadLinkId":"39205468"}}},{"Relevance":1.0,"Distance":58.1,"MatchLevel":"street","MatchQuality":{"Country":1.0,"State":1.0,"County":1.0,"City":1.0,"District":1.0,"Street":[1.0],"PostalCode":1.0},"Location":{"LocationId":"NT_zgzNeklyLooDXth1Wegw-A_l_977201674_L","LocationType":"point","DisplayPosition":{"Latitude":50.7951145,"Longitude":7.1155026},"MapView":{"TopLeft":{"Latitude":50.79539,"Longitude":7.11486},"BottomRight":{"Latitude":50.79493,"Longitude":7.11616}},"Address":{"Label":"Menzelstraße, 53844 Troisdorf, Deutschland","Country":"DEU","State":"Nordrhein-Westfalen","County":"Rhein-Sieg-Kreis","City":"Troisdorf","District":"Eschmar","Street":"Menzelstraße","PostalCode":"53844","AdditionalData":[{"value":"Deutschland","key":"CountryName"},{"value":"Nordrhein-Westfalen","key":"StateName"},{"value":"Rhein-Sieg-Kreis","key":"CountyName"}]},"MapReference":{"ReferenceId":"977201674","Spot":0.48,"SideOfStreet":"left","CountryId":"20147700","StateId":"20157369","CountyId":"20158889","CityId":"20159037","DistrictId":"23416484"}}},{"Relevance":1.0,"Distance":62.0,"MatchLevel":"houseNumber","MatchQuality":{"Country":1.0,"State":1.0,"County":1.0,"City":1.0,"District":1.0,"Street":[1.0],"HouseNumber":1.0,"PostalCode":1.0},"MatchType":"interpolated","Location":{"LocationId":"NT_PmjvQPVnvk7ZYHAzhs51iA_xUD","LocationType":"point","DisplayPosition":{"Latitude":50.79516,"Longitude":7.11453},"MapView":{"TopLeft":{"Latitude":50.7962842,"Longitude":7.1127515},"BottomRight":{"Latitude":50.7940358,"Longitude":7.1163085}},"Address":{"Label":"Spitzwegstraße 15, 53844 Troisdorf, Deutschland","Country":"DEU","State":"Nordrhein-Westfalen","County":"Rhein-Sieg-Kreis","City":"Troisdorf","District":"Eschmar","Street":"Spitzwegstraße","HouseNumber":"15","PostalCode":"53844","AdditionalData":[{"value":"Deutschland","key":"CountryName"},{"value":"Nordrhein-Westfalen","key":"StateName"},{"value":"Rhein-Sieg-Kreis","key":"CountyName"}]},"MapReference":{"ReferenceId":"51026288","Spot":0.44,"SideOfStreet":"right","CountryId":"20147700","StateId":"20157369","CountyId":"20158889","CityId":"20159037","DistrictId":"23416484","AddressId":"199513313","RoadLinkId":"39049604"}}},{"Relevance":1.0,"Distance":63.3,"MatchLevel":"street","MatchQuality":{"Country":1.0,"State":1.0,"County":1.0,"City":1.0,"District":1.0,"PostalCode":1.0},"Location":{"LocationId":"NT_zZtadttSNTKfnTZTm1zDVC_l_977201677_L","LocationType":"point","DisplayPosition":{"Latitude":50.79539,"Longitude":7.11616},"MapView":{"TopLeft":{"Latitude":50.7972,"Longitude":7.11616},"BottomRight":{"Latitude":50.79539,"Longitude":7.1201}},"Address":{"Label":"53844 Troisdorf, Deutschland","Country":"DEU","State":"Nordrhein-Westfalen","County":"Rhein-Sieg-Kreis","City":"Troisdorf","District":"Sieglar","PostalCode":"53844","AdditionalData":[{"value":"Deutschland","key":"CountryName"},{"value":"Nordrhein-Westfalen","key":"StateName"},{"value":"Rhein-Sieg-Kreis","key":"CountyName"}]},"MapReference":{"ReferenceId":"977201677","Spot":0.0,"SideOfStreet":"left","CountryId":"20147700","StateId":"20157369","CountyId":"20158889","CityId":"20159037","DistrictId":"20159040"}}},{"Relevance":1.0,"Distance":64.0,"MatchLevel":"houseNumber","MatchQuality":{"Country":1.0,"State":1.0,"County":1.0,"City":1.0,"District":1.0,"Street":[1.0],"HouseNumber":1.0,"PostalCode":1.0},"MatchType":"interpolated","Location":{"LocationId":"NT_hFBR0wcrMFu.mxzQlSQYlD_4A","LocationType":"point","DisplayPosition":{"Latitude":50.79539,"Longitude":7.11617},"MapView":{"TopLeft":{"Latitude":50.7965142,"Longitude":7.1143915},"BottomRight":{"Latitude":50.7942658,"Longitude":7.1179485}},"Address":{"Label":"Vorgebirgsblick 8, 53844 Troisdorf, Deutschland","Country":"DEU","State":"Nordrhein-Westfalen","County":"Rhein-Sieg-Kreis","City":"Troisdorf","District":"Sieglar","Street":"Vorgebirgsblick","HouseNumber":"8","PostalCode":"53844","AdditionalData":[{"value":"Deutschland","key":"CountryName"},{"value":"Nordrhein-Westfalen","key":"StateName"},{"value":"Rhein-Sieg-Kreis","key":"CountyName"}]},"MapReference":{"ReferenceId":"717932807","Spot":0.83,"SideOfStreet":"right","CountryId":"20147700","StateId":"20157369","CountyId":"20158889","CityId":"20159037","DistrictId":"20159040","AddressId":"193850162","RoadLinkId":"122835836"}}},{"Relevance":1.0,"Distance":67.5,"MatchLevel":"street","MatchQuality":{"Country":1.0,"State":1.0,"County":1.0,"City":1.0,"District":1.0,"Street":[1.0],"PostalCode":1.0},"Location":{"LocationId":"NT_g88GA9PxqHcAkcD6EuvPfD_l_717932806_L","LocationType":"point","DisplayPosition":{"Latitude":50.79537,"Longitude":7.11621},"MapView":{"TopLeft":{"Latitude":50.79537,"Longitude":7.11621},"BottomRight":{"Latitude":50.79532,"Longitude":7.11629}},"Address":{"Label":"Vorgebirgsblick, 53844 Troisdorf, Deutschland","Country":"DEU","State":"Nordrhein-Westfalen","County":"Rhein-Sieg-Kreis","City":"Troisdorf","District":"Eschmar","Street":"Vorgebirgsblick","PostalCode":"53844","AdditionalData":[{"value":"Deutschland","key":"CountryName"},{"value":"Nordrhein-Westfalen","key":"StateName"},{"value":"Rhein-Sieg-Kreis","key":"CountyName"}]},"MapReference":{"ReferenceId":"717932806","Spot":1.0,"SideOfStreet":"left","CountryId":"20147700","StateId":"20157369","CountyId":"20158889","CityId":"20159037","DistrictId":"23416484"}}},{"Relevance":1.0,"Distance":69.1,"MatchLevel":"houseNumber","MatchQuality":{"Country":1.0,"State":1.0,"County":1.0,"City":1.0,"District":1.0,"Street":[1.0],"HouseNumber":1.0,"PostalCode":1.0},"MatchType":"interpolated","Location":{"LocationId":"NT_I4nNUwWUVFbt9gt-GZyZZD_xgD","LocationType":"point","DisplayPosition":{"Latitude":50.79502,"Longitude":7.11555},"MapView":{"TopLeft":{"Latitude":50.7961442,"Longitude":7.1137716},"BottomRight":{"Latitude":50.7938958,"Longitude":7.1173284}},"Address":{"Label":"Gilmerich 18, 53844 Troisdorf, Deutschland","Country":"DEU","State":"Nordrhein-Westfalen","County":"Rhein-Sieg-Kreis","City":"Troisdorf","District":"Eschmar","Street":"Gilmerich","HouseNumber":"18","PostalCode":"53844","AdditionalData":[{"value":"Deutschland","key":"CountryName"},{"value":"Nordrhein-Westfalen","key":"StateName"},{"value":"Rhein-Sieg-Kreis","key":"CountyName"}]},"MapReference":{"ReferenceId":"51026140","Spot":0.22,"SideOfStreet":"right","CountryId":"20147700","StateId":"20157369","CountyId":"20158889","CityId":"20159037","DistrictId":"23416484","AddressId":"193506380","RoadLinkId":"39334723"}}}]}]}}