{"Response":{"MetaInfo":{"Timestamp":"2020-03-28T10:21:08.745+0000","NextPageInformation":"2"},"View":[{"_type":"SearchResultsViewType","ViewId":0,"Result":[{"Relevance":1.0,"Distance":0.0,"Direction":0.0,"MatchLevel":"district","MatchQuality":{"Country":1.0,"State":1.0,"County":1.0,"City":1.0,"District":1.0,"PostalCode":1.0},"Location":{"LocationId":"NT_gctehJU-fdtR7g96pWBiBA","LocationType":"point","DisplayPosition":{"Latitude":50.7737126,"Longitude":11.0381371},"MapView":{"TopLeft":{"Latitude":50.77565,"Longitude":11.02976},"BottomRight":{"Latitude":50.76912,"Longitude":11.0393}},"Address":{"Label":"Niederwillingen, Stadtilm, Thüringen, Deutschland","Country":"DEU","State":"Thüringen","County":"Ilm-Kreis","City":"Stadtilm","District":"Niederwillingen","PostalCode":"99326","AdditionalData":[{"value":"Deutschland","key":"CountryName"},{"value":"Thüringen","key":"StateName"},{"value":"Ilm-Kreis","key":"CountyName"}]},"MapReference":{"ReferenceId":"548048061","SideOfStreet":"neither","CountryId":"20147700","StateId":"20196974","CountyId":"20198413","CityId":"20198522","DistrictId":"20216322"}}},{"Relevance":1.0,"Distance":3.7,"MatchLevel":"houseNumber","MatchQuality":{"Country":1.0,"State":1.0,"County":1.0,"City":1.0,"District":1.0,"Street":[1.0],"HouseNumber":1.0,"PostalCode":1.0},"MatchType":"interpolated","Location":{"LocationId":"NT_ynXW99ZEU4Gg84DSqogEcC_zA","LocationType":"point","DisplayPosition":{"Latitude":50.77368,"Longitude":11.03815},"MapView":{"TopLeft":{"Latitude":50.7748042,"Longitude":11.0363724},"BottomRight":{"Latitude":50.7725558,"Longitude":11.0399276}},"Address":{"Label":"Schulstraße 3, 99326 Stadtilm, Deutschland","Country":"DEU","State":"Thüringen","County":"Ilm-Kreis","City":"Stadtilm","District":"Niederwillingen","Street":"Schulstraße","HouseNumber":"3","PostalCode":"99326","AdditionalData":[{"value":"Deutschland","key":"CountryName"},{"value":"Thüringen","key":"StateName"},{"value":"Ilm-Kreis","key":"CountyName"}]},"MapReference":{"ReferenceId":"548048018","Spot":0.56,"SideOfStreet":"left","CountryId":"20147700","StateId":"20196974","CountyId":"20198413","CityId":"20198522","DistrictId":"20216322","AddressId":"189276520","RoadLinkId":"40008104"}}},{"Relevance":1.0,"Distance":37.3,"MatchLevel":"houseNumber","MatchQuality":{"Country":1.0,"State":1.0,"County":1.0,"City":1.0,"District":1.0,"Street":[1.0],"HouseNumber":1.0,"PostalCode":1.0},"MatchType":"interpolated","Location":{"LocationId":"NT_ynXW99ZEU4Gg84DSqogEcC_2A","LocationType":"point","DisplayPosition":{"Latitude":50.77407,"Longitude":11.03839},"MapView":{"TopLeft":{"Latitude":50.7751942,"Longitude":11.0366123},"BottomRight":{"Latitude":50.7729458,"Longitude":11.0401677}},"Address":{"Label":"Schulstraße 6, 99326 Stadtilm, Deutschland","Country":"DEU","State":"Thüringen","County":"Ilm-Kreis","City":"Stadtilm","District":"Niederwillingen","Street":"Schulstraße","HouseNumber":"6","PostalCode":"99326","AdditionalData":[{"value":"Deutschland","key":"CountryName"},{"value":"Thüringen","key":"StateName"},{"value":"Ilm-Kreis","key":"CountyName"}]},"MapReference":{"ReferenceId":"548048028","Spot":0.15,"SideOfStreet":"right","CountryId":"20147700","StateId":"20196974","CountyId":"20198413","CityId":"20198522","DistrictId":"20216322","AddressId":"703713050","RoadLinkId":"450920911"}}},{"Relevance":1.0,"Distance":54.9,"MatchLevel":"houseNumber","MatchQuality":{"Country":1.0,"State":1.0,"County":1.0,"City":1.0,"District":1.0,"Street":[1.0],"HouseNumber":1.0,"PostalCode":1.0},"MatchType":"interpolated","Location":{"LocationId":"NT_ynXW99ZEU4Gg84DSqogEcC_xID","LocationType":"point","DisplayPosition":{"Latitude":50.7742,"Longitude":11.03801},"MapView":{"TopLeft":{"Latitude":50.7753242,"Longitude":11.0362323},"BottomRight":{"Latitude":50.7730758,"Longitude":11.0397877}},"Address":{"Label":"Schulstraße 12, 99326 Stadtilm, Deutschland","Country":"DEU","State":"Thüringen","County":"Ilm-Kreis","City":"Stadtilm","District":"Niederwillingen","Street":"Schulstraße","HouseNumber":"12","PostalCode":"99326","AdditionalData":[{"value":"Deutschland","key":"CountryName"},{"value":"Thüringen","key":"StateName"},{"value":"Ilm-Kreis","key":"CountyName"}]},"MapReference":{"ReferenceId":"548048031","Spot":0.65,"SideOfStreet":"right","CountryId":"20147700","StateId":"20196974","CountyId":"20198413","CityId":"20198522","DistrictId":"20216322","AddressId":"189400321","RoadLinkId":"39683029"}}},{"Relevance":1.0,"Distance":55.9,"MatchLevel":"houseNumber","MatchQuality":{"Country":1.0,"State":1.0,"County":1.0,"City":1.0,"District":1.0,"Street":[1.0],"HouseNumber":1.0,"PostalCode":1.0},"MatchType":"interpolated","Location":{"LocationId":"NT_lGYkr1WSYIl8LKTnDnEjIA_xAD","LocationType":"point","DisplayPosition":{"Latitude":50.77321,"Longitude":11.03815},"MapView":{"TopLeft":{"Latitude":50.7743342,"Longitude":11.0363724},"BottomRight":{"Latitude":50.7720858,"Longitude":11.0399276}},"Address":{"Label":"Kirchstraße 10, 99326 Stadtilm, Deutschland","Country":"DEU","State":"Thüringen","County":"Ilm-Kreis","City":"Stadtilm","District":"Niederwillingen","Street":"Kirchstraße","HouseNumber":"10","PostalCode":"99326","AdditionalData":[{"value":"Deutschland","key":"CountryName"},{"value":"Thüringen","key":"StateName"},{"value":"Ilm-Kreis","key":"CountyName"}]},"MapReference":{"ReferenceId":"548048159","Spot":0.21,"SideOfStreet":"right","CountryId":"20147700","StateId":"20196974","CountyId":"20198413","CityId":"20198522","DistrictId":"20216322","AddressId":"189415780","RoadLinkId":"39677404"}}},{"Relevance":1.0,"Distance":60.7,"MatchLevel":"houseNumber","MatchQuality":{"Country":1.0,"State":1.0,"County":1.0,"City":1.0,"District":1.0,"Street":[1.0],"HouseNumber":1.0,"PostalCode":1.0},"MatchType":"interpolated","Location":{"LocationId":"NT_ynXW99ZEU4Gg84DSqogEcC_3A","LocationType":"point","DisplayPosition":{"Latitude":50.77431,"Longitude":11.03783},"MapView":{"TopLeft":{"Latitude":50.7754342,"Longitude":11.0360523},"BottomRight":{"Latitude":50.7731858,"Longitude":11.0396077}},"Address":{"Label":"Schulstraße 7, 99326 Stadtilm, Deutschland","Country":"DEU","State":"Thüringen","County":"Ilm-Kreis","City":"Stadtilm","District":"Niederwillingen","Street":"Schulstraße","HouseNumber":"7","PostalCode":"99326","AdditionalData":[{"value":"Deutschland","key":"CountryName"},{"value":"Thüringen","key":"StateName"},{"value":"Ilm-Kreis","key":"CountyName"}]},"MapReference":{"ReferenceId":"548048048","Spot":0.05,"SideOfStreet":"left","CountryId":"20147700","StateId":"20196974","CountyId":"20198413","CityId":"20198522","DistrictId":"20216322","AddressId":"189564432","RoadLinkId":"40039545"}}},{"Relevance":1.0,"Distance":73.3,"MatchLevel":"street","MatchQuality":{"Country":1.0,"State":1.0,"County":1.0,"City":1.0,"District":1.0,"Street":[1.0],"PostalCode":1.0},"Location":{"LocationId":"NT_lGYkr1WSYIl8LKTnDnEjIA_l_548048160_R","LocationType":"point","DisplayPosition":{"Latitude":50.77322,"Longitude":11.03883},"MapView":{"TopLeft":{"Latitude":50.77322,"Longitude":11.03883},"BottomRight":{"Latitude":50.77321,"Longitude":11.03907}},"Address":{"Label":"Kirchstraße, 99326 Stadtilm, Deutschland","Country":"DEU","State":"Thüringen","County":"Ilm-Kreis","City":"Stadtilm","District":"Niederwillingen","Street":"Kirchstraße","PostalCode":"99326","AdditionalData":[{"value":"Deutschland","key":"CountryName"},{"value":"Thüringen","key":"StateName"},{"value":"Ilm-Kreis","key":"CountyName"}]},"MapReference":{"ReferenceId":"548048160","Spot":1.0,"SideOfStreet":"right","CountryId":"20147700","StateId":"20196974","CountyId":"20198413","CityId":"20198522","DistrictId":"20216322"}}},{"Relevance":1.0,"Distance":81.8,"MatchLevel":"houseNumber","MatchQuality":{"Country":1.0,"State":1.0,"County":1.0,"City":1.0,"District":1.0,"Street":[1.0],"HouseNumber":1.0,"PostalCode":1.0},"MatchType":"interpolated","Location":{"LocationId":"NT_lGYkr1WSYIl8LKTnDnEjIA_3A","LocationType":"point","DisplayPosition":{"Latitude":50.77316,"Longitude":11.03727},"MapView":{"TopLeft":{"Latitude":50.7742842,"Longitude":11.0354924},"BottomRight":{"Latitude":50.7720358,"Longitude":11.0390476}},"Address":{"Label":"Kirchstraße 7, 99326 Stadtilm, Deutschland","Country":"DEU","State":"Thüringen","County":"Ilm-Kreis","City":"Stadtilm","District":"Niederwillingen","Street":"Kirchstraße","HouseNumber":"7","PostalCode":"99326","AdditionalData":[{"value":"Deutschland","key":"CountryName"},{"value":"Thüringen","key":"StateName"},{"value":"Ilm-Kreis","key":"CountyName"}]},"MapReference":{"ReferenceId":"548059677","Spot":0.47,"SideOfStreet":"left","CountryId":"20147700","StateId":"20196974","CountyId":"20198413","CityId":"20198522","DistrictId":"20216322","AddressId":"189576018","RoadLinkId":"39754034"}}},{"Relevance":1.0,"Distance":85.6,"MatchLevel":"street","MatchQuality":{"Country":1.0,"State":1.0,"County":1.0,"City":1.0,"PostalCode":1.0},"Location":{"LocationId":"NT_p6MyNYIIUGIKzQSNi-R4OA_l_548048058_L","LocationType":"point","DisplayPosition":{"Latitude":50.77412,"Longitude":11.03917},"MapView":{"TopLeft":{"Latitude":50.77412,"Longitude":11.03917},"BottomRight":{"Latitude":50.77411,"Longitude":11.03957}},"Address":{"Label":"99326 Stadtilm, Deutschland","Country":"DEU","State":"Thüringen","County":"Ilm-Kreis","City":"Stadtilm","PostalCode":"99326","AdditionalData":[{"value":"Deutschland","key":"CountryName"},{"value":"Thüringen","key":"StateName"},{"value":"Ilm-Kreis","key":"CountyName"}]},"MapReference":{"ReferenceId":"548048058","Spot":1.0,"SideOfStreet":"left","CountryId":"20147700","StateId":"20196974","CountyId":"20198413","CityId":"20198522"}}},{"Relevance":1.0,"Distance":86.2,"MatchLevel":"street","MatchQuality":{"Country":1.0,"State":1.0,"County":1.0,"City":1.0,"Street":[1.0],"PostalCode":1.0},"Location":{"LocationId":"NT_DYnW8SMXjgRs5QyYNjCQYB_l_548048153_R","LocationType":"point","DisplayPosition":{"Latitude":50.77321,"Longitude":11.03907},"MapView":{"TopLeft":{"Latitude":50.77321,"Longitude":11.03907},"BottomRight":{"Latitude":50.77306,"Longitude":11.04001}},"Address":{"Label":"Kirchstraße, 99326 Stadtilm, Deutschland","Country":"DEU","State":"Thüringen","County":"Ilm-Kreis","City":"Stadtilm","Street":"Kirchstraße","PostalCode":"99326","AdditionalData":[{"value":"Deutschland","key":"CountryName"},{"value":"Thüringen","key":"StateName"},{"value":"Ilm-Kreis","key":"CountyName"}]},"MapReference":{"ReferenceId":"548048153","Spot":1.0,"SideOfStreet":"right","CountryId":"20147700","StateId":"20196974","CountyId":"20198413","CityId":"20198522"}}}]}]}}