{"Response":{"MetaInfo":{"Timestamp":"2020-03-28T11:38:17.145+0000","NextPageInformation":"2"},"View":[{"_type":"SearchResultsViewType","ViewId":0,"Result":[{"Relevance":1.0,"Distance":0.0,"Direction":0.0,"MatchLevel":"city","MatchQuality":{"Country":1.0,"State":1.0,"County":1.0,"City":1.0,"PostalCode":1.0},"Location":{"LocationId":"NT_YcyjCyB2bstBvMIdOvROcD","LocationType":"point","DisplayPosition":{"Latitude":50.7292553,"Longitude":4.2415427},"MapView":{"TopLeft":{"Latitude":50.7785,"Longitude":4.17197},"BottomRight":{"Latitude":50.68928,"Longitude":4.31154}},"Address":{"Label":"Halle, Vlaanderen, België","Country":"BEL","State":"Vlaanderen","County":"Vlaams Brabant","City":"Halle","PostalCode":"1500","AdditionalData":[{"value":"België","key":"CountryName"},{"value":"Vlaanderen","key":"StateName"},{"value":"Vlaams Brabant","key":"CountyName"}]},"MapReference":{"ReferenceId":"1132964970","SideOfStreet":"neither","CountryId":"20128886","StateId":"20204377","CountyId":"20207856","CityId":"20207896"}}},{"Relevance":1.0,"Distance":7.4,"MatchLevel":"houseNumber","MatchQuality":{"Country":1.0,"State":1.0,"County":1.0,"City":1.0,"Street":[1.0],"HouseNumber":1.0,"PostalCode":1.0},"MatchType":"interpolated","Location":{"LocationId":"NT_Z9-GeQ3JrlcU7X8BX2nGWC_xMDN","LocationType":"point","DisplayPosition":{"Latitude":50.72945,"Longitude":4.24178},"MapView":{"TopLeft":{"Latitude":50.7305742,"Longitude":4.240004},"BottomRight":{"Latitude":50.7283258,"Longitude":4.243556}},"Address":{"Label":"Sint-Rochusstraat 134, 1500 Halle, België","Country":"BEL","State":"Vlaanderen","County":"Vlaams Brabant","City":"Halle","Street":"Sint-Rochusstraat","HouseNumber":"134","PostalCode":"1500","AdditionalData":[{"value":"België","key":"CountryName"},{"value":"Vlaanderen","key":"StateName"},{"value":"Vlaams Brabant","key":"CountyName"}]},"MapReference":{"ReferenceId":"762930476","Spot":0.29,"SideOfStreet":"left","CountryId":"20128886","StateId":"20204377","CountyId":"20207856","CityId":"20207896","AddressId":"399423770","RoadLinkId":"157199837"}}},{"Relevance":1.0,"Distance":24.6,"MatchLevel":"houseNumber","MatchQuality":{"Country":1.0,"State":1.0,"County":1.0,"City":1.0,"Street":[1.0],"HouseNumber":1.0,"PostalCode":1.0},"MatchType":"interpolated","Location":{"LocationId":"NT_Z9-GeQ3JrlcU7X8BX2nGWC_xQDM","LocationType":"point","DisplayPosition":{"Latitude":50.72927,"Longitude":4.24205},"MapView":{"TopLeft":{"Latitude":50.7303942,"Longitude":4.240274},"BottomRight":{"Latitude":50.7281458,"Longitude":4.243826}},"Address":{"Label":"Sint-Rochusstraat 140, 1500 Halle, België","Country":"BEL","State":"Vlaanderen","County":"Vlaams Brabant","City":"Halle","Street":"Sint-Rochusstraat","HouseNumber":"140","PostalCode":"1500","AdditionalData":[{"value":"België","key":"CountryName"},{"value":"Vlaanderen","key":"StateName"},{"value":"Vlaams Brabant","key":"CountyName"}]},"MapReference":{"ReferenceId":"762930475","Spot":0.9,"SideOfStreet":"left","CountryId":"20128886","StateId":"20204377","CountyId":"20207856","CityId":"20207896","AddressId":"400327427","RoadLinkId":"157199836"}}},{"Relevance":1.0,"Distance":54.1,"MatchLevel":"houseNumber","MatchQuality":{"Country":1.0,"State":1.0,"County":1.0,"City":1.0,"Street":[1.0],"HouseNumber":1.0,"PostalCode":1.0},"MatchType":"interpolated","Location":{"LocationId":"NT_84gE2vfalON0KWrtpgqomD_xA","LocationType":"point","DisplayPosition":{"Latitude":50.72922,"Longitude":4.24247},"MapView":{"TopLeft":{"Latitude":50.7303442,"Longitude":4.240694},"BottomRight":{"Latitude":50.7280958,"Longitude":4.244246}},"Address":{"Label":"Albertstraat 1, 1500 Halle, België","Country":"BEL","State":"Vlaanderen","County":"Vlaams Brabant","City":"Halle","Street":"Albertstraat","HouseNumber":"1","PostalCode":"1500","AdditionalData":[{"value":"België","key":"CountryName"},{"value":"Vlaanderen","key":"StateName"},{"value":"Vlaams Brabant","key":"CountyName"}]},"MapReference":{"ReferenceId":"762927679","Spot":0.41,"SideOfStreet":"left","CountryId":"20128886","StateId":"20204377","CountyId":"20207856","CityId":"20207896","AddressId":"401699638","RoadLinkId":"157196327"}}},{"Relevance":1.0,"Distance":58.8,"MatchLevel":"street","MatchQuality":{"Country":1.0,"State":1.0,"County":1.0,"City":1.0,"Street":[1.0],"PostalCode":1.0},"Location":{"LocationId":"NT_eYiIf9pNZgHqPqL.6DcxYA_l_53741215_L","LocationType":"point","DisplayPosition":{"Latitude":50.72912,"Longitude":4.24235},"MapView":{"TopLeft":{"Latitude":50.72912,"Longitude":4.24235},"BottomRight":{"Latitude":50.72903,"Longitude":4.2426}},"Address":{"Label":"Halleweg, 1500 Halle, België","Country":"BEL","State":"Vlaanderen","County":"Vlaams Brabant","City":"Halle","Street":"Halleweg","PostalCode":"1500","AdditionalData":[{"value":"België","key":"CountryName"},{"value":"Vlaanderen","key":"StateName"},{"value":"Vlaams Brabant","key":"CountyName"}]},"MapReference":{"ReferenceId":"53741215","Spot":1.0,"SideOfStreet":"left","CountryId":"20128886","StateId":"20204377","CountyId":"20207856","CityId":"20207896"}}},{"Relevance":1.0,"Distance":58.8,"MatchLevel":"street","MatchQuality":{"Country":1.0,"State":1.0,"County":1.0,"City":1.0,"Street":[1.0],"PostalCode":1.0},"Location":{"LocationId":"NT_dmxjaXcO0WXM9nWu1Bv2DD_l_544990549_L","LocationType":"point","DisplayPosition":{"Latitude":50.72912,"Longitude":4.24235},"MapView":{"TopLeft":{"Latitude":50.72912,"Longitude":4.24235},"BottomRight":{"Latitude":50.72896,"Longitude":4.24248}},"Address":{"Label":"Nijvelsesteenweg, 1500 Halle, België","Country":"BEL","State":"Vlaanderen","County":"Vlaams Brabant","City":"Halle","Street":"Nijvelsesteenweg","PostalCode":"1500","AdditionalData":[{"value":"België","key":"CountryName"},{"value":"Vlaanderen","key":"StateName"},{"value":"Vlaams Brabant","key":"CountyName"}]},"MapReference":{"ReferenceId":"544990549","Spot":1.0,"SideOfStreet":"left","CountryId":"20128886","StateId":"20204377","CountyId":"20207856","CityId":"20207896"}}},{"Relevance":1.0,"Distance":59.1,"MatchLevel":"street","MatchQuality":{"Country":1.0,"State":1.0,"County":1.0,"City":1.0,"Street":[1.0],"PostalCode":1.0},"Location":{"LocationId":"NT_9ZHLG4BLuga5uAhi6HcdzB_l_1211985614_L","LocationType":"point","DisplayPosition":{"Latitude":50.72896,"Longitude":4.24224},"MapView":{"TopLeft":{"Latitude":50.72912,"Longitude":4.24224},"BottomRight":{"Latitude":50.72875,"Longitude":4.24235}},"Address":{"Label":"Biezeweide, 1500 Halle, België","Country":"BEL","State":"Vlaanderen","County":"Vlaams Brabant","City":"Halle","Street":"Biezeweide","PostalCode":"1500","AdditionalData":[{"value":"België","key":"CountryName"},{"value":"Vlaanderen","key":"StateName"},{"value":"Vlaams Brabant","key":"CountyName"}]},"MapReference":{"ReferenceId":"1211985614","Spot":0.52,"SideOfStreet":"left","CountryId":"20128886","StateId":"20204377","CountyId":"20207856","CityId":"20207896"}}},{"Relevance":1.0,"Distance":68.3,"MatchLevel":"street","MatchQuality":{"Country":1.0,"State":1.0,"County":1.0,"City":1.0,"Street":[1.0],"PostalCode":1.0},"Location":{"LocationId":"NT_eNGkkVVKa0AtABpxuLC-bA_l_1155263987_R","LocationType":"point","DisplayPosition":{"Latitude":50.72983,"Longitude":4.2412},"MapView":{"TopLeft":{"Latitude":50.72983,"Longitude":4.24046},"BottomRight":{"Latitude":50.72945,"Longitude":4.2412}},"Address":{"Label":"Dynastieplein, 1500 Halle, België","Country":"BEL","State":"Vlaanderen","County":"Vlaams Brabant","City":"Halle","Street":"Dynastieplein","PostalCode":"1500","AdditionalData":[{"value":"België","key":"CountryName"},{"value":"Vlaanderen","key":"StateName"},{"value":"Vlaams Brabant","key":"CountyName"}]},"MapReference":{"ReferenceId":"1155263987","Spot":1.0,"SideOfStreet":"right","CountryId":"20128886","StateId":"20204377","CountyId":"20207856","CityId":"20207896"}}},{"Relevance":1.0,"Distance":69.9,"MatchLevel":"houseNumber","MatchQuality":{"Country":1.0,"State":1.0,"County":1.0,"City":1.0,"Street":[1.0],"HouseNumber":1.0,"PostalCode":1.0},"MatchType":"interpolated","Location":{"LocationId":"NT_2s1mIDUBp8oCQOStDiRwID_0A","LocationType":"point","DisplayPosition":{"Latitude":50.72997,"Longitude":4.24156},"MapView":{"TopLeft":{"Latitude":50.7310942,"Longitude":4.239784},"BottomRight":{"Latitude":50.7288458,"Longitude":4.243336}},"Address":{"Label":"Leopold Deboeckstraat 4, 1500 Halle, België","Country":"BEL","State":"Vlaanderen","County":"Vlaams Brabant","City":"Halle","Street":"Leopold Deboeckstraat","HouseNumber":"4","PostalCode":"1500","AdditionalData":[{"value":"België","key":"CountryName"},{"value":"Vlaanderen","key":"StateName"},{"value":"Vlaams Brabant","key":"CountyName"}]},"MapReference":{"ReferenceId":"763658863","Spot":0.16,"SideOfStreet":"right","CountryId":"20128886","StateId":"20204377","CountyId":"20207856","CityId":"20207896","AddressId":"400160343","RoadLinkId":"157986954"}}},{"Relevance":1.0,"Distance":73.0,"MatchLevel":"houseNumber","MatchQuality":{"Country":1.0,"State":1.0,"County":1.0,"City":1.0,"Street":[1.0],"HouseNumber":1.0,"PostalCode":1.0},"MatchType":"interpolated","Location":{"LocationId":"NT_9ZHLG4BLuga5uAhi6HcdzB_xAD","LocationType":"point","DisplayPosition":{"Latitude":50.72869,"Longitude":4.24224},"MapView":{"TopLeft":{"Latitude":50.7298142,"Longitude":4.2404641},"BottomRight":{"Latitude":50.7275658,"Longitude":4.2440159}},"Address":{"Label":"Biezeweide 10, 1500 Halle, België","Country":"BEL","State":"Vlaanderen","County":"Vlaams Brabant","City":"Halle","Street":"Biezeweide","HouseNumber":"10","PostalCode":"1500","AdditionalData":[{"value":"België","key":"CountryName"},{"value":"Vlaanderen","key":"StateName"},{"value":"Vlaams Brabant","key":"CountyName"}]},"MapReference":{"ReferenceId":"1222634423","Spot":0.97,"SideOfStreet":"left","CountryId":"20128886","StateId":"20204377","CountyId":"20207856","CityId":"20207896","AddressId":"399957587","RoadLinkId":"540380386"}}}]}]}}