{"Response":{"MetaInfo":{"Timestamp":"2020-03-28T12:06:17.436+0000","NextPageInformation":"2"},"View":[{"_type":"SearchResultsViewType","ViewId":0,"Result":[{"Relevance":1.0,"Distance":-3939.4,"MatchLevel":"landmark","MatchQuality":{"Country":1.0,"State":1.0,"County":1.0,"City":1.0,"District":1.0,"Street":[1.0],"PostalCode":1.0,"Name":1.0},"Location":{"LocationId":"NT_CiG4linAJ4usHgI3ID5QHB_p_GunsI0XufWusUyCo8g06OD","LocationType":"park","Name":"Karkonoski Park Narodowy","DisplayPosition":{"Latitude":50.76861,"Longitude":15.73499},"MapView":{"TopLeft":{"Latitude":50.94442,"Longitude":15.26695},"BottomRight":{"Latitude":50.7203,"Longitude":15.99022}},"Address":{"Label":"ulica Olimpijska, 58-540 Karpacz, Polska","Country":"POL","State":"Woj. Dolnośląskie","County":"Powiat Jeleniogórski","City":"Karpacz","District":"Karpacz","Street":"ulica Olimpijska","PostalCode":"58-540","AdditionalData":[{"value":"Polska","key":"CountryName"},{"value":"Woj. Dolnośląskie","key":"StateName"},{"value":"Powiat Jeleniogórski","key":"CountyName"}]},"MapReference":{"CountryId":"20624059","StateId":"20625002","CountyId":"20625076","CityId":"20625081","DistrictId":"20625081","PlaceId":"559094343"}}},{"Relevance":1.0,"Distance":0.0,"Direction":0.0,"MatchLevel":"district","MatchQuality":{"Country":1.0,"State":1.0,"County":1.0,"City":1.0,"District":1.0,"PostalCode":1.0},"Location":{"LocationId":"NT_6Wwx9r8r78JNGPYpdOYmzC","LocationType":"point","DisplayPosition":{"Latitude":50.7763999,"Longitude":15.7430035},"MapView":{"TopLeft":{"Latitude":50.78441,"Longitude":15.71829},"BottomRight":{"Latitude":50.76701,"Longitude":15.78537}},"Address":{"Label":"Karpacz, Woj. Dolnośląskie, Polska","Country":"POL","State":"Woj. Dolnośląskie","County":"Powiat Jeleniogórski","City":"Karpacz","District":"Karpacz","PostalCode":"58-540","AdditionalData":[{"value":"Polska","key":"CountryName"},{"value":"Woj. Dolnośląskie","key":"StateName"},{"value":"Powiat Jeleniogórski","key":"CountyName"}]},"MapReference":{"ReferenceId":"791206089","SideOfStreet":"neither","CountryId":"20624059","StateId":"20625002","CountyId":"20625076","CityId":"20625081","DistrictId":"20680183"}}},{"Relevance":1.0,"Distance":15.8,"MatchLevel":"houseNumber","MatchQuality":{"Country":1.0,"State":1.0,"County":1.0,"City":1.0,"District":1.0,"Street":[1.0],"HouseNumber":1.0,"PostalCode":1.0},"MatchType":"interpolated","Location":{"LocationId":"NT_9gxoulOo9QvEE.y3G9A.eB_4ID","LocationType":"point","DisplayPosition":{"Latitude":50.77625,"Longitude":15.74321},"MapView":{"TopLeft":{"Latitude":50.7773742,"Longitude":15.7414323},"BottomRight":{"Latitude":50.7751258,"Longitude":15.7449877}},"Address":{"Label":"ulica Konstytucji 3 Maja 82, 58-540 Karpacz, Polska","Country":"POL","State":"Woj. Dolnośląskie","County":"Powiat Jeleniogórski","City":"Karpacz","District":"Karpacz","Street":"ulica Konstytucji 3 Maja","HouseNumber":"82","PostalCode":"58-540","AdditionalData":[{"value":"Polska","key":"CountryName"},{"value":"Woj. Dolnośląskie","key":"StateName"},{"value":"Powiat Jeleniogórski","key":"CountyName"}]},"MapReference":{"ReferenceId":"859179170","Spot":0.98,"SideOfStreet":"left","CountryId":"20624059","StateId":"20625002","CountyId":"20625076","CityId":"20625081","DistrictId":"20680183","AddressId":"211438000","RoadLinkId":"234883478"}}},{"Relevance":1.0,"Distance":19.1,"MatchLevel":"street","MatchQuality":{"Country":1.0,"State":1.0,"County":1.0,"City":1.0,"District":1.0,"Street":[1.0],"PostalCode":1.0},"Location":{"LocationId":"NT_wHd2KokoLgGmpsTDd26MgB_l_594246099_L","LocationType":"point","DisplayPosition":{"Latitude":50.7765696,"Longitude":15.7429586},"MapView":{"TopLeft":{"Latitude":50.77669,"Longitude":15.74262},"BottomRight":{"Latitude":50.77606,"Longitude":15.74452}},"Address":{"Label":"ulica Rybacka, 58-540 Karpacz, Polska","Country":"POL","State":"Woj. Dolnośląskie","County":"Powiat Jeleniogórski","City":"Karpacz","District":"Karpacz","Street":"ulica Rybacka","PostalCode":"58-540","AdditionalData":[{"value":"Polska","key":"CountryName"},{"value":"Woj. Dolnośląskie","key":"StateName"},{"value":"Powiat Jeleniogórski","key":"CountyName"}]},"MapReference":{"ReferenceId":"594246099","Spot":0.84,"SideOfStreet":"left","CountryId":"20624059","StateId":"20625002","CountyId":"20625076","CityId":"20625081","DistrictId":"20680183"}}},{"Relevance":1.0,"Distance":28.4,"MatchLevel":"street","MatchQuality":{"Country":1.0,"State":1.0,"County":1.0,"City":1.0,"District":1.0,"Street":[1.0],"PostalCode":1.0},"Location":{"LocationId":"NT_wHd2KokoLgGmpsTDd26MgB_l_1105709450_R","LocationType":"point","DisplayPosition":{"Latitude":50.77648,"Longitude":15.74262},"MapView":{"TopLeft":{"Latitude":50.77648,"Longitude":15.74234},"BottomRight":{"Latitude":50.77646,"Longitude":15.74262}},"Address":{"Label":"ulica Rybacka, 58-540 Karpacz, Polska","Country":"POL","State":"Woj. Dolnośląskie","County":"Powiat Jeleniogórski","City":"Karpacz","District":"Karpacz","Street":"ulica Rybacka","PostalCode":"58-540","AdditionalData":[{"value":"Polska","key":"CountryName"},{"value":"Woj. Dolnośląskie","key":"StateName"},{"value":"Powiat Jeleniogórski","key":"CountyName"}]},"MapReference":{"ReferenceId":"1105709450","Spot":1.0,"SideOfStreet":"right","CountryId":"20624059","StateId":"20625002","CountyId":"20625076","CityId":"20625081","DistrictId":"20680183"}}},{"Relevance":1.0,"Distance":45.2,"MatchLevel":"houseNumber","MatchQuality":{"Country":1.0,"State":1.0,"County":1.0,"City":1.0,"District":1.0,"Street":[1.0],"HouseNumber":1.0,"PostalCode":1.0},"MatchType":"interpolated","Location":{"LocationId":"NT_9gxoulOo9QvEE.y3G9A.eB_4AD","LocationType":"point","DisplayPosition":{"Latitude":50.77627,"Longitude":15.74364},"MapView":{"TopLeft":{"Latitude":50.7773942,"Longitude":15.7418623},"BottomRight":{"Latitude":50.7751458,"Longitude":15.7454177}},"Address":{"Label":"ulica Konstytucji 3 Maja 80, 58-540 Karpacz, Polska","Country":"POL","State":"Woj. Dolnośląskie","County":"Powiat Jeleniogórski","City":"Karpacz","District":"Karpacz","Street":"ulica Konstytucji 3 Maja","HouseNumber":"80","PostalCode":"58-540","AdditionalData":[{"value":"Polska","key":"CountryName"},{"value":"Woj. Dolnośląskie","key":"StateName"},{"value":"Powiat Jeleniogórski","key":"CountyName"}]},"MapReference":{"ReferenceId":"791158303","Spot":0.69,"SideOfStreet":"right","CountryId":"20624059","StateId":"20625002","CountyId":"20625076","CityId":"20625081","DistrictId":"20680183","AddressId":"210877408","RoadLinkId":"183330871"}}},{"Relevance":1.0,"Distance":47.1,"MatchLevel":"street","MatchQuality":{"Country":1.0,"State":1.0,"County":1.0,"City":1.0,"District":1.0,"Street":[1.0],"PostalCode":1.0},"Location":{"LocationId":"NT_wHd2KokoLgGmpsTDd26MgB_l_1105709451_R","LocationType":"point","DisplayPosition":{"Latitude":50.77646,"Longitude":15.74234},"MapView":{"TopLeft":{"Latitude":50.77669,"Longitude":15.74204},"BottomRight":{"Latitude":50.77646,"Longitude":15.74234}},"Address":{"Label":"ulica Rybacka, 58-540 Karpacz, Polska","Country":"POL","State":"Woj. Dolnośląskie","County":"Powiat Jeleniogórski","City":"Karpacz","District":"Karpacz","Street":"ulica Rybacka","PostalCode":"58-540","AdditionalData":[{"value":"Polska","key":"CountryName"},{"value":"Woj. Dolnośląskie","key":"StateName"},{"value":"Powiat Jeleniogórski","key":"CountyName"}]},"MapReference":{"ReferenceId":"1105709451","Spot":0.0,"SideOfStreet":"right","CountryId":"20624059","StateId":"20625002","CountyId":"20625076","CityId":"20625081","DistrictId":"20680183"}}},{"Relevance":1.0,"Distance":50.6,"MatchLevel":"landmark","MatchQuality":{"Country":1.0,"State":1.0,"County":1.0,"Name":1.0},"Location":{"LocationId":"NT_U8VrSiGn3cerXhsohyU-KD","LocationType":"river","Name":"Łomnica","DisplayPosition":{"Latitude":50.81329,"Longitude":15.76794},"MapView":{"TopLeft":{"Latitude":50.86621,"Longitude":15.72422},"BottomRight":{"Latitude":50.76448,"Longitude":15.79897}},"Address":{"Label":"Polska","Country":"POL","State":"Woj. Dolnośląskie","County":"Powiat Jeleniogórski","AdditionalData":[{"value":"Polska","key":"CountryName"},{"value":"Woj. Dolnośląskie","key":"StateName"},{"value":"Powiat Jeleniogórski","key":"CountyName"}]},"MapReference":{"CountryId":"20624059","StateId":"20625002","CountyId":"20625076","PlaceId":"1404459304"}}},{"Relevance":1.0,"Distance":57.3,"MatchLevel":"houseNumber","MatchQuality":{"Country":1.0,"State":1.0,"County":1.0,"City":1.0,"District":1.0,"Street":[1.0],"HouseNumber":1.0,"PostalCode":1.0},"MatchType":"interpolated","Location":{"LocationId":"NT_tD0rjRXzd1WIJg64v9dDlB_xA","LocationType":"point","DisplayPosition":{"Latitude":50.77579,"Longitude":15.74348},"MapView":{"TopLeft":{"Latitude":50.7769142,"Longitude":15.7417023},"BottomRight":{"Latitude":50.7746658,"Longitude":15.7452577}},"Address":{"Label":"ulica Armii Krajowej 1, 58-540 Karpacz, Polska","Country":"POL","State":"Woj. Dolnośląskie","County":"Powiat Jeleniogórski","City":"Karpacz","District":"Karpacz","Street":"ulica Armii Krajowej","HouseNumber":"1","PostalCode":"58-540","AdditionalData":[{"value":"Polska","key":"CountryName"},{"value":"Woj. Dolnośląskie","key":"StateName"},{"value":"Powiat Jeleniogórski","key":"CountyName"}]},"MapReference":{"ReferenceId":"594246833","Spot":0.7,"SideOfStreet":"right","CountryId":"20624059","StateId":"20625002","CountyId":"20625076","CityId":"20625081","DistrictId":"20680183","AddressId":"210627350","RoadLinkId":"96309508"}}},{"Relevance":1.0,"Distance":77.5,"MatchLevel":"street","MatchQuality":{"Country":1.0,"State":1.0,"County":1.0,"City":1.0,"District":1.0,"Street":[1.0],"PostalCode":1.0},"Location":{"LocationId":"NT_9gxoulOo9QvEE.y3G9A.eB_l_859179169_L","LocationType":"point","DisplayPosition":{"Latitude":50.77593,"Longitude":15.74219},"MapView":{"TopLeft":{"Latitude":50.77593,"Longitude":15.74198},"BottomRight":{"Latitude":50.77582,"Longitude":15.74219}},"Address":{"Label":"ulica Konstytucji 3 Maja, 58-540 Karpacz, Polska","Country":"POL","State":"Woj. Dolnośląskie","County":"Powiat Jeleniogórski","City":"Karpacz","District":"Karpacz","Street":"ulica Konstytucji 3 Maja","PostalCode":"58-540","AdditionalData":[{"value":"Polska","key":"CountryName"},{"value":"Woj. Dolnośląskie","key":"StateName"},{"value":"Powiat Jeleniogórski","key":"CountyName"}]},"MapReference":{"ReferenceId":"859179169","Spot":1.0,"SideOfStreet":"left","CountryId":"20624059","StateId":"20625002","CountyId":"20625076","CityId":"20625081","DistrictId":"20680183"}}}]}]}}