{"Response":{"MetaInfo":{"Timestamp":"2020-03-28T10:53:44.078+0000","NextPageInformation":"2"},"View":[{"_type":"SearchResultsViewType","ViewId":0,"Result":[{"Relevance":1.0,"Distance":0.0,"Direction":0.0,"MatchLevel":"district","MatchQuality":{"Country":1.0,"State":1.0,"County":1.0,"City":1.0,"District":1.0,"PostalCode":1.0},"Location":{"LocationId":"NT_tk31s14TVm3UfAWnT4RZ5D","LocationType":"point","DisplayPosition":{"Latitude":50.7845254,"Longitude":14.6398659},"MapView":{"TopLeft":{"Latitude":50.79139,"Longitude":14.61408},"BottomRight":{"Latitude":50.76589,"Longitude":14.64698}},"Address":{"Label":"Cvikov, Liberecký kraj, Česká Republika","Country":"CZE","State":"Liberecký kraj","County":"Česká Lípa","City":"Cvikov","District":"Cvikov","PostalCode":"471 54","AdditionalData":[{"value":"Česká Republika","key":"CountryName"},{"value":"Liberecký kraj","key":"StateName"},{"value":"Česká Lípa","key":"CountyName"}]},"MapReference":{"ReferenceId":"706536252","SideOfStreet":"neither","CountryId":"20427915","StateId":"20437007","CountyId":"20437008","CityId":"20437036","DistrictId":"20437037"}}},{"Relevance":1.0,"Distance":5.9,"MatchLevel":"street","MatchQuality":{"Country":1.0,"State":1.0,"County":1.0,"City":1.0,"District":1.0,"Street":[1.0],"PostalCode":1.0},"Location":{"LocationId":"NT_DAQLCZORv-HjtX9uQH6SZA_l_1116168903_L","LocationType":"point","DisplayPosition":{"Latitude":50.78452,"Longitude":14.63995},"MapView":{"TopLeft":{"Latitude":50.78459,"Longitude":14.63995},"BottomRight":{"Latitude":50.78452,"Longitude":14.64002}},"Address":{"Label":"Ústavní, 471 54 Cvikov, Česká Republika","Country":"CZE","State":"Liberecký kraj","County":"Česká Lípa","City":"Cvikov","District":"Cvikov","Street":"Ústavní","PostalCode":"471 54","AdditionalData":[{"value":"Česká Republika","key":"CountryName"},{"value":"Liberecký kraj","key":"StateName"},{"value":"Česká Lípa","key":"CountyName"}]},"MapReference":{"ReferenceId":"1116168903","Spot":0.0,"SideOfStreet":"left","CountryId":"20427915","StateId":"20437007","CountyId":"20437008","CityId":"20437036","DistrictId":"20437037"}}},{"Relevance":1.0,"Distance":6.0,"MatchLevel":"houseNumber","MatchQuality":{"Country":1.0,"State":1.0,"County":1.0,"City":1.0,"District":1.0,"Street":[1.0],"HouseNumber":1.0,"PostalCode":1.0},"MatchType":"interpolated","Location":{"LocationId":"NT_DAQLCZORv-HjtX9uQH6SZA_1MDM","LocationType":"point","DisplayPosition":{"Latitude":50.78459,"Longitude":14.63967},"MapView":{"TopLeft":{"Latitude":50.7857142,"Longitude":14.6378919},"BottomRight":{"Latitude":50.7834658,"Longitude":14.6414481}},"Address":{"Label":"Ústavní 530, 471 54 Cvikov, Česká Republika","Country":"CZE","State":"Liberecký kraj","County":"Česká Lípa","City":"Cvikov","District":"Cvikov","Street":"Ústavní","HouseNumber":"530","PostalCode":"471 54","AdditionalData":[{"value":"Česká Republika","key":"CountryName"},{"value":"Liberecký kraj","key":"StateName"},{"value":"Česká Lípa","key":"CountyName"}]},"MapReference":{"ReferenceId":"1116168892","Spot":0.95,"SideOfStreet":"right","CountryId":"20427915","StateId":"20437007","CountyId":"20437008","CityId":"20437036","DistrictId":"20437037","AddressId":"239286354","RoadLinkId":"426333999"}}},{"Relevance":1.0,"Distance":13.0,"MatchLevel":"street","MatchQuality":{"Country":1.0,"State":1.0,"County":1.0,"City":1.0,"District":1.0,"Street":[1.0],"PostalCode":1.0},"Location":{"LocationId":"NT_DAQLCZORv-HjtX9uQH6SZA_l_705928626_L","LocationType":"point","DisplayPosition":{"Latitude":50.78459,"Longitude":14.64002},"MapView":{"TopLeft":{"Latitude":50.78509,"Longitude":14.64002},"BottomRight":{"Latitude":50.78459,"Longitude":14.64057}},"Address":{"Label":"Ústavní, 471 54 Cvikov, Česká Republika","Country":"CZE","State":"Liberecký kraj","County":"Česká Lípa","City":"Cvikov","District":"Cvikov","Street":"Ústavní","PostalCode":"471 54","AdditionalData":[{"value":"Česká Republika","key":"CountryName"},{"value":"Liberecký kraj","key":"StateName"},{"value":"Česká Lípa","key":"CountyName"}]},"MapReference":{"ReferenceId":"705928626","Spot":0.0,"SideOfStreet":"left","CountryId":"20427915","StateId":"20437007","CountyId":"20437008","CityId":"20437036","DistrictId":"20437037"}}},{"Relevance":1.0,"Distance":13.2,"MatchLevel":"street","MatchQuality":{"Country":1.0,"State":1.0,"County":1.0,"City":1.0,"District":1.0,"Street":[1.0],"PostalCode":1.0},"Location":{"LocationId":"NT_DAQLCZORv-HjtX9uQH6SZA_l_1116168888_L","LocationType":"point","DisplayPosition":{"Latitude":50.7846387,"Longitude":14.6399226},"MapView":{"TopLeft":{"Latitude":50.78465,"Longitude":14.6399},"BottomRight":{"Latitude":50.78459,"Longitude":14.64002}},"Address":{"Label":"Ústavní, 471 54 Cvikov, Česká Republika","Country":"CZE","State":"Liberecký kraj","County":"Česká Lípa","City":"Cvikov","District":"Cvikov","Street":"Ústavní","PostalCode":"471 54","AdditionalData":[{"value":"Česká Republika","key":"CountryName"},{"value":"Liberecký kraj","key":"StateName"},{"value":"Česká Lípa","key":"CountyName"}]},"MapReference":{"ReferenceId":"1116168888","Spot":0.81,"SideOfStreet":"left","CountryId":"20427915","StateId":"20437007","CountyId":"20437008","CityId":"20437036","DistrictId":"20437037"}}},{"Relevance":1.0,"Distance":14.1,"MatchLevel":"street","MatchQuality":{"Country":1.0,"State":1.0,"County":1.0,"City":1.0,"District":1.0,"Street":[1.0],"PostalCode":1.0},"Location":{"LocationId":"NT_DAQLCZORv-HjtX9uQH6SZA_l_1116168889_L","LocationType":"point","DisplayPosition":{"Latitude":50.78465,"Longitude":14.6399},"MapView":{"TopLeft":{"Latitude":50.7847,"Longitude":14.63979},"BottomRight":{"Latitude":50.78465,"Longitude":14.6399}},"Address":{"Label":"Ústavní, 471 54 Cvikov, Česká Republika","Country":"CZE","State":"Liberecký kraj","County":"Česká Lípa","City":"Cvikov","District":"Cvikov","Street":"Ústavní","PostalCode":"471 54","AdditionalData":[{"value":"Česká Republika","key":"CountryName"},{"value":"Liberecký kraj","key":"StateName"},{"value":"Česká Lípa","key":"CountyName"}]},"MapReference":{"ReferenceId":"1116168889","Spot":0.0,"SideOfStreet":"left","CountryId":"20427915","StateId":"20437007","CountyId":"20437008","CityId":"20437036","DistrictId":"20437037"}}},{"Relevance":1.0,"Distance":28.5,"MatchLevel":"houseNumber","MatchQuality":{"Country":1.0,"State":1.0,"County":1.0,"City":1.0,"District":1.0,"Street":[1.0],"HouseNumber":1.0,"PostalCode":1.0},"MatchType":"interpolated","Location":{"LocationId":"NT_DAQLCZORv-HjtX9uQH6SZA_1ITO","LocationType":"point","DisplayPosition":{"Latitude":50.78475,"Longitude":14.63967},"MapView":{"TopLeft":{"Latitude":50.7858742,"Longitude":14.6378919},"BottomRight":{"Latitude":50.7836258,"Longitude":14.6414481}},"Address":{"Label":"Ústavní 529, 471 54 Cvikov, Česká Republika","Country":"CZE","State":"Liberecký kraj","County":"Česká Lípa","City":"Cvikov","District":"Cvikov","Street":"Ústavní","HouseNumber":"529","PostalCode":"471 54","AdditionalData":[{"value":"Česká Republika","key":"CountryName"},{"value":"Liberecký kraj","key":"StateName"},{"value":"Česká Lípa","key":"CountyName"}]},"MapReference":{"ReferenceId":"705928482","Spot":0.23,"SideOfStreet":"right","CountryId":"20427915","StateId":"20437007","CountyId":"20437008","CityId":"20437036","DistrictId":"20437037","AddressId":"239630478","RoadLinkId":"145922483"}}},{"Relevance":1.0,"Distance":64.3,"MatchLevel":"street","MatchQuality":{"Country":1.0,"State":1.0,"County":1.0,"City":1.0,"District":1.0,"PostalCode":1.0},"Location":{"LocationId":"NT_oMnb8x7NPYuWVXITlpQViC_l_705928494_R","LocationType":"point","DisplayPosition":{"Latitude":50.78503,"Longitude":14.63942},"MapView":{"TopLeft":{"Latitude":50.78503,"Longitude":14.63928},"BottomRight":{"Latitude":50.78492,"Longitude":14.63942}},"Address":{"Label":"471 54 Cvikov, Česká Republika","Country":"CZE","State":"Liberecký kraj","County":"Česká Lípa","City":"Cvikov","District":"Cvikov","PostalCode":"471 54","AdditionalData":[{"value":"Česká Republika","key":"CountryName"},{"value":"Liberecký kraj","key":"StateName"},{"value":"Česká Lípa","key":"CountyName"}]},"MapReference":{"ReferenceId":"705928494","Spot":1.0,"SideOfStreet":"right","CountryId":"20427915","StateId":"20437007","CountyId":"20437008","CityId":"20437036","DistrictId":"20437037"}}},{"Relevance":1.0,"Distance":67.8,"MatchLevel":"street","MatchQuality":{"Country":1.0,"State":1.0,"County":1.0,"City":1.0,"District":1.0,"PostalCode":1.0},"Location":{"LocationId":"NT_oMnb8x7NPYuWVXITlpQViC_l_705899745_R","LocationType":"point","DisplayPosition":{"Latitude":50.7851017,"Longitude":14.6395515},"MapView":{"TopLeft":{"Latitude":50.78563,"Longitude":14.63942},"BottomRight":{"Latitude":50.78503,"Longitude":14.63978}},"Address":{"Label":"471 54 Cvikov, Česká Republika","Country":"CZE","State":"Liberecký kraj","County":"Česká Lípa","City":"Cvikov","District":"Cvikov","PostalCode":"471 54","AdditionalData":[{"value":"Česká Republika","key":"CountryName"},{"value":"Liberecký kraj","key":"StateName"},{"value":"Česká Lípa","key":"CountyName"}]},"MapReference":{"ReferenceId":"705899745","Spot":0.19,"SideOfStreet":"right","CountryId":"20427915","StateId":"20437007","CountyId":"20437008","CityId":"20437036","DistrictId":"20437037"}}},{"Relevance":1.0,"Distance":72.7,"MatchLevel":"houseNumber","MatchQuality":{"Country":1.0,"State":1.0,"County":1.0,"City":1.0,"District":1.0,"Street":[1.0],"HouseNumber":1.0,"PostalCode":1.0},"MatchType":"interpolated","Location":{"LocationId":"NT_DAQLCZORv-HjtX9uQH6SZA_2QDO","LocationType":"point","DisplayPosition":{"Latitude":50.78397,"Longitude":14.63939},"MapView":{"TopLeft":{"Latitude":50.7850942,"Longitude":14.637612},"BottomRight":{"Latitude":50.7828458,"Longitude":14.641168}},"Address":{"Label":"Ústavní 648, 471 54 Cvikov, Česká Republika","Country":"CZE","State":"Liberecký kraj","County":"Česká Lípa","City":"Cvikov","District":"Cvikov","Street":"Ústavní","HouseNumber":"648","PostalCode":"471 54","AdditionalData":[{"value":"Česká Republika","key":"CountryName"},{"value":"Liberecký kraj","key":"StateName"},{"value":"Česká Lípa","key":"CountyName"}]},"MapReference":{"ReferenceId":"1116168902","Spot":0.39,"SideOfStreet":"right","CountryId":"20427915","StateId":"20437007","CountyId":"20437008","CityId":"20437036","DistrictId":"20437037","AddressId":"241426966","RoadLinkId":"426334011"}}}]}]}}