{"Response":{"MetaInfo":{"Timestamp":"2020-03-28T10:09:51.233+0000","NextPageInformation":"2"},"View":[{"_type":"SearchResultsViewType","ViewId":0,"Result":[{"Relevance":1.0,"Distance":0.0,"Direction":0.0,"MatchLevel":"district","MatchQuality":{"Country":1.0,"State":1.0,"County":1.0,"City":1.0,"District":1.0,"PostalCode":1.0},"Location":{"LocationId":"NT_GdGyZL09.Vfok1Yy4f8JxA","LocationType":"point","DisplayPosition":{"Latitude":50.7237568,"Longitude":-3.5045587},"MapView":{"TopLeft":{"Latitude":50.73345,"Longitude":-3.51477},"BottomRight":{"Latitude":50.71187,"Longitude":-3.47457}},"Address":{"Label":"Heavitree, Exeter, England, United Kingdom","Country":"GBR","State":"England","County":"Devon","City":"Exeter","District":"Heavitree","PostalCode":"EX2 5","AdditionalData":[{"value":"United Kingdom","key":"CountryName"},{"value":"England","key":"StateName"},{"value":"Devon","key":"CountyName"}]},"MapReference":{"ReferenceId":"26663744","SideOfStreet":"neither","StateId":"20248595","CountyId":"20353913","CityId":"20354201","DistrictId":"20354228"}}},{"Relevance":1.0,"Distance":15.7,"MatchLevel":"postalCode","MatchQuality":{"PostalCode":1.0},"MatchType":"interpolated","Location":{"LocationId":"NT_HZnQUDYo8vvYtvXyf2Ry4D_l_762786840_L_yYD","LocationType":"point","DisplayPosition":{"Latitude":50.72386,"Longitude":-3.50471},"MapView":{"TopLeft":{"Latitude":50.7328532,"Longitude":-3.518916},"BottomRight":{"Latitude":50.7148668,"Longitude":-3.490504}},"Address":{"Label":"EX1 2SN, Exeter, England, United Kingdom","Country":"GBR","State":"England","County":"Devon","City":"Exeter","PostalCode":"EX1 2SN","AdditionalData":[{"value":"United Kingdom","key":"CountryName"},{"value":"England","key":"StateName"},{"value":"Devon","key":"CountyName"}]},"MapReference":{"ReferenceId":"762786840","Spot":0.78,"SideOfStreet":"neither","StateId":"20248595","CountyId":"20353913","CityId":"20354201"}}},{"Relevance":1.0,"Distance":20.0,"MatchLevel":"houseNumber","MatchQuality":{"Country":1.0,"State":1.0,"County":1.0,"City":1.0,"District":1.0,"Street":[1.0],"HouseNumber":1.0,"PostalCode":1.0},"MatchType":"interpolated","Location":{"LocationId":"NT_HZnQUDYo8vvYtvXyf2Ry4D_l_762786840_L_yYD","LocationType":"point","DisplayPosition":{"Latitude":50.7238967,"Longitude":-3.5047373},"MapView":{"TopLeft":{"Latitude":50.7250208,"Longitude":-3.5065131},"BottomRight":{"Latitude":50.7227725,"Longitude":-3.5029616}},"Address":{"Label":"26 South Lawn Terrace, Exeter, EX1 2, United Kingdom","Country":"GBR","State":"England","County":"Devon","City":"Exeter","District":"Heavitree","Street":"South Lawn Terrace","HouseNumber":"26","PostalCode":"EX1 2","AdditionalData":[{"value":"United Kingdom","key":"CountryName"},{"value":"England","key":"StateName"},{"value":"Devon","key":"CountyName"}]},"MapReference":{"ReferenceId":"762786840","Spot":0.78,"SideOfStreet":"left","StateId":"20248595","CountyId":"20353913","CityId":"20354201","DistrictId":"20354228"}}},{"Relevance":1.0,"Distance":24.1,"MatchLevel":"houseNumber","MatchQuality":{"Country":1.0,"State":1.0,"County":1.0,"City":1.0,"District":1.0,"Street":[1.0],"HouseNumber":1.0,"PostalCode":1.0},"MatchType":"interpolated","Location":{"LocationId":"NT_HZnQUDYo8vvYtvXyf2Ry4D_l_985879394_L_ycD","LocationType":"point","DisplayPosition":{"Latitude":50.72397,"Longitude":-3.5045},"MapView":{"TopLeft":{"Latitude":50.7250942,"Longitude":-3.5062757},"BottomRight":{"Latitude":50.7228459,"Longitude":-3.5027242}},"Address":{"Label":"27 South Lawn Terrace, Exeter, EX1 2, United Kingdom","Country":"GBR","State":"England","County":"Devon","City":"Exeter","District":"Heavitree","Street":"South Lawn Terrace","HouseNumber":"27","PostalCode":"EX1 2","AdditionalData":[{"value":"United Kingdom","key":"CountryName"},{"value":"England","key":"StateName"},{"value":"Devon","key":"CountyName"}]},"MapReference":{"ReferenceId":"985879394","Spot":0.0,"SideOfStreet":"left","StateId":"20248595","CountyId":"20353913","CityId":"20354201","DistrictId":"20354228"}}},{"Relevance":1.0,"Distance":31.1,"MatchLevel":"houseNumber","MatchQuality":{"Country":1.0,"State":1.0,"County":1.0,"City":1.0,"District":1.0,"Street":[1.0],"HouseNumber":1.0,"PostalCode":1.0},"MatchType":"interpolated","Location":{"LocationId":"NT_yPNh627ee.MZCKiNTD99oB_l_26663356_L_xA","LocationType":"point","DisplayPosition":{"Latitude":50.7241117,"Longitude":-3.5045845},"MapView":{"TopLeft":{"Latitude":50.7252359,"Longitude":-3.5063602},"BottomRight":{"Latitude":50.7229876,"Longitude":-3.5028087}},"Address":{"Label":"1 Stuart Road, Exeter, EX1 2SZ, United Kingdom","Country":"GBR","State":"England","County":"Devon","City":"Exeter","District":"Heavitree","Street":"Stuart Road","HouseNumber":"1","PostalCode":"EX1 2SZ","AdditionalData":[{"value":"United Kingdom","key":"CountryName"},{"value":"England","key":"StateName"},{"value":"Devon","key":"CountyName"}]},"MapReference":{"ReferenceId":"26663356","Spot":0.51,"SideOfStreet":"left","StateId":"20248595","CountyId":"20353913","CityId":"20354201","DistrictId":"20354228"}}},{"Relevance":1.0,"Distance":40.4,"MatchLevel":"houseNumber","MatchQuality":{"Country":1.0,"State":1.0,"County":1.0,"City":1.0,"District":1.0,"Street":[1.0],"HouseNumber":1.0,"PostalCode":1.0},"MatchType":"interpolated","Location":{"LocationId":"NT_HZnQUDYo8vvYtvXyf2Ry4D_l_985879395_L_ykD","LocationType":"point","DisplayPosition":{"Latitude":50.72404,"Longitude":-3.5041999},"MapView":{"TopLeft":{"Latitude":50.7251642,"Longitude":-3.5059757},"BottomRight":{"Latitude":50.7229159,"Longitude":-3.5024242}},"Address":{"Label":"29 South Lawn Terrace, Exeter, EX1 2SL, United Kingdom","Country":"GBR","State":"England","County":"Devon","City":"Exeter","District":"Heavitree","Street":"South Lawn Terrace","HouseNumber":"29","PostalCode":"EX1 2SL","AdditionalData":[{"value":"United Kingdom","key":"CountryName"},{"value":"England","key":"StateName"},{"value":"Devon","key":"CountyName"}]},"MapReference":{"ReferenceId":"985879395","Spot":0.3,"SideOfStreet":"left","StateId":"20248595","CountyId":"20353913","CityId":"20354201","DistrictId":"20354228"}}},{"Relevance":1.0,"Distance":51.3,"MatchLevel":"postalCode","MatchQuality":{"PostalCode":1.0},"MatchType":"interpolated","Location":{"LocationId":"NT_HZnQUDYo8vvYtvXyf2Ry4D_l_985879395_L_ykD","LocationType":"point","DisplayPosition":{"Latitude":50.72412,"Longitude":-3.50411},"MapView":{"TopLeft":{"Latitude":50.7331132,"Longitude":-3.5183161},"BottomRight":{"Latitude":50.7151268,"Longitude":-3.4899039}},"Address":{"Label":"EX1 2SL, Exeter, England, United Kingdom","Country":"GBR","State":"England","County":"Devon","City":"Exeter","PostalCode":"EX1 2SL","AdditionalData":[{"value":"United Kingdom","key":"CountryName"},{"value":"England","key":"StateName"},{"value":"Devon","key":"CountyName"}]},"MapReference":{"ReferenceId":"985879395","Spot":0.3,"SideOfStreet":"neither","StateId":"20248595","CountyId":"20353913","CityId":"20354201"}}},{"Relevance":1.0,"Distance":56.0,"MatchLevel":"street","MatchQuality":{"Country":1.0,"State":1.0,"County":1.0,"City":1.0,"District":1.0,"PostalCode":1.0},"Location":{"LocationId":"NT_hke--80PY2nMNPYdpCZcbC_l_26663316_L","LocationType":"point","DisplayPosition":{"Latitude":50.72426,"Longitude":-3.50455},"MapView":{"TopLeft":{"Latitude":50.72438,"Longitude":-3.50517},"BottomRight":{"Latitude":50.72426,"Longitude":-3.50455}},"Address":{"Label":"Exeter, EX1 2, United Kingdom","Country":"GBR","State":"England","County":"Devon","City":"Exeter","District":"Heavitree","PostalCode":"EX1 2","AdditionalData":[{"value":"United Kingdom","key":"CountryName"},{"value":"England","key":"StateName"},{"value":"Devon","key":"CountyName"}]},"MapReference":{"ReferenceId":"26663316","Spot":0.0,"SideOfStreet":"left","StateId":"20248595","CountyId":"20353913","CityId":"20354201","DistrictId":"20354228"}}},{"Relevance":1.0,"Distance":65.5,"MatchLevel":"houseNumber","MatchQuality":{"Country":1.0,"State":1.0,"County":1.0,"City":1.0,"District":1.0,"Street":[1.0],"HouseNumber":1.0,"PostalCode":1.0},"MatchType":"interpolated","Location":{"LocationId":"NT_yPNh627ee.MZCKiNTD99oB_l_26663315_R_yA","LocationType":"point","DisplayPosition":{"Latitude":50.7243802,"Longitude":-3.5044599},"MapView":{"TopLeft":{"Latitude":50.7255044,"Longitude":-3.5062357},"BottomRight":{"Latitude":50.7232561,"Longitude":-3.5026842}},"Address":{"Label":"2 Stuart Road, Exeter, EX1 2SZ, United Kingdom","Country":"GBR","State":"England","County":"Devon","City":"Exeter","District":"Heavitree","Street":"Stuart Road","HouseNumber":"2","PostalCode":"EX1 2SZ","AdditionalData":[{"value":"United Kingdom","key":"CountryName"},{"value":"England","key":"StateName"},{"value":"Devon","key":"CountyName"}]},"MapReference":{"ReferenceId":"26663315","Spot":0.12,"SideOfStreet":"right","StateId":"20248595","CountyId":"20353913","CityId":"20354201","DistrictId":"20354228"}}},{"Relevance":1.0,"Distance":66.3,"MatchLevel":"houseNumber","MatchQuality":{"Country":1.0,"State":1.0,"County":1.0,"City":1.0,"District":1.0,"Street":[1.0],"HouseNumber":1.0,"PostalCode":1.0},"MatchType":"interpolated","Location":{"LocationId":"NT_vWZnDXOcC1PiEM.e8zvXTD_l_26663386_L_2A","LocationType":"point","DisplayPosition":{"Latitude":50.7237,"Longitude":-3.5036099},"MapView":{"TopLeft":{"Latitude":50.7248242,"Longitude":-3.5053857},"BottomRight":{"Latitude":50.7225759,"Longitude":-3.5018342}},"Address":{"Label":"6 West Terrace, Exeter, EX1 2TF, United Kingdom","Country":"GBR","State":"England","County":"Devon","City":"Exeter","District":"Heavitree","Street":"West Terrace","HouseNumber":"6","PostalCode":"EX1 2TF","AdditionalData":[{"value":"United Kingdom","key":"CountryName"},{"value":"England","key":"StateName"},{"value":"Devon","key":"CountyName"}]},"MapReference":{"ReferenceId":"26663386","Spot":0.0,"SideOfStreet":"left","StateId":"20248595","CountyId":"20353913","CityId":"20354201","DistrictId":"20354228"}}}]}]}}