{"Response":{"MetaInfo":{"Timestamp":"2020-03-28T11:40:11.315+0000","NextPageInformation":"2"},"View":[{"_type":"SearchResultsViewType","ViewId":0,"Result":[{"Relevance":1.0,"Distance":0.0,"Direction":0.0,"MatchLevel":"district","MatchQuality":{"Country":1.0,"State":1.0,"County":1.0,"City":1.0,"District":1.0,"PostalCode":1.0},"Location":{"LocationId":"NT_VU9lpM1lJhgEdkGt2dDKvB","LocationType":"point","DisplayPosition":{"Latitude":50.7380078,"Longitude":8.2882733},"MapView":{"TopLeft":{"Latitude":50.76555,"Longitude":8.26356},"BottomRight":{"Latitude":50.72231,"Longitude":8.29881}},"Address":{"Label":"Dillenburg, Hessen, Deutschland","Country":"DEU","State":"Hessen","County":"Lahn-Dill-Kreis","City":"Dillenburg","District":"Dillenburg","PostalCode":"35683","AdditionalData":[{"value":"Deutschland","key":"CountryName"},{"value":"Hessen","key":"StateName"},{"value":"Lahn-Dill-Kreis","key":"CountyName"}]},"MapReference":{"ReferenceId":"1199234175","SideOfStreet":"neither","CountryId":"20147700","StateId":"20160993","CountyId":"20162290","CityId":"20162326","DistrictId":"20162332"}}},{"Relevance":1.0,"Distance":22.2,"MatchLevel":"houseNumber","MatchQuality":{"Country":1.0,"State":1.0,"County":1.0,"City":1.0,"District":1.0,"Street":[1.0],"HouseNumber":1.0,"PostalCode":1.0},"MatchType":"interpolated","Location":{"LocationId":"NT_CGPoh9kyJXLOI2QAWCvsdB_xQD","LocationType":"point","DisplayPosition":{"Latitude":50.73796,"Longitude":8.28868},"MapView":{"TopLeft":{"Latitude":50.7390842,"Longitude":8.2869037},"BottomRight":{"Latitude":50.7368358,"Longitude":8.2904563}},"Address":{"Label":"Wilhelmsplatz 14, 35683 Dillenburg, Deutschland","Country":"DEU","State":"Hessen","County":"Lahn-Dill-Kreis","City":"Dillenburg","District":"Dillenburg","Street":"Wilhelmsplatz","HouseNumber":"14","PostalCode":"35683","AdditionalData":[{"value":"Deutschland","key":"CountryName"},{"value":"Hessen","key":"StateName"},{"value":"Lahn-Dill-Kreis","key":"CountyName"}]},"MapReference":{"ReferenceId":"61997296","Spot":0.49,"SideOfStreet":"left","CountryId":"20147700","StateId":"20160993","CountyId":"20162290","CityId":"20162326","DistrictId":"20162332","AddressId":"198503382","RoadLinkId":"34512091"}}},{"Relevance":1.0,"Distance":37.7,"MatchLevel":"houseNumber","MatchQuality":{"Country":1.0,"State":1.0,"County":1.0,"City":1.0,"District":1.0,"Street":[1.0],"HouseNumber":1.0,"PostalCode":1.0},"MatchType":"interpolated","Location":{"LocationId":"NT_CGPoh9kyJXLOI2QAWCvsdB_xMD","LocationType":"point","DisplayPosition":{"Latitude":50.73761,"Longitude":8.28844},"MapView":{"TopLeft":{"Latitude":50.7387342,"Longitude":8.2866637},"BottomRight":{"Latitude":50.7364858,"Longitude":8.2902163}},"Address":{"Label":"Wilhelmsplatz 13, 35683 Dillenburg, Deutschland","Country":"DEU","State":"Hessen","County":"Lahn-Dill-Kreis","City":"Dillenburg","District":"Dillenburg","Street":"Wilhelmsplatz","HouseNumber":"13","PostalCode":"35683","AdditionalData":[{"value":"Deutschland","key":"CountryName"},{"value":"Hessen","key":"StateName"},{"value":"Lahn-Dill-Kreis","key":"CountyName"}]},"MapReference":{"ReferenceId":"590240855","Spot":0.48,"SideOfStreet":"left","CountryId":"20147700","StateId":"20160993","CountyId":"20162290","CityId":"20162326","DistrictId":"20162332","AddressId":"187720197","RoadLinkId":"34334665"}}},{"Relevance":1.0,"Distance":45.6,"MatchLevel":"houseNumber","MatchQuality":{"Country":1.0,"State":1.0,"County":1.0,"City":1.0,"District":1.0,"Street":[1.0],"HouseNumber":1.0,"PostalCode":1.0},"MatchType":"interpolated","Location":{"LocationId":"NT_51wbc5SHw8NANUj.5R9VCC_ygD","LocationType":"point","DisplayPosition":{"Latitude":50.73857,"Longitude":8.28794},"MapView":{"TopLeft":{"Latitude":50.7396942,"Longitude":8.2861637},"BottomRight":{"Latitude":50.7374458,"Longitude":8.2897163}},"Address":{"Label":"Kirchberg 28, 35683 Dillenburg, Deutschland","Country":"DEU","State":"Hessen","County":"Lahn-Dill-Kreis","City":"Dillenburg","District":"Dillenburg","Street":"Kirchberg","HouseNumber":"28","PostalCode":"35683","AdditionalData":[{"value":"Deutschland","key":"CountryName"},{"value":"Hessen","key":"StateName"},{"value":"Lahn-Dill-Kreis","key":"CountyName"}]},"MapReference":{"ReferenceId":"61997963","Spot":0.2,"SideOfStreet":"left","CountryId":"20147700","StateId":"20160993","CountyId":"20162290","CityId":"20162326","DistrictId":"20162332","AddressId":"621880853","RoadLinkId":"34769488"}}},{"Relevance":1.0,"Distance":47.9,"MatchLevel":"street","MatchQuality":{"Country":1.0,"State":1.0,"County":1.0,"City":1.0,"District":1.0,"Street":[1.0],"PostalCode":1.0},"Location":{"LocationId":"NT_CGPoh9kyJXLOI2QAWCvsdB_l_78667911_L","LocationType":"point","DisplayPosition":{"Latitude":50.73772,"Longitude":8.28878},"MapView":{"TopLeft":{"Latitude":50.73779,"Longitude":8.28878},"BottomRight":{"Latitude":50.73772,"Longitude":8.28903}},"Address":{"Label":"Wilhelmsplatz, 35683 Dillenburg, Deutschland","Country":"DEU","State":"Hessen","County":"Lahn-Dill-Kreis","City":"Dillenburg","District":"Dillenburg","Street":"Wilhelmsplatz","PostalCode":"35683","AdditionalData":[{"value":"Deutschland","key":"CountryName"},{"value":"Hessen","key":"StateName"},{"value":"Lahn-Dill-Kreis","key":"CountyName"}]},"MapReference":{"ReferenceId":"78667911","Spot":0.0,"SideOfStreet":"left","CountryId":"20147700","StateId":"20160993","CountyId":"20162290","CityId":"20162326","DistrictId":"20162332"}}},{"Relevance":1.0,"Distance":48.1,"MatchLevel":"houseNumber","MatchQuality":{"Country":1.0,"State":1.0,"County":1.0,"City":1.0,"District":1.0,"Street":[1.0],"HouseNumber":1.0,"PostalCode":1.0},"MatchType":"interpolated","Location":{"LocationId":"NT_CGPoh9kyJXLOI2QAWCvsdB_xA","LocationType":"point","DisplayPosition":{"Latitude":50.73842,"Longitude":8.28848},"MapView":{"TopLeft":{"Latitude":50.7395442,"Longitude":8.2867037},"BottomRight":{"Latitude":50.7372958,"Longitude":8.2902563}},"Address":{"Label":"Wilhelmsplatz 1, 35683 Dillenburg, Deutschland","Country":"DEU","State":"Hessen","County":"Lahn-Dill-Kreis","City":"Dillenburg","District":"Dillenburg","Street":"Wilhelmsplatz","HouseNumber":"1","PostalCode":"35683","AdditionalData":[{"value":"Deutschland","key":"CountryName"},{"value":"Hessen","key":"StateName"},{"value":"Lahn-Dill-Kreis","key":"CountyName"}]},"MapReference":{"ReferenceId":"61997370","Spot":1.0,"SideOfStreet":"right","CountryId":"20147700","StateId":"20160993","CountyId":"20162290","CityId":"20162326","DistrictId":"20162332","AddressId":"186975803","RoadLinkId":"33958915"}}},{"Relevance":1.0,"Distance":48.1,"MatchLevel":"street","MatchQuality":{"Country":1.0,"State":1.0,"County":1.0,"City":1.0,"District":1.0,"Street":[1.0],"PostalCode":1.0},"Location":{"LocationId":"NT_hgwOiWhjNmb8ULBGrFh7dC_l_61998317_L","LocationType":"point","DisplayPosition":{"Latitude":50.73842,"Longitude":8.28848},"MapView":{"TopLeft":{"Latitude":50.73857,"Longitude":8.28834},"BottomRight":{"Latitude":50.73842,"Longitude":8.28848}},"Address":{"Label":"Hüttenplatz, 35683 Dillenburg, Deutschland","Country":"DEU","State":"Hessen","County":"Lahn-Dill-Kreis","City":"Dillenburg","District":"Dillenburg","Street":"Hüttenplatz","PostalCode":"35683","AdditionalData":[{"value":"Deutschland","key":"CountryName"},{"value":"Hessen","key":"StateName"},{"value":"Lahn-Dill-Kreis","key":"CountyName"}]},"MapReference":{"ReferenceId":"61998317","Spot":0.0,"SideOfStreet":"left","CountryId":"20147700","StateId":"20160993","CountyId":"20162290","CityId":"20162326","DistrictId":"20162332"}}},{"Relevance":1.0,"Distance":49.3,"MatchLevel":"houseNumber","MatchQuality":{"Country":1.0,"State":1.0,"County":1.0,"City":1.0,"District":1.0,"Street":[1.0],"HouseNumber":1.0,"PostalCode":1.0},"MatchType":"interpolated","Location":{"LocationId":"NT_CGPoh9kyJXLOI2QAWCvsdB_xYD","LocationType":"point","DisplayPosition":{"Latitude":50.73842,"Longitude":8.28848},"MapView":{"TopLeft":{"Latitude":50.7395442,"Longitude":8.2867037},"BottomRight":{"Latitude":50.7372958,"Longitude":8.2902563}},"Address":{"Label":"Wilhelmsplatz 16, 35683 Dillenburg, Deutschland","Country":"DEU","State":"Hessen","County":"Lahn-Dill-Kreis","City":"Dillenburg","District":"Dillenburg","Street":"Wilhelmsplatz","HouseNumber":"16","PostalCode":"35683","AdditionalData":[{"value":"Deutschland","key":"CountryName"},{"value":"Hessen","key":"StateName"},{"value":"Lahn-Dill-Kreis","key":"CountyName"}]},"MapReference":{"ReferenceId":"61997961","Spot":1.0,"SideOfStreet":"left","CountryId":"20147700","StateId":"20160993","CountyId":"20162290","CityId":"20162326","DistrictId":"20162332","AddressId":"250021332","RoadLinkId":"34386781"}}},{"Relevance":1.0,"Distance":58.5,"MatchLevel":"street","MatchQuality":{"Country":1.0,"State":1.0,"County":1.0,"City":1.0,"District":1.0,"Street":[1.0],"PostalCode":1.0},"Location":{"LocationId":"NT_CGPoh9kyJXLOI2QAWCvsdB_l_78667912_L","LocationType":"point","DisplayPosition":{"Latitude":50.73779,"Longitude":8.28903},"MapView":{"TopLeft":{"Latitude":50.73784,"Longitude":8.28903},"BottomRight":{"Latitude":50.73779,"Longitude":8.28951}},"Address":{"Label":"Wilhelmsplatz, 35683 Dillenburg, Deutschland","Country":"DEU","State":"Hessen","County":"Lahn-Dill-Kreis","City":"Dillenburg","District":"Dillenburg","Street":"Wilhelmsplatz","PostalCode":"35683","AdditionalData":[{"value":"Deutschland","key":"CountryName"},{"value":"Hessen","key":"StateName"},{"value":"Lahn-Dill-Kreis","key":"CountyName"}]},"MapReference":{"ReferenceId":"78667912","Spot":0.0,"SideOfStreet":"left","CountryId":"20147700","StateId":"20160993","CountyId":"20162290","CityId":"20162326","DistrictId":"20162332"}}},{"Relevance":1.0,"Distance":70.9,"MatchLevel":"street","MatchQuality":{"Country":1.0,"State":1.0,"County":1.0,"City":1.0,"District":1.0,"Street":[1.0],"PostalCode":1.0},"Location":{"LocationId":"NT_Zr7uD.pQbliy8zWuvhCg8A_l_1190029524_R","LocationType":"point","DisplayPosition":{"Latitude":50.7373785,"Longitude":8.2881115},"MapView":{"TopLeft":{"Latitude":50.73778,"Longitude":8.28441},"BottomRight":{"Latitude":50.73693,"Longitude":8.28929}},"Address":{"Label":"Schloßbergtunnel, 35683 Dillenburg, Deutschland","Country":"DEU","State":"Hessen","County":"Lahn-Dill-Kreis","City":"Dillenburg","District":"Dillenburg","Street":"Schloßbergtunnel","PostalCode":"35683","AdditionalData":[{"value":"Deutschland","key":"CountryName"},{"value":"Hessen","key":"StateName"},{"value":"Lahn-Dill-Kreis","key":"CountyName"}]},"MapReference":{"ReferenceId":"1190029524","Spot":0.25,"SideOfStreet":"right","CountryId":"20147700","StateId":"20160993","CountyId":"20162290","CityId":"20162326","DistrictId":"20162332"}}}]}]}}