{"Response":{"MetaInfo":{"Timestamp":"2020-03-28T10:16:29.063+0000","NextPageInformation":"2"},"View":[{"_type":"SearchResultsViewType","ViewId":0,"Result":[{"Relevance":1.0,"Distance":0.0,"Direction":0.0,"MatchLevel":"district","MatchQuality":{"Country":1.0,"State":1.0,"County":1.0,"City":1.0,"District":1.0,"PostalCode":1.0},"Location":{"LocationId":"NT_IAZrk4Ef2Sm17RdASbB-tD","LocationType":"point","DisplayPosition":{"Latitude":50.7581245,"Longitude":14.5514388},"MapView":{"TopLeft":{"Latitude":50.7759,"Longitude":14.53499},"BottomRight":{"Latitude":50.74821,"Longitude":14.56565}},"Address":{"Label":"Nový Bor, Liberecký kraj, Česká Republika","Country":"CZE","State":"Liberecký kraj","County":"Česká Lípa","City":"Nový Bor","District":"Nový Bor","PostalCode":"473 01","AdditionalData":[{"value":"Česká Republika","key":"CountryName"},{"value":"Liberecký kraj","key":"StateName"},{"value":"Česká Lípa","key":"CountyName"}]},"MapReference":{"ReferenceId":"919714724","SideOfStreet":"neither","CountryId":"20427915","StateId":"20437007","CountyId":"20437008","CityId":"20437099","DistrictId":"20437100"}}},{"Relevance":1.0,"Distance":10.4,"MatchLevel":"houseNumber","MatchQuality":{"Country":1.0,"State":1.0,"County":1.0,"City":1.0,"District":1.0,"Street":[1.0],"HouseNumber":1.0,"PostalCode":1.0},"MatchType":"interpolated","Location":{"LocationId":"NT_YXoRCOqs.qYiWQOmM7.vfD_zkDN","LocationType":"point","DisplayPosition":{"Latitude":50.75821,"Longitude":14.5515},"MapView":{"TopLeft":{"Latitude":50.7593342,"Longitude":14.5497229},"BottomRight":{"Latitude":50.7570858,"Longitude":14.5532771}},"Address":{"Label":"Wolkerova 394, 473 01 Nový Bor, Česká Republika","Country":"CZE","State":"Liberecký kraj","County":"Česká Lípa","City":"Nový Bor","District":"Nový Bor","Street":"Wolkerova","HouseNumber":"394","PostalCode":"473 01","AdditionalData":[{"value":"Česká Republika","key":"CountryName"},{"value":"Liberecký kraj","key":"StateName"},{"value":"Česká Lípa","key":"CountyName"}]},"MapReference":{"ReferenceId":"705926774","Spot":0.68,"SideOfStreet":"left","CountryId":"20427915","StateId":"20437007","CountyId":"20437008","CityId":"20437099","DistrictId":"20437100","AddressId":"241206357","RoadLinkId":"112117118"}}},{"Relevance":1.0,"Distance":51.7,"MatchLevel":"houseNumber","MatchQuality":{"Country":1.0,"State":1.0,"County":1.0,"City":1.0,"District":1.0,"Street":[1.0],"HouseNumber":1.0,"PostalCode":1.0},"MatchType":"interpolated","Location":{"LocationId":"NT_o4mX1T9djk5toUVIPrOQVC_2AzM","LocationType":"point","DisplayPosition":{"Latitude":50.75755,"Longitude":14.55159},"MapView":{"TopLeft":{"Latitude":50.7586742,"Longitude":14.549813},"BottomRight":{"Latitude":50.7564258,"Longitude":14.553367}},"Address":{"Label":"Smetanova 603, 473 01 Nový Bor, Česká Republika","Country":"CZE","State":"Liberecký kraj","County":"Česká Lípa","City":"Nový Bor","District":"Nový Bor","Street":"Smetanova","HouseNumber":"603","PostalCode":"473 01","AdditionalData":[{"value":"Česká Republika","key":"CountryName"},{"value":"Liberecký kraj","key":"StateName"},{"value":"Česká Lípa","key":"CountyName"}]},"MapReference":{"ReferenceId":"705926799","Spot":0.49,"SideOfStreet":"left","CountryId":"20427915","StateId":"20437007","CountyId":"20437008","CityId":"20437099","DistrictId":"20437100","AddressId":"241409463","RoadLinkId":"112117143"}}},{"Relevance":1.0,"Distance":71.1,"MatchLevel":"houseNumber","MatchQuality":{"Country":1.0,"State":1.0,"County":1.0,"City":1.0,"District":1.0,"Street":[1.0],"HouseNumber":1.0,"PostalCode":1.0},"MatchType":"interpolated","Location":{"LocationId":"NT_YXoRCOqs.qYiWQOmM7.vfD_1UTM","LocationType":"point","DisplayPosition":{"Latitude":50.75771,"Longitude":14.55221},"MapView":{"TopLeft":{"Latitude":50.7588342,"Longitude":14.550433},"BottomRight":{"Latitude":50.7565858,"Longitude":14.553987}},"Address":{"Label":"Wolkerova 551, 473 01 Nový Bor, Česká Republika","Country":"CZE","State":"Liberecký kraj","County":"Česká Lípa","City":"Nový Bor","District":"Nový Bor","Street":"Wolkerova","HouseNumber":"551","PostalCode":"473 01","AdditionalData":[{"value":"Česká Republika","key":"CountryName"},{"value":"Liberecký kraj","key":"StateName"},{"value":"Česká Lípa","key":"CountyName"}]},"MapReference":{"ReferenceId":"1112366048","Spot":0.83,"SideOfStreet":"left","CountryId":"20427915","StateId":"20437007","CountyId":"20437008","CityId":"20437099","DistrictId":"20437100","AddressId":"239548799","RoadLinkId":"422376088"}}},{"Relevance":1.0,"Distance":72.2,"MatchLevel":"houseNumber","MatchQuality":{"Country":1.0,"State":1.0,"County":1.0,"City":1.0,"District":1.0,"Street":[1.0],"HouseNumber":1.0,"PostalCode":1.0},"MatchType":"interpolated","Location":{"LocationId":"NT_vmWwpAPZ8ZulQTFjK2QMvD_4AzN","LocationType":"point","DisplayPosition":{"Latitude":50.75781,"Longitude":14.55031},"MapView":{"TopLeft":{"Latitude":50.7589342,"Longitude":14.548533},"BottomRight":{"Latitude":50.7566858,"Longitude":14.552087}},"Address":{"Label":"Hutní 807, 473 01 Nový Bor, Česká Republika","Country":"CZE","State":"Liberecký kraj","County":"Česká Lípa","City":"Nový Bor","District":"Nový Bor","Street":"Hutní","HouseNumber":"807","PostalCode":"473 01","AdditionalData":[{"value":"Česká Republika","key":"CountryName"},{"value":"Liberecký kraj","key":"StateName"},{"value":"Česká Lípa","key":"CountyName"}]},"MapReference":{"ReferenceId":"705926800","Spot":0.46,"SideOfStreet":"right","CountryId":"20427915","StateId":"20437007","CountyId":"20437008","CityId":"20437099","DistrictId":"20437100","AddressId":"240611898","RoadLinkId":"112117144"}}},{"Relevance":1.0,"Distance":75.2,"MatchLevel":"houseNumber","MatchQuality":{"Country":1.0,"State":1.0,"County":1.0,"City":1.0,"District":1.0,"Street":[1.0],"HouseNumber":1.0,"PostalCode":1.0},"MatchType":"interpolated","Location":{"LocationId":"NT_YXoRCOqs.qYiWQOmM7.vfD_2AzN","LocationType":"point","DisplayPosition":{"Latitude":50.75868,"Longitude":14.55083},"MapView":{"TopLeft":{"Latitude":50.7598042,"Longitude":14.5490529},"BottomRight":{"Latitude":50.7575558,"Longitude":14.5526071}},"Address":{"Label":"Wolkerova 607, 473 01 Nový Bor, Česká Republika","Country":"CZE","State":"Liberecký kraj","County":"Česká Lípa","City":"Nový Bor","District":"Nový Bor","Street":"Wolkerova","HouseNumber":"607","PostalCode":"473 01","AdditionalData":[{"value":"Česká Republika","key":"CountryName"},{"value":"Liberecký kraj","key":"StateName"},{"value":"Česká Lípa","key":"CountyName"}]},"MapReference":{"ReferenceId":"705926772","Spot":0.41,"SideOfStreet":"left","CountryId":"20427915","StateId":"20437007","CountyId":"20437008","CityId":"20437099","DistrictId":"20437100","AddressId":"239964666","RoadLinkId":"112117116"}}},{"Relevance":1.0,"Distance":78.0,"MatchLevel":"houseNumber","MatchQuality":{"Country":1.0,"State":1.0,"County":1.0,"City":1.0,"District":1.0,"Street":[1.0],"HouseNumber":1.0,"PostalCode":1.0},"MatchType":"interpolated","Location":{"LocationId":"NT_Dkv2HT7hctKRA.qaW-qrFA_5cD","LocationType":"point","DisplayPosition":{"Latitude":50.7588,"Longitude":14.55174},"MapView":{"TopLeft":{"Latitude":50.7599242,"Longitude":14.5499629},"BottomRight":{"Latitude":50.7576758,"Longitude":14.5535171}},"Address":{"Label":"Kollárova 97, 473 01 Nový Bor, Česká Republika","Country":"CZE","State":"Liberecký kraj","County":"Česká Lípa","City":"Nový Bor","District":"Nový Bor","Street":"Kollárova","HouseNumber":"97","PostalCode":"473 01","AdditionalData":[{"value":"Česká Republika","key":"CountryName"},{"value":"Liberecký kraj","key":"StateName"},{"value":"Česká Lípa","key":"CountyName"}]},"MapReference":{"ReferenceId":"705926746","Spot":0.28,"SideOfStreet":"right","CountryId":"20427915","StateId":"20437007","CountyId":"20437008","CityId":"20437099","DistrictId":"20437100","AddressId":"239272071","RoadLinkId":"112117090"}}},{"Relevance":1.0,"Distance":92.4,"MatchLevel":"houseNumber","MatchQuality":{"Country":1.0,"State":1.0,"County":1.0,"City":1.0,"District":1.0,"Street":[1.0],"HouseNumber":1.0,"PostalCode":1.0},"MatchType":"interpolated","Location":{"LocationId":"NT_o4mX1T9djk5toUVIPrOQVC_zgzN","LocationType":"point","DisplayPosition":{"Latitude":50.75835,"Longitude":14.55285},"MapView":{"TopLeft":{"Latitude":50.7594742,"Longitude":14.5510729},"BottomRight":{"Latitude":50.7572258,"Longitude":14.5546271}},"Address":{"Label":"Smetanova 387, 473 01 Nový Bor, Česká Republika","Country":"CZE","State":"Liberecký kraj","County":"Česká Lípa","City":"Nový Bor","District":"Nový Bor","Street":"Smetanova","HouseNumber":"387","PostalCode":"473 01","AdditionalData":[{"value":"Česká Republika","key":"CountryName"},{"value":"Liberecký kraj","key":"StateName"},{"value":"Česká Lípa","key":"CountyName"}]},"MapReference":{"ReferenceId":"1112631465","Spot":0.41,"SideOfStreet":"left","CountryId":"20427915","StateId":"20437007","CountyId":"20437008","CityId":"20437099","DistrictId":"20437100","AddressId":"241008508","RoadLinkId":"422488600"}}},{"Relevance":1.0,"Distance":101.6,"MatchLevel":"houseNumber","MatchQuality":{"Country":1.0,"State":1.0,"County":1.0,"City":1.0,"District":1.0,"Street":[1.0],"HouseNumber":1.0,"PostalCode":1.0},"MatchType":"interpolated","Location":{"LocationId":"NT_YXoRCOqs.qYiWQOmM7.vfD_1ED","LocationType":"point","DisplayPosition":{"Latitude":50.75904,"Longitude":14.55095},"MapView":{"TopLeft":{"Latitude":50.7601642,"Longitude":14.5491729},"BottomRight":{"Latitude":50.7579158,"Longitude":14.5527271}},"Address":{"Label":"Wolkerova 51, 473 01 Nový Bor, Česká Republika","Country":"CZE","State":"Liberecký kraj","County":"Česká Lípa","City":"Nový Bor","District":"Nový Bor","Street":"Wolkerova","HouseNumber":"51","PostalCode":"473 01","AdditionalData":[{"value":"Česká Republika","key":"CountryName"},{"value":"Liberecký kraj","key":"StateName"},{"value":"Česká Lípa","key":"CountyName"}]},"MapReference":{"ReferenceId":"705926760","Spot":0.16,"SideOfStreet":"left","CountryId":"20427915","StateId":"20437007","CountyId":"20437008","CityId":"20437099","DistrictId":"20437100","AddressId":"241267151","RoadLinkId":"145884365"}}},{"Relevance":1.0,"Distance":110.8,"MatchLevel":"street","MatchQuality":{"Country":1.0,"State":1.0,"County":1.0,"City":1.0,"District":1.0,"PostalCode":1.0},"Location":{"LocationId":"NT_Z3yfVK1OdhEALHA-OHzhRC_l_1112366049_L","LocationType":"point","DisplayPosition":{"Latitude":50.7571431,"Longitude":14.5517156},"MapView":{"TopLeft":{"Latitude":50.75746,"Longitude":14.55066},"BottomRight":{"Latitude":50.75671,"Longitude":14.55269}},"Address":{"Label":"473 01 Nový Bor, Česká Republika","Country":"CZE","State":"Liberecký kraj","County":"Česká Lípa","City":"Nový Bor","District":"Nový Bor","PostalCode":"473 01","AdditionalData":[{"value":"Česká Republika","key":"CountryName"},{"value":"Liberecký kraj","key":"StateName"},{"value":"Česká Lípa","key":"CountyName"}]},"MapReference":{"ReferenceId":"1112366049","Spot":0.53,"SideOfStreet":"left","CountryId":"20427915","StateId":"20437007","CountyId":"20437008","CityId":"20437099","DistrictId":"20437100"}}}]}]}}