{"Response":{"MetaInfo":{"Timestamp":"2020-03-28T09:53:16.689+0000","NextPageInformation":"2"},"View":[{"_type":"SearchResultsViewType","ViewId":0,"Result":[{"Relevance":1.0,"Distance":0.0,"Direction":0.0,"MatchLevel":"district","MatchQuality":{"Country":1.0,"State":1.0,"County":1.0,"City":1.0,"District":1.0,"PostalCode":1.0},"Location":{"LocationId":"NT_h2YxsREqmHFuJxEfnPQBjB","LocationType":"point","DisplayPosition":{"Latitude":50.8210226,"Longitude":-0.1362939},"MapView":{"TopLeft":{"Latitude":50.87111,"Longitude":-0.17689},"BottomRight":{"Latitude":50.80833,"Longitude":-0.0866}},"Address":{"Label":"Brighton, England, United Kingdom","Country":"GBR","State":"England","County":"East Sussex","City":"Brighton","District":"Brighton","PostalCode":"BN2 9","AdditionalData":[{"value":"United Kingdom","key":"CountryName"},{"value":"England","key":"StateName"},{"value":"East Sussex","key":"CountyName"}]},"MapReference":{"ReferenceId":"850546450","SideOfStreet":"neither","StateId":"20248595","CountyId":"20335121","CityId":"20335134","DistrictId":"20335135"}}},{"Relevance":1.0,"Distance":0.1,"MatchLevel":"street","MatchQuality":{"Country":1.0,"State":1.0,"County":1.0,"City":1.0,"District":1.0,"PostalCode":1.0},"Location":{"LocationId":"NT_crwWLiCrxbml5i4cO8yv-A_l_25615578_L","LocationType":"point","DisplayPosition":{"Latitude":50.8210227,"Longitude":-0.1362947},"MapView":{"TopLeft":{"Latitude":50.82107,"Longitude":-0.13631},"BottomRight":{"Latitude":50.82087,"Longitude":-0.13629}},"Address":{"Label":"Brighton, BN1 1, United Kingdom","Country":"GBR","State":"England","County":"East Sussex","City":"Brighton","District":"Brighton","PostalCode":"BN1 1","AdditionalData":[{"value":"United Kingdom","key":"CountryName"},{"value":"England","key":"StateName"},{"value":"East Sussex","key":"CountyName"}]},"MapReference":{"ReferenceId":"25615578","Spot":0.76,"SideOfStreet":"neither","StateId":"20248595","CountyId":"20335121","CityId":"20335134","DistrictId":"20335135"}}},{"Relevance":1.0,"Distance":5.3,"MatchLevel":"street","MatchQuality":{"Country":1.0,"State":1.0,"County":1.0,"City":1.0,"District":1.0,"Street":[1.0],"PostalCode":1.0},"Location":{"LocationId":"NT_A4BsbAele1jLOL1QxZzOfA_l_25615535_L","LocationType":"point","DisplayPosition":{"Latitude":50.82107,"Longitude":-0.13629},"MapView":{"TopLeft":{"Latitude":50.8211,"Longitude":-0.13659},"BottomRight":{"Latitude":50.82107,"Longitude":-0.13629}},"Address":{"Label":"St James's Street, Brighton, BN1 1, United Kingdom","Country":"GBR","State":"England","County":"East Sussex","City":"Brighton","District":"Brighton","Street":"St James's Street","PostalCode":"BN1 1","AdditionalData":[{"value":"United Kingdom","key":"CountryName"},{"value":"England","key":"StateName"},{"value":"East Sussex","key":"CountyName"}]},"MapReference":{"ReferenceId":"25615535","Spot":0.0,"SideOfStreet":"left","StateId":"20248595","CountyId":"20335121","CityId":"20335134","DistrictId":"20335135"}}},{"Relevance":1.0,"Distance":8.2,"MatchLevel":"postalCode","MatchQuality":{"PostalCode":1.0},"Location":{"LocationId":"NT_fx8N1cD9uqBTSqGNzisEPC_l_25615577_R","LocationType":"point","DisplayPosition":{"Latitude":50.82103,"Longitude":-0.13641},"MapView":{"TopLeft":{"Latitude":50.8300232,"Longitude":-0.1506455},"BottomRight":{"Latitude":50.8120368,"Longitude":-0.1221745}},"Address":{"Label":"BN1 1EN, Brighton, England, United Kingdom","Country":"GBR","State":"England","County":"East Sussex","City":"Brighton","PostalCode":"BN1 1EN","AdditionalData":[{"value":"United Kingdom","key":"CountryName"},{"value":"England","key":"StateName"},{"value":"East Sussex","key":"CountyName"}]},"MapReference":{"ReferenceId":"25615577","Spot":0.77,"SideOfStreet":"neither","StateId":"20248595","CountyId":"20335121","CityId":"20335134"}}},{"Relevance":1.0,"Distance":17.0,"MatchLevel":"street","MatchQuality":{"Country":1.0,"State":1.0,"County":1.0,"City":1.0,"District":1.0,"Street":[1.0],"PostalCode":1.0},"Location":{"LocationId":"NT_YG-pM4XqyY-kWb11ZX-hkD_l_25615579_R","LocationType":"point","DisplayPosition":{"Latitude":50.82087,"Longitude":-0.13631},"MapView":{"TopLeft":{"Latitude":50.82088,"Longitude":-0.13661},"BottomRight":{"Latitude":50.82087,"Longitude":-0.13631}},"Address":{"Label":"Steine Street, Brighton, BN1 1, United Kingdom","Country":"GBR","State":"England","County":"East Sussex","City":"Brighton","District":"Brighton","Street":"Steine Street","PostalCode":"BN1 1","AdditionalData":[{"value":"United Kingdom","key":"CountryName"},{"value":"England","key":"StateName"},{"value":"East Sussex","key":"CountyName"}]},"MapReference":{"ReferenceId":"25615579","Spot":0.0,"SideOfStreet":"right","StateId":"20248595","CountyId":"20335121","CityId":"20335134","DistrictId":"20335135"}}},{"Relevance":1.0,"Distance":19.5,"MatchLevel":"houseNumber","MatchQuality":{"Country":1.0,"State":1.0,"County":1.0,"City":1.0,"District":1.0,"Street":[1.0],"HouseNumber":1.0,"PostalCode":1.0},"MatchType":"interpolated","Location":{"LocationId":"NT_xzX-sX-U.BPnNxCz4Sg.CB_l_565999494_L_xMDM","LocationType":"point","DisplayPosition":{"Latitude":50.8210367,"Longitude":-0.1360167},"MapView":{"TopLeft":{"Latitude":50.8221608,"Longitude":-0.1377961},"BottomRight":{"Latitude":50.8199125,"Longitude":-0.1342372}},"Address":{"Label":"130 St James's Street, Brighton, BN2 1TH, United Kingdom","Country":"GBR","State":"England","County":"East Sussex","City":"Brighton","District":"Brighton","Street":"St James's Street","HouseNumber":"130","PostalCode":"BN2 1TH","AdditionalData":[{"value":"United Kingdom","key":"CountryName"},{"value":"England","key":"StateName"},{"value":"East Sussex","key":"CountyName"}]},"MapReference":{"ReferenceId":"565999494","Spot":0.54,"SideOfStreet":"left","StateId":"20248595","CountyId":"20335121","CityId":"20335134","DistrictId":"20335135"}}},{"Relevance":1.0,"Distance":21.3,"MatchLevel":"street","MatchQuality":{"Country":1.0,"State":1.0,"County":1.0,"City":1.0,"District":1.0,"Street":[1.0],"PostalCode":1.0},"Location":{"LocationId":"NT_fx8N1cD9uqBTSqGNzisEPC_l_25615577_R","LocationType":"point","DisplayPosition":{"Latitude":50.8210499,"Longitude":-0.1365946},"MapView":{"TopLeft":{"Latitude":50.8211,"Longitude":-0.13661},"BottomRight":{"Latitude":50.82088,"Longitude":-0.13659}},"Address":{"Label":"Old Steine, Brighton, BN1 1, United Kingdom","Country":"GBR","State":"England","County":"East Sussex","City":"Brighton","District":"Brighton","Street":"Old Steine","PostalCode":"BN1 1","AdditionalData":[{"value":"United Kingdom","key":"CountryName"},{"value":"England","key":"StateName"},{"value":"East Sussex","key":"CountyName"}]},"MapReference":{"ReferenceId":"25615577","Spot":0.77,"SideOfStreet":"right","StateId":"20248595","CountyId":"20335121","CityId":"20335134","DistrictId":"20335135"}}},{"Relevance":1.0,"Distance":21.9,"MatchLevel":"houseNumber","MatchQuality":{"Country":1.0,"State":1.0,"County":1.0,"City":1.0,"District":1.0,"Street":[1.0],"HouseNumber":1.0,"PostalCode":1.0},"MatchType":"interpolated","Location":{"LocationId":"NT_xEjgZ6fnXDxDHkEUFR30yD_l_25615530_R_xMD","LocationType":"point","DisplayPosition":{"Latitude":50.8212301,"Longitude":-0.13657},"MapView":{"TopLeft":{"Latitude":50.8223542,"Longitude":-0.1383494},"BottomRight":{"Latitude":50.8201059,"Longitude":-0.1347905}},"Address":{"Label":"13 Old Steine, Brighton, BN1 1, United Kingdom","Country":"GBR","State":"England","County":"East Sussex","City":"Brighton","District":"Brighton","Street":"Old Steine","HouseNumber":"13","PostalCode":"BN1 1","AdditionalData":[{"value":"United Kingdom","key":"CountryName"},{"value":"England","key":"StateName"},{"value":"East Sussex","key":"CountyName"}]},"MapReference":{"ReferenceId":"25615530","Spot":0.23,"SideOfStreet":"right","StateId":"20248595","CountyId":"20335121","CityId":"20335134","DistrictId":"20335135"}}},{"Relevance":1.0,"Distance":22.5,"MatchLevel":"street","MatchQuality":{"Country":1.0,"State":1.0,"County":1.0,"City":1.0,"District":1.0,"Street":[1.0],"PostalCode":1.0},"Location":{"LocationId":"NT_eHoKGxgr2P5KQrKS8NNSDD_l_25615531_L","LocationType":"point","DisplayPosition":{"Latitude":50.8211,"Longitude":-0.13659},"MapView":{"TopLeft":{"Latitude":50.82112,"Longitude":-0.13673},"BottomRight":{"Latitude":50.8211,"Longitude":-0.13659}},"Address":{"Label":"St James's Street, Brighton, BN1 1, United Kingdom","Country":"GBR","State":"England","County":"East Sussex","City":"Brighton","District":"Brighton","Street":"St James's Street","PostalCode":"BN1 1","AdditionalData":[{"value":"United Kingdom","key":"CountryName"},{"value":"England","key":"StateName"},{"value":"East Sussex","key":"CountyName"}]},"MapReference":{"ReferenceId":"25615531","Spot":0.0,"SideOfStreet":"left","StateId":"20248595","CountyId":"20335121","CityId":"20335134","DistrictId":"20335135"}}},{"Relevance":1.0,"Distance":31.3,"MatchLevel":"street","MatchQuality":{"Country":1.0,"State":1.0,"County":1.0,"City":1.0,"District":1.0,"Street":[1.0],"PostalCode":1.0},"Location":{"LocationId":"NT_fx8N1cD9uqBTSqGNzisEPC_l_850548999_R","LocationType":"point","DisplayPosition":{"Latitude":50.8210637,"Longitude":-0.1367352},"MapView":{"TopLeft":{"Latitude":50.82112,"Longitude":-0.13677},"BottomRight":{"Latitude":50.82069,"Longitude":-0.13673}},"Address":{"Label":"Old Steine, Brighton, BN1 1, United Kingdom","Country":"GBR","State":"England","County":"East Sussex","City":"Brighton","District":"Brighton","Street":"Old Steine","PostalCode":"BN1 1","AdditionalData":[{"value":"United Kingdom","key":"CountryName"},{"value":"England","key":"StateName"},{"value":"East Sussex","key":"CountyName"}]},"MapReference":{"ReferenceId":"850548999","Spot":0.87,"SideOfStreet":"right","StateId":"20248595","CountyId":"20335121","CityId":"20335134","DistrictId":"20335135"}}}]}]}}