{"Response":{"MetaInfo":{"Timestamp":"2020-03-28T11:00:19.443+0000","NextPageInformation":"2"},"View":[{"_type":"SearchResultsViewType","ViewId":0,"Result":[{"Relevance":1.0,"Distance":0.0,"Direction":0.0,"MatchLevel":"district","MatchQuality":{"Country":1.0,"State":1.0,"County":1.0,"City":1.0,"District":1.0,"PostalCode":1.0},"Location":{"LocationId":"NT_9.zSGRVgI4NcdX6vW6xu4C","LocationType":"point","DisplayPosition":{"Latitude":50.8137822,"Longitude":8.7841347},"MapView":{"TopLeft":{"Latitude":50.84689,"Longitude":8.73036},"BottomRight":{"Latitude":50.78479,"Longitude":8.79501}},"Address":{"Label":"Marburg, Hessen, Deutschland","Country":"DEU","State":"Hessen","County":"Marburg-Biedenkopf","City":"Marburg","District":"Marburg","PostalCode":"35037","AdditionalData":[{"value":"Deutschland","key":"CountryName"},{"value":"Hessen","key":"StateName"},{"value":"Marburg-Biedenkopf","key":"CountyName"}]},"MapReference":{"ReferenceId":"1197358952","SideOfStreet":"neither","CountryId":"20147700","StateId":"20160993","CountyId":"20162617","CityId":"20162723","DistrictId":"20162734"}}},{"Relevance":1.0,"Distance":4.4,"MatchLevel":"houseNumber","MatchQuality":{"Country":1.0,"State":1.0,"County":1.0,"City":1.0,"District":1.0,"Street":[1.0],"HouseNumber":1.0,"PostalCode":1.0},"MatchType":"interpolated","Location":{"LocationId":"NT_x7L0ZKLDh6pUdiAw1ej2ND_yMD","LocationType":"point","DisplayPosition":{"Latitude":50.81328,"Longitude":8.7842},"MapView":{"TopLeft":{"Latitude":50.8144042,"Longitude":8.7824209},"BottomRight":{"Latitude":50.8121558,"Longitude":8.7859791}},"Address":{"Label":"Blitzweg 23, 35039 Marburg, Deutschland","Country":"DEU","State":"Hessen","County":"Marburg-Biedenkopf","City":"Marburg","District":"Marburg","Street":"Blitzweg","HouseNumber":"23","PostalCode":"35039","AdditionalData":[{"value":"Deutschland","key":"CountryName"},{"value":"Hessen","key":"StateName"},{"value":"Marburg-Biedenkopf","key":"CountyName"}]},"MapReference":{"ReferenceId":"52647034","Spot":0.43,"SideOfStreet":"left","CountryId":"20147700","StateId":"20160993","CountyId":"20162617","CityId":"20162723","DistrictId":"20162734","AddressId":"187102522","RoadLinkId":"34314392"}}},{"Relevance":1.0,"Distance":33.2,"MatchLevel":"landmark","MatchQuality":{"Country":1.0,"State":1.0,"County":1.0,"Name":1.0},"Location":{"LocationId":"NT_dFyh.bM0nyQZTWYt3OmPsA","LocationType":"woodland","Name":"Staatsforst Marburg Nord","DisplayPosition":{"Latitude":50.80084,"Longitude":8.80637},"MapView":{"TopLeft":{"Latitude":50.85811,"Longitude":8.75362},"BottomRight":{"Latitude":50.74357,"Longitude":8.82559}},"Address":{"Label":"Deutschland","Country":"DEU","State":"Hessen","County":"Marburg-Biedenkopf","AdditionalData":[{"value":"Deutschland","key":"CountryName"},{"value":"Hessen","key":"StateName"},{"value":"Marburg-Biedenkopf","key":"CountyName"}]},"MapReference":{"CountryId":"20147700","StateId":"20160993","CountyId":"20162617","PlaceId":"50472114"}}},{"Relevance":1.0,"Distance":54.2,"MatchLevel":"houseNumber","MatchQuality":{"Country":1.0,"State":1.0,"County":1.0,"City":1.0,"District":1.0,"Street":[1.0],"HouseNumber":1.0,"PostalCode":1.0},"MatchType":"interpolated","Location":{"LocationId":"NT_ms0lqmB2HjlZTHbcKgvOBD_yED","LocationType":"point","DisplayPosition":{"Latitude":50.81363,"Longitude":8.78324},"MapView":{"TopLeft":{"Latitude":50.8147542,"Longitude":8.7814608},"BottomRight":{"Latitude":50.8125058,"Longitude":8.7850192}},"Address":{"Label":"Georg-Voigt-Straße 21, 35039 Marburg, Deutschland","Country":"DEU","State":"Hessen","County":"Marburg-Biedenkopf","City":"Marburg","District":"Marburg","Street":"Georg-Voigt-Straße","HouseNumber":"21","PostalCode":"35039","AdditionalData":[{"value":"Deutschland","key":"CountryName"},{"value":"Hessen","key":"StateName"},{"value":"Marburg-Biedenkopf","key":"CountyName"}]},"MapReference":{"ReferenceId":"765255990","Spot":1.0,"SideOfStreet":"right","CountryId":"20147700","StateId":"20160993","CountyId":"20162617","CityId":"20162723","DistrictId":"20162734","AddressId":"186637134","RoadLinkId":"159161865"}}},{"Relevance":1.0,"Distance":58.5,"MatchLevel":"houseNumber","MatchQuality":{"Country":1.0,"State":1.0,"County":1.0,"City":1.0,"Street":[1.0],"HouseNumber":1.0,"PostalCode":1.0},"MatchType":"interpolated","Location":{"LocationId":"NT_acWReMIuOsLiI4T62MF1eD_ykD","LocationType":"point","DisplayPosition":{"Latitude":50.81328,"Longitude":8.78489},"MapView":{"TopLeft":{"Latitude":50.8144042,"Longitude":8.7831109},"BottomRight":{"Latitude":50.8121558,"Longitude":8.7866691}},"Address":{"Label":"Blitzweg 29, 35039 Marburg, Deutschland","Country":"DEU","State":"Hessen","County":"Marburg-Biedenkopf","City":"Marburg","Street":"Blitzweg","HouseNumber":"29","PostalCode":"35039","AdditionalData":[{"value":"Deutschland","key":"CountryName"},{"value":"Hessen","key":"StateName"},{"value":"Marburg-Biedenkopf","key":"CountyName"}]},"MapReference":{"ReferenceId":"1222059026","Spot":0.74,"SideOfStreet":"right","CountryId":"20147700","StateId":"20160993","CountyId":"20162617","CityId":"20162723","AddressId":"208225096","RoadLinkId":"539642613"}}},{"Relevance":1.0,"Distance":62.4,"MatchLevel":"houseNumber","MatchQuality":{"Country":1.0,"State":1.0,"County":1.0,"City":1.0,"District":1.0,"Street":[1.0],"HouseNumber":1.0,"PostalCode":1.0},"MatchType":"interpolated","Location":{"LocationId":"NT_ms0lqmB2HjlZTHbcKgvOBD_xkD","LocationType":"point","DisplayPosition":{"Latitude":50.814,"Longitude":8.78311},"MapView":{"TopLeft":{"Latitude":50.8151242,"Longitude":8.7813308},"BottomRight":{"Latitude":50.8128758,"Longitude":8.7848892}},"Address":{"Label":"Georg-Voigt-Straße 19, 35039 Marburg, Deutschland","Country":"DEU","State":"Hessen","County":"Marburg-Biedenkopf","City":"Marburg","District":"Marburg","Street":"Georg-Voigt-Straße","HouseNumber":"19","PostalCode":"35039","AdditionalData":[{"value":"Deutschland","key":"CountryName"},{"value":"Hessen","key":"StateName"},{"value":"Marburg-Biedenkopf","key":"CountyName"}]},"MapReference":{"ReferenceId":"765255991","Spot":0.71,"SideOfStreet":"right","CountryId":"20147700","StateId":"20160993","CountyId":"20162617","CityId":"20162723","DistrictId":"20162734","AddressId":"186953616","RoadLinkId":"159161866"}}},{"Relevance":1.0,"Distance":63.7,"MatchLevel":"street","MatchQuality":{"Country":1.0,"State":1.0,"County":1.0,"City":1.0,"District":1.0,"Street":[1.0],"PostalCode":1.0},"Location":{"LocationId":"NT_x7L0ZKLDh6pUdiAw1ej2ND_l_52647037_L","LocationType":"point","DisplayPosition":{"Latitude":50.81325,"Longitude":8.7838},"MapView":{"TopLeft":{"Latitude":50.81325,"Longitude":8.78336},"BottomRight":{"Latitude":50.8132,"Longitude":8.7838}},"Address":{"Label":"Blitzweg, 35039 Marburg, Deutschland","Country":"DEU","State":"Hessen","County":"Marburg-Biedenkopf","City":"Marburg","District":"Marburg","Street":"Blitzweg","PostalCode":"35039","AdditionalData":[{"value":"Deutschland","key":"CountryName"},{"value":"Hessen","key":"StateName"},{"value":"Marburg-Biedenkopf","key":"CountyName"}]},"MapReference":{"ReferenceId":"52647037","Spot":1.0,"SideOfStreet":"left","CountryId":"20147700","StateId":"20160993","CountyId":"20162617","CityId":"20162723","DistrictId":"20162734"}}},{"Relevance":1.0,"Distance":66.4,"MatchLevel":"houseNumber","MatchQuality":{"Country":1.0,"State":1.0,"County":1.0,"City":1.0,"Street":[1.0],"HouseNumber":1.0,"PostalCode":1.0},"MatchType":"interpolated","Location":{"LocationId":"NT_acWReMIuOsLiI4T62MF1eD_zED","LocationType":"point","DisplayPosition":{"Latitude":50.81411,"Longitude":8.78553},"MapView":{"TopLeft":{"Latitude":50.8152342,"Longitude":8.7837508},"BottomRight":{"Latitude":50.8129858,"Longitude":8.7873092}},"Address":{"Label":"Blitzweg 31, 35039 Marburg, Deutschland","Country":"DEU","State":"Hessen","County":"Marburg-Biedenkopf","City":"Marburg","Street":"Blitzweg","HouseNumber":"31","PostalCode":"35039","AdditionalData":[{"value":"Deutschland","key":"CountryName"},{"value":"Hessen","key":"StateName"},{"value":"Marburg-Biedenkopf","key":"CountyName"}]},"MapReference":{"ReferenceId":"52649122","Spot":1.0,"SideOfStreet":"left","CountryId":"20147700","StateId":"20160993","CountyId":"20162617","CityId":"20162723","AddressId":"208233066","RoadLinkId":"34217212"}}},{"Relevance":1.0,"Distance":67.9,"MatchLevel":"houseNumber","MatchQuality":{"Country":1.0,"State":1.0,"County":1.0,"City":1.0,"District":1.0,"Street":[1.0],"HouseNumber":1.0,"PostalCode":1.0},"MatchType":"interpolated","Location":{"LocationId":"NT_ms0lqmB2HjlZTHbcKgvOBD_xcD","LocationType":"point","DisplayPosition":{"Latitude":50.81422,"Longitude":8.78302},"MapView":{"TopLeft":{"Latitude":50.8153442,"Longitude":8.7812408},"BottomRight":{"Latitude":50.8130958,"Longitude":8.7847992}},"Address":{"Label":"Georg-Voigt-Straße 17, 35039 Marburg, Deutschland","Country":"DEU","State":"Hessen","County":"Marburg-Biedenkopf","City":"Marburg","District":"Marburg","Street":"Georg-Voigt-Straße","HouseNumber":"17","PostalCode":"35039","AdditionalData":[{"value":"Deutschland","key":"CountryName"},{"value":"Hessen","key":"StateName"},{"value":"Marburg-Biedenkopf","key":"CountyName"}]},"MapReference":{"ReferenceId":"765255992","Spot":0.15,"SideOfStreet":"right","CountryId":"20147700","StateId":"20160993","CountyId":"20162617","CityId":"20162723","DistrictId":"20162734","AddressId":"249990593","RoadLinkId":"159161867"}}},{"Relevance":1.0,"Distance":72.8,"MatchLevel":"houseNumber","MatchQuality":{"Country":1.0,"State":1.0,"County":1.0,"City":1.0,"District":1.0,"Street":[1.0],"HouseNumber":1.0,"PostalCode":1.0},"MatchType":"interpolated","Location":{"LocationId":"NT_G89lvJpTdFoqwosQBtwZjB_ycD","LocationType":"point","DisplayPosition":{"Latitude":50.8144,"Longitude":8.78378},"MapView":{"TopLeft":{"Latitude":50.8155242,"Longitude":8.7820008},"BottomRight":{"Latitude":50.8132758,"Longitude":8.7855592}},"Address":{"Label":"Von-Harnack-Straße 27, 35039 Marburg, Deutschland","Country":"DEU","State":"Hessen","County":"Marburg-Biedenkopf","City":"Marburg","District":"Marburg","Street":"Von-Harnack-Straße","HouseNumber":"27","PostalCode":"35039","AdditionalData":[{"value":"Deutschland","key":"CountryName"},{"value":"Hessen","key":"StateName"},{"value":"Marburg-Biedenkopf","key":"CountyName"}]},"MapReference":{"ReferenceId":"52647377","Spot":0.07,"SideOfStreet":"right","CountryId":"20147700","StateId":"20160993","CountyId":"20162617","CityId":"20162723","DistrictId":"20162734","AddressId":"186558709","RoadLinkId":"34879346"}}}]}]}}