{"Response":{"MetaInfo":{"Timestamp":"2020-03-28T09:33:49.482+0000","NextPageInformation":"2"},"View":[{"_type":"SearchResultsViewType","ViewId":0,"Result":[{"Relevance":1.0,"Distance":0.0,"Direction":0.0,"MatchLevel":"city","MatchQuality":{"Country":1.0,"State":1.0,"County":1.0,"City":1.0,"PostalCode":1.0},"Location":{"LocationId":"NT_luj9bI-mk3lGyNu.pDyhPC","LocationType":"point","DisplayPosition":{"Latitude":50.865403,"Longitude":4.7357716},"MapView":{"TopLeft":{"Latitude":50.9439,"Longitude":4.64079},"BottomRight":{"Latitude":50.82407,"Longitude":4.77044}},"Address":{"Label":"Leuven, Vlaanderen, België","Country":"BEL","State":"Vlaanderen","County":"Vlaams Brabant","City":"Leuven","PostalCode":"3000","AdditionalData":[{"value":"België","key":"CountryName"},{"value":"Vlaanderen","key":"StateName"},{"value":"Vlaams Brabant","key":"CountyName"}]},"MapReference":{"ReferenceId":"60827266","SideOfStreet":"neither","CountryId":"20128886","StateId":"20204377","CountyId":"20207856","CityId":"20208143"}}},{"Relevance":1.0,"Distance":29.9,"MatchLevel":"houseNumber","MatchQuality":{"Country":1.0,"State":1.0,"County":1.0,"City":1.0,"Street":[1.0],"HouseNumber":1.0,"PostalCode":1.0},"MatchType":"interpolated","Location":{"LocationId":"NT_Kwr2VUmpbs0lwN7YJGT9eC_ykzM","LocationType":"point","DisplayPosition":{"Latitude":50.86519,"Longitude":4.73536},"MapView":{"TopLeft":{"Latitude":50.8663142,"Longitude":4.7335789},"BottomRight":{"Latitude":50.8640658,"Longitude":4.7371411}},"Address":{"Label":"Oudebaan 293, 3000 Leuven, België","Country":"BEL","State":"Vlaanderen","County":"Vlaams Brabant","City":"Leuven","Street":"Oudebaan","HouseNumber":"293","PostalCode":"3000","AdditionalData":[{"value":"België","key":"CountryName"},{"value":"Vlaanderen","key":"StateName"},{"value":"Vlaams Brabant","key":"CountyName"}]},"MapReference":{"ReferenceId":"1037195255","Spot":0.13,"SideOfStreet":"right","CountryId":"20128886","StateId":"20204377","CountyId":"20207856","CityId":"20208143","AddressId":"626289703","RoadLinkId":"359075564"}}},{"Relevance":1.0,"Distance":69.5,"MatchLevel":"houseNumber","MatchQuality":{"Country":1.0,"State":1.0,"County":1.0,"City":1.0,"Street":[1.0],"HouseNumber":1.0,"PostalCode":1.0},"MatchType":"interpolated","Location":{"LocationId":"NT_Kwr2VUmpbs0lwN7YJGT9eC_ygTO","LocationType":"point","DisplayPosition":{"Latitude":50.86613,"Longitude":4.73637},"MapView":{"TopLeft":{"Latitude":50.8672542,"Longitude":4.7345888},"BottomRight":{"Latitude":50.8650058,"Longitude":4.7381512}},"Address":{"Label":"Oudebaan 289, 3000 Leuven, België","Country":"BEL","State":"Vlaanderen","County":"Vlaams Brabant","City":"Leuven","Street":"Oudebaan","HouseNumber":"289","PostalCode":"3000","AdditionalData":[{"value":"België","key":"CountryName"},{"value":"Vlaanderen","key":"StateName"},{"value":"Vlaams Brabant","key":"CountyName"}]},"MapReference":{"ReferenceId":"1037195253","Spot":0.55,"SideOfStreet":"left","CountryId":"20128886","StateId":"20204377","CountyId":"20207856","CityId":"20208143","AddressId":"401757016","RoadLinkId":"359075562"}}},{"Relevance":1.0,"Distance":78.9,"MatchLevel":"houseNumber","MatchQuality":{"Country":1.0,"State":1.0,"County":1.0,"City":1.0,"Street":[1.0],"HouseNumber":1.0,"PostalCode":1.0},"MatchType":"interpolated","Location":{"LocationId":"NT_Kwr2VUmpbs0lwN7YJGT9eC_zATM","LocationType":"point","DisplayPosition":{"Latitude":50.86629,"Longitude":4.73581},"MapView":{"TopLeft":{"Latitude":50.8674142,"Longitude":4.7340288},"BottomRight":{"Latitude":50.8651658,"Longitude":4.7375912}},"Address":{"Label":"Oudebaan 301, 3000 Leuven, België","Country":"BEL","State":"Vlaanderen","County":"Vlaams Brabant","City":"Leuven","Street":"Oudebaan","HouseNumber":"301","PostalCode":"3000","AdditionalData":[{"value":"België","key":"CountryName"},{"value":"Vlaanderen","key":"StateName"},{"value":"Vlaams Brabant","key":"CountyName"}]},"MapReference":{"ReferenceId":"1037195254","Spot":0.43,"SideOfStreet":"left","CountryId":"20128886","StateId":"20204377","CountyId":"20207856","CityId":"20208143","AddressId":"401757017","RoadLinkId":"359075563"}}},{"Relevance":1.0,"Distance":101.9,"MatchLevel":"houseNumber","MatchQuality":{"Country":1.0,"State":1.0,"County":1.0,"City":1.0,"Street":[1.0],"HouseNumber":1.0,"PostalCode":1.0},"MatchType":"interpolated","Location":{"LocationId":"NT_Kwr2VUmpbs0lwN7YJGT9eC_zEzN","LocationType":"point","DisplayPosition":{"Latitude":50.86561,"Longitude":4.73418},"MapView":{"TopLeft":{"Latitude":50.8667342,"Longitude":4.7323989},"BottomRight":{"Latitude":50.8644858,"Longitude":4.7359611}},"Address":{"Label":"Oudebaan 317, 3000 Leuven, België","Country":"BEL","State":"Vlaanderen","County":"Vlaams Brabant","City":"Leuven","Street":"Oudebaan","HouseNumber":"317","PostalCode":"3000","AdditionalData":[{"value":"België","key":"CountryName"},{"value":"Vlaanderen","key":"StateName"},{"value":"Vlaams Brabant","key":"CountyName"}]},"MapReference":{"ReferenceId":"1037195252","Spot":0.12,"SideOfStreet":"right","CountryId":"20128886","StateId":"20204377","CountyId":"20207856","CityId":"20208143","AddressId":"626289132","RoadLinkId":"359075561"}}},{"Relevance":1.0,"Distance":104.1,"MatchLevel":"houseNumber","MatchQuality":{"Country":1.0,"State":1.0,"County":1.0,"City":1.0,"Street":[1.0],"HouseNumber":1.0,"PostalCode":1.0},"MatchType":"interpolated","Location":{"LocationId":"NT_Kwr2VUmpbs0lwN7YJGT9eC_zAzN","LocationType":"point","DisplayPosition":{"Latitude":50.86645,"Longitude":4.73527},"MapView":{"TopLeft":{"Latitude":50.8675742,"Longitude":4.7334888},"BottomRight":{"Latitude":50.8653258,"Longitude":4.7370512}},"Address":{"Label":"Oudebaan 307, 3000 Leuven, België","Country":"BEL","State":"Vlaanderen","County":"Vlaams Brabant","City":"Leuven","Street":"Oudebaan","HouseNumber":"307","PostalCode":"3000","AdditionalData":[{"value":"België","key":"CountryName"},{"value":"Vlaanderen","key":"StateName"},{"value":"Vlaams Brabant","key":"CountyName"}]},"MapReference":{"ReferenceId":"1037195250","Spot":0.33,"SideOfStreet":"left","CountryId":"20128886","StateId":"20204377","CountyId":"20207856","CityId":"20208143","AddressId":"400506996","RoadLinkId":"359075559"}}},{"Relevance":1.0,"Distance":109.8,"MatchLevel":"houseNumber","MatchQuality":{"Country":1.0,"State":1.0,"County":1.0,"City":1.0,"Street":[1.0],"HouseNumber":1.0,"PostalCode":1.0},"MatchType":"interpolated","Location":{"LocationId":"NT_Kwr2VUmpbs0lwN7YJGT9eC_l_1037853376_R_ygDO","LocationType":"point","DisplayPosition":{"Latitude":50.865925,"Longitude":4.7371},"MapView":{"TopLeft":{"Latitude":50.8670492,"Longitude":4.7353188},"BottomRight":{"Latitude":50.8648009,"Longitude":4.7388811}},"Address":{"Label":"Oudebaan 288, 3000 Leuven, België","Country":"BEL","State":"Vlaanderen","County":"Vlaams Brabant","City":"Leuven","Street":"Oudebaan","HouseNumber":"288","PostalCode":"3000","AdditionalData":[{"value":"België","key":"CountryName"},{"value":"Vlaanderen","key":"StateName"},{"value":"Vlaams Brabant","key":"CountyName"}]},"MapReference":{"ReferenceId":"1037853376","Spot":0.51,"SideOfStreet":"right","CountryId":"20128886","StateId":"20204377","CountyId":"20207856","CityId":"20208143"}}},{"Relevance":1.0,"Distance":111.7,"MatchLevel":"street","MatchQuality":{"Country":1.0,"State":1.0,"County":1.0,"City":1.0,"Street":[1.0],"PostalCode":1.0},"Location":{"LocationId":"NT_fUVujfoE9flsGmpm3GEjVC_l_722332861_L","LocationType":"point","DisplayPosition":{"Latitude":50.8645444,"Longitude":4.7365978},"MapView":{"TopLeft":{"Latitude":50.86649,"Longitude":4.72993},"BottomRight":{"Latitude":50.86,"Longitude":4.73857}},"Address":{"Label":"Meerdaalboslaan, 3000 Leuven, België","Country":"BEL","State":"Vlaanderen","County":"Vlaams Brabant","City":"Leuven","Street":"Meerdaalboslaan","PostalCode":"3000","AdditionalData":[{"value":"België","key":"CountryName"},{"value":"Vlaanderen","key":"StateName"},{"value":"Vlaams Brabant","key":"CountyName"}]},"MapReference":{"ReferenceId":"722332861","Spot":0.74,"SideOfStreet":"left","CountryId":"20128886","StateId":"20204377","CountyId":"20207856","CityId":"20208143"}}},{"Relevance":1.0,"Distance":113.5,"MatchLevel":"houseNumber","MatchQuality":{"Country":1.0,"State":1.0,"County":1.0,"City":1.0,"Street":[1.0],"HouseNumber":1.0,"PostalCode":1.0},"MatchType":"interpolated","Location":{"LocationId":"NT_Kwr2VUmpbs0lwN7YJGT9eC_ykjM","LocationType":"point","DisplayPosition":{"Latitude":50.86626,"Longitude":4.73681},"MapView":{"TopLeft":{"Latitude":50.8673842,"Longitude":4.7350288},"BottomRight":{"Latitude":50.8651358,"Longitude":4.7385912}},"Address":{"Label":"Oudebaan 292, 3000 Leuven, België","Country":"BEL","State":"Vlaanderen","County":"Vlaams Brabant","City":"Leuven","Street":"Oudebaan","HouseNumber":"292","PostalCode":"3000","AdditionalData":[{"value":"België","key":"CountryName"},{"value":"Vlaanderen","key":"StateName"},{"value":"Vlaams Brabant","key":"CountyName"}]},"MapReference":{"ReferenceId":"54033956","Spot":0.5,"SideOfStreet":"left","CountryId":"20128886","StateId":"20204377","CountyId":"20207856","CityId":"20208143","AddressId":"626384312","RoadLinkId":"30679754"}}},{"Relevance":1.0,"Distance":114.1,"MatchLevel":"street","MatchQuality":{"Country":1.0,"State":1.0,"County":1.0,"City":1.0,"Street":[1.0],"PostalCode":1.0},"Location":{"LocationId":"NT_fzAUY-UJ3rn0N-7ucbIfjB_l_722332860_L","LocationType":"point","DisplayPosition":{"Latitude":50.86488,"Longitude":4.73717},"MapView":{"TopLeft":{"Latitude":50.86652,"Longitude":4.73717},"BottomRight":{"Latitude":50.86488,"Longitude":4.73881}},"Address":{"Label":"Meerdaalboslaan, 3000 Leuven, België","Country":"BEL","State":"Vlaanderen","County":"Vlaams Brabant","City":"Leuven","Street":"Meerdaalboslaan","PostalCode":"3000","AdditionalData":[{"value":"België","key":"CountryName"},{"value":"Vlaanderen","key":"StateName"},{"value":"Vlaams Brabant","key":"CountyName"}]},"MapReference":{"ReferenceId":"722332860","Spot":0.0,"SideOfStreet":"left","CountryId":"20128886","StateId":"20204377","CountyId":"20207856","CityId":"20208143"}}}]}]}}