{"Response":{"MetaInfo":{"Timestamp":"2020-03-28T10:20:17.295+0000","NextPageInformation":"2"},"View":[{"_type":"SearchResultsViewType","ViewId":0,"Result":[{"Relevance":1.0,"Distance":0.0,"Direction":0.0,"MatchLevel":"district","MatchQuality":{"Country":1.0,"State":1.0,"County":1.0,"City":1.0,"District":1.0,"PostalCode":1.0},"Location":{"LocationId":"NT_TSJUYFVj4YcG2msMyfRKHC","LocationType":"point","DisplayPosition":{"Latitude":50.8316278,"Longitude":7.003782},"MapView":{"TopLeft":{"Latitude":50.83959,"Longitude":6.99573},"BottomRight":{"Latitude":50.82557,"Longitude":7.02756}},"Address":{"Label":"Lülsdorf, Niederkassel, Nordrhein-Westfalen, Deutschland","Country":"DEU","State":"Nordrhein-Westfalen","County":"Rhein-Sieg-Kreis","City":"Niederkassel","District":"Lülsdorf","PostalCode":"53859","AdditionalData":[{"value":"Deutschland","key":"CountryName"},{"value":"Nordrhein-Westfalen","key":"StateName"},{"value":"Rhein-Sieg-Kreis","key":"CountyName"}]},"MapReference":{"ReferenceId":"839606478","SideOfStreet":"neither","CountryId":"20147700","StateId":"20157369","CountyId":"20158889","CityId":"20158988","DistrictId":"20158992"}}},{"Relevance":1.0,"Distance":15.8,"MatchLevel":"houseNumber","MatchQuality":{"Country":1.0,"State":1.0,"County":1.0,"City":1.0,"District":1.0,"Street":[1.0],"HouseNumber":1.0,"PostalCode":1.0},"MatchType":"interpolated","Location":{"LocationId":"NT_lw-A0o3zCb92F1eQbOXAyC_zkD","LocationType":"point","DisplayPosition":{"Latitude":50.83153,"Longitude":7.00411},"MapView":{"TopLeft":{"Latitude":50.8326542,"Longitude":7.0023302},"BottomRight":{"Latitude":50.8304058,"Longitude":7.0058898}},"Address":{"Label":"Stahlenstraße 39, 53859 Niederkassel, Deutschland","Country":"DEU","State":"Nordrhein-Westfalen","County":"Rhein-Sieg-Kreis","City":"Niederkassel","District":"Lülsdorf","Street":"Stahlenstraße","HouseNumber":"39","PostalCode":"53859","AdditionalData":[{"value":"Deutschland","key":"CountryName"},{"value":"Nordrhein-Westfalen","key":"StateName"},{"value":"Rhein-Sieg-Kreis","key":"CountyName"}]},"MapReference":{"ReferenceId":"50888626","Spot":0.64,"SideOfStreet":"left","CountryId":"20147700","StateId":"20157369","CountyId":"20158889","CityId":"20158988","DistrictId":"20158992","AddressId":"193839451","RoadLinkId":"39531426"}}},{"Relevance":1.0,"Distance":50.6,"MatchLevel":"houseNumber","MatchQuality":{"Country":1.0,"State":1.0,"County":1.0,"City":1.0,"District":1.0,"Street":[1.0],"HouseNumber":1.0,"PostalCode":1.0},"MatchType":"interpolated","Location":{"LocationId":"NT_lw-A0o3zCb92F1eQbOXAyC_0UD","LocationType":"point","DisplayPosition":{"Latitude":50.832,"Longitude":7.0043},"MapView":{"TopLeft":{"Latitude":50.8331242,"Longitude":7.0025201},"BottomRight":{"Latitude":50.8308758,"Longitude":7.0060799}},"Address":{"Label":"Stahlenstraße 45, 53859 Niederkassel, Deutschland","Country":"DEU","State":"Nordrhein-Westfalen","County":"Rhein-Sieg-Kreis","City":"Niederkassel","District":"Lülsdorf","Street":"Stahlenstraße","HouseNumber":"45","PostalCode":"53859","AdditionalData":[{"value":"Deutschland","key":"CountryName"},{"value":"Nordrhein-Westfalen","key":"StateName"},{"value":"Rhein-Sieg-Kreis","key":"CountyName"}]},"MapReference":{"ReferenceId":"537822813","Spot":0.09,"SideOfStreet":"left","CountryId":"20147700","StateId":"20157369","CountyId":"20158889","CityId":"20158988","DistrictId":"20158992","AddressId":"194891733","RoadLinkId":"39035586"}}},{"Relevance":1.0,"Distance":53.5,"MatchLevel":"houseNumber","MatchQuality":{"Country":1.0,"State":1.0,"County":1.0,"City":1.0,"District":1.0,"Street":[1.0],"HouseNumber":1.0,"PostalCode":1.0},"MatchType":"interpolated","Location":{"LocationId":"NT_W.7yIQPnJVWxhraLC7BZUC_0kD","LocationType":"point","DisplayPosition":{"Latitude":50.83193,"Longitude":7.0045},"MapView":{"TopLeft":{"Latitude":50.8330542,"Longitude":7.0027201},"BottomRight":{"Latitude":50.8308058,"Longitude":7.0062799}},"Address":{"Label":"Nordstraße 49, 53859 Niederkassel, Deutschland","Country":"DEU","State":"Nordrhein-Westfalen","County":"Rhein-Sieg-Kreis","City":"Niederkassel","District":"Lülsdorf","Street":"Nordstraße","HouseNumber":"49","PostalCode":"53859","AdditionalData":[{"value":"Deutschland","key":"CountryName"},{"value":"Nordrhein-Westfalen","key":"StateName"},{"value":"Rhein-Sieg-Kreis","key":"CountyName"}]},"MapReference":{"ReferenceId":"50888472","Spot":0.78,"SideOfStreet":"left","CountryId":"20147700","StateId":"20157369","CountyId":"20158889","CityId":"20158988","DistrictId":"20158992","AddressId":"209475172","RoadLinkId":"39165877"}}},{"Relevance":1.0,"Distance":69.7,"MatchLevel":"houseNumber","MatchQuality":{"Country":1.0,"State":1.0,"County":1.0,"City":1.0,"District":1.0,"Street":[1.0],"HouseNumber":1.0,"PostalCode":1.0},"MatchType":"interpolated","Location":{"LocationId":"NT_VQ8M1HSHR28U7aT3F2E.UB_xMD","LocationType":"point","DisplayPosition":{"Latitude":50.8315,"Longitude":7.00505},"MapView":{"TopLeft":{"Latitude":50.8326242,"Longitude":7.0032702},"BottomRight":{"Latitude":50.8303758,"Longitude":7.0068298}},"Address":{"Label":"Hölderlinstraße 13, 53859 Niederkassel, Deutschland","Country":"DEU","State":"Nordrhein-Westfalen","County":"Rhein-Sieg-Kreis","City":"Niederkassel","District":"Lülsdorf","Street":"Hölderlinstraße","HouseNumber":"13","PostalCode":"53859","AdditionalData":[{"value":"Deutschland","key":"CountryName"},{"value":"Nordrhein-Westfalen","key":"StateName"},{"value":"Rhein-Sieg-Kreis","key":"CountyName"}]},"MapReference":{"ReferenceId":"536989064","Spot":1.0,"SideOfStreet":"left","CountryId":"20147700","StateId":"20157369","CountyId":"20158889","CityId":"20158988","DistrictId":"20158992","AddressId":"622146039","RoadLinkId":"39509179"}}},{"Relevance":1.0,"Distance":81.5,"MatchLevel":"houseNumber","MatchQuality":{"Country":1.0,"State":1.0,"County":1.0,"City":1.0,"District":1.0,"Street":[1.0],"HouseNumber":1.0,"PostalCode":1.0},"MatchType":"interpolated","Location":{"LocationId":"NT_kdImQjxRebZuWtPlBJ6wHA_yA","LocationType":"point","DisplayPosition":{"Latitude":50.83082,"Longitude":7.00362},"MapView":{"TopLeft":{"Latitude":50.8319442,"Longitude":7.0018402},"BottomRight":{"Latitude":50.8296958,"Longitude":7.0053998}},"Address":{"Label":"Mozartstraße 2, 53859 Niederkassel, Deutschland","Country":"DEU","State":"Nordrhein-Westfalen","County":"Rhein-Sieg-Kreis","City":"Niederkassel","District":"Lülsdorf","Street":"Mozartstraße","HouseNumber":"2","PostalCode":"53859","AdditionalData":[{"value":"Deutschland","key":"CountryName"},{"value":"Nordrhein-Westfalen","key":"StateName"},{"value":"Rhein-Sieg-Kreis","key":"CountyName"}]},"MapReference":{"ReferenceId":"536989068","Spot":0.1,"SideOfStreet":"right","CountryId":"20147700","StateId":"20157369","CountyId":"20158889","CityId":"20158988","DistrictId":"20158992","AddressId":"193902681","RoadLinkId":"39304488"}}},{"Relevance":1.0,"Distance":85.0,"MatchLevel":"houseNumber","MatchQuality":{"Country":1.0,"State":1.0,"County":1.0,"City":1.0,"District":1.0,"Street":[1.0],"HouseNumber":1.0,"PostalCode":1.0},"MatchType":"interpolated","Location":{"LocationId":"NT_wfsGW4I-Q2TNpxCLGBhfjA_zID","LocationType":"point","DisplayPosition":{"Latitude":50.83181,"Longitude":7.00231},"MapView":{"TopLeft":{"Latitude":50.8329342,"Longitude":7.0005301},"BottomRight":{"Latitude":50.8306858,"Longitude":7.0040899}},"Address":{"Label":"Herderstraße 32, 53859 Niederkassel, Deutschland","Country":"DEU","State":"Nordrhein-Westfalen","County":"Rhein-Sieg-Kreis","City":"Niederkassel","District":"Lülsdorf","Street":"Herderstraße","HouseNumber":"32","PostalCode":"53859","AdditionalData":[{"value":"Deutschland","key":"CountryName"},{"value":"Nordrhein-Westfalen","key":"StateName"},{"value":"Rhein-Sieg-Kreis","key":"CountyName"}]},"MapReference":{"ReferenceId":"536989017","Spot":0.84,"SideOfStreet":"right","CountryId":"20147700","StateId":"20157369","CountyId":"20158889","CityId":"20158988","DistrictId":"20158992","AddressId":"194048746","RoadLinkId":"39167141"}}},{"Relevance":1.0,"Distance":85.8,"MatchLevel":"houseNumber","MatchQuality":{"Country":1.0,"State":1.0,"County":1.0,"City":1.0,"District":1.0,"Street":[1.0],"HouseNumber":1.0,"PostalCode":1.0},"MatchType":"interpolated","Location":{"LocationId":"NT_wfsGW4I-Q2TNpxCLGBhfjA_zgD","LocationType":"point","DisplayPosition":{"Latitude":50.83213,"Longitude":7.00245},"MapView":{"TopLeft":{"Latitude":50.8332542,"Longitude":7.0006701},"BottomRight":{"Latitude":50.8310058,"Longitude":7.0042299}},"Address":{"Label":"Herderstraße 38, 53859 Niederkassel, Deutschland","Country":"DEU","State":"Nordrhein-Westfalen","County":"Rhein-Sieg-Kreis","City":"Niederkassel","District":"Lülsdorf","Street":"Herderstraße","HouseNumber":"38","PostalCode":"53859","AdditionalData":[{"value":"Deutschland","key":"CountryName"},{"value":"Nordrhein-Westfalen","key":"StateName"},{"value":"Rhein-Sieg-Kreis","key":"CountyName"}]},"MapReference":{"ReferenceId":"537790303","Spot":0.19,"SideOfStreet":"right","CountryId":"20147700","StateId":"20157369","CountyId":"20158889","CityId":"20158988","DistrictId":"20158992","AddressId":"193296613","RoadLinkId":"39302339"}}},{"Relevance":1.0,"Distance":89.6,"MatchLevel":"houseNumber","MatchQuality":{"Country":1.0,"State":1.0,"County":1.0,"City":1.0,"District":1.0,"Street":[1.0],"HouseNumber":1.0,"PostalCode":1.0},"MatchType":"interpolated","Location":{"LocationId":"NT_W.7yIQPnJVWxhraLC7BZUC_3ID","LocationType":"point","DisplayPosition":{"Latitude":50.83223,"Longitude":7.00482},"MapView":{"TopLeft":{"Latitude":50.8333542,"Longitude":7.0030401},"BottomRight":{"Latitude":50.8311058,"Longitude":7.0065999}},"Address":{"Label":"Nordstraße 72, 53859 Niederkassel, Deutschland","Country":"DEU","State":"Nordrhein-Westfalen","County":"Rhein-Sieg-Kreis","City":"Niederkassel","District":"Lülsdorf","Street":"Nordstraße","HouseNumber":"72","PostalCode":"53859","AdditionalData":[{"value":"Deutschland","key":"CountryName"},{"value":"Nordrhein-Westfalen","key":"StateName"},{"value":"Rhein-Sieg-Kreis","key":"CountyName"}]},"MapReference":{"ReferenceId":"536989044","Spot":1.0,"SideOfStreet":"left","CountryId":"20147700","StateId":"20157369","CountyId":"20158889","CityId":"20158988","DistrictId":"20158992","AddressId":"209676333","RoadLinkId":"39276094"}}},{"Relevance":1.0,"Distance":94.9,"MatchLevel":"houseNumber","MatchQuality":{"Country":1.0,"State":1.0,"County":1.0,"City":1.0,"District":1.0,"Street":[1.0],"HouseNumber":1.0,"PostalCode":1.0},"MatchType":"interpolated","Location":{"LocationId":"NT_TvjqppZ1TVbwLwgXcqd5zD_yAD","LocationType":"point","DisplayPosition":{"Latitude":50.83074,"Longitude":7.0042},"MapView":{"TopLeft":{"Latitude":50.8318642,"Longitude":7.0024202},"BottomRight":{"Latitude":50.8296158,"Longitude":7.0059798}},"Address":{"Label":"Kantstraße 20, 53859 Niederkassel, Deutschland","Country":"DEU","State":"Nordrhein-Westfalen","County":"Rhein-Sieg-Kreis","City":"Niederkassel","District":"Lülsdorf","Street":"Kantstraße","HouseNumber":"20","PostalCode":"53859","AdditionalData":[{"value":"Deutschland","key":"CountryName"},{"value":"Nordrhein-Westfalen","key":"StateName"},{"value":"Rhein-Sieg-Kreis","key":"CountyName"}]},"MapReference":{"ReferenceId":"536989020","Spot":0.43,"SideOfStreet":"right","CountryId":"20147700","StateId":"20157369","CountyId":"20158889","CityId":"20158988","DistrictId":"20158992","AddressId":"209423136","RoadLinkId":"39098057"}}}]}]}}