{"Response":{"MetaInfo":{"Timestamp":"2020-03-28T10:21:16.659+0000","NextPageInformation":"2"},"View":[{"_type":"SearchResultsViewType","ViewId":0,"Result":[{"Relevance":1.0,"Distance":0.0,"Direction":0.0,"MatchLevel":"district","MatchQuality":{"Country":1.0,"State":1.0,"County":1.0,"City":1.0,"District":1.0,"PostalCode":1.0},"Location":{"LocationId":"NT_JsqzvMkh0sFRAAQ.JVK6nA","LocationType":"point","DisplayPosition":{"Latitude":50.8159757,"Longitude":7.1551506},"MapView":{"TopLeft":{"Latitude":50.82709,"Longitude":7.12631},"BottomRight":{"Latitude":50.79726,"Longitude":7.18634}},"Address":{"Label":"Troisdorf, Nordrhein-Westfalen, Deutschland","Country":"DEU","State":"Nordrhein-Westfalen","County":"Rhein-Sieg-Kreis","City":"Troisdorf","District":"Troisdorf","PostalCode":"53840","AdditionalData":[{"value":"Deutschland","key":"CountryName"},{"value":"Nordrhein-Westfalen","key":"StateName"},{"value":"Rhein-Sieg-Kreis","key":"CountyName"}]},"MapReference":{"ReferenceId":"1199565227","SideOfStreet":"neither","CountryId":"20147700","StateId":"20157369","CountyId":"20158889","CityId":"20159037","DistrictId":"20159043"}}},{"Relevance":1.0,"Distance":17.7,"MatchLevel":"houseNumber","MatchQuality":{"Country":1.0,"State":1.0,"County":1.0,"City":1.0,"District":1.0,"Street":[1.0],"HouseNumber":1.0,"PostalCode":1.0},"MatchType":"interpolated","Location":{"LocationId":"NT_DUrzHYwk0j1gDt9MDkzhHC_5cD","LocationType":"point","DisplayPosition":{"Latitude":50.81577,"Longitude":7.15501},"MapView":{"TopLeft":{"Latitude":50.8168942,"Longitude":7.1532308},"BottomRight":{"Latitude":50.8146458,"Longitude":7.1567892}},"Address":{"Label":"Kölner Straße 97, 53840 Troisdorf, Deutschland","Country":"DEU","State":"Nordrhein-Westfalen","County":"Rhein-Sieg-Kreis","City":"Troisdorf","District":"Troisdorf","Street":"Kölner Straße","HouseNumber":"97","PostalCode":"53840","AdditionalData":[{"value":"Deutschland","key":"CountryName"},{"value":"Nordrhein-Westfalen","key":"StateName"},{"value":"Rhein-Sieg-Kreis","key":"CountyName"}]},"MapReference":{"ReferenceId":"51028338","Spot":0.81,"SideOfStreet":"right","CountryId":"20147700","StateId":"20157369","CountyId":"20158889","CityId":"20159037","DistrictId":"20159043","AddressId":"193294734","RoadLinkId":"39406521"}}},{"Relevance":1.0,"Distance":27.3,"MatchLevel":"street","MatchQuality":{"Country":1.0,"State":1.0,"County":1.0,"City":1.0,"District":1.0,"Street":[1.0],"PostalCode":1.0},"Location":{"LocationId":"NT_RMLyKRaADZjf8IsbiR9-gD_l_920539562_R","LocationType":"point","DisplayPosition":{"Latitude":50.81582,"Longitude":7.15485},"MapView":{"TopLeft":{"Latitude":50.81582,"Longitude":7.15473},"BottomRight":{"Latitude":50.81566,"Longitude":7.15485}},"Address":{"Label":"Wilhelmstraße, 53840 Troisdorf, Deutschland","Country":"DEU","State":"Nordrhein-Westfalen","County":"Rhein-Sieg-Kreis","City":"Troisdorf","District":"Troisdorf","Street":"Wilhelmstraße","PostalCode":"53840","AdditionalData":[{"value":"Deutschland","key":"CountryName"},{"value":"Nordrhein-Westfalen","key":"StateName"},{"value":"Rhein-Sieg-Kreis","key":"CountyName"}]},"MapReference":{"ReferenceId":"920539562","Spot":1.0,"SideOfStreet":"right","CountryId":"20147700","StateId":"20157369","CountyId":"20158889","CityId":"20159037","DistrictId":"20159043"}}},{"Relevance":1.0,"Distance":30.9,"MatchLevel":"houseNumber","MatchQuality":{"Country":1.0,"State":1.0,"County":1.0,"City":1.0,"District":1.0,"Street":[1.0],"HouseNumber":1.0,"PostalCode":1.0},"MatchType":"interpolated","Location":{"LocationId":"NT_DUrzHYwk0j1gDt9MDkzhHC_xATM","LocationType":"point","DisplayPosition":{"Latitude":50.81587,"Longitude":7.15468},"MapView":{"TopLeft":{"Latitude":50.8169942,"Longitude":7.1529008},"BottomRight":{"Latitude":50.8147458,"Longitude":7.1564592}},"Address":{"Label":"Kölner Straße 101, 53840 Troisdorf, Deutschland","Country":"DEU","State":"Nordrhein-Westfalen","County":"Rhein-Sieg-Kreis","City":"Troisdorf","District":"Troisdorf","Street":"Kölner Straße","HouseNumber":"101","PostalCode":"53840","AdditionalData":[{"value":"Deutschland","key":"CountryName"},{"value":"Nordrhein-Westfalen","key":"StateName"},{"value":"Rhein-Sieg-Kreis","key":"CountyName"}]},"MapReference":{"ReferenceId":"920539563","Spot":0.85,"SideOfStreet":"right","CountryId":"20147700","StateId":"20157369","CountyId":"20158889","CityId":"20159037","DistrictId":"20159043","AddressId":"194461715","RoadLinkId":"277444726"}}},{"Relevance":1.0,"Distance":32.3,"MatchLevel":"houseNumber","MatchQuality":{"Country":1.0,"State":1.0,"County":1.0,"City":1.0,"District":1.0,"Street":[1.0],"HouseNumber":1.0,"PostalCode":1.0},"MatchType":"interpolated","Location":{"LocationId":"NT_yVvrDm4b.5DH9pJiMZq91D_1A","LocationType":"point","DisplayPosition":{"Latitude":50.81622,"Longitude":7.1554},"MapView":{"TopLeft":{"Latitude":50.8173442,"Longitude":7.1536207},"BottomRight":{"Latitude":50.8150958,"Longitude":7.1571793}},"Address":{"Label":"Cecilienstraße 5, 53840 Troisdorf, Deutschland","Country":"DEU","State":"Nordrhein-Westfalen","County":"Rhein-Sieg-Kreis","City":"Troisdorf","District":"Troisdorf","Street":"Cecilienstraße","HouseNumber":"5","PostalCode":"53840","AdditionalData":[{"value":"Deutschland","key":"CountryName"},{"value":"Nordrhein-Westfalen","key":"StateName"},{"value":"Rhein-Sieg-Kreis","key":"CountyName"}]},"MapReference":{"ReferenceId":"51028386","Spot":0.27,"SideOfStreet":"right","CountryId":"20147700","StateId":"20157369","CountyId":"20158889","CityId":"20159037","DistrictId":"20159043","AddressId":"192752418","RoadLinkId":"39072658"}}},{"Relevance":1.0,"Distance":42.2,"MatchLevel":"houseNumber","MatchQuality":{"Country":1.0,"State":1.0,"County":1.0,"City":1.0,"District":1.0,"Street":[1.0],"HouseNumber":1.0,"PostalCode":1.0},"MatchType":"interpolated","Location":{"LocationId":"NT_DUrzHYwk0j1gDt9MDkzhHC_xAzM","LocationType":"point","DisplayPosition":{"Latitude":50.81592,"Longitude":7.15451},"MapView":{"TopLeft":{"Latitude":50.8170442,"Longitude":7.1527308},"BottomRight":{"Latitude":50.8147958,"Longitude":7.1562892}},"Address":{"Label":"Kölner Straße 103, 53840 Troisdorf, Deutschland","Country":"DEU","State":"Nordrhein-Westfalen","County":"Rhein-Sieg-Kreis","City":"Troisdorf","District":"Troisdorf","Street":"Kölner Straße","HouseNumber":"103","PostalCode":"53840","AdditionalData":[{"value":"Deutschland","key":"CountryName"},{"value":"Nordrhein-Westfalen","key":"StateName"},{"value":"Rhein-Sieg-Kreis","key":"CountyName"}]},"MapReference":{"ReferenceId":"920539564","Spot":0.2,"SideOfStreet":"right","CountryId":"20147700","StateId":"20157369","CountyId":"20158889","CityId":"20159037","DistrictId":"20159043","AddressId":"195218924","RoadLinkId":"277444727"}}},{"Relevance":1.0,"Distance":55.0,"MatchLevel":"houseNumber","MatchQuality":{"Country":1.0,"State":1.0,"County":1.0,"City":1.0,"District":1.0,"Street":[1.0],"HouseNumber":1.0,"PostalCode":1.0},"MatchType":"interpolated","Location":{"LocationId":"NT_RMLyKRaADZjf8IsbiR9-gD_yA","LocationType":"point","DisplayPosition":{"Latitude":50.81557,"Longitude":7.15467},"MapView":{"TopLeft":{"Latitude":50.8166942,"Longitude":7.1528908},"BottomRight":{"Latitude":50.8144458,"Longitude":7.1564492}},"Address":{"Label":"Wilhelmstraße 2, 53840 Troisdorf, Deutschland","Country":"DEU","State":"Nordrhein-Westfalen","County":"Rhein-Sieg-Kreis","City":"Troisdorf","District":"Troisdorf","Street":"Wilhelmstraße","HouseNumber":"2","PostalCode":"53840","AdditionalData":[{"value":"Deutschland","key":"CountryName"},{"value":"Nordrhein-Westfalen","key":"StateName"},{"value":"Rhein-Sieg-Kreis","key":"CountyName"}]},"MapReference":{"ReferenceId":"920539561","Spot":0.87,"SideOfStreet":"right","CountryId":"20147700","StateId":"20157369","CountyId":"20158889","CityId":"20159037","DistrictId":"20159043","AddressId":"194570539","RoadLinkId":"277444724"}}},{"Relevance":1.0,"Distance":56.0,"MatchLevel":"houseNumber","MatchQuality":{"Country":1.0,"State":1.0,"County":1.0,"City":1.0,"District":1.0,"Street":[1.0],"HouseNumber":1.0,"PostalCode":1.0},"MatchType":"interpolated","Location":{"LocationId":"NT_rWdQjvbaS230d1UzN896JA_1A","LocationType":"point","DisplayPosition":{"Latitude":50.81644,"Longitude":7.15442},"MapView":{"TopLeft":{"Latitude":50.8175642,"Longitude":7.1526407},"BottomRight":{"Latitude":50.8153158,"Longitude":7.1561993}},"Address":{"Label":"Hermann-Löns-Straße 5, 53840 Troisdorf, Deutschland","Country":"DEU","State":"Nordrhein-Westfalen","County":"Rhein-Sieg-Kreis","City":"Troisdorf","District":"Troisdorf","Street":"Hermann-Löns-Straße","HouseNumber":"5","PostalCode":"53840","AdditionalData":[{"value":"Deutschland","key":"CountryName"},{"value":"Nordrhein-Westfalen","key":"StateName"},{"value":"Rhein-Sieg-Kreis","key":"CountyName"}]},"MapReference":{"ReferenceId":"51028387","Spot":0.25,"SideOfStreet":"right","CountryId":"20147700","StateId":"20157369","CountyId":"20158889","CityId":"20159037","DistrictId":"20159043","AddressId":"196664402","RoadLinkId":"39012795"}}},{"Relevance":1.0,"Distance":67.5,"MatchLevel":"houseNumber","MatchQuality":{"Country":1.0,"State":1.0,"County":1.0,"City":1.0,"District":1.0,"Street":[1.0],"HouseNumber":1.0,"PostalCode":1.0},"MatchType":"interpolated","Location":{"LocationId":"NT_DUrzHYwk0j1gDt9MDkzhHC_4UD","LocationType":"point","DisplayPosition":{"Latitude":50.81554,"Longitude":7.15582},"MapView":{"TopLeft":{"Latitude":50.8166642,"Longitude":7.1540408},"BottomRight":{"Latitude":50.8144158,"Longitude":7.1575992}},"Address":{"Label":"Kölner Straße 85, 53840 Troisdorf, Deutschland","Country":"DEU","State":"Nordrhein-Westfalen","County":"Rhein-Sieg-Kreis","City":"Troisdorf","District":"Troisdorf","Street":"Kölner Straße","HouseNumber":"85","PostalCode":"53840","AdditionalData":[{"value":"Deutschland","key":"CountryName"},{"value":"Nordrhein-Westfalen","key":"StateName"},{"value":"Rhein-Sieg-Kreis","key":"CountyName"}]},"MapReference":{"ReferenceId":"867079630","Spot":0.93,"SideOfStreet":"right","CountryId":"20147700","StateId":"20157369","CountyId":"20158889","CityId":"20159037","DistrictId":"20159043","AddressId":"192889905","RoadLinkId":"239904241"}}},{"Relevance":1.0,"Distance":77.1,"MatchLevel":"houseNumber","MatchQuality":{"Country":1.0,"State":1.0,"County":1.0,"City":1.0,"District":1.0,"Street":[1.0],"HouseNumber":1.0,"PostalCode":1.0},"MatchType":"interpolated","Location":{"LocationId":"NT_pGDhPy4CdBRtnnnUZEKlTB_xA","LocationType":"point","DisplayPosition":{"Latitude":50.81529,"Longitude":7.15553},"MapView":{"TopLeft":{"Latitude":50.8164142,"Longitude":7.1537508},"BottomRight":{"Latitude":50.8141658,"Longitude":7.1573092}},"Address":{"Label":"Wilhelm-Hamacher-Straße 1, 53840 Troisdorf, Deutschland","Country":"DEU","State":"Nordrhein-Westfalen","County":"Rhein-Sieg-Kreis","City":"Troisdorf","District":"Troisdorf","Street":"Wilhelm-Hamacher-Straße","HouseNumber":"1","PostalCode":"53840","AdditionalData":[{"value":"Deutschland","key":"CountryName"},{"value":"Nordrhein-Westfalen","key":"StateName"},{"value":"Rhein-Sieg-Kreis","key":"CountyName"}]},"MapReference":{"ReferenceId":"51028611","Spot":0.55,"SideOfStreet":"left","CountryId":"20147700","StateId":"20157369","CountyId":"20158889","CityId":"20159037","DistrictId":"20159043","AddressId":"195885407","RoadLinkId":"39054487"}}}]}]}}