{"Response":{"MetaInfo":{"Timestamp":"2020-03-28T11:59:51.672+0000","NextPageInformation":"2"},"View":[{"_type":"SearchResultsViewType","ViewId":0,"Result":[{"Relevance":1.0,"Distance":0.0,"Direction":0.0,"MatchLevel":"district","MatchQuality":{"Country":1.0,"State":1.0,"County":1.0,"City":1.0,"District":1.0,"PostalCode":1.0},"Location":{"LocationId":"NT_h2YxsREqmHFuJxEfnPQBjB","LocationType":"point","DisplayPosition":{"Latitude":50.8209047,"Longitude":-0.1341762},"MapView":{"TopLeft":{"Latitude":50.87111,"Longitude":-0.17689},"BottomRight":{"Latitude":50.80833,"Longitude":-0.0866}},"Address":{"Label":"Brighton, England, United Kingdom","Country":"GBR","State":"England","County":"East Sussex","City":"Brighton","District":"Brighton","PostalCode":"BN2 9","AdditionalData":[{"value":"United Kingdom","key":"CountryName"},{"value":"England","key":"StateName"},{"value":"East Sussex","key":"CountyName"}]},"MapReference":{"ReferenceId":"850546450","SideOfStreet":"neither","StateId":"20248595","CountyId":"20335121","CityId":"20335134","DistrictId":"20335135"}}},{"Relevance":1.0,"Distance":7.5,"MatchLevel":"houseNumber","MatchQuality":{"Country":1.0,"State":1.0,"County":1.0,"City":1.0,"District":1.0,"Street":[1.0],"HouseNumber":1.0,"PostalCode":1.0},"MatchType":"interpolated","Location":{"LocationId":"NT_xzX-sX-U.BPnNxCz4Sg.CB_l_25615585_R_yQD","LocationType":"point","DisplayPosition":{"Latitude":50.82083,"Longitude":-0.1342401},"MapView":{"TopLeft":{"Latitude":50.8219542,"Longitude":-0.1360195},"BottomRight":{"Latitude":50.8197059,"Longitude":-0.1324607}},"Address":{"Label":"24 St James's Street, Brighton, BN2 1RF, United Kingdom","Country":"GBR","State":"England","County":"East Sussex","City":"Brighton","District":"Brighton","Street":"St James's Street","HouseNumber":"24","PostalCode":"BN2 1RF","AdditionalData":[{"value":"United Kingdom","key":"CountryName"},{"value":"England","key":"StateName"},{"value":"East Sussex","key":"CountyName"}]},"MapReference":{"ReferenceId":"25615585","Spot":0.34,"SideOfStreet":"right","StateId":"20248595","CountyId":"20335121","CityId":"20335134","DistrictId":"20335135"}}},{"Relevance":1.0,"Distance":9.5,"MatchLevel":"postalCode","MatchQuality":{"PostalCode":1.0},"MatchType":"interpolated","Location":{"LocationId":"NT_xzX-sX-U.BPnNxCz4Sg.CB_l_25615585_R_yQD","LocationType":"point","DisplayPosition":{"Latitude":50.82089,"Longitude":-0.13431},"MapView":{"TopLeft":{"Latitude":50.8298832,"Longitude":-0.1485455},"BottomRight":{"Latitude":50.8118968,"Longitude":-0.1200745}},"Address":{"Label":"BN2 1RU, Brighton, England, United Kingdom","Country":"GBR","State":"England","County":"East Sussex","City":"Brighton","PostalCode":"BN2 1RU","AdditionalData":[{"value":"United Kingdom","key":"CountryName"},{"value":"England","key":"StateName"},{"value":"East Sussex","key":"CountyName"}]},"MapReference":{"ReferenceId":"25615585","Spot":0.34,"SideOfStreet":"neither","StateId":"20248595","CountyId":"20335121","CityId":"20335134"}}},{"Relevance":1.0,"Distance":14.8,"MatchLevel":"houseNumber","MatchQuality":{"Country":1.0,"State":1.0,"County":1.0,"City":1.0,"District":1.0,"Street":[1.0],"HouseNumber":1.0,"PostalCode":1.0},"MatchType":"interpolated","Location":{"LocationId":"NT_fAcdetBc8ep68JwiFPPYVC_l_25615584_R_yQD","LocationType":"point","DisplayPosition":{"Latitude":50.8209302,"Longitude":-0.1339699},"MapView":{"TopLeft":{"Latitude":50.8220544,"Longitude":-0.1357493},"BottomRight":{"Latitude":50.8198061,"Longitude":-0.1321905}},"Address":{"Label":"24 Dorset Gardens, Brighton, BN2 1RL, United Kingdom","Country":"GBR","State":"England","County":"East Sussex","City":"Brighton","District":"Brighton","Street":"Dorset Gardens","HouseNumber":"24","PostalCode":"BN2 1RL","AdditionalData":[{"value":"United Kingdom","key":"CountryName"},{"value":"England","key":"StateName"},{"value":"East Sussex","key":"CountyName"}]},"MapReference":{"ReferenceId":"25615584","Spot":0.08,"SideOfStreet":"right","StateId":"20248595","CountyId":"20335121","CityId":"20335134","DistrictId":"20335135"}}},{"Relevance":1.0,"Distance":15.5,"MatchLevel":"postalCode","MatchQuality":{"PostalCode":1.0},"MatchType":"interpolated","Location":{"LocationId":"NT_xzX-sX-U.BPnNxCz4Sg.CB_l_25615565_R_xYD","LocationType":"point","DisplayPosition":{"Latitude":50.82098,"Longitude":-0.13399},"MapView":{"TopLeft":{"Latitude":50.8299732,"Longitude":-0.1482255},"BottomRight":{"Latitude":50.8119868,"Longitude":-0.1197545}},"Address":{"Label":"BN2 1RF, Brighton, England, United Kingdom","Country":"GBR","State":"England","County":"East Sussex","City":"Brighton","PostalCode":"BN2 1RF","AdditionalData":[{"value":"United Kingdom","key":"CountryName"},{"value":"England","key":"StateName"},{"value":"East Sussex","key":"CountyName"}]},"MapReference":{"ReferenceId":"25615565","Spot":0.0,"SideOfStreet":"neither","StateId":"20248595","CountyId":"20335121","CityId":"20335134"}}},{"Relevance":1.0,"Distance":28.6,"MatchLevel":"postalCode","MatchQuality":{"PostalCode":1.0},"MatchType":"interpolated","Location":{"LocationId":"NT_fAcdetBc8ep68JwiFPPYVC_l_25615584_R_yQD","LocationType":"point","DisplayPosition":{"Latitude":50.82111,"Longitude":-0.13393},"MapView":{"TopLeft":{"Latitude":50.8301032,"Longitude":-0.1481655},"BottomRight":{"Latitude":50.8121168,"Longitude":-0.1196945}},"Address":{"Label":"BN2 1RZ, Brighton, England, United Kingdom","Country":"GBR","State":"England","County":"East Sussex","City":"Brighton","PostalCode":"BN2 1RZ","AdditionalData":[{"value":"United Kingdom","key":"CountryName"},{"value":"England","key":"StateName"},{"value":"East Sussex","key":"CountyName"}]},"MapReference":{"ReferenceId":"25615584","Spot":0.08,"SideOfStreet":"neither","StateId":"20248595","CountyId":"20335121","CityId":"20335134"}}},{"Relevance":1.0,"Distance":28.9,"MatchLevel":"houseNumber","MatchQuality":{"Country":1.0,"State":1.0,"County":1.0,"City":1.0,"District":1.0,"Street":[1.0],"HouseNumber":1.0,"PostalCode":1.0},"MatchType":"interpolated","Location":{"LocationId":"NT_qiDywMe7x-VSPZGwHFIU.A_l_25615779_L_xUD","LocationType":"point","DisplayPosition":{"Latitude":50.8206157,"Longitude":-0.1340907},"MapView":{"TopLeft":{"Latitude":50.8217399,"Longitude":-0.1358701},"BottomRight":{"Latitude":50.8194916,"Longitude":-0.1323113}},"Address":{"Label":"15 Madeira Place, Brighton, BN2 1TN, United Kingdom","Country":"GBR","State":"England","County":"East Sussex","City":"Brighton","District":"Brighton","Street":"Madeira Place","HouseNumber":"15","PostalCode":"BN2 1TN","AdditionalData":[{"value":"United Kingdom","key":"CountryName"},{"value":"England","key":"StateName"},{"value":"East Sussex","key":"CountyName"}]},"MapReference":{"ReferenceId":"25615779","Spot":0.81,"SideOfStreet":"left","StateId":"20248595","CountyId":"20335121","CityId":"20335134","DistrictId":"20335135"}}},{"Relevance":1.0,"Distance":29.3,"MatchLevel":"houseNumber","MatchQuality":{"Country":1.0,"State":1.0,"County":1.0,"City":1.0,"District":1.0,"Street":[1.0],"HouseNumber":1.0,"PostalCode":1.0},"MatchType":"interpolated","Location":{"LocationId":"NT_xzX-sX-U.BPnNxCz4Sg.CB_l_25615596_R_yUD","LocationType":"point","DisplayPosition":{"Latitude":50.8207722,"Longitude":-0.13378},"MapView":{"TopLeft":{"Latitude":50.8218964,"Longitude":-0.1355594},"BottomRight":{"Latitude":50.8196481,"Longitude":-0.1320006}},"Address":{"Label":"25 St James's Street, Brighton, BN2 1RF, United Kingdom","Country":"GBR","State":"England","County":"East Sussex","City":"Brighton","District":"Brighton","Street":"St James's Street","HouseNumber":"25","PostalCode":"BN2 1RF","AdditionalData":[{"value":"United Kingdom","key":"CountryName"},{"value":"England","key":"StateName"},{"value":"East Sussex","key":"CountyName"}]},"MapReference":{"ReferenceId":"25615596","Spot":0.7,"SideOfStreet":"right","StateId":"20248595","CountyId":"20335121","CityId":"20335134","DistrictId":"20335135"}}},{"Relevance":1.0,"Distance":30.5,"MatchLevel":"houseNumber","MatchQuality":{"Country":1.0,"State":1.0,"County":1.0,"City":1.0,"District":1.0,"Street":[1.0],"HouseNumber":1.0,"PostalCode":1.0},"MatchType":"interpolated","Location":{"LocationId":"NT_BLtngKBg.jw6gj5RRNsV8B_l_766942910_R_xUD","LocationType":"point","DisplayPosition":{"Latitude":50.8207333,"Longitude":-0.13465},"MapView":{"TopLeft":{"Latitude":50.8218575,"Longitude":-0.1364294},"BottomRight":{"Latitude":50.8196092,"Longitude":-0.1328706}},"Address":{"Label":"15 Broad Street, Brighton, BN2 1TJ, United Kingdom","Country":"GBR","State":"England","County":"East Sussex","City":"Brighton","District":"Brighton","Street":"Broad Street","HouseNumber":"15","PostalCode":"BN2 1TJ","AdditionalData":[{"value":"United Kingdom","key":"CountryName"},{"value":"England","key":"StateName"},{"value":"East Sussex","key":"CountyName"}]},"MapReference":{"ReferenceId":"766942910","Spot":0.5,"SideOfStreet":"right","StateId":"20248595","CountyId":"20335121","CityId":"20335134","DistrictId":"20335135"}}},{"Relevance":1.0,"Distance":32.0,"MatchLevel":"houseNumber","MatchQuality":{"Country":1.0,"State":1.0,"County":1.0,"City":1.0,"District":1.0,"Street":[1.0],"HouseNumber":1.0,"PostalCode":1.0},"MatchType":"interpolated","Location":{"LocationId":"NT_xzX-sX-U.BPnNxCz4Sg.CB_l_25615565_R_xYD","LocationType":"point","DisplayPosition":{"Latitude":50.82088,"Longitude":-0.13463},"MapView":{"TopLeft":{"Latitude":50.8220042,"Longitude":-0.1364095},"BottomRight":{"Latitude":50.8197559,"Longitude":-0.1328506}},"Address":{"Label":"16 St James's Street, Brighton, BN2 1RF, United Kingdom","Country":"GBR","State":"England","County":"East Sussex","City":"Brighton","District":"Brighton","Street":"St James's Street","HouseNumber":"16","PostalCode":"BN2 1RF","AdditionalData":[{"value":"United Kingdom","key":"CountryName"},{"value":"England","key":"StateName"},{"value":"East Sussex","key":"CountyName"}]},"MapReference":{"ReferenceId":"25615565","Spot":0.0,"SideOfStreet":"right","StateId":"20248595","CountyId":"20335121","CityId":"20335134","DistrictId":"20335135"}}}]}]}}