{"Response":{"MetaInfo":{"Timestamp":"2020-03-28T11:39:19.046+0000","NextPageInformation":"2"},"View":[{"_type":"SearchResultsViewType","ViewId":0,"Result":[{"Relevance":1.0,"Distance":0.0,"Direction":0.0,"MatchLevel":"city","MatchQuality":{"Country":1.0,"State":1.0,"County":1.0,"City":1.0,"PostalCode":1.0},"Location":{"LocationId":"NT_JePgAxW3GfGZGuYykKrQfB","LocationType":"point","DisplayPosition":{"Latitude":50.8470752,"Longitude":4.4175786},"MapView":{"TopLeft":{"Latitude":50.86322,"Longitude":4.40003},"BottomRight":{"Latitude":50.83388,"Longitude":4.46172}},"Address":{"Label":"Sint-Lambrechts-Woluwe, Brussel, België","Country":"BEL","State":"Brussel","County":"Brussel","City":"Sint-Lambrechts-Woluwe","PostalCode":"1200","AdditionalData":[{"value":"België","key":"CountryName"},{"value":"Brussel","key":"StateName"},{"value":"Brussel","key":"CountyName"}]},"MapReference":{"ReferenceId":"53879555","SideOfStreet":"neither","CountryId":"20128886","StateId":"20207797","CountyId":"20207798","CityId":"20207850"}}},{"Relevance":1.0,"Distance":8.1,"MatchLevel":"houseNumber","MatchQuality":{"Country":1.0,"State":1.0,"County":1.0,"City":1.0,"Street":[1.0],"HouseNumber":1.0,"PostalCode":1.0},"MatchType":"interpolated","Location":{"LocationId":"NT_1bEmlV3KJD4H3JHLVgWPGC_0YD","LocationType":"point","DisplayPosition":{"Latitude":50.8471,"Longitude":4.41738},"MapView":{"TopLeft":{"Latitude":50.8482242,"Longitude":4.4155996},"BottomRight":{"Latitude":50.8459758,"Longitude":4.4191604}},"Address":{"Label":"Heydenberglaan 46, 1200 Sint-Lambrechts-Woluwe, België","Country":"BEL","State":"Brussel","County":"Brussel","City":"Sint-Lambrechts-Woluwe","Street":"Heydenberglaan","HouseNumber":"46","PostalCode":"1200","AdditionalData":[{"value":"België","key":"CountryName"},{"value":"Brussel","key":"StateName"},{"value":"Brussel","key":"CountyName"}]},"MapReference":{"ReferenceId":"53864273","Spot":0.38,"SideOfStreet":"right","CountryId":"20128886","StateId":"20207797","CountyId":"20207798","CityId":"20207850","AddressId":"381718523","RoadLinkId":"30310750"}}},{"Relevance":1.0,"Distance":16.3,"MatchLevel":"houseNumber","MatchQuality":{"Country":1.0,"State":1.0,"County":1.0,"City":1.0,"Street":[1.0],"HouseNumber":1.0,"PostalCode":1.0},"MatchType":"interpolated","Location":{"LocationId":"NT_SAsQ-JNN.dtEKjXokG.B5D_zA","LocationType":"point","DisplayPosition":{"Latitude":50.84701,"Longitude":4.41792},"MapView":{"TopLeft":{"Latitude":50.8481342,"Longitude":4.4161396},"BottomRight":{"Latitude":50.8458858,"Longitude":4.4197004}},"Address":{"Label":"Eveninglaan 3, 1200 Sint-Lambrechts-Woluwe, België","Country":"BEL","State":"Brussel","County":"Brussel","City":"Sint-Lambrechts-Woluwe","Street":"Eveninglaan","HouseNumber":"3","PostalCode":"1200","AdditionalData":[{"value":"België","key":"CountryName"},{"value":"Brussel","key":"StateName"},{"value":"Brussel","key":"CountyName"}]},"MapReference":{"ReferenceId":"1090558256","Spot":0.78,"SideOfStreet":"left","CountryId":"20128886","StateId":"20207797","CountyId":"20207798","CityId":"20207850","AddressId":"381661932","RoadLinkId":"405536409"}}},{"Relevance":1.0,"Distance":28.9,"MatchLevel":"houseNumber","MatchQuality":{"Country":1.0,"State":1.0,"County":1.0,"City":1.0,"Street":[1.0],"HouseNumber":1.0,"PostalCode":1.0},"MatchType":"interpolated","Location":{"LocationId":"NT_1bEmlV3KJD4H3JHLVgWPGC_zkD","LocationType":"point","DisplayPosition":{"Latitude":50.84699,"Longitude":4.41719},"MapView":{"TopLeft":{"Latitude":50.8481142,"Longitude":4.4154096},"BottomRight":{"Latitude":50.8458658,"Longitude":4.4189704}},"Address":{"Label":"Heydenberglaan 39, 1200 Sint-Lambrechts-Woluwe, België","Country":"BEL","State":"Brussel","County":"Brussel","City":"Sint-Lambrechts-Woluwe","Street":"Heydenberglaan","HouseNumber":"39","PostalCode":"1200","AdditionalData":[{"value":"België","key":"CountryName"},{"value":"Brussel","key":"StateName"},{"value":"Brussel","key":"CountyName"}]},"MapReference":{"ReferenceId":"53864275","Spot":0.29,"SideOfStreet":"left","CountryId":"20128886","StateId":"20207797","CountyId":"20207798","CityId":"20207850","AddressId":"381746731","RoadLinkId":"30242211"}}},{"Relevance":1.0,"Distance":32.3,"MatchLevel":"street","MatchQuality":{"Country":1.0,"State":1.0,"County":1.0,"City":1.0,"Street":[1.0],"PostalCode":1.0},"Location":{"LocationId":"NT_GhfP19W1pcbUa596MVbXCB_l_53864274_L","LocationType":"point","DisplayPosition":{"Latitude":50.8468,"Longitude":4.41743},"MapView":{"TopLeft":{"Latitude":50.8468,"Longitude":4.41723},"BottomRight":{"Latitude":50.84678,"Longitude":4.41743}},"Address":{"Label":"Eveninglaan, 1200 Sint-Lambrechts-Woluwe, België","Country":"BEL","State":"Brussel","County":"Brussel","City":"Sint-Lambrechts-Woluwe","Street":"Eveninglaan","PostalCode":"1200","AdditionalData":[{"value":"België","key":"CountryName"},{"value":"Brussel","key":"StateName"},{"value":"Brussel","key":"CountyName"}]},"MapReference":{"ReferenceId":"53864274","Spot":1.0,"SideOfStreet":"left","CountryId":"20128886","StateId":"20207797","CountyId":"20207798","CityId":"20207850"}}},{"Relevance":1.0,"Distance":32.8,"MatchLevel":"houseNumber","MatchQuality":{"Country":1.0,"State":1.0,"County":1.0,"City":1.0,"Street":[1.0],"HouseNumber":1.0,"PostalCode":1.0},"MatchType":"interpolated","Location":{"LocationId":"NT_8rbuwlaWJP54dQmxIsntzC_zgD","LocationType":"point","DisplayPosition":{"Latitude":50.84677,"Longitude":4.41743},"MapView":{"TopLeft":{"Latitude":50.8478942,"Longitude":4.4156496},"BottomRight":{"Latitude":50.8456458,"Longitude":4.4192104}},"Address":{"Label":"Heydenberglaan 38, 1200 Sint-Lambrechts-Woluwe, België","Country":"BEL","State":"Brussel","County":"Brussel","City":"Sint-Lambrechts-Woluwe","Street":"Heydenberglaan","HouseNumber":"38","PostalCode":"1200","AdditionalData":[{"value":"België","key":"CountryName"},{"value":"Brussel","key":"StateName"},{"value":"Brussel","key":"CountyName"}]},"MapReference":{"ReferenceId":"53864304","Spot":0.96,"SideOfStreet":"right","CountryId":"20128886","StateId":"20207797","CountyId":"20207798","CityId":"20207850","AddressId":"381922908","RoadLinkId":"30280488"}}},{"Relevance":1.0,"Distance":33.2,"MatchLevel":"houseNumber","MatchQuality":{"Country":1.0,"State":1.0,"County":1.0,"City":1.0,"Street":[1.0],"HouseNumber":1.0,"PostalCode":1.0},"MatchType":"interpolated","Location":{"LocationId":"NT_SAsQ-JNN.dtEKjXokG.B5D_5A","LocationType":"point","DisplayPosition":{"Latitude":50.84711,"Longitude":4.41811},"MapView":{"TopLeft":{"Latitude":50.8482342,"Longitude":4.4163296},"BottomRight":{"Latitude":50.8459858,"Longitude":4.4198904}},"Address":{"Label":"Eveninglaan 9, 1200 Sint-Lambrechts-Woluwe, België","Country":"BEL","State":"Brussel","County":"Brussel","City":"Sint-Lambrechts-Woluwe","Street":"Eveninglaan","HouseNumber":"9","PostalCode":"1200","AdditionalData":[{"value":"België","key":"CountryName"},{"value":"Brussel","key":"StateName"},{"value":"Brussel","key":"CountyName"}]},"MapReference":{"ReferenceId":"1090558257","Spot":0.2,"SideOfStreet":"left","CountryId":"20128886","StateId":"20207797","CountyId":"20207798","CityId":"20207850","AddressId":"381872598","RoadLinkId":"405536411"}}},{"Relevance":1.0,"Distance":46.5,"MatchLevel":"houseNumber","MatchQuality":{"Country":1.0,"State":1.0,"County":1.0,"City":1.0,"Street":[1.0],"HouseNumber":1.0,"PostalCode":1.0},"MatchType":"interpolated","Location":{"LocationId":"NT_8rbuwlaWJP54dQmxIsntzC_zED","LocationType":"point","DisplayPosition":{"Latitude":50.84672,"Longitude":4.41723},"MapView":{"TopLeft":{"Latitude":50.8478442,"Longitude":4.4154496},"BottomRight":{"Latitude":50.8455958,"Longitude":4.4190104}},"Address":{"Label":"Heydenberglaan 31, 1200 Sint-Lambrechts-Woluwe, België","Country":"BEL","State":"Brussel","County":"Brussel","City":"Sint-Lambrechts-Woluwe","Street":"Heydenberglaan","HouseNumber":"31","PostalCode":"1200","AdditionalData":[{"value":"België","key":"CountryName"},{"value":"Brussel","key":"StateName"},{"value":"Brussel","key":"CountyName"}]},"MapReference":{"ReferenceId":"53864299","Spot":0.91,"SideOfStreet":"left","CountryId":"20128886","StateId":"20207797","CountyId":"20207798","CityId":"20207850","AddressId":"381825044","RoadLinkId":"30530377"}}},{"Relevance":1.0,"Distance":55.9,"MatchLevel":"houseNumber","MatchQuality":{"Country":1.0,"State":1.0,"County":1.0,"City":1.0,"Street":[1.0],"HouseNumber":1.0,"PostalCode":1.0},"MatchType":"interpolated","Location":{"LocationId":"NT_HSXOnyLEn4poB-hNpWOtCB_5cD","LocationType":"point","DisplayPosition":{"Latitude":50.84771,"Longitude":4.41756},"MapView":{"TopLeft":{"Latitude":50.8488342,"Longitude":4.4157795},"BottomRight":{"Latitude":50.8465858,"Longitude":4.4193405}},"Address":{"Label":"Édouard Speeckaertlaan 97, 1200 Sint-Lambrechts-Woluwe, België","Country":"BEL","State":"Brussel","County":"Brussel","City":"Sint-Lambrechts-Woluwe","Street":"Édouard Speeckaertlaan","HouseNumber":"97","PostalCode":"1200","AdditionalData":[{"value":"België","key":"CountryName"},{"value":"Brussel","key":"StateName"},{"value":"Brussel","key":"CountyName"}]},"MapReference":{"ReferenceId":"53864253","Spot":0.12,"SideOfStreet":"right","CountryId":"20128886","StateId":"20207797","CountyId":"20207798","CityId":"20207850","AddressId":"381887507","RoadLinkId":"30871080"}}},{"Relevance":1.0,"Distance":58.1,"MatchLevel":"houseNumber","MatchQuality":{"Country":1.0,"State":1.0,"County":1.0,"City":1.0,"Street":[1.0],"HouseNumber":1.0,"PostalCode":1.0},"MatchType":"interpolated","Location":{"LocationId":"NT_HSXOnyLEn4poB-hNpWOtCB_xETM","LocationType":"point","DisplayPosition":{"Latitude":50.84728,"Longitude":4.41661},"MapView":{"TopLeft":{"Latitude":50.8484042,"Longitude":4.4148296},"BottomRight":{"Latitude":50.8461558,"Longitude":4.4183904}},"Address":{"Label":"Édouard Speeckaertlaan 111, 1200 Sint-Lambrechts-Woluwe, België","Country":"BEL","State":"Brussel","County":"Brussel","City":"Sint-Lambrechts-Woluwe","Street":"Édouard Speeckaertlaan","HouseNumber":"111","PostalCode":"1200","AdditionalData":[{"value":"België","key":"CountryName"},{"value":"Brussel","key":"StateName"},{"value":"Brussel","key":"CountyName"}]},"MapReference":{"ReferenceId":"53864278","Spot":0.68,"SideOfStreet":"right","CountryId":"20128886","StateId":"20207797","CountyId":"20207798","CityId":"20207850","AddressId":"381902946","RoadLinkId":"30815436"}}}]}]}}