{"Response":{"MetaInfo":{"Timestamp":"2020-03-28T11:38:35.209+0000","NextPageInformation":"2"},"View":[{"_type":"SearchResultsViewType","ViewId":0,"Result":[{"Relevance":1.0,"Distance":0.0,"Direction":0.0,"MatchLevel":"district","MatchQuality":{"Country":1.0,"State":1.0,"County":1.0,"City":1.0,"District":1.0,"PostalCode":1.0},"Location":{"LocationId":"NT_A3Hw5P4uO0cOVp3uUfrZmD","LocationType":"point","DisplayPosition":{"Latitude":50.8434734,"Longitude":4.9472589},"MapView":{"TopLeft":{"Latitude":50.85758,"Longitude":4.93817},"BottomRight":{"Latitude":50.83797,"Longitude":4.96185}},"Address":{"Label":"Bunsbeek, Glabbeek, Vlaanderen, België","Country":"BEL","State":"Vlaanderen","County":"Vlaams Brabant","City":"Glabbeek","District":"Bunsbeek","PostalCode":"3380","AdditionalData":[{"value":"België","key":"CountryName"},{"value":"Vlaanderen","key":"StateName"},{"value":"Vlaams Brabant","key":"CountyName"}]},"MapReference":{"ReferenceId":"901859356","SideOfStreet":"neither","CountryId":"20128886","StateId":"20204377","CountyId":"20207856","CityId":"20208220","DistrictId":"20208223"}}},{"Relevance":1.0,"Distance":8.7,"MatchLevel":"houseNumber","MatchQuality":{"Country":1.0,"State":1.0,"County":1.0,"City":1.0,"District":1.0,"Street":[1.0],"HouseNumber":1.0,"PostalCode":1.0},"MatchType":"interpolated","Location":{"LocationId":"NT_05t0ffOuArqIHVH5XiRYBB_2ED","LocationType":"point","DisplayPosition":{"Latitude":50.84351,"Longitude":4.94715},"MapView":{"TopLeft":{"Latitude":50.8446342,"Longitude":4.9453697},"BottomRight":{"Latitude":50.8423858,"Longitude":4.9489303}},"Address":{"Label":"Tiensesteenweg 61, 3380 Glabbeek, België","Country":"BEL","State":"Vlaanderen","County":"Vlaams Brabant","City":"Glabbeek","District":"Bunsbeek","Street":"Tiensesteenweg","HouseNumber":"61","PostalCode":"3380","AdditionalData":[{"value":"België","key":"CountryName"},{"value":"Vlaanderen","key":"StateName"},{"value":"Vlaams Brabant","key":"CountyName"}]},"MapReference":{"ReferenceId":"897429476","Spot":0.04,"SideOfStreet":"right","CountryId":"20128886","StateId":"20204377","CountyId":"20207856","CityId":"20208220","DistrictId":"20208223","AddressId":"399386667","RoadLinkId":"259554403"}}},{"Relevance":1.0,"Distance":20.7,"MatchLevel":"houseNumber","MatchQuality":{"Country":1.0,"State":1.0,"County":1.0,"City":1.0,"District":1.0,"Street":[1.0],"HouseNumber":1.0,"PostalCode":1.0},"MatchType":"interpolated","Location":{"LocationId":"NT_IJHE07vIvRR.ZuIIF0.t7D_xEE","LocationType":"point","DisplayPosition":{"Latitude":50.84331,"Longitude":4.94765},"MapView":{"TopLeft":{"Latitude":50.8444342,"Longitude":4.9458697},"BottomRight":{"Latitude":50.8421858,"Longitude":4.9494303}},"Address":{"Label":"Schoolstraat 1A, 3380 Glabbeek, België","Country":"BEL","State":"Vlaanderen","County":"Vlaams Brabant","City":"Glabbeek","District":"Bunsbeek","Street":"Schoolstraat","HouseNumber":"1A","PostalCode":"3380","AdditionalData":[{"value":"België","key":"CountryName"},{"value":"Vlaanderen","key":"StateName"},{"value":"Vlaams Brabant","key":"CountyName"}]},"MapReference":{"ReferenceId":"1216480303","Spot":0.33,"SideOfStreet":"left","CountryId":"20128886","StateId":"20204377","CountyId":"20207856","CityId":"20208220","DistrictId":"20208223","AddressId":"737430423","RoadLinkId":"532817541"}}},{"Relevance":1.0,"Distance":29.2,"MatchLevel":"houseNumber","MatchQuality":{"Country":1.0,"State":1.0,"County":1.0,"City":1.0,"District":1.0,"Street":[1.0],"HouseNumber":1.0,"PostalCode":1.0},"MatchType":"interpolated","Location":{"LocationId":"NT_05t0ffOuArqIHVH5XiRYBB_3ID","LocationType":"point","DisplayPosition":{"Latitude":50.84325,"Longitude":4.94704},"MapView":{"TopLeft":{"Latitude":50.8443742,"Longitude":4.9452597},"BottomRight":{"Latitude":50.8421258,"Longitude":4.9488203}},"Address":{"Label":"Tiensesteenweg 72, 3380 Glabbeek, België","Country":"BEL","State":"Vlaanderen","County":"Vlaams Brabant","City":"Glabbeek","District":"Bunsbeek","Street":"Tiensesteenweg","HouseNumber":"72","PostalCode":"3380","AdditionalData":[{"value":"België","key":"CountryName"},{"value":"Vlaanderen","key":"StateName"},{"value":"Vlaams Brabant","key":"CountyName"}]},"MapReference":{"ReferenceId":"897429475","Spot":0.09,"SideOfStreet":"left","CountryId":"20128886","StateId":"20204377","CountyId":"20207856","CityId":"20208220","DistrictId":"20208223","AddressId":"400319891","RoadLinkId":"259554402"}}},{"Relevance":1.0,"Distance":34.4,"MatchLevel":"houseNumber","MatchQuality":{"Country":1.0,"State":1.0,"County":1.0,"City":1.0,"District":1.0,"Street":[1.0],"HouseNumber":1.0,"PostalCode":1.0},"MatchType":"interpolated","Location":{"LocationId":"NT_CRCS5Tr-Yw-I7TWpPA1sQA_l_931576731_R_1UD","LocationType":"point","DisplayPosition":{"Latitude":50.8432053,"Longitude":4.9470151},"MapView":{"TopLeft":{"Latitude":50.8443294,"Longitude":4.9452348},"BottomRight":{"Latitude":50.8420811,"Longitude":4.9487954}},"Address":{"Label":"Tiensesteenweg 55, 3380 Glabbeek, België","Country":"BEL","State":"Vlaanderen","County":"Vlaams Brabant","City":"Glabbeek","District":"Bunsbeek","Street":"Tiensesteenweg","HouseNumber":"55","PostalCode":"3380","AdditionalData":[{"value":"België","key":"CountryName"},{"value":"Vlaanderen","key":"StateName"},{"value":"Vlaams Brabant","key":"CountyName"}]},"MapReference":{"ReferenceId":"931576731","Spot":0.5,"SideOfStreet":"right","CountryId":"20128886","StateId":"20204377","CountyId":"20207856","CityId":"20208220","DistrictId":"20208223"}}},{"Relevance":1.0,"Distance":46.5,"MatchLevel":"houseNumber","MatchQuality":{"Country":1.0,"State":1.0,"County":1.0,"City":1.0,"District":1.0,"Street":[1.0],"HouseNumber":1.0,"PostalCode":1.0},"MatchType":"interpolated","Location":{"LocationId":"NT_05t0ffOuArqIHVH5XiRYBB_1UD","LocationType":"point","DisplayPosition":{"Latitude":50.84313,"Longitude":4.94698},"MapView":{"TopLeft":{"Latitude":50.8442542,"Longitude":4.9451997},"BottomRight":{"Latitude":50.8420058,"Longitude":4.9487603}},"Address":{"Label":"Tiensesteenweg 55, 3380 Glabbeek, België","Country":"BEL","State":"Vlaanderen","County":"Vlaams Brabant","City":"Glabbeek","District":"Bunsbeek","Street":"Tiensesteenweg","HouseNumber":"55","PostalCode":"3380","AdditionalData":[{"value":"België","key":"CountryName"},{"value":"Vlaanderen","key":"StateName"},{"value":"Vlaams Brabant","key":"CountyName"}]},"MapReference":{"ReferenceId":"1132529022","Spot":0.86,"SideOfStreet":"right","CountryId":"20128886","StateId":"20204377","CountyId":"20207856","CityId":"20208220","DistrictId":"20208223","AddressId":"400068971","RoadLinkId":"442493556"}}},{"Relevance":1.0,"Distance":74.4,"MatchLevel":"houseNumber","MatchQuality":{"Country":1.0,"State":1.0,"County":1.0,"City":1.0,"District":1.0,"Street":[1.0],"HouseNumber":1.0,"PostalCode":1.0},"MatchType":"interpolated","Location":{"LocationId":"NT_rYoLMw9oykYqQaaIoS7eFC_yEE","LocationType":"point","DisplayPosition":{"Latitude":50.84309,"Longitude":4.94639},"MapView":{"TopLeft":{"Latitude":50.8442142,"Longitude":4.9446097},"BottomRight":{"Latitude":50.8419658,"Longitude":4.9481703}},"Address":{"Label":"Bunsbeekdorp 2A, 3380 Glabbeek, België","Country":"BEL","State":"Vlaanderen","County":"Vlaams Brabant","City":"Glabbeek","District":"Bunsbeek","Street":"Bunsbeekdorp","HouseNumber":"2A","PostalCode":"3380","AdditionalData":[{"value":"België","key":"CountryName"},{"value":"Vlaanderen","key":"StateName"},{"value":"Vlaams Brabant","key":"CountyName"}]},"MapReference":{"ReferenceId":"901859360","Spot":0.74,"SideOfStreet":"left","CountryId":"20128886","StateId":"20204377","CountyId":"20207856","CityId":"20208220","DistrictId":"20208223","AddressId":"399769188","RoadLinkId":"263427912"}}},{"Relevance":1.0,"Distance":83.8,"MatchLevel":"houseNumber","MatchQuality":{"Country":1.0,"State":1.0,"County":1.0,"City":1.0,"District":1.0,"Street":[1.0],"HouseNumber":1.0,"PostalCode":1.0},"MatchType":"interpolated","Location":{"LocationId":"NT_05t0ffOuArqIHVH5XiRYBB_1MD","LocationType":"point","DisplayPosition":{"Latitude":50.84279,"Longitude":4.94682},"MapView":{"TopLeft":{"Latitude":50.8439142,"Longitude":4.9450397},"BottomRight":{"Latitude":50.8416658,"Longitude":4.9486003}},"Address":{"Label":"Tiensesteenweg 53, 3380 Glabbeek, België","Country":"BEL","State":"Vlaanderen","County":"Vlaams Brabant","City":"Glabbeek","District":"Bunsbeek","Street":"Tiensesteenweg","HouseNumber":"53","PostalCode":"3380","AdditionalData":[{"value":"België","key":"CountryName"},{"value":"Vlaanderen","key":"StateName"},{"value":"Vlaams Brabant","key":"CountyName"}]},"MapReference":{"ReferenceId":"1192152507","Spot":0.6,"SideOfStreet":"right","CountryId":"20128886","StateId":"20204377","CountyId":"20207856","CityId":"20208220","DistrictId":"20208223","AddressId":"400068969","RoadLinkId":"501796557"}}},{"Relevance":1.0,"Distance":99.3,"MatchLevel":"street","MatchQuality":{"Country":1.0,"State":1.0,"County":1.0,"City":1.0,"District":1.0,"Street":[1.0],"PostalCode":1.0},"Location":{"LocationId":"NT_05t0ffOuArqIHVH5XiRYBB_l_1192152506_R","LocationType":"point","DisplayPosition":{"Latitude":50.84264,"Longitude":4.94675},"MapView":{"TopLeft":{"Latitude":50.84264,"Longitude":4.9467},"BottomRight":{"Latitude":50.84253,"Longitude":4.94675}},"Address":{"Label":"Tiensesteenweg, 3380 Glabbeek, België","Country":"BEL","State":"Vlaanderen","County":"Vlaams Brabant","City":"Glabbeek","District":"Bunsbeek","Street":"Tiensesteenweg","PostalCode":"3380","AdditionalData":[{"value":"België","key":"CountryName"},{"value":"Vlaanderen","key":"StateName"},{"value":"Vlaams Brabant","key":"CountyName"}]},"MapReference":{"ReferenceId":"1192152506","Spot":1.0,"SideOfStreet":"right","CountryId":"20128886","StateId":"20204377","CountyId":"20207856","CityId":"20208220","DistrictId":"20208223"}}},{"Relevance":1.0,"Distance":131.1,"MatchLevel":"houseNumber","MatchQuality":{"Country":1.0,"State":1.0,"County":1.0,"City":1.0,"District":1.0,"Street":[1.0],"HouseNumber":1.0,"PostalCode":1.0},"MatchType":"interpolated","Location":{"LocationId":"NT_IJHE07vIvRR.ZuIIF0.t7D_xED","LocationType":"point","DisplayPosition":{"Latitude":50.84373,"Longitude":4.94913},"MapView":{"TopLeft":{"Latitude":50.8448542,"Longitude":4.9473497},"BottomRight":{"Latitude":50.8426058,"Longitude":4.9509103}},"Address":{"Label":"Schoolstraat 11, 3380 Glabbeek, België","Country":"BEL","State":"Vlaanderen","County":"Vlaams Brabant","City":"Glabbeek","District":"Bunsbeek","Street":"Schoolstraat","HouseNumber":"11","PostalCode":"3380","AdditionalData":[{"value":"België","key":"CountryName"},{"value":"Vlaanderen","key":"StateName"},{"value":"Vlaams Brabant","key":"CountyName"}]},"MapReference":{"ReferenceId":"1216480304","Spot":0.15,"SideOfStreet":"left","CountryId":"20128886","StateId":"20204377","CountyId":"20207856","CityId":"20208220","DistrictId":"20208223","AddressId":"399787709","RoadLinkId":"532817542"}}}]}]}}