{"Response":{"MetaInfo":{"Timestamp":"2020-03-28T10:37:22.759+0000","NextPageInformation":"2"},"View":[{"_type":"SearchResultsViewType","ViewId":0,"Result":[{"Relevance":1.0,"Distance":0.0,"Direction":0.0,"MatchLevel":"district","MatchQuality":{"Country":1.0,"State":1.0,"County":1.0,"City":1.0,"District":1.0,"PostalCode":1.0},"Location":{"LocationId":"NT_5Y2na3IPZ71tFkn-BhnQnC","LocationType":"point","DisplayPosition":{"Latitude":50.8878915,"Longitude":0.4206508},"MapView":{"TopLeft":{"Latitude":50.89469,"Longitude":0.41073},"BottomRight":{"Latitude":50.87797,"Longitude":0.43267}},"Address":{"Label":"Ninfield, Battle, England, United Kingdom","Country":"GBR","State":"England","County":"East Sussex","City":"Battle","District":"Ninfield","PostalCode":"TN33 9","AdditionalData":[{"value":"United Kingdom","key":"CountryName"},{"value":"England","key":"StateName"},{"value":"East Sussex","key":"CountyName"}]},"MapReference":{"ReferenceId":"25602066","SideOfStreet":"neither","StateId":"20248595","CountyId":"20335121","CityId":"20335122","DistrictId":"20335128"}}},{"Relevance":1.0,"Distance":26.0,"MatchLevel":"street","MatchQuality":{"Country":1.0,"State":1.0,"County":1.0,"City":1.0,"District":1.0,"Street":[1.0],"PostalCode":1.0},"Location":{"LocationId":"NT_LvxxNdiNPhJSGPU9iP.O2A_l_781751646_R","LocationType":"point","DisplayPosition":{"Latitude":50.8876593,"Longitude":0.4206032},"MapView":{"TopLeft":{"Latitude":50.88777,"Longitude":0.42009},"BottomRight":{"Latitude":50.88741,"Longitude":0.42214}},"Address":{"Label":"High Street, Battle, TN33 9, United Kingdom","Country":"GBR","State":"England","County":"East Sussex","City":"Battle","District":"Ninfield","Street":"High Street","PostalCode":"TN33 9","AdditionalData":[{"value":"United Kingdom","key":"CountryName"},{"value":"England","key":"StateName"},{"value":"East Sussex","key":"CountyName"}]},"MapReference":{"ReferenceId":"781751646","Spot":0.75,"SideOfStreet":"right","StateId":"20248595","CountyId":"20335121","CityId":"20335122","DistrictId":"20335128"}}},{"Relevance":1.0,"Distance":32.8,"MatchLevel":"street","MatchQuality":{"Country":1.0,"State":1.0,"County":1.0,"City":1.0,"District":1.0,"Street":[1.0],"PostalCode":1.0},"Location":{"LocationId":"NT_VnPJTt0mbTrIdyzgulSxaC_l_25602102_L","LocationType":"point","DisplayPosition":{"Latitude":50.8881786,"Longitude":0.4207594},"MapView":{"TopLeft":{"Latitude":50.88908,"Longitude":0.41837},"BottomRight":{"Latitude":50.8878,"Longitude":0.42176}},"Address":{"Label":"Manchester Road, Battle, TN33 9, United Kingdom","Country":"GBR","State":"England","County":"East Sussex","City":"Battle","District":"Ninfield","Street":"Manchester Road","PostalCode":"TN33 9","AdditionalData":[{"value":"United Kingdom","key":"CountryName"},{"value":"England","key":"StateName"},{"value":"East Sussex","key":"CountyName"}]},"MapReference":{"ReferenceId":"25602102","Spot":0.29,"SideOfStreet":"left","StateId":"20248595","CountyId":"20335121","CityId":"20335122","DistrictId":"20335128"}}},{"Relevance":1.0,"Distance":35.0,"MatchLevel":"postalCode","MatchQuality":{"PostalCode":1.0},"Location":{"LocationId":"NT_LvxxNdiNPhJSGPU9iP.O2A_l_781751646_R","LocationType":"point","DisplayPosition":{"Latitude":50.88758,"Longitude":0.42072},"MapView":{"TopLeft":{"Latitude":50.8965732,"Longitude":0.4064642},"BottomRight":{"Latitude":50.8785868,"Longitude":0.4349758}},"Address":{"Label":"TN33 9JP, Battle, England, United Kingdom","Country":"GBR","State":"England","County":"East Sussex","City":"Battle","PostalCode":"TN33 9JP","AdditionalData":[{"value":"United Kingdom","key":"CountryName"},{"value":"England","key":"StateName"},{"value":"East Sussex","key":"CountyName"}]},"MapReference":{"ReferenceId":"781751646","Spot":0.75,"SideOfStreet":"neither","StateId":"20248595","CountyId":"20335121","CityId":"20335122"}}},{"Relevance":1.0,"Distance":41.6,"MatchLevel":"street","MatchQuality":{"Country":1.0,"State":1.0,"County":1.0,"City":1.0,"District":1.0,"Street":[1.0],"PostalCode":1.0},"Location":{"LocationId":"NT_hb0i6fInI8BRDvT-254c8B_l_781751647_R","LocationType":"point","DisplayPosition":{"Latitude":50.88777,"Longitude":0.42009},"MapView":{"TopLeft":{"Latitude":50.88833,"Longitude":0.41561},"BottomRight":{"Latitude":50.88777,"Longitude":0.42009}},"Address":{"Label":"High Street, Battle, TN33 9, United Kingdom","Country":"GBR","State":"England","County":"East Sussex","City":"Battle","District":"Ninfield","Street":"High Street","PostalCode":"TN33 9","AdditionalData":[{"value":"United Kingdom","key":"CountryName"},{"value":"England","key":"StateName"},{"value":"East Sussex","key":"CountyName"}]},"MapReference":{"ReferenceId":"781751647","Spot":0.0,"SideOfStreet":"right","StateId":"20248595","CountyId":"20335121","CityId":"20335122","DistrictId":"20335128"}}},{"Relevance":1.0,"Distance":71.9,"MatchLevel":"postalCode","MatchQuality":{"PostalCode":1.0},"Location":{"LocationId":"NT_l5hYWQD1OE5lTeQOh4zYJB_l_25602143_L","LocationType":"point","DisplayPosition":{"Latitude":50.88753,"Longitude":0.4215},"MapView":{"TopLeft":{"Latitude":50.8965232,"Longitude":0.4072442},"BottomRight":{"Latitude":50.8785368,"Longitude":0.4357558}},"Address":{"Label":"TN33 9JL, Battle, England, United Kingdom","Country":"GBR","State":"England","County":"East Sussex","City":"Battle","PostalCode":"TN33 9JL","AdditionalData":[{"value":"United Kingdom","key":"CountryName"},{"value":"England","key":"StateName"},{"value":"East Sussex","key":"CountyName"}]},"MapReference":{"ReferenceId":"25602143","Spot":1.0,"SideOfStreet":"neither","StateId":"20248595","CountyId":"20335121","CityId":"20335122"}}},{"Relevance":1.0,"Distance":78.5,"MatchLevel":"street","MatchQuality":{"Country":1.0,"State":1.0,"County":1.0,"City":1.0,"District":1.0,"Street":[1.0],"PostalCode":1.0},"Location":{"LocationId":"NT_l5hYWQD1OE5lTeQOh4zYJB_l_25602143_L","LocationType":"point","DisplayPosition":{"Latitude":50.8878,"Longitude":0.42176},"MapView":{"TopLeft":{"Latitude":50.8878,"Longitude":0.42176},"BottomRight":{"Latitude":50.88741,"Longitude":0.42215}},"Address":{"Label":"The Green, Battle, TN33 9, United Kingdom","Country":"GBR","State":"England","County":"East Sussex","City":"Battle","District":"Ninfield","Street":"The Green","PostalCode":"TN33 9","AdditionalData":[{"value":"United Kingdom","key":"CountryName"},{"value":"England","key":"StateName"},{"value":"East Sussex","key":"CountyName"}]},"MapReference":{"ReferenceId":"25602143","Spot":1.0,"SideOfStreet":"left","StateId":"20248595","CountyId":"20335121","CityId":"20335122","DistrictId":"20335128"}}},{"Relevance":1.0,"Distance":82.3,"MatchLevel":"street","MatchQuality":{"Country":1.0,"State":1.0,"County":1.0,"City":1.0,"District":1.0,"Street":[1.0],"PostalCode":1.0},"Location":{"LocationId":"NT_IHaNyrJe9fbaheo-bgwfcC_l_1155582587_L","LocationType":"point","DisplayPosition":{"Latitude":50.8883288,"Longitude":0.4215983},"MapView":{"TopLeft":{"Latitude":50.88867,"Longitude":0.42148},"BottomRight":{"Latitude":50.8878,"Longitude":0.42177}},"Address":{"Label":"Moons Hill, Battle, TN33 9, United Kingdom","Country":"GBR","State":"England","County":"East Sussex","City":"Battle","District":"Ninfield","Street":"Moons Hill","PostalCode":"TN33 9","AdditionalData":[{"value":"United Kingdom","key":"CountryName"},{"value":"England","key":"StateName"},{"value":"East Sussex","key":"CountyName"}]},"MapReference":{"ReferenceId":"1155582587","Spot":0.61,"SideOfStreet":"left","StateId":"20248595","CountyId":"20335121","CityId":"20335122","DistrictId":"20335128"}}},{"Relevance":1.0,"Distance":104.3,"MatchLevel":"street","MatchQuality":{"Country":1.0,"State":1.0,"County":1.0,"City":1.0,"District":1.0,"Street":[1.0],"PostalCode":1.0},"Location":{"LocationId":"NT_IHaNyrJe9fbaheo-bgwfcC_l_1155582589_L","LocationType":"point","DisplayPosition":{"Latitude":50.88867,"Longitude":0.42148},"MapView":{"TopLeft":{"Latitude":50.88977,"Longitude":0.42148},"BottomRight":{"Latitude":50.88867,"Longitude":0.42269}},"Address":{"Label":"Moons Hill, Battle, TN33 9, United Kingdom","Country":"GBR","State":"England","County":"East Sussex","City":"Battle","District":"Ninfield","Street":"Moons Hill","PostalCode":"TN33 9","AdditionalData":[{"value":"United Kingdom","key":"CountryName"},{"value":"England","key":"StateName"},{"value":"East Sussex","key":"CountyName"}]},"MapReference":{"ReferenceId":"1155582589","Spot":0.0,"SideOfStreet":"left","StateId":"20248595","CountyId":"20335121","CityId":"20335122","DistrictId":"20335128"}}},{"Relevance":1.0,"Distance":117.4,"MatchLevel":"street","MatchQuality":{"Country":1.0,"State":1.0,"County":1.0,"City":1.0,"District":1.0,"Street":[1.0],"PostalCode":1.0},"Location":{"LocationId":"NT_l5hYWQD1OE5lTeQOh4zYJB_l_781725021_R","LocationType":"point","DisplayPosition":{"Latitude":50.88741,"Longitude":0.42214},"MapView":{"TopLeft":{"Latitude":50.88741,"Longitude":0.42214},"BottomRight":{"Latitude":50.88725,"Longitude":0.42306}},"Address":{"Label":"The Green, Battle, TN33 9, United Kingdom","Country":"GBR","State":"England","County":"East Sussex","City":"Battle","District":"Ninfield","Street":"The Green","PostalCode":"TN33 9","AdditionalData":[{"value":"United Kingdom","key":"CountryName"},{"value":"England","key":"StateName"},{"value":"East Sussex","key":"CountyName"}]},"MapReference":{"ReferenceId":"781725021","Spot":1.0,"SideOfStreet":"right","StateId":"20248595","CountyId":"20335121","CityId":"20335122","DistrictId":"20335128"}}}]}]}}