{"Response":{"MetaInfo":{"Timestamp":"2020-03-28T10:32:24.153+0000","NextPageInformation":"2"},"View":[{"_type":"SearchResultsViewType","ViewId":0,"Result":[{"Relevance":1.0,"Distance":0.0,"Direction":0.0,"MatchLevel":"district","MatchQuality":{"Country":1.0,"State":1.0,"County":1.0,"City":1.0,"District":1.0,"PostalCode":1.0},"Location":{"LocationId":"NT_jTiSnXRUXMXJRxUB8ogDNA","LocationType":"point","DisplayPosition":{"Latitude":50.8395081,"Longitude":-0.85138},"MapView":{"TopLeft":{"Latitude":50.84413,"Longitude":-0.85379},"BottomRight":{"Latitude":50.83633,"Longitude":-0.84129}},"Address":{"Label":"Broadbridge, Chichester, England, United Kingdom","Country":"GBR","State":"England","County":"West Sussex","City":"Chichester","District":"Broadbridge","PostalCode":"PO18 8","AdditionalData":[{"value":"United Kingdom","key":"CountryName"},{"value":"England","key":"StateName"},{"value":"West Sussex","key":"CountyName"}]},"MapReference":{"ReferenceId":"839647511","SideOfStreet":"neither","StateId":"20248595","CountyId":"20338671","CityId":"20338715","DistrictId":"20462664"}}},{"Relevance":1.0,"Distance":44.1,"MatchLevel":"postalCode","MatchQuality":{"PostalCode":1.0},"Location":{"LocationId":"NT_2CiUBDDOlJloVVlxYRT3HA_l_1164684803_L","LocationType":"point","DisplayPosition":{"Latitude":50.83957,"Longitude":-0.85076},"MapView":{"TopLeft":{"Latitude":50.8485632,"Longitude":-0.8650012},"BottomRight":{"Latitude":50.8305768,"Longitude":-0.8365188}},"Address":{"Label":"PO18 8NN, Chichester, England, United Kingdom","Country":"GBR","State":"England","County":"West Sussex","City":"Chichester","PostalCode":"PO18 8NN","AdditionalData":[{"value":"United Kingdom","key":"CountryName"},{"value":"England","key":"StateName"},{"value":"West Sussex","key":"CountyName"}]},"MapReference":{"ReferenceId":"1164684803","Spot":0.69,"SideOfStreet":"neither","StateId":"20248595","CountyId":"20338671","CityId":"20338715"}}},{"Relevance":1.0,"Distance":46.2,"MatchLevel":"street","MatchQuality":{"Country":1.0,"State":1.0,"County":1.0,"City":1.0,"District":1.0,"Street":[1.0],"PostalCode":1.0},"Location":{"LocationId":"NT_2CiUBDDOlJloVVlxYRT3HA_l_1164684803_L","LocationType":"point","DisplayPosition":{"Latitude":50.839398,"Longitude":-0.850745},"MapView":{"TopLeft":{"Latitude":50.83975,"Longitude":-0.85084},"BottomRight":{"Latitude":50.83842,"Longitude":-0.85052}},"Address":{"Label":"Delling Lane, Chichester, PO18 8, United Kingdom","Country":"GBR","State":"England","County":"West Sussex","City":"Chichester","District":"Bosham","Street":"Delling Lane","PostalCode":"PO18 8","AdditionalData":[{"value":"United Kingdom","key":"CountryName"},{"value":"England","key":"StateName"},{"value":"West Sussex","key":"CountyName"}]},"MapReference":{"ReferenceId":"1164684803","Spot":0.69,"SideOfStreet":"left","StateId":"20248595","CountyId":"20338671","CityId":"20338715","DistrictId":"20338723"}}},{"Relevance":1.0,"Distance":66.1,"MatchLevel":"street","MatchQuality":{"Country":1.0,"State":1.0,"County":1.0,"City":1.0,"District":1.0,"Street":[1.0],"PostalCode":1.0},"Location":{"LocationId":"NT_2CiUBDDOlJloVVlxYRT3HA_l_1164684804_L","LocationType":"point","DisplayPosition":{"Latitude":50.83975,"Longitude":-0.85052},"MapView":{"TopLeft":{"Latitude":50.84028,"Longitude":-0.85052},"BottomRight":{"Latitude":50.83975,"Longitude":-0.85}},"Address":{"Label":"Delling Lane, Chichester, PO18 8, United Kingdom","Country":"GBR","State":"England","County":"West Sussex","City":"Chichester","District":"Bosham","Street":"Delling Lane","PostalCode":"PO18 8","AdditionalData":[{"value":"United Kingdom","key":"CountryName"},{"value":"England","key":"StateName"},{"value":"West Sussex","key":"CountyName"}]},"MapReference":{"ReferenceId":"1164684804","Spot":0.0,"SideOfStreet":"left","StateId":"20248595","CountyId":"20338671","CityId":"20338715","DistrictId":"20338723"}}},{"Relevance":1.0,"Distance":127.0,"MatchLevel":"street","MatchQuality":{"Country":1.0,"State":1.0,"County":1.0,"City":1.0,"District":1.0,"Street":[1.0],"PostalCode":1.0},"Location":{"LocationId":"NT_2CiUBDDOlJloVVlxYRT3HA_l_1164684799_L","LocationType":"point","DisplayPosition":{"Latitude":50.83842,"Longitude":-0.85083},"MapView":{"TopLeft":{"Latitude":50.83842,"Longitude":-0.85098},"BottomRight":{"Latitude":50.83647,"Longitude":-0.85083}},"Address":{"Label":"Delling Lane, Chichester, PO18 8, United Kingdom","Country":"GBR","State":"England","County":"West Sussex","City":"Chichester","District":"Bosham","Street":"Delling Lane","PostalCode":"PO18 8","AdditionalData":[{"value":"United Kingdom","key":"CountryName"},{"value":"England","key":"StateName"},{"value":"West Sussex","key":"CountyName"}]},"MapReference":{"ReferenceId":"1164684799","Spot":1.0,"SideOfStreet":"left","StateId":"20248595","CountyId":"20338671","CityId":"20338715","DistrictId":"20338723"}}},{"Relevance":1.0,"Distance":129.4,"MatchLevel":"street","MatchQuality":{"Country":1.0,"State":1.0,"County":1.0,"City":1.0,"District":1.0,"Street":[1.0],"PostalCode":1.0},"Location":{"LocationId":"NT_VxTZ5iwzdk9.k-wlkx9lSA_l_565998458_L","LocationType":"point","DisplayPosition":{"Latitude":50.84028,"Longitude":-0.85},"MapView":{"TopLeft":{"Latitude":50.84028,"Longitude":-0.85},"BottomRight":{"Latitude":50.84016,"Longitude":-0.84962}},"Address":{"Label":"Broadbridge Court, Chichester, PO18 8, United Kingdom","Country":"GBR","State":"England","County":"West Sussex","City":"Chichester","District":"Bosham","Street":"Broadbridge Court","PostalCode":"PO18 8","AdditionalData":[{"value":"United Kingdom","key":"CountryName"},{"value":"England","key":"StateName"},{"value":"West Sussex","key":"CountyName"}]},"MapReference":{"ReferenceId":"565998458","Spot":1.0,"SideOfStreet":"left","StateId":"20248595","CountyId":"20338671","CityId":"20338715","DistrictId":"20338723"}}},{"Relevance":1.0,"Distance":129.4,"MatchLevel":"street","MatchQuality":{"Country":1.0,"State":1.0,"County":1.0,"City":1.0,"District":1.0,"Street":[1.0],"PostalCode":1.0},"Location":{"LocationId":"NT_2CiUBDDOlJloVVlxYRT3HA_l_565998457_L","LocationType":"point","DisplayPosition":{"Latitude":50.84028,"Longitude":-0.85},"MapView":{"TopLeft":{"Latitude":50.84095,"Longitude":-0.85},"BottomRight":{"Latitude":50.84028,"Longitude":-0.84918}},"Address":{"Label":"Delling Lane, Chichester, PO18 8, United Kingdom","Country":"GBR","State":"England","County":"West Sussex","City":"Chichester","District":"Bosham","Street":"Delling Lane","PostalCode":"PO18 8","AdditionalData":[{"value":"United Kingdom","key":"CountryName"},{"value":"England","key":"StateName"},{"value":"West Sussex","key":"CountyName"}]},"MapReference":{"ReferenceId":"565998457","Spot":0.0,"SideOfStreet":"left","StateId":"20248595","CountyId":"20338671","CityId":"20338715","DistrictId":"20338723"}}},{"Relevance":1.0,"Distance":133.8,"MatchLevel":"postalCode","MatchQuality":{"PostalCode":1.0},"Location":{"LocationId":"NT_VxTZ5iwzdk9.k-wlkx9lSA_l_565998458_L","LocationType":"point","DisplayPosition":{"Latitude":50.84011,"Longitude":-0.84973},"MapView":{"TopLeft":{"Latitude":50.8491032,"Longitude":-0.8639713},"BottomRight":{"Latitude":50.8311168,"Longitude":-0.8354887}},"Address":{"Label":"PO18 8PA, Chichester, England, United Kingdom","Country":"GBR","State":"England","County":"West Sussex","City":"Chichester","PostalCode":"PO18 8PA","AdditionalData":[{"value":"United Kingdom","key":"CountryName"},{"value":"England","key":"StateName"},{"value":"West Sussex","key":"CountyName"}]},"MapReference":{"ReferenceId":"565998458","Spot":1.0,"SideOfStreet":"neither","StateId":"20248595","CountyId":"20338671","CityId":"20338715"}}},{"Relevance":1.0,"Distance":222.6,"MatchLevel":"street","MatchQuality":{"Country":1.0,"State":1.0,"County":1.0,"City":1.0,"District":1.0,"PostalCode":1.0},"Location":{"LocationId":"NT_vN8MPqec9u-1RaBCQRnj0C_l_30487620_R","LocationType":"point","DisplayPosition":{"Latitude":50.84095,"Longitude":-0.84918},"MapView":{"TopLeft":{"Latitude":50.84096,"Longitude":-0.84918},"BottomRight":{"Latitude":50.84093,"Longitude":-0.84891}},"Address":{"Label":"Chichester, PO18 8, United Kingdom","Country":"GBR","State":"England","County":"West Sussex","City":"Chichester","District":"Broadbridge","PostalCode":"PO18 8","AdditionalData":[{"value":"United Kingdom","key":"CountryName"},{"value":"England","key":"StateName"},{"value":"West Sussex","key":"CountyName"}]},"MapReference":{"ReferenceId":"30487620","Spot":0.0,"SideOfStreet":"right","StateId":"20248595","CountyId":"20338671","CityId":"20338715","DistrictId":"20462664"}}},{"Relevance":1.0,"Distance":225.2,"MatchLevel":"street","MatchQuality":{"Country":1.0,"State":1.0,"County":1.0,"City":1.0,"District":1.0,"PostalCode":1.0},"Location":{"LocationId":"NT_vN8MPqec9u-1RaBCQRnj0C_l_30487616_L","LocationType":"point","DisplayPosition":{"Latitude":50.84105,"Longitude":-0.8493},"MapView":{"TopLeft":{"Latitude":50.84115,"Longitude":-0.84931},"BottomRight":{"Latitude":50.84095,"Longitude":-0.84918}},"Address":{"Label":"Chichester, PO18 8, United Kingdom","Country":"GBR","State":"England","County":"West Sussex","City":"Chichester","District":"Broadbridge","PostalCode":"PO18 8","AdditionalData":[{"value":"United Kingdom","key":"CountryName"},{"value":"England","key":"StateName"},{"value":"West Sussex","key":"CountyName"}]},"MapReference":{"ReferenceId":"30487616","Spot":0.61,"SideOfStreet":"left","StateId":"20248595","CountyId":"20338671","CityId":"20338715","DistrictId":"20462664"}}}]}]}}