{"Response":{"MetaInfo":{"Timestamp":"2020-03-28T11:52:21.964+0000","NextPageInformation":"2"},"View":[{"_type":"SearchResultsViewType","ViewId":0,"Result":[{"Relevance":1.0,"Distance":-335.5,"MatchLevel":"landmark","MatchQuality":{"Country":1.0,"State":1.0,"Name":1.0},"Location":{"LocationId":"NT_Kvzt0PzJADLvcz40zB1T9B","LocationType":"park","Name":"P.N.R. des Caps et Marais d'Opale","DisplayPosition":{"Latitude":50.77128,"Longitude":2.00539},"MapView":{"TopLeft":{"Latitude":50.96238,"Longitude":1.56263},"BottomRight":{"Latitude":50.58017,"Longitude":2.41491}},"Address":{"Label":"France","Country":"FRA","State":"Hauts-de-France","AdditionalData":[{"value":"France","key":"CountryName"},{"value":"Hauts-de-France","key":"StateName"}]},"MapReference":{"CountryId":"20000001","StateId":"20000002","PlaceId":"1509177529"}}},{"Relevance":1.0,"Distance":0.0,"Direction":0.0,"MatchLevel":"city","MatchQuality":{"Country":1.0,"State":1.0,"County":1.0,"City":1.0,"PostalCode":1.0},"Location":{"LocationId":"NT_dK8z30h.4EYI8edp7JIzsB","LocationType":"point","DisplayPosition":{"Latitude":50.885265,"Longitude":1.661687},"MapView":{"TopLeft":{"Latitude":50.91555,"Longitude":1.63452},"BottomRight":{"Latitude":50.85963,"Longitude":1.71511}},"Address":{"Label":"Wissant, Hauts-de-France, France","Country":"FRA","State":"Hauts-de-France","County":"Pas-de-Calais","City":"Wissant","PostalCode":"62179","AdditionalData":[{"value":"France","key":"CountryName"},{"value":"Hauts-de-France","key":"StateName"},{"value":"Pas-de-Calais","key":"CountyName"}]},"MapReference":{"ReferenceId":"780299152","SideOfStreet":"neither","CountryId":"20000001","StateId":"20000002","CountyId":"20030132","CityId":"20032786"}}},{"Relevance":1.0,"Distance":19.5,"MatchLevel":"houseNumber","MatchQuality":{"Country":1.0,"State":1.0,"County":1.0,"City":1.0,"Street":[1.0],"HouseNumber":1.0,"PostalCode":1.0},"MatchType":"interpolated","Location":{"LocationId":"NT_71Ek6hTDmUNJZKrEPeZs7A_2A","LocationType":"point","DisplayPosition":{"Latitude":50.88536,"Longitude":1.66197},"MapView":{"TopLeft":{"Latitude":50.8864842,"Longitude":1.6601881},"BottomRight":{"Latitude":50.8842358,"Longitude":1.6637519}},"Address":{"Label":"6 Place de la Mairie, 62179 Wissant, France","Country":"FRA","State":"Hauts-de-France","County":"Pas-de-Calais","City":"Wissant","Street":"Place de la Mairie","HouseNumber":"6","PostalCode":"62179","AdditionalData":[{"value":"France","key":"CountryName"},{"value":"Hauts-de-France","key":"StateName"},{"value":"Pas-de-Calais","key":"CountyName"}]},"MapReference":{"ReferenceId":"545707766","Spot":0.97,"SideOfStreet":"left","CountryId":"20000001","StateId":"20000002","CountyId":"20030132","CityId":"20032786","AddressId":"322568786","RoadLinkId":"134679237"}}},{"Relevance":1.0,"Distance":22.0,"MatchLevel":"street","MatchQuality":{"Country":1.0,"State":1.0,"County":1.0,"City":1.0,"Street":[1.0],"PostalCode":1.0},"Location":{"LocationId":"NT_jrGVbZ3KyOQr8V.zfYfeIC_l_545708710_L","LocationType":"point","DisplayPosition":{"Latitude":50.8854557,"Longitude":1.6617679},"MapView":{"TopLeft":{"Latitude":50.88551,"Longitude":1.66164},"BottomRight":{"Latitude":50.88537,"Longitude":1.66197}},"Address":{"Label":"Rue du Professeur Leloir, 62179 Wissant, France","Country":"FRA","State":"Hauts-de-France","County":"Pas-de-Calais","City":"Wissant","Street":"Rue du Professeur Leloir","PostalCode":"62179","AdditionalData":[{"value":"France","key":"CountryName"},{"value":"Hauts-de-France","key":"StateName"},{"value":"Pas-de-Calais","key":"CountyName"}]},"MapReference":{"ReferenceId":"545708710","Spot":0.61,"SideOfStreet":"left","CountryId":"20000001","StateId":"20000002","CountyId":"20030132","CityId":"20032786"}}},{"Relevance":1.0,"Distance":25.3,"MatchLevel":"street","MatchQuality":{"Country":1.0,"State":1.0,"County":1.0,"City":1.0,"PostalCode":1.0},"Location":{"LocationId":"NT_RiOk4UcGfN59iEQ2AW-YiD_l_545707782_L","LocationType":"point","DisplayPosition":{"Latitude":50.8854426,"Longitude":1.661913},"MapView":{"TopLeft":{"Latitude":50.88551,"Longitude":1.66186},"BottomRight":{"Latitude":50.88537,"Longitude":1.66197}},"Address":{"Label":"62179 Wissant, France","Country":"FRA","State":"Hauts-de-France","County":"Pas-de-Calais","City":"Wissant","PostalCode":"62179","AdditionalData":[{"value":"France","key":"CountryName"},{"value":"Hauts-de-France","key":"StateName"},{"value":"Pas-de-Calais","key":"CountyName"}]},"MapReference":{"ReferenceId":"545707782","Spot":0.52,"SideOfStreet":"left","CountryId":"20000001","StateId":"20000002","CountyId":"20030132","CityId":"20032786"}}},{"Relevance":1.0,"Distance":34.0,"MatchLevel":"houseNumber","MatchQuality":{"Country":1.0,"State":1.0,"County":1.0,"City":1.0,"Street":[1.0],"HouseNumber":1.0,"PostalCode":1.0},"MatchType":"interpolated","Location":{"LocationId":"NT_-BcSZ8oFQIif3hXsgoDCBC_yA","LocationType":"point","DisplayPosition":{"Latitude":50.88542,"Longitude":1.66127},"MapView":{"TopLeft":{"Latitude":50.8865442,"Longitude":1.6594881},"BottomRight":{"Latitude":50.8842958,"Longitude":1.6630519}},"Address":{"Label":"2 Rue Carrier-Belleuse, 62179 Wissant, France","Country":"FRA","State":"Hauts-de-France","County":"Pas-de-Calais","City":"Wissant","Street":"Rue Carrier-Belleuse","HouseNumber":"2","PostalCode":"62179","AdditionalData":[{"value":"France","key":"CountryName"},{"value":"Hauts-de-France","key":"StateName"},{"value":"Pas-de-Calais","key":"CountyName"}]},"MapReference":{"ReferenceId":"545708712","Spot":0.57,"SideOfStreet":"left","CountryId":"20000001","StateId":"20000002","CountyId":"20030132","CityId":"20032786","AddressId":"322566428","RoadLinkId":"44931302"}}},{"Relevance":1.0,"Distance":43.9,"MatchLevel":"street","MatchQuality":{"Country":1.0,"State":1.0,"County":1.0,"City":1.0,"PostalCode":1.0},"Location":{"LocationId":"NT_RiOk4UcGfN59iEQ2AW-YiD_l_545709207_L","LocationType":"point","DisplayPosition":{"Latitude":50.88537,"Longitude":1.66229},"MapView":{"TopLeft":{"Latitude":50.88537,"Longitude":1.66229},"BottomRight":{"Latitude":50.88513,"Longitude":1.66236}},"Address":{"Label":"62179 Wissant, France","Country":"FRA","State":"Hauts-de-France","County":"Pas-de-Calais","City":"Wissant","PostalCode":"62179","AdditionalData":[{"value":"France","key":"CountryName"},{"value":"Hauts-de-France","key":"StateName"},{"value":"Pas-de-Calais","key":"CountyName"}]},"MapReference":{"ReferenceId":"545709207","Spot":1.0,"SideOfStreet":"left","CountryId":"20000001","StateId":"20000002","CountyId":"20030132","CityId":"20032786"}}},{"Relevance":1.0,"Distance":43.9,"MatchLevel":"street","MatchQuality":{"Country":1.0,"State":1.0,"County":1.0,"City":1.0,"PostalCode":1.0},"Location":{"LocationId":"NT_RiOk4UcGfN59iEQ2AW-YiD_l_545709205_L","LocationType":"point","DisplayPosition":{"Latitude":50.88537,"Longitude":1.66229},"MapView":{"TopLeft":{"Latitude":50.8854,"Longitude":1.66229},"BottomRight":{"Latitude":50.8852,"Longitude":1.66268}},"Address":{"Label":"62179 Wissant, France","Country":"FRA","State":"Hauts-de-France","County":"Pas-de-Calais","City":"Wissant","PostalCode":"62179","AdditionalData":[{"value":"France","key":"CountryName"},{"value":"Hauts-de-France","key":"StateName"},{"value":"Pas-de-Calais","key":"CountyName"}]},"MapReference":{"ReferenceId":"545709205","Spot":1.0,"SideOfStreet":"left","CountryId":"20000001","StateId":"20000002","CountyId":"20030132","CityId":"20032786"}}},{"Relevance":1.0,"Distance":46.0,"MatchLevel":"houseNumber","MatchQuality":{"Country":1.0,"State":1.0,"County":1.0,"City":1.0,"Street":[1.0],"HouseNumber":1.0,"PostalCode":1.0},"MatchType":"interpolated","Location":{"LocationId":"NT_slNqUX-wIbqqNZYs.7eSlA_yA","LocationType":"point","DisplayPosition":{"Latitude":50.88496,"Longitude":1.66215},"MapView":{"TopLeft":{"Latitude":50.8860842,"Longitude":1.6603681},"BottomRight":{"Latitude":50.8838358,"Longitude":1.6639319}},"Address":{"Label":"2 Rue du Torrent, 62179 Wissant, France","Country":"FRA","State":"Hauts-de-France","County":"Pas-de-Calais","City":"Wissant","Street":"Rue du Torrent","HouseNumber":"2","PostalCode":"62179","AdditionalData":[{"value":"France","key":"CountryName"},{"value":"Hauts-de-France","key":"StateName"},{"value":"Pas-de-Calais","key":"CountyName"}]},"MapReference":{"ReferenceId":"545707765","Spot":0.69,"SideOfStreet":"left","CountryId":"20000001","StateId":"20000002","CountyId":"20030132","CityId":"20032786","AddressId":"322665803","RoadLinkId":"44051115"}}},{"Relevance":1.0,"Distance":49.3,"MatchLevel":"houseNumber","MatchQuality":{"Country":1.0,"State":1.0,"County":1.0,"City":1.0,"Street":[1.0],"HouseNumber":1.0,"PostalCode":1.0},"MatchType":"interpolated","Location":{"LocationId":"NT_71Ek6hTDmUNJZKrEPeZs7A_0A","LocationType":"point","DisplayPosition":{"Latitude":50.88549,"Longitude":1.66228},"MapView":{"TopLeft":{"Latitude":50.8866142,"Longitude":1.6604981},"BottomRight":{"Latitude":50.8843658,"Longitude":1.6640619}},"Address":{"Label":"4 Place de la Mairie, 62179 Wissant, France","Country":"FRA","State":"Hauts-de-France","County":"Pas-de-Calais","City":"Wissant","Street":"Place de la Mairie","HouseNumber":"4","PostalCode":"62179","AdditionalData":[{"value":"France","key":"CountryName"},{"value":"Hauts-de-France","key":"StateName"},{"value":"Pas-de-Calais","key":"CountyName"}]},"MapReference":{"ReferenceId":"545707759","Spot":0.43,"SideOfStreet":"left","CountryId":"20000001","StateId":"20000002","CountyId":"20030132","CityId":"20032786","AddressId":"371531349","RoadLinkId":"43921817"}}}]}]}}