{"Response":{"MetaInfo":{"Timestamp":"2020-03-28T10:03:20.435+0000","NextPageInformation":"2"},"View":[{"_type":"SearchResultsViewType","ViewId":0,"Result":[{"Relevance":1.0,"Distance":0.0,"Direction":0.0,"MatchLevel":"district","MatchQuality":{"Country":1.0,"State":1.0,"County":1.0,"City":1.0,"District":1.0,"PostalCode":1.0},"Location":{"LocationId":"NT_hLtVjqdm2G9Q-DVsmV5f3C","LocationType":"point","DisplayPosition":{"Latitude":50.8544154,"Longitude":13.1142832},"MapView":{"TopLeft":{"Latitude":50.85894,"Longitude":13.09855},"BottomRight":{"Latitude":50.84736,"Longitude":13.12225}},"Address":{"Label":"Falkenau, Flöha, Sachsen, Deutschland","Country":"DEU","State":"Sachsen","County":"Mittelsachsen","City":"Flöha","District":"Falkenau","PostalCode":"09557","AdditionalData":[{"value":"Deutschland","key":"CountryName"},{"value":"Sachsen","key":"StateName"},{"value":"Mittelsachsen","key":"CountyName"}]},"MapReference":{"ReferenceId":"843922890","SideOfStreet":"neither","CountryId":"20147700","StateId":"20191185","CountyId":"23409401","CityId":"20192136","DistrictId":"20192134"}}},{"Relevance":1.0,"Distance":8.1,"MatchLevel":"houseNumber","MatchQuality":{"Country":1.0,"State":1.0,"County":1.0,"City":1.0,"District":1.0,"Street":[1.0],"HouseNumber":1.0,"PostalCode":1.0},"MatchType":"interpolated","Location":{"LocationId":"NT_YUuazSEzc7q.tvSFmIQVuC_3A","LocationType":"point","DisplayPosition":{"Latitude":50.85453,"Longitude":13.114},"MapView":{"TopLeft":{"Latitude":50.8556542,"Longitude":13.1122193},"BottomRight":{"Latitude":50.8534058,"Longitude":13.1157807}},"Address":{"Label":"Straße der Einheit 7, 09557 Flöha, Deutschland","Country":"DEU","State":"Sachsen","County":"Mittelsachsen","City":"Flöha","District":"Falkenau","Street":"Straße der Einheit","HouseNumber":"7","PostalCode":"09557","AdditionalData":[{"value":"Deutschland","key":"CountryName"},{"value":"Sachsen","key":"StateName"},{"value":"Mittelsachsen","key":"CountyName"}]},"MapReference":{"ReferenceId":"543928486","Spot":0.23,"SideOfStreet":"right","CountryId":"20147700","StateId":"20191185","CountyId":"23409401","CityId":"20192136","DistrictId":"20192134","AddressId":"189954125","RoadLinkId":"39591608"}}},{"Relevance":1.0,"Distance":25.3,"MatchLevel":"houseNumber","MatchQuality":{"Country":1.0,"State":1.0,"County":1.0,"City":1.0,"District":1.0,"Street":[1.0],"HouseNumber":1.0,"PostalCode":1.0},"MatchType":"interpolated","Location":{"LocationId":"NT_YUuazSEzc7q.tvSFmIQVuC_5A","LocationType":"point","DisplayPosition":{"Latitude":50.85429,"Longitude":13.1138},"MapView":{"TopLeft":{"Latitude":50.8554142,"Longitude":13.1120193},"BottomRight":{"Latitude":50.8531658,"Longitude":13.1155807}},"Address":{"Label":"Straße der Einheit 9, 09557 Flöha, Deutschland","Country":"DEU","State":"Sachsen","County":"Mittelsachsen","City":"Flöha","District":"Falkenau","Street":"Straße der Einheit","HouseNumber":"9","PostalCode":"09557","AdditionalData":[{"value":"Deutschland","key":"CountryName"},{"value":"Sachsen","key":"StateName"},{"value":"Mittelsachsen","key":"CountyName"}]},"MapReference":{"ReferenceId":"543928480","Spot":0.95,"SideOfStreet":"right","CountryId":"20147700","StateId":"20191185","CountyId":"23409401","CityId":"20192136","DistrictId":"20192134","AddressId":"189684268","RoadLinkId":"39691772"}}},{"Relevance":1.0,"Distance":33.6,"MatchLevel":"street","MatchQuality":{"Country":1.0,"State":1.0,"County":1.0,"City":1.0,"District":1.0,"Street":[1.0],"PostalCode":1.0},"Location":{"LocationId":"NT_GUz.7796V5G7JKv9jGrWCD_l_543928491_R","LocationType":"point","DisplayPosition":{"Latitude":50.85434,"Longitude":13.11382},"MapView":{"TopLeft":{"Latitude":50.85446,"Longitude":13.11277},"BottomRight":{"Latitude":50.85434,"Longitude":13.11382}},"Address":{"Label":"Ringstraße, 09557 Flöha, Deutschland","Country":"DEU","State":"Sachsen","County":"Mittelsachsen","City":"Flöha","District":"Falkenau","Street":"Ringstraße","PostalCode":"09557","AdditionalData":[{"value":"Deutschland","key":"CountryName"},{"value":"Sachsen","key":"StateName"},{"value":"Mittelsachsen","key":"CountyName"}]},"MapReference":{"ReferenceId":"543928491","Spot":0.0,"SideOfStreet":"right","CountryId":"20147700","StateId":"20191185","CountyId":"23409401","CityId":"20192136","DistrictId":"20192134"}}},{"Relevance":1.0,"Distance":59.2,"MatchLevel":"houseNumber","MatchQuality":{"Country":1.0,"State":1.0,"County":1.0,"City":1.0,"District":1.0,"Street":[1.0],"HouseNumber":1.0,"PostalCode":1.0},"MatchType":"interpolated","Location":{"LocationId":"NT_C90d6zGOz0hVDmyaOixX7B_xMD","LocationType":"point","DisplayPosition":{"Latitude":50.85361,"Longitude":13.11458},"MapView":{"TopLeft":{"Latitude":50.8547342,"Longitude":13.1127993},"BottomRight":{"Latitude":50.8524858,"Longitude":13.1163607}},"Address":{"Label":"Birkenstraße 13, 09557 Flöha, Deutschland","Country":"DEU","State":"Sachsen","County":"Mittelsachsen","City":"Flöha","District":"Falkenau","Street":"Birkenstraße","HouseNumber":"13","PostalCode":"09557","AdditionalData":[{"value":"Deutschland","key":"CountryName"},{"value":"Sachsen","key":"StateName"},{"value":"Mittelsachsen","key":"CountyName"}]},"MapReference":{"ReferenceId":"554764080","Spot":0.39,"SideOfStreet":"left","CountryId":"20147700","StateId":"20191185","CountyId":"23409401","CityId":"20192136","DistrictId":"20192134","AddressId":"189978468","RoadLinkId":"39732970"}}},{"Relevance":1.0,"Distance":68.7,"MatchLevel":"street","MatchQuality":{"Country":1.0,"State":1.0,"County":1.0,"City":1.0,"District":1.0,"Street":[1.0],"PostalCode":1.0},"Location":{"LocationId":"NT_YUuazSEzc7q.tvSFmIQVuC_l_543945967_L","LocationType":"point","DisplayPosition":{"Latitude":50.85498,"Longitude":13.11468},"MapView":{"TopLeft":{"Latitude":50.85524,"Longitude":13.11462},"BottomRight":{"Latitude":50.85498,"Longitude":13.11468}},"Address":{"Label":"Straße der Einheit, 09557 Flöha, Deutschland","Country":"DEU","State":"Sachsen","County":"Mittelsachsen","City":"Flöha","District":"Falkenau","Street":"Straße der Einheit","PostalCode":"09557","AdditionalData":[{"value":"Deutschland","key":"CountryName"},{"value":"Sachsen","key":"StateName"},{"value":"Mittelsachsen","key":"CountyName"}]},"MapReference":{"ReferenceId":"543945967","Spot":0.0,"SideOfStreet":"left","CountryId":"20147700","StateId":"20191185","CountyId":"23409401","CityId":"20192136","DistrictId":"20192134"}}},{"Relevance":1.0,"Distance":94.7,"MatchLevel":"street","MatchQuality":{"Country":1.0,"State":1.0,"County":1.0,"City":1.0,"District":1.0,"Street":[1.0],"PostalCode":1.0},"Location":{"LocationId":"NT_70HpkMlnmMBgxbRRwyIznD_l_543928445_L","LocationType":"point","DisplayPosition":{"Latitude":50.85524,"Longitude":13.11462},"MapView":{"TopLeft":{"Latitude":50.8554,"Longitude":13.11462},"BottomRight":{"Latitude":50.85524,"Longitude":13.11471}},"Address":{"Label":"Am Fabrikweg, 09557 Flöha, Deutschland","Country":"DEU","State":"Sachsen","County":"Mittelsachsen","City":"Flöha","District":"Falkenau","Street":"Am Fabrikweg","PostalCode":"09557","AdditionalData":[{"value":"Deutschland","key":"CountryName"},{"value":"Sachsen","key":"StateName"},{"value":"Mittelsachsen","key":"CountyName"}]},"MapReference":{"ReferenceId":"543928445","Spot":0.0,"SideOfStreet":"left","CountryId":"20147700","StateId":"20191185","CountyId":"23409401","CityId":"20192136","DistrictId":"20192134"}}},{"Relevance":1.0,"Distance":94.7,"MatchLevel":"street","MatchQuality":{"Country":1.0,"State":1.0,"County":1.0,"City":1.0,"District":1.0,"Street":[1.0],"PostalCode":1.0},"Location":{"LocationId":"NT_YUuazSEzc7q.tvSFmIQVuC_l_543928465_L","LocationType":"point","DisplayPosition":{"Latitude":50.85524,"Longitude":13.11462},"MapView":{"TopLeft":{"Latitude":50.85535,"Longitude":13.11442},"BottomRight":{"Latitude":50.85524,"Longitude":13.11462}},"Address":{"Label":"Straße der Einheit, 09557 Flöha, Deutschland","Country":"DEU","State":"Sachsen","County":"Mittelsachsen","City":"Flöha","District":"Falkenau","Street":"Straße der Einheit","PostalCode":"09557","AdditionalData":[{"value":"Deutschland","key":"CountryName"},{"value":"Sachsen","key":"StateName"},{"value":"Mittelsachsen","key":"CountyName"}]},"MapReference":{"ReferenceId":"543928465","Spot":0.0,"SideOfStreet":"left","CountryId":"20147700","StateId":"20191185","CountyId":"23409401","CityId":"20192136","DistrictId":"20192134"}}},{"Relevance":1.0,"Distance":104.4,"MatchLevel":"street","MatchQuality":{"Country":1.0,"State":1.0,"County":1.0,"City":1.0,"District":1.0,"Street":[1.0],"PostalCode":1.0},"Location":{"LocationId":"NT_YUuazSEzc7q.tvSFmIQVuC_l_1214934570_L","LocationType":"point","DisplayPosition":{"Latitude":50.85535,"Longitude":13.11442},"MapView":{"TopLeft":{"Latitude":50.85611,"Longitude":13.11363},"BottomRight":{"Latitude":50.85535,"Longitude":13.11442}},"Address":{"Label":"Straße der Einheit, 09557 Flöha, Deutschland","Country":"DEU","State":"Sachsen","County":"Mittelsachsen","City":"Flöha","District":"Falkenau","Street":"Straße der Einheit","PostalCode":"09557","AdditionalData":[{"value":"Deutschland","key":"CountryName"},{"value":"Sachsen","key":"StateName"},{"value":"Mittelsachsen","key":"CountyName"}]},"MapReference":{"ReferenceId":"1214934570","Spot":0.0,"SideOfStreet":"left","CountryId":"20147700","StateId":"20191185","CountyId":"23409401","CityId":"20192136","DistrictId":"20192134"}}},{"Relevance":1.0,"Distance":104.4,"MatchLevel":"street","MatchQuality":{"Country":1.0,"State":1.0,"County":1.0,"City":1.0,"District":1.0,"Street":[1.0],"PostalCode":1.0},"Location":{"LocationId":"NT_70HpkMlnmMBgxbRRwyIznD_l_543928484_R","LocationType":"point","DisplayPosition":{"Latitude":50.85535,"Longitude":13.11442},"MapView":{"TopLeft":{"Latitude":50.8554,"Longitude":13.11442},"BottomRight":{"Latitude":50.85535,"Longitude":13.11471}},"Address":{"Label":"Am Fabrikweg, 09557 Flöha, Deutschland","Country":"DEU","State":"Sachsen","County":"Mittelsachsen","City":"Flöha","District":"Falkenau","Street":"Am Fabrikweg","PostalCode":"09557","AdditionalData":[{"value":"Deutschland","key":"CountryName"},{"value":"Sachsen","key":"StateName"},{"value":"Mittelsachsen","key":"CountyName"}]},"MapReference":{"ReferenceId":"543928484","Spot":0.0,"SideOfStreet":"right","CountryId":"20147700","StateId":"20191185","CountyId":"23409401","CityId":"20192136","DistrictId":"20192134"}}}]}]}}