{"Response":{"MetaInfo":{"Timestamp":"2020-03-28T10:20:06.961+0000","NextPageInformation":"2"},"View":[{"_type":"SearchResultsViewType","ViewId":0,"Result":[{"Relevance":1.0,"Distance":0.0,"Direction":0.0,"MatchLevel":"district","MatchQuality":{"Country":1.0,"State":1.0,"County":1.0,"City":1.0,"District":1.0,"PostalCode":1.0},"Location":{"LocationId":"NT_lCiKcXDHCf4yhmj5CcIRCA","LocationType":"point","DisplayPosition":{"Latitude":50.8868044,"Longitude":7.4426536},"MapView":{"TopLeft":{"Latitude":50.8915,"Longitude":7.43524},"BottomRight":{"Latitude":50.88312,"Longitude":7.44784}},"Address":{"Label":"Marienfeld, Much, Nordrhein-Westfalen, Deutschland","Country":"DEU","State":"Nordrhein-Westfalen","County":"Rhein-Sieg-Kreis","City":"Much","District":"Marienfeld","PostalCode":"53804","AdditionalData":[{"value":"Deutschland","key":"CountryName"},{"value":"Nordrhein-Westfalen","key":"StateName"},{"value":"Rhein-Sieg-Kreis","key":"CountyName"}]},"MapReference":{"ReferenceId":"77165279","SideOfStreet":"neither","CountryId":"20147700","StateId":"20157369","CountyId":"20158889","CityId":"20158978","DistrictId":"20158980"}}},{"Relevance":1.0,"Distance":5.4,"MatchLevel":"houseNumber","MatchQuality":{"Country":1.0,"State":1.0,"County":1.0,"City":1.0,"District":1.0,"Street":[1.0],"HouseNumber":1.0,"PostalCode":1.0},"MatchType":"interpolated","Location":{"LocationId":"NT_4PmneE1mk8WsFxNQPvkhtC_zMD","LocationType":"point","DisplayPosition":{"Latitude":50.88685,"Longitude":7.44256},"MapView":{"TopLeft":{"Latitude":50.8879742,"Longitude":7.440778},"BottomRight":{"Latitude":50.8857258,"Longitude":7.444342}},"Address":{"Label":"Dorfstraße 33, 53804 Much, Deutschland","Country":"DEU","State":"Nordrhein-Westfalen","County":"Rhein-Sieg-Kreis","City":"Much","District":"Marienfeld","Street":"Dorfstraße","HouseNumber":"33","PostalCode":"53804","AdditionalData":[{"value":"Deutschland","key":"CountryName"},{"value":"Nordrhein-Westfalen","key":"StateName"},{"value":"Rhein-Sieg-Kreis","key":"CountyName"}]},"MapReference":{"ReferenceId":"766684689","Spot":0.77,"SideOfStreet":"right","CountryId":"20147700","StateId":"20157369","CountyId":"20158889","CityId":"20158978","DistrictId":"20158980","AddressId":"195518478","RoadLinkId":"160583588"}}},{"Relevance":1.0,"Distance":26.8,"MatchLevel":"houseNumber","MatchQuality":{"Country":1.0,"State":1.0,"County":1.0,"City":1.0,"District":1.0,"Street":[1.0],"HouseNumber":1.0,"PostalCode":1.0},"MatchType":"interpolated","Location":{"LocationId":"NT_4PmneE1mk8WsFxNQPvkhtC_zUD","LocationType":"point","DisplayPosition":{"Latitude":50.88704,"Longitude":7.44257},"MapView":{"TopLeft":{"Latitude":50.8881642,"Longitude":7.440788},"BottomRight":{"Latitude":50.8859158,"Longitude":7.444352}},"Address":{"Label":"Dorfstraße 35, 53804 Much, Deutschland","Country":"DEU","State":"Nordrhein-Westfalen","County":"Rhein-Sieg-Kreis","City":"Much","District":"Marienfeld","Street":"Dorfstraße","HouseNumber":"35","PostalCode":"53804","AdditionalData":[{"value":"Deutschland","key":"CountryName"},{"value":"Nordrhein-Westfalen","key":"StateName"},{"value":"Rhein-Sieg-Kreis","key":"CountyName"}]},"MapReference":{"ReferenceId":"766684690","Spot":0.08,"SideOfStreet":"right","CountryId":"20147700","StateId":"20157369","CountyId":"20158889","CityId":"20158978","DistrictId":"20158980","AddressId":"193747286","RoadLinkId":"160583589"}}},{"Relevance":1.0,"Distance":53.2,"MatchLevel":"houseNumber","MatchQuality":{"Country":1.0,"State":1.0,"County":1.0,"City":1.0,"District":1.0,"Street":[1.0],"HouseNumber":1.0,"PostalCode":1.0},"MatchType":"interpolated","Location":{"LocationId":"NT_L0kJ81Cv2MW2fJ.jpkjXfC_0A","LocationType":"point","DisplayPosition":{"Latitude":50.8866,"Longitude":7.44344},"MapView":{"TopLeft":{"Latitude":50.8877242,"Longitude":7.4416581},"BottomRight":{"Latitude":50.8854758,"Longitude":7.4452219}},"Address":{"Label":"Ortsiefer Straße 4, 53804 Much, Deutschland","Country":"DEU","State":"Nordrhein-Westfalen","County":"Rhein-Sieg-Kreis","City":"Much","District":"Marienfeld","Street":"Ortsiefer Straße","HouseNumber":"4","PostalCode":"53804","AdditionalData":[{"value":"Deutschland","key":"CountryName"},{"value":"Nordrhein-Westfalen","key":"StateName"},{"value":"Rhein-Sieg-Kreis","key":"CountyName"}]},"MapReference":{"ReferenceId":"77167756","Spot":0.6,"SideOfStreet":"left","CountryId":"20147700","StateId":"20157369","CountyId":"20158889","CityId":"20158978","DistrictId":"20158980","AddressId":"195976162","RoadLinkId":"39046102"}}},{"Relevance":1.0,"Distance":59.6,"MatchLevel":"houseNumber","MatchQuality":{"Country":1.0,"State":1.0,"County":1.0,"City":1.0,"District":1.0,"Street":[1.0],"HouseNumber":1.0,"PostalCode":1.0},"MatchType":"interpolated","Location":{"LocationId":"NT_4PmneE1mk8WsFxNQPvkhtC_ykD","LocationType":"point","DisplayPosition":{"Latitude":50.88627,"Longitude":7.44253},"MapView":{"TopLeft":{"Latitude":50.8873942,"Longitude":7.4407481},"BottomRight":{"Latitude":50.8851458,"Longitude":7.4443119}},"Address":{"Label":"Dorfstraße 29, 53804 Much, Deutschland","Country":"DEU","State":"Nordrhein-Westfalen","County":"Rhein-Sieg-Kreis","City":"Much","District":"Marienfeld","Street":"Dorfstraße","HouseNumber":"29","PostalCode":"53804","AdditionalData":[{"value":"Deutschland","key":"CountryName"},{"value":"Nordrhein-Westfalen","key":"StateName"},{"value":"Rhein-Sieg-Kreis","key":"CountyName"}]},"MapReference":{"ReferenceId":"77167758","Spot":0.7,"SideOfStreet":"right","CountryId":"20147700","StateId":"20157369","CountyId":"20158889","CityId":"20158978","DistrictId":"20158980","AddressId":"193629260","RoadLinkId":"39142584"}}},{"Relevance":1.0,"Distance":60.0,"MatchLevel":"houseNumber","MatchQuality":{"Country":1.0,"State":1.0,"County":1.0,"City":1.0,"District":1.0,"Street":[1.0],"HouseNumber":1.0,"PostalCode":1.0},"MatchType":"interpolated","Location":{"LocationId":"NT_4DyR9BVZoxrPtkKGpF60SB_zAD","LocationType":"point","DisplayPosition":{"Latitude":50.8867,"Longitude":7.44173},"MapView":{"TopLeft":{"Latitude":50.8878242,"Longitude":7.4399481},"BottomRight":{"Latitude":50.8855758,"Longitude":7.4435119}},"Address":{"Label":"Thelenstraße 30, 53804 Much, Deutschland","Country":"DEU","State":"Nordrhein-Westfalen","County":"Rhein-Sieg-Kreis","City":"Much","District":"Marienfeld","Street":"Thelenstraße","HouseNumber":"30","PostalCode":"53804","AdditionalData":[{"value":"Deutschland","key":"CountryName"},{"value":"Nordrhein-Westfalen","key":"StateName"},{"value":"Rhein-Sieg-Kreis","key":"CountyName"}]},"MapReference":{"ReferenceId":"77167757","Spot":0.62,"SideOfStreet":"right","CountryId":"20147700","StateId":"20157369","CountyId":"20158889","CityId":"20158978","DistrictId":"20158980","AddressId":"195141428","RoadLinkId":"39133584"}}},{"Relevance":1.0,"Distance":94.4,"MatchLevel":"houseNumber","MatchQuality":{"Country":1.0,"State":1.0,"County":1.0,"City":1.0,"District":1.0,"Street":[1.0],"HouseNumber":1.0,"PostalCode":1.0},"MatchType":"interpolated","Location":{"LocationId":"NT_EsDogOb4L1-k7jIzGo1T4B_xA","LocationType":"point","DisplayPosition":{"Latitude":50.88706,"Longitude":7.44123},"MapView":{"TopLeft":{"Latitude":50.8881842,"Longitude":7.439448},"BottomRight":{"Latitude":50.8859358,"Longitude":7.443012}},"Address":{"Label":"Auf dem Steinchen 1, 53804 Much, Deutschland","Country":"DEU","State":"Nordrhein-Westfalen","County":"Rhein-Sieg-Kreis","City":"Much","District":"Marienfeld","Street":"Auf dem Steinchen","HouseNumber":"1","PostalCode":"53804","AdditionalData":[{"value":"Deutschland","key":"CountryName"},{"value":"Nordrhein-Westfalen","key":"StateName"},{"value":"Rhein-Sieg-Kreis","key":"CountyName"}]},"MapReference":{"ReferenceId":"77167727","Spot":0.11,"SideOfStreet":"right","CountryId":"20147700","StateId":"20157369","CountyId":"20158889","CityId":"20158978","DistrictId":"20158980","AddressId":"192988172","RoadLinkId":"39429139"}}},{"Relevance":1.0,"Distance":96.7,"MatchLevel":"street","MatchQuality":{"Country":1.0,"State":1.0,"County":1.0,"City":1.0,"District":1.0,"Street":[1.0],"PostalCode":1.0},"Location":{"LocationId":"NT_TrMAsQgS2f9ep9359R7AJC_l_77167715_R","LocationType":"point","DisplayPosition":{"Latitude":50.88594,"Longitude":7.4425},"MapView":{"TopLeft":{"Latitude":50.88594,"Longitude":7.44244},"BottomRight":{"Latitude":50.88558,"Longitude":7.4425}},"Address":{"Label":"Dorfstraße, 53804 Much, Deutschland","Country":"DEU","State":"Nordrhein-Westfalen","County":"Rhein-Sieg-Kreis","City":"Much","District":"Marienfeld","Street":"Dorfstraße","PostalCode":"53804","AdditionalData":[{"value":"Deutschland","key":"CountryName"},{"value":"Nordrhein-Westfalen","key":"StateName"},{"value":"Rhein-Sieg-Kreis","key":"CountyName"}]},"MapReference":{"ReferenceId":"77167715","Spot":1.0,"SideOfStreet":"right","CountryId":"20147700","StateId":"20157369","CountyId":"20158889","CityId":"20158978","DistrictId":"20158980"}}},{"Relevance":1.0,"Distance":97.2,"MatchLevel":"houseNumber","MatchQuality":{"Country":1.0,"State":1.0,"County":1.0,"City":1.0,"District":1.0,"Street":[1.0],"HouseNumber":1.0,"PostalCode":1.0},"MatchType":"interpolated","Location":{"LocationId":"NT_auQAj45JqVCKXujYnRPAcD_yMD","LocationType":"point","DisplayPosition":{"Latitude":50.88636,"Longitude":7.44124},"MapView":{"TopLeft":{"Latitude":50.8874842,"Longitude":7.4394581},"BottomRight":{"Latitude":50.8852358,"Longitude":7.4430219}},"Address":{"Label":"Wiesenweg 23, 53804 Much, Deutschland","Country":"DEU","State":"Nordrhein-Westfalen","County":"Rhein-Sieg-Kreis","City":"Much","District":"Marienfeld","Street":"Wiesenweg","HouseNumber":"23","PostalCode":"53804","AdditionalData":[{"value":"Deutschland","key":"CountryName"},{"value":"Nordrhein-Westfalen","key":"StateName"},{"value":"Rhein-Sieg-Kreis","key":"CountyName"}]},"MapReference":{"ReferenceId":"77165233","Spot":0.54,"SideOfStreet":"right","CountryId":"20147700","StateId":"20157369","CountyId":"20158889","CityId":"20158978","DistrictId":"20158980","AddressId":"193824192","RoadLinkId":"39381103"}}},{"Relevance":1.0,"Distance":106.5,"MatchLevel":"houseNumber","MatchQuality":{"Country":1.0,"State":1.0,"County":1.0,"City":1.0,"District":1.0,"Street":[1.0],"HouseNumber":1.0,"PostalCode":1.0},"MatchType":"interpolated","Location":{"LocationId":"NT_4PmneE1mk8WsFxNQPvkhtC_0UD","LocationType":"point","DisplayPosition":{"Latitude":50.8878,"Longitude":7.44278},"MapView":{"TopLeft":{"Latitude":50.8889242,"Longitude":7.440998},"BottomRight":{"Latitude":50.8866758,"Longitude":7.444562}},"Address":{"Label":"Dorfstraße 45, 53804 Much, Deutschland","Country":"DEU","State":"Nordrhein-Westfalen","County":"Rhein-Sieg-Kreis","City":"Much","District":"Marienfeld","Street":"Dorfstraße","HouseNumber":"45","PostalCode":"53804","AdditionalData":[{"value":"Deutschland","key":"CountryName"},{"value":"Nordrhein-Westfalen","key":"StateName"},{"value":"Rhein-Sieg-Kreis","key":"CountyName"}]},"MapReference":{"ReferenceId":"77167723","Spot":0.05,"SideOfStreet":"right","CountryId":"20147700","StateId":"20157369","CountyId":"20158889","CityId":"20158978","DistrictId":"20158980","AddressId":"196069884","RoadLinkId":"39391921"}}}]}]}}