{"Response":{"MetaInfo":{"Timestamp":"2020-03-28T11:16:14.676+0000","NextPageInformation":"2"},"View":[{"_type":"SearchResultsViewType","ViewId":0,"Result":[{"Relevance":1.0,"Distance":0.0,"Direction":0.0,"MatchLevel":"district","MatchQuality":{"Country":1.0,"State":1.0,"County":1.0,"City":1.0,"District":1.0,"PostalCode":1.0},"Location":{"LocationId":"NT_lDIm39pJfZ0xO111oR3nIC","LocationType":"point","DisplayPosition":{"Latitude":50.8648898,"Longitude":-3.3918841},"MapView":{"TopLeft":{"Latitude":50.87024,"Longitude":-3.41272},"BottomRight":{"Latitude":50.8463,"Longitude":-3.37139}},"Address":{"Label":"Cullompton, England, United Kingdom","Country":"GBR","State":"England","County":"Devon","City":"Cullompton","District":"Cullompton","PostalCode":"EX15 1","AdditionalData":[{"value":"United Kingdom","key":"CountryName"},{"value":"England","key":"StateName"},{"value":"Devon","key":"CountyName"}]},"MapReference":{"ReferenceId":"755380775","SideOfStreet":"neither","StateId":"20248595","CountyId":"20353913","CityId":"20354154","DistrictId":"20354155"}}},{"Relevance":1.0,"Distance":5.2,"MatchLevel":"street","MatchQuality":{"Country":1.0,"State":1.0,"County":1.0,"City":1.0,"District":1.0,"Street":[1.0],"PostalCode":1.0},"Location":{"LocationId":"NT_tVZ8W6sRmYKolx5g.ujJWA_l_1156573299_L","LocationType":"point","DisplayPosition":{"Latitude":50.8648613,"Longitude":-3.3918252},"MapView":{"TopLeft":{"Latitude":50.86512,"Longitude":-3.39185},"BottomRight":{"Latitude":50.86481,"Longitude":-3.3917}},"Address":{"Label":"B3181, Cullompton, EX15 1, United Kingdom","Country":"GBR","State":"England","County":"Devon","City":"Cullompton","District":"Cullompton","Street":"B3181","PostalCode":"EX15 1","AdditionalData":[{"value":"United Kingdom","key":"CountryName"},{"value":"England","key":"StateName"},{"value":"Devon","key":"CountyName"}]},"MapReference":{"ReferenceId":"1156573299","Spot":0.17,"SideOfStreet":"left","StateId":"20248595","CountyId":"20353913","CityId":"20354154","DistrictId":"20354155"}}},{"Relevance":1.0,"Distance":9.2,"MatchLevel":"street","MatchQuality":{"Country":1.0,"State":1.0,"County":1.0,"City":1.0,"District":1.0,"Street":[1.0],"PostalCode":1.0},"Location":{"LocationId":"NT_tVZ8W6sRmYKolx5g.ujJWA_l_1156573298_L","LocationType":"point","DisplayPosition":{"Latitude":50.86481,"Longitude":-3.39185},"MapView":{"TopLeft":{"Latitude":50.86481,"Longitude":-3.39273},"BottomRight":{"Latitude":50.86331,"Longitude":-3.39185}},"Address":{"Label":"B3181, Cullompton, EX15 1, United Kingdom","Country":"GBR","State":"England","County":"Devon","City":"Cullompton","District":"Cullompton","Street":"B3181","PostalCode":"EX15 1","AdditionalData":[{"value":"United Kingdom","key":"CountryName"},{"value":"England","key":"StateName"},{"value":"Devon","key":"CountyName"}]},"MapReference":{"ReferenceId":"1156573298","Spot":1.0,"SideOfStreet":"left","StateId":"20248595","CountyId":"20353913","CityId":"20354154","DistrictId":"20354155"}}},{"Relevance":1.0,"Distance":28.7,"MatchLevel":"street","MatchQuality":{"Country":1.0,"State":1.0,"County":1.0,"City":1.0,"District":1.0,"Street":[1.0],"PostalCode":1.0},"Location":{"LocationId":"NT_tVZ8W6sRmYKolx5g.ujJWA_l_708134645_L","LocationType":"point","DisplayPosition":{"Latitude":50.86512,"Longitude":-3.3917},"MapView":{"TopLeft":{"Latitude":50.86592,"Longitude":-3.3917},"BottomRight":{"Latitude":50.86512,"Longitude":-3.39157}},"Address":{"Label":"B3181, Cullompton, EX15 1, United Kingdom","Country":"GBR","State":"England","County":"Devon","City":"Cullompton","District":"Cullompton","Street":"B3181","PostalCode":"EX15 1","AdditionalData":[{"value":"United Kingdom","key":"CountryName"},{"value":"England","key":"StateName"},{"value":"Devon","key":"CountyName"}]},"MapReference":{"ReferenceId":"708134645","Spot":0.0,"SideOfStreet":"left","StateId":"20248595","CountyId":"20353913","CityId":"20354154","DistrictId":"20354155"}}},{"Relevance":1.0,"Distance":28.7,"MatchLevel":"street","MatchQuality":{"Country":1.0,"State":1.0,"County":1.0,"City":1.0,"District":1.0,"PostalCode":1.0},"Location":{"LocationId":"NT_mpLuk0R-d0ANLx8QyO1slB_l_708134646_L","LocationType":"point","DisplayPosition":{"Latitude":50.86512,"Longitude":-3.3917},"MapView":{"TopLeft":{"Latitude":50.86512,"Longitude":-3.3917},"BottomRight":{"Latitude":50.86488,"Longitude":-3.39061}},"Address":{"Label":"Cullompton, EX15 1, United Kingdom","Country":"GBR","State":"England","County":"Devon","City":"Cullompton","District":"Cullompton","PostalCode":"EX15 1","AdditionalData":[{"value":"United Kingdom","key":"CountryName"},{"value":"England","key":"StateName"},{"value":"Devon","key":"CountyName"}]},"MapReference":{"ReferenceId":"708134646","Spot":1.0,"SideOfStreet":"left","StateId":"20248595","CountyId":"20353913","CityId":"20354154","DistrictId":"20354155"}}},{"Relevance":1.0,"Distance":71.9,"MatchLevel":"houseNumber","MatchQuality":{"Country":1.0,"State":1.0,"County":1.0,"City":1.0,"District":1.0,"Street":[1.0],"HouseNumber":1.0,"PostalCode":1.0},"MatchType":"interpolated","Location":{"LocationId":"NT_ibo2PwjvNgPodaVYMLz37A_l_708134642_L_xkD","LocationType":"point","DisplayPosition":{"Latitude":50.86459,"Longitude":-3.390751},"MapView":{"TopLeft":{"Latitude":50.8657142,"Longitude":-3.3925321},"BottomRight":{"Latitude":50.8634659,"Longitude":-3.3889699}},"Address":{"Label":"19 Court Drive, Cullompton, EX15 1AX, United Kingdom","Country":"GBR","State":"England","County":"Devon","City":"Cullompton","District":"Cullompton","Street":"Court Drive","HouseNumber":"19","PostalCode":"EX15 1AX","AdditionalData":[{"value":"United Kingdom","key":"CountryName"},{"value":"England","key":"StateName"},{"value":"Devon","key":"CountyName"}]},"MapReference":{"ReferenceId":"708134642","Spot":0.84,"SideOfStreet":"left","StateId":"20248595","CountyId":"20353913","CityId":"20354154","DistrictId":"20354155"}}},{"Relevance":1.0,"Distance":87.1,"MatchLevel":"houseNumber","MatchQuality":{"Country":1.0,"State":1.0,"County":1.0,"City":1.0,"District":1.0,"Street":[1.0],"HouseNumber":1.0,"PostalCode":1.0},"MatchType":"interpolated","Location":{"LocationId":"NT_ibo2PwjvNgPodaVYMLz37A_l_708134643_L_xgD","LocationType":"point","DisplayPosition":{"Latitude":50.865,"Longitude":-3.39054},"MapView":{"TopLeft":{"Latitude":50.8661242,"Longitude":-3.3923211},"BottomRight":{"Latitude":50.8638759,"Longitude":-3.3887589}},"Address":{"Label":"18 Court Drive, Cullompton, EX15 1, United Kingdom","Country":"GBR","State":"England","County":"Devon","City":"Cullompton","District":"Cullompton","Street":"Court Drive","HouseNumber":"18","PostalCode":"EX15 1","AdditionalData":[{"value":"United Kingdom","key":"CountryName"},{"value":"England","key":"StateName"},{"value":"Devon","key":"CountyName"}]},"MapReference":{"ReferenceId":"708134643","Spot":0.39,"SideOfStreet":"left","StateId":"20248595","CountyId":"20353913","CityId":"20354154","DistrictId":"20354155"}}},{"Relevance":1.0,"Distance":88.0,"MatchLevel":"houseNumber","MatchQuality":{"Country":1.0,"State":1.0,"County":1.0,"City":1.0,"District":1.0,"Street":[1.0],"HouseNumber":1.0,"PostalCode":1.0},"MatchType":"interpolated","Location":{"LocationId":"NT_haDSYQouPnys7YbUjWod9D_l_26713042_R_2A","LocationType":"point","DisplayPosition":{"Latitude":50.86558,"Longitude":-3.3909599},"MapView":{"TopLeft":{"Latitude":50.8667041,"Longitude":-3.3927411},"BottomRight":{"Latitude":50.8644558,"Longitude":-3.3891788}},"Address":{"Label":"6 Splatford Drive, Cullompton, EX15 1NP, United Kingdom","Country":"GBR","State":"England","County":"Devon","City":"Cullompton","District":"Cullompton","Street":"Splatford Drive","HouseNumber":"6","PostalCode":"EX15 1NP","AdditionalData":[{"value":"United Kingdom","key":"CountryName"},{"value":"England","key":"StateName"},{"value":"Devon","key":"CountyName"}]},"MapReference":{"ReferenceId":"26713042","Spot":0.38,"SideOfStreet":"right","StateId":"20248595","CountyId":"20353913","CityId":"20354154","DistrictId":"20354155"}}},{"Relevance":1.0,"Distance":91.3,"MatchLevel":"postalCode","MatchQuality":{"PostalCode":1.0},"Location":{"LocationId":"NT_tVZ8W6sRmYKolx5g.ujJWA_l_1156573298_L","LocationType":"point","DisplayPosition":{"Latitude":50.8641,"Longitude":-3.39224},"MapView":{"TopLeft":{"Latitude":50.8730932,"Longitude":-3.4064887},"BottomRight":{"Latitude":50.8551068,"Longitude":-3.3779913}},"Address":{"Label":"EX15 1FE, Cullompton, England, United Kingdom","Country":"GBR","State":"England","County":"Devon","City":"Cullompton","PostalCode":"EX15 1FE","AdditionalData":[{"value":"United Kingdom","key":"CountryName"},{"value":"England","key":"StateName"},{"value":"Devon","key":"CountyName"}]},"MapReference":{"ReferenceId":"1156573298","Spot":1.0,"SideOfStreet":"neither","StateId":"20248595","CountyId":"20353913","CityId":"20354154"}}},{"Relevance":1.0,"Distance":93.5,"MatchLevel":"postalCode","MatchQuality":{"PostalCode":1.0},"MatchType":"interpolated","Location":{"LocationId":"NT_haDSYQouPnys7YbUjWod9D_l_26713042_R_2A","LocationType":"point","DisplayPosition":{"Latitude":50.86556,"Longitude":-3.39108},"MapView":{"TopLeft":{"Latitude":50.8745532,"Longitude":-3.4053291},"BottomRight":{"Latitude":50.8565668,"Longitude":-3.3768309}},"Address":{"Label":"EX15 1NP, Cullompton, England, United Kingdom","Country":"GBR","State":"England","County":"Devon","City":"Cullompton","PostalCode":"EX15 1NP","AdditionalData":[{"value":"United Kingdom","key":"CountryName"},{"value":"England","key":"StateName"},{"value":"Devon","key":"CountyName"}]},"MapReference":{"ReferenceId":"26713042","Spot":0.38,"SideOfStreet":"neither","StateId":"20248595","CountyId":"20353913","CityId":"20354154"}}}]}]}}