{"Response":{"MetaInfo":{"Timestamp":"2020-03-28T11:29:39.423+0000","NextPageInformation":"2"},"View":[{"_type":"SearchResultsViewType","ViewId":0,"Result":[{"Relevance":1.0,"Distance":0.0,"Direction":0.0,"MatchLevel":"district","MatchQuality":{"Country":1.0,"State":1.0,"County":1.0,"City":1.0,"District":1.0,"PostalCode":1.0},"Location":{"LocationId":"NT_FiATiKPwzN0eaBoZGkvmSB","LocationType":"point","DisplayPosition":{"Latitude":50.8831648,"Longitude":18.6872297},"MapView":{"TopLeft":{"Latitude":50.89714,"Longitude":18.66483},"BottomRight":{"Latitude":50.87331,"Longitude":18.72859}},"Address":{"Label":"Przystajń, Woj. Śląskie, Polska","Country":"POL","State":"Woj. Śląskie","County":"Powiat Kłobucki","City":"Przystajń","District":"Przystajń","PostalCode":"42-141","AdditionalData":[{"value":"Polska","key":"CountryName"},{"value":"Woj. Śląskie","key":"StateName"},{"value":"Powiat Kłobucki","key":"CountyName"}]},"MapReference":{"ReferenceId":"1067223926","SideOfStreet":"neither","CountryId":"20624059","StateId":"20629003","CountyId":"20629171","CityId":"20629188","DistrictId":"20693671"}}},{"Relevance":1.0,"Distance":8.8,"MatchLevel":"houseNumber","MatchQuality":{"Country":1.0,"State":1.0,"County":1.0,"City":1.0,"District":1.0,"Street":[1.0],"HouseNumber":1.0,"PostalCode":1.0},"MatchType":"interpolated","Location":{"LocationId":"NT_To9-Nj53vqibjuyGgRPIbA_3A","LocationType":"point","DisplayPosition":{"Latitude":50.88324,"Longitude":18.68743},"MapView":{"TopLeft":{"Latitude":50.8843642,"Longitude":18.6856482},"BottomRight":{"Latitude":50.8821158,"Longitude":18.6892118}},"Address":{"Label":"ulica Powstańców Śląskich 7, 42-141 Przystajń, Polska","Country":"POL","State":"Woj. Śląskie","County":"Powiat Kłobucki","City":"Przystajń","District":"Przystajń","Street":"ulica Powstańców Śląskich","HouseNumber":"7","PostalCode":"42-141","AdditionalData":[{"value":"Polska","key":"CountryName"},{"value":"Woj. Śląskie","key":"StateName"},{"value":"Powiat Kłobucki","key":"CountyName"}]},"MapReference":{"ReferenceId":"1067562894","Spot":0.66,"SideOfStreet":"left","CountryId":"20624059","StateId":"20629003","CountyId":"20629171","CityId":"20629188","DistrictId":"20693671","AddressId":"367107306","RoadLinkId":"389864010"}}},{"Relevance":1.0,"Distance":35.7,"MatchLevel":"houseNumber","MatchQuality":{"Country":1.0,"State":1.0,"County":1.0,"City":1.0,"District":1.0,"Street":[1.0],"HouseNumber":1.0,"PostalCode":1.0},"MatchType":"interpolated","Location":{"LocationId":"NT_svCYsgoPjGl7O53KVzbETC_yA","LocationType":"point","DisplayPosition":{"Latitude":50.88291,"Longitude":18.68692},"MapView":{"TopLeft":{"Latitude":50.8840342,"Longitude":18.6851382},"BottomRight":{"Latitude":50.8817858,"Longitude":18.6887018}},"Address":{"Label":"ulica Krótka 2, 42-141 Przystajń, Polska","Country":"POL","State":"Woj. Śląskie","County":"Powiat Kłobucki","City":"Przystajń","District":"Przystajń","Street":"ulica Krótka","HouseNumber":"2","PostalCode":"42-141","AdditionalData":[{"value":"Polska","key":"CountryName"},{"value":"Woj. Śląskie","key":"StateName"},{"value":"Powiat Kłobucki","key":"CountyName"}]},"MapReference":{"ReferenceId":"594243668","Spot":0.59,"SideOfStreet":"left","CountryId":"20624059","StateId":"20629003","CountyId":"20629171","CityId":"20629188","DistrictId":"20693671","AddressId":"367157035","RoadLinkId":"96345823"}}},{"Relevance":1.0,"Distance":36.6,"MatchLevel":"houseNumber","MatchQuality":{"Country":1.0,"State":1.0,"County":1.0,"City":1.0,"District":1.0,"Street":[1.0],"HouseNumber":1.0,"PostalCode":1.0},"MatchType":"interpolated","Location":{"LocationId":"NT_To9-Nj53vqibjuyGgRPIbA_5A","LocationType":"point","DisplayPosition":{"Latitude":50.88345,"Longitude":18.68697},"MapView":{"TopLeft":{"Latitude":50.8845742,"Longitude":18.6851882},"BottomRight":{"Latitude":50.8823258,"Longitude":18.6887518}},"Address":{"Label":"ulica Powstańców Śląskich 9, 42-141 Przystajń, Polska","Country":"POL","State":"Woj. Śląskie","County":"Powiat Kłobucki","City":"Przystajń","District":"Przystajń","Street":"ulica Powstańców Śląskich","HouseNumber":"9","PostalCode":"42-141","AdditionalData":[{"value":"Polska","key":"CountryName"},{"value":"Woj. Śląskie","key":"StateName"},{"value":"Powiat Kłobucki","key":"CountyName"}]},"MapReference":{"ReferenceId":"1067562895","Spot":0.06,"SideOfStreet":"left","CountryId":"20624059","StateId":"20629003","CountyId":"20629171","CityId":"20629188","DistrictId":"20693671","AddressId":"367140108","RoadLinkId":"389864014"}}},{"Relevance":1.0,"Distance":76.7,"MatchLevel":"houseNumber","MatchQuality":{"Country":1.0,"State":1.0,"County":1.0,"City":1.0,"District":1.0,"Street":[1.0],"HouseNumber":1.0,"PostalCode":1.0},"MatchType":"interpolated","Location":{"LocationId":"NT_g-0c.aF-X4wQ8g2mCWvlcA_yA","LocationType":"point","DisplayPosition":{"Latitude":50.88218,"Longitude":18.68763},"MapView":{"TopLeft":{"Latitude":50.8833042,"Longitude":18.6858482},"BottomRight":{"Latitude":50.8810558,"Longitude":18.6894118}},"Address":{"Label":"ulica Szkolna 2, 42-141 Przystajń, Polska","Country":"POL","State":"Woj. Śląskie","County":"Powiat Kłobucki","City":"Przystajń","District":"Przystajń","Street":"ulica Szkolna","HouseNumber":"2","PostalCode":"42-141","AdditionalData":[{"value":"Polska","key":"CountryName"},{"value":"Woj. Śląskie","key":"StateName"},{"value":"Powiat Kłobucki","key":"CountyName"}]},"MapReference":{"ReferenceId":"1066993994","Spot":0.48,"SideOfStreet":"left","CountryId":"20624059","StateId":"20629003","CountyId":"20629171","CityId":"20629188","DistrictId":"20693671","AddressId":"367115648","RoadLinkId":"389292225"}}},{"Relevance":1.0,"Distance":80.5,"MatchLevel":"houseNumber","MatchQuality":{"Country":1.0,"State":1.0,"County":1.0,"City":1.0,"District":1.0,"Street":[1.0],"HouseNumber":1.0,"PostalCode":1.0},"MatchType":"interpolated","Location":{"LocationId":"NT_To9-Nj53vqibjuyGgRPIbA_xMD","LocationType":"point","DisplayPosition":{"Latitude":50.88369,"Longitude":18.68644},"MapView":{"TopLeft":{"Latitude":50.8848142,"Longitude":18.6846582},"BottomRight":{"Latitude":50.8825658,"Longitude":18.6882218}},"Address":{"Label":"ulica Powstańców Śląskich 13, 42-141 Przystajń, Polska","Country":"POL","State":"Woj. Śląskie","County":"Powiat Kłobucki","City":"Przystajń","District":"Przystajń","Street":"ulica Powstańców Śląskich","HouseNumber":"13","PostalCode":"42-141","AdditionalData":[{"value":"Polska","key":"CountryName"},{"value":"Woj. Śląskie","key":"StateName"},{"value":"Powiat Kłobucki","key":"CountyName"}]},"MapReference":{"ReferenceId":"1067562896","Spot":0.09,"SideOfStreet":"left","CountryId":"20624059","StateId":"20629003","CountyId":"20629171","CityId":"20629188","DistrictId":"20693671","AddressId":"367140096","RoadLinkId":"389864015"}}},{"Relevance":1.0,"Distance":98.7,"MatchLevel":"houseNumber","MatchQuality":{"Country":1.0,"State":1.0,"County":1.0,"City":1.0,"District":1.0,"Street":[1.0],"HouseNumber":1.0,"PostalCode":1.0},"MatchType":"interpolated","Location":{"LocationId":"NT_To9-Nj53vqibjuyGgRPIbA_0EE","LocationType":"point","DisplayPosition":{"Latitude":50.88277,"Longitude":18.68849},"MapView":{"TopLeft":{"Latitude":50.8838942,"Longitude":18.6867082},"BottomRight":{"Latitude":50.8816458,"Longitude":18.6902718}},"Address":{"Label":"ulica Powstańców Śląskich 4A, 42-141 Przystajń, Polska","Country":"POL","State":"Woj. Śląskie","County":"Powiat Kłobucki","City":"Przystajń","District":"Przystajń","Street":"ulica Powstańców Śląskich","HouseNumber":"4A","PostalCode":"42-141","AdditionalData":[{"value":"Polska","key":"CountryName"},{"value":"Woj. Śląskie","key":"StateName"},{"value":"Powiat Kłobucki","key":"CountyName"}]},"MapReference":{"ReferenceId":"1067562898","Spot":0.29,"SideOfStreet":"right","CountryId":"20624059","StateId":"20629003","CountyId":"20629171","CityId":"20629188","DistrictId":"20693671","AddressId":"367107313","RoadLinkId":"389864019"}}},{"Relevance":1.0,"Distance":105.2,"MatchLevel":"houseNumber","MatchQuality":{"Country":1.0,"State":1.0,"County":1.0,"City":1.0,"District":1.0,"Street":[1.0],"HouseNumber":1.0,"PostalCode":1.0},"MatchType":"interpolated","Location":{"LocationId":"NT_g-0c.aF-X4wQ8g2mCWvlcA_xAD","LocationType":"point","DisplayPosition":{"Latitude":50.88215,"Longitude":18.68667},"MapView":{"TopLeft":{"Latitude":50.8832742,"Longitude":18.6848882},"BottomRight":{"Latitude":50.8810258,"Longitude":18.6884518}},"Address":{"Label":"ulica Szkolna 10, 42-141 Przystajń, Polska","Country":"POL","State":"Woj. Śląskie","County":"Powiat Kłobucki","City":"Przystajń","District":"Przystajń","Street":"ulica Szkolna","HouseNumber":"10","PostalCode":"42-141","AdditionalData":[{"value":"Polska","key":"CountryName"},{"value":"Woj. Śląskie","key":"StateName"},{"value":"Powiat Kłobucki","key":"CountyName"}]},"MapReference":{"ReferenceId":"1066993996","Spot":0.85,"SideOfStreet":"left","CountryId":"20624059","StateId":"20629003","CountyId":"20629171","CityId":"20629188","DistrictId":"20693671","AddressId":"367103730","RoadLinkId":"389292227"}}},{"Relevance":1.0,"Distance":109.2,"MatchLevel":"houseNumber","MatchQuality":{"Country":1.0,"State":1.0,"County":1.0,"City":1.0,"District":1.0,"Street":[1.0],"HouseNumber":1.0,"PostalCode":1.0},"MatchType":"interpolated","Location":{"LocationId":"NT_To9-Nj53vqibjuyGgRPIbA_zA","LocationType":"point","DisplayPosition":{"Latitude":50.88272,"Longitude":18.68862},"MapView":{"TopLeft":{"Latitude":50.8838442,"Longitude":18.6868382},"BottomRight":{"Latitude":50.8815958,"Longitude":18.6904018}},"Address":{"Label":"ulica Powstańców Śląskich 3, 42-141 Przystajń, Polska","Country":"POL","State":"Woj. Śląskie","County":"Powiat Kłobucki","City":"Przystajń","District":"Przystajń","Street":"ulica Powstańców Śląskich","HouseNumber":"3","PostalCode":"42-141","AdditionalData":[{"value":"Polska","key":"CountryName"},{"value":"Woj. Śląskie","key":"StateName"},{"value":"Powiat Kłobucki","key":"CountyName"}]},"MapReference":{"ReferenceId":"1067992126","Spot":0.91,"SideOfStreet":"left","CountryId":"20624059","StateId":"20629003","CountyId":"20629171","CityId":"20629188","DistrictId":"20693671","AddressId":"367107309","RoadLinkId":"390290831"}}},{"Relevance":1.0,"Distance":110.6,"MatchLevel":"houseNumber","MatchQuality":{"Country":1.0,"State":1.0,"County":1.0,"City":1.0,"District":1.0,"Street":[1.0],"HouseNumber":1.0,"PostalCode":1.0},"MatchType":"interpolated","Location":{"LocationId":"NT_g-0c.aF-X4wQ8g2mCWvlcA_3A","LocationType":"point","DisplayPosition":{"Latitude":50.88217,"Longitude":18.68721},"MapView":{"TopLeft":{"Latitude":50.8832942,"Longitude":18.6854282},"BottomRight":{"Latitude":50.8810458,"Longitude":18.6889918}},"Address":{"Label":"ulica Szkolna 7, 42-141 Przystajń, Polska","Country":"POL","State":"Woj. Śląskie","County":"Powiat Kłobucki","City":"Przystajń","District":"Przystajń","Street":"ulica Szkolna","HouseNumber":"7","PostalCode":"42-141","AdditionalData":[{"value":"Polska","key":"CountryName"},{"value":"Woj. Śląskie","key":"StateName"},{"value":"Powiat Kłobucki","key":"CountyName"}]},"MapReference":{"ReferenceId":"1066993993","Spot":0.67,"SideOfStreet":"right","CountryId":"20624059","StateId":"20629003","CountyId":"20629171","CityId":"20629188","DistrictId":"20693671","AddressId":"367115647","RoadLinkId":"389292224"}}}]}]}}