{"Response":{"MetaInfo":{"Timestamp":"2020-03-28T11:17:41.091+0000","NextPageInformation":"2"},"View":[{"_type":"SearchResultsViewType","ViewId":0,"Result":[{"Relevance":1.0,"Distance":0.0,"Direction":0.0,"MatchLevel":"district","MatchQuality":{"Country":1.0,"State":1.0,"County":1.0,"City":1.0,"District":1.0,"PostalCode":1.0},"Location":{"LocationId":"NT_BBUp6QQiXwWMyqYxY-woTA","LocationType":"point","DisplayPosition":{"Latitude":50.8416393,"Longitude":-0.1892523},"MapView":{"TopLeft":{"Latitude":50.85787,"Longitude":-0.23601},"BottomRight":{"Latitude":50.82218,"Longitude":-0.1475}},"Address":{"Label":"Hove, England, United Kingdom","Country":"GBR","State":"England","County":"East Sussex","City":"Hove","District":"Hove","PostalCode":"BN3 7","AdditionalData":[{"value":"United Kingdom","key":"CountryName"},{"value":"England","key":"StateName"},{"value":"East Sussex","key":"CountyName"}]},"MapReference":{"ReferenceId":"1227186143","SideOfStreet":"neither","StateId":"20248595","CountyId":"20335121","CityId":"20335234","DistrictId":"20335235"}}},{"Relevance":1.0,"Distance":35.3,"MatchLevel":"street","MatchQuality":{"Country":1.0,"State":1.0,"County":1.0,"City":1.0,"District":1.0,"PostalCode":1.0},"Location":{"LocationId":"NT_wEey5G42WTtAY9IoWq7u0C_l_1253520107_L","LocationType":"point","DisplayPosition":{"Latitude":50.84191,"Longitude":-0.18899},"MapView":{"TopLeft":{"Latitude":50.84239,"Longitude":-0.189},"BottomRight":{"Latitude":50.84191,"Longitude":-0.18899}},"Address":{"Label":"Hove, BN3 7, United Kingdom","Country":"GBR","State":"England","County":"East Sussex","City":"Hove","District":"Hove","PostalCode":"BN3 7","AdditionalData":[{"value":"United Kingdom","key":"CountryName"},{"value":"England","key":"StateName"},{"value":"East Sussex","key":"CountyName"}]},"MapReference":{"ReferenceId":"1253520107","Spot":0.0,"SideOfStreet":"left","StateId":"20248595","CountyId":"20335121","CityId":"20335234","DistrictId":"20335235"}}},{"Relevance":1.0,"Distance":77.1,"MatchLevel":"houseNumber","MatchQuality":{"Country":1.0,"State":1.0,"County":1.0,"City":1.0,"District":1.0,"Street":[1.0],"HouseNumber":1.0,"PostalCode":1.0},"MatchType":"interpolated","Location":{"LocationId":"NT_zaT2YcKSkHsJIcH2zzMxcB_l_586285499_L_xA","LocationType":"point","DisplayPosition":{"Latitude":50.8409648,"Longitude":-0.189001},"MapView":{"TopLeft":{"Latitude":50.8420889,"Longitude":-0.1907812},"BottomRight":{"Latitude":50.8398406,"Longitude":-0.1872208}},"Address":{"Label":"1 Wayfield Avenue, Hove, BN3 7LW, United Kingdom","Country":"GBR","State":"England","County":"East Sussex","City":"Hove","District":"Hove","Street":"Wayfield Avenue","HouseNumber":"1","PostalCode":"BN3 7LW","AdditionalData":[{"value":"United Kingdom","key":"CountryName"},{"value":"England","key":"StateName"},{"value":"East Sussex","key":"CountyName"}]},"MapReference":{"ReferenceId":"586285499","Spot":0.5,"SideOfStreet":"left","StateId":"20248595","CountyId":"20335121","CityId":"20335234","DistrictId":"20335235"}}},{"Relevance":1.0,"Distance":80.4,"MatchLevel":"postalCode","MatchQuality":{"PostalCode":1.0},"Location":{"LocationId":"NT_wEey5G42WTtAY9IoWq7u0C_l_1253519976_R","LocationType":"point","DisplayPosition":{"Latitude":50.84236,"Longitude":-0.18935},"MapView":{"TopLeft":{"Latitude":50.8513532,"Longitude":-0.203592},"BottomRight":{"Latitude":50.8333668,"Longitude":-0.175108}},"Address":{"Label":"BN3 7HY, Hove, England, United Kingdom","Country":"GBR","State":"England","County":"East Sussex","City":"Hove","PostalCode":"BN3 7HY","AdditionalData":[{"value":"United Kingdom","key":"CountryName"},{"value":"England","key":"StateName"},{"value":"East Sussex","key":"CountyName"}]},"MapReference":{"ReferenceId":"1253519976","Spot":0.21,"SideOfStreet":"neither","StateId":"20248595","CountyId":"20335121","CityId":"20335234"}}},{"Relevance":1.0,"Distance":83.5,"MatchLevel":"street","MatchQuality":{"Country":1.0,"State":1.0,"County":1.0,"City":1.0,"District":1.0,"PostalCode":1.0},"Location":{"LocationId":"NT_wEey5G42WTtAY9IoWq7u0C_l_1253519976_R","LocationType":"point","DisplayPosition":{"Latitude":50.84239,"Longitude":-0.1892523},"MapView":{"TopLeft":{"Latitude":50.84239,"Longitude":-0.18932},"BottomRight":{"Latitude":50.84239,"Longitude":-0.189}},"Address":{"Label":"Hove, BN3 7, United Kingdom","Country":"GBR","State":"England","County":"East Sussex","City":"Hove","District":"Hove","PostalCode":"BN3 7","AdditionalData":[{"value":"United Kingdom","key":"CountryName"},{"value":"England","key":"StateName"},{"value":"East Sussex","key":"CountyName"}]},"MapReference":{"ReferenceId":"1253519976","Spot":0.21,"SideOfStreet":"right","StateId":"20248595","CountyId":"20335121","CityId":"20335234","DistrictId":"20335235"}}},{"Relevance":1.0,"Distance":84.6,"MatchLevel":"houseNumber","MatchQuality":{"Country":1.0,"State":1.0,"County":1.0,"City":1.0,"District":1.0,"Street":[1.0],"HouseNumber":1.0,"PostalCode":1.0},"MatchType":"interpolated","Location":{"LocationId":"NT_CaoWihyYdYJtZWmZKRQtYA_l_25610909_L_1ID","LocationType":"point","DisplayPosition":{"Latitude":50.8414394,"Longitude":-0.1878769},"MapView":{"TopLeft":{"Latitude":50.8425636,"Longitude":-0.1896571},"BottomRight":{"Latitude":50.8403153,"Longitude":-0.1860966}},"Address":{"Label":"52 Holmes Avenue, Hove, BN3 7LD, United Kingdom","Country":"GBR","State":"England","County":"East Sussex","City":"Hove","District":"Hove","Street":"Holmes Avenue","HouseNumber":"52","PostalCode":"BN3 7LD","AdditionalData":[{"value":"United Kingdom","key":"CountryName"},{"value":"England","key":"StateName"},{"value":"East Sussex","key":"CountyName"}]},"MapReference":{"ReferenceId":"25610909","Spot":0.26,"SideOfStreet":"left","StateId":"20248595","CountyId":"20335121","CityId":"20335234","DistrictId":"20335235"}}},{"Relevance":1.0,"Distance":85.3,"MatchLevel":"street","MatchQuality":{"Country":1.0,"State":1.0,"County":1.0,"City":1.0,"District":1.0,"PostalCode":1.0},"Location":{"LocationId":"NT_wEey5G42WTtAY9IoWq7u0C_l_1253520048_L","LocationType":"point","DisplayPosition":{"Latitude":50.84239,"Longitude":-0.189},"MapView":{"TopLeft":{"Latitude":50.84316,"Longitude":-0.18977},"BottomRight":{"Latitude":50.84239,"Longitude":-0.18897}},"Address":{"Label":"Hove, BN3 7, United Kingdom","Country":"GBR","State":"England","County":"East Sussex","City":"Hove","District":"Hove","PostalCode":"BN3 7","AdditionalData":[{"value":"United Kingdom","key":"CountryName"},{"value":"England","key":"StateName"},{"value":"East Sussex","key":"CountyName"}]},"MapReference":{"ReferenceId":"1253520048","Spot":0.0,"SideOfStreet":"left","StateId":"20248595","CountyId":"20335121","CityId":"20335234","DistrictId":"20335235"}}},{"Relevance":1.0,"Distance":85.4,"MatchLevel":"postalCode","MatchQuality":{"PostalCode":1.0},"Location":{"LocationId":"NT_4t4tbQ2745svoOT2scjsyD_l_586285500_R","LocationType":"point","DisplayPosition":{"Latitude":50.8412,"Longitude":-0.19025},"MapView":{"TopLeft":{"Latitude":50.8501932,"Longitude":-0.2044917},"BottomRight":{"Latitude":50.8322068,"Longitude":-0.1760083}},"Address":{"Label":"BN3 7RE, Hove, England, United Kingdom","Country":"GBR","State":"England","County":"East Sussex","City":"Hove","PostalCode":"BN3 7RE","AdditionalData":[{"value":"United Kingdom","key":"CountryName"},{"value":"England","key":"StateName"},{"value":"East Sussex","key":"CountyName"}]},"MapReference":{"ReferenceId":"586285500","Spot":0.0,"SideOfStreet":"neither","StateId":"20248595","CountyId":"20335121","CityId":"20335234"}}},{"Relevance":1.0,"Distance":88.9,"MatchLevel":"street","MatchQuality":{"Country":1.0,"State":1.0,"County":1.0,"City":1.0,"District":1.0,"Street":[1.0],"PostalCode":1.0},"Location":{"LocationId":"NT_4t4tbQ2745svoOT2scjsyD_l_586285500_R","LocationType":"point","DisplayPosition":{"Latitude":50.84096,"Longitude":-0.18992},"MapView":{"TopLeft":{"Latitude":50.84124,"Longitude":-0.19023},"BottomRight":{"Latitude":50.84096,"Longitude":-0.18992}},"Address":{"Label":"Wayfield Close, Hove, BN3 7, United Kingdom","Country":"GBR","State":"England","County":"East Sussex","City":"Hove","District":"Hove","Street":"Wayfield Close","PostalCode":"BN3 7","AdditionalData":[{"value":"United Kingdom","key":"CountryName"},{"value":"England","key":"StateName"},{"value":"East Sussex","key":"CountyName"}]},"MapReference":{"ReferenceId":"586285500","Spot":0.0,"SideOfStreet":"right","StateId":"20248595","CountyId":"20335121","CityId":"20335234","DistrictId":"20335235"}}},{"Relevance":1.0,"Distance":100.8,"MatchLevel":"postalCode","MatchQuality":{"PostalCode":1.0},"MatchType":"interpolated","Location":{"LocationId":"NT_CaoWihyYdYJtZWmZKRQtYA_l_25610909_L_1ID","LocationType":"point","DisplayPosition":{"Latitude":50.84176,"Longitude":-0.18783},"MapView":{"TopLeft":{"Latitude":50.8507532,"Longitude":-0.2020718},"BottomRight":{"Latitude":50.8327668,"Longitude":-0.1735882}},"Address":{"Label":"BN3 7LD, Hove, England, United Kingdom","Country":"GBR","State":"England","County":"East Sussex","City":"Hove","PostalCode":"BN3 7LD","AdditionalData":[{"value":"United Kingdom","key":"CountryName"},{"value":"England","key":"StateName"},{"value":"East Sussex","key":"CountyName"}]},"MapReference":{"ReferenceId":"25610909","Spot":0.26,"SideOfStreet":"neither","StateId":"20248595","CountyId":"20335121","CityId":"20335234"}}}]}]}}