{"Response":{"MetaInfo":{"Timestamp":"2020-03-28T09:36:32.120+0000","NextPageInformation":"2"},"View":[{"_type":"SearchResultsViewType","ViewId":0,"Result":[{"Relevance":1.0,"Distance":0.0,"Direction":0.0,"MatchLevel":"district","MatchQuality":{"Country":1.0,"State":1.0,"County":1.0,"City":1.0,"District":1.0,"PostalCode":1.0},"Location":{"LocationId":"NT_AJYGj1hXAPVHIFGTKKbjJC","LocationType":"point","DisplayPosition":{"Latitude":50.8520324,"Longitude":12.9580177},"MapView":{"TopLeft":{"Latitude":50.86917,"Longitude":12.93381},"BottomRight":{"Latitude":50.83149,"Longitude":12.99711}},"Address":{"Label":"Hilbersdorf, Chemnitz, Sachsen, Deutschland","Country":"DEU","State":"Sachsen","County":"Chemnitz","City":"Chemnitz","District":"Hilbersdorf","PostalCode":"09131","AdditionalData":[{"value":"Deutschland","key":"CountryName"},{"value":"Sachsen","key":"StateName"},{"value":"Chemnitz","key":"CountyName"}]},"MapReference":{"ReferenceId":"53549257","SideOfStreet":"neither","CountryId":"20147700","StateId":"20191185","CountyId":"20191426","CityId":"20191427"}}},{"Relevance":1.0,"Distance":20.2,"MatchLevel":"landmark","MatchQuality":{"Country":1.0,"State":1.0,"County":1.0,"City":1.0,"PostalCode":1.0,"Name":1.0},"Location":{"LocationId":"NT_w0XGDJZFVr7QQFIu9NmN9C","LocationType":"woodland","Name":"Parkwald","DisplayPosition":{"Latitude":50.84697,"Longitude":12.95629},"MapView":{"TopLeft":{"Latitude":50.85315,"Longitude":12.94504},"BottomRight":{"Latitude":50.84078,"Longitude":12.96562}},"Address":{"Label":"09111 Chemnitz, Deutschland","Country":"DEU","State":"Sachsen","County":"Chemnitz","City":"Chemnitz","PostalCode":"09111","AdditionalData":[{"value":"Deutschland","key":"CountryName"},{"value":"Sachsen","key":"StateName"},{"value":"Chemnitz","key":"CountyName"}]},"MapReference":{"CountryId":"20147700","StateId":"20191185","CountyId":"20191426","CityId":"20191427","PlaceId":"50670959"}}},{"Relevance":1.0,"Distance":20.2,"MatchLevel":"street","MatchQuality":{"Country":1.0,"State":1.0,"County":1.0,"City":1.0,"District":1.0,"PostalCode":1.0},"Location":{"LocationId":"NT_jIw8ebiDr2IgoI7ircy2pA_l_1047687986_L","LocationType":"point","DisplayPosition":{"Latitude":50.8520465,"Longitude":12.9583044},"MapView":{"TopLeft":{"Latitude":50.85315,"Longitude":12.95825},"BottomRight":{"Latitude":50.85173,"Longitude":12.95832}},"Address":{"Label":"09131 Chemnitz, Deutschland","Country":"DEU","State":"Sachsen","County":"Chemnitz","City":"Chemnitz","District":"Hilbersdorf","PostalCode":"09131","AdditionalData":[{"value":"Deutschland","key":"CountryName"},{"value":"Sachsen","key":"StateName"},{"value":"Chemnitz","key":"CountyName"}]},"MapReference":{"ReferenceId":"1047687986","Spot":0.22,"SideOfStreet":"left","CountryId":"20147700","StateId":"20191185","CountyId":"20191426","CityId":"20191427"}}},{"Relevance":1.0,"Distance":39.8,"MatchLevel":"street","MatchQuality":{"Country":1.0,"State":1.0,"County":1.0,"City":1.0,"District":1.0,"PostalCode":1.0},"Location":{"LocationId":"NT_jIw8ebiDr2IgoI7ircy2pA_l_1047687985_L","LocationType":"point","DisplayPosition":{"Latitude":50.85173,"Longitude":12.95832},"MapView":{"TopLeft":{"Latitude":50.85173,"Longitude":12.95832},"BottomRight":{"Latitude":50.84969,"Longitude":12.95883}},"Address":{"Label":"09131 Chemnitz, Deutschland","Country":"DEU","State":"Sachsen","County":"Chemnitz","City":"Chemnitz","District":"Hilbersdorf","PostalCode":"09131","AdditionalData":[{"value":"Deutschland","key":"CountryName"},{"value":"Sachsen","key":"StateName"},{"value":"Chemnitz","key":"CountyName"}]},"MapReference":{"ReferenceId":"1047687985","Spot":1.0,"SideOfStreet":"left","CountryId":"20147700","StateId":"20191185","CountyId":"20191426","CityId":"20191427"}}},{"Relevance":1.0,"Distance":55.5,"MatchLevel":"houseNumber","MatchQuality":{"Country":1.0,"State":1.0,"County":1.0,"City":1.0,"District":1.0,"Street":[1.0],"HouseNumber":1.0,"PostalCode":1.0},"MatchType":"interpolated","Location":{"LocationId":"NT_RDM.TI9e2if2R82irEIHSC_yEDN","LocationType":"point","DisplayPosition":{"Latitude":50.85277,"Longitude":12.95761},"MapView":{"TopLeft":{"Latitude":50.8538942,"Longitude":12.9558293},"BottomRight":{"Latitude":50.8516458,"Longitude":12.9593907}},"Address":{"Label":"Dresdner Straße 214, 09131 Chemnitz, Deutschland","Country":"DEU","State":"Sachsen","County":"Chemnitz","City":"Chemnitz","District":"Hilbersdorf","Street":"Dresdner Straße","HouseNumber":"214","PostalCode":"09131","AdditionalData":[{"value":"Deutschland","key":"CountryName"},{"value":"Sachsen","key":"StateName"},{"value":"Chemnitz","key":"CountyName"}]},"MapReference":{"ReferenceId":"565396169","Spot":0.0,"SideOfStreet":"right","CountryId":"20147700","StateId":"20191185","CountyId":"20191426","CityId":"20191427","AddressId":"190373123","RoadLinkId":"39568593"}}},{"Relevance":1.0,"Distance":59.9,"MatchLevel":"landmark","MatchQuality":{"Country":1.0,"State":1.0,"Name":1.0},"Location":{"LocationId":"NT_rTIDDxIyNW7xQQFPhJFqhC","LocationType":"woodland","Name":"Zeisigwald","DisplayPosition":{"Latitude":50.84803,"Longitude":12.9728},"MapView":{"TopLeft":{"Latitude":50.86456,"Longitude":12.95808},"BottomRight":{"Latitude":50.83149,"Longitude":12.99119}},"Address":{"Label":"Deutschland","Country":"DEU","State":"Sachsen","AdditionalData":[{"value":"Deutschland","key":"CountryName"},{"value":"Sachsen","key":"StateName"}]},"MapReference":{"CountryId":"20147700","StateId":"20191185","PlaceId":"50670940"}}},{"Relevance":1.0,"Distance":59.9,"MatchLevel":"street","MatchQuality":{"Country":1.0,"State":1.0,"County":1.0,"City":1.0,"District":1.0,"Street":[1.0],"PostalCode":1.0},"Location":{"LocationId":"NT_epiB4UOWiu2roA2lJZeknB_l_53556350_L","LocationType":"point","DisplayPosition":{"Latitude":50.8523835,"Longitude":12.9586655},"MapView":{"TopLeft":{"Latitude":50.85315,"Longitude":12.95825},"BottomRight":{"Latitude":50.84972,"Longitude":12.96}},"Address":{"Label":"Steinweg, 09131 Chemnitz, Deutschland","Country":"DEU","State":"Sachsen","County":"Chemnitz","City":"Chemnitz","District":"Hilbersdorf","Street":"Steinweg","PostalCode":"09131","AdditionalData":[{"value":"Deutschland","key":"CountryName"},{"value":"Sachsen","key":"StateName"},{"value":"Chemnitz","key":"CountyName"}]},"MapReference":{"ReferenceId":"53556350","Spot":0.78,"SideOfStreet":"left","CountryId":"20147700","StateId":"20191185","CountyId":"20191426","CityId":"20191427"}}},{"Relevance":1.0,"Distance":92.9,"MatchLevel":"street","MatchQuality":{"Country":1.0,"State":1.0,"County":1.0,"City":1.0,"District":1.0,"PostalCode":1.0},"Location":{"LocationId":"NT_sGRt.IWr5iQpLpIBUKNAuA_l_1049358557_R","LocationType":"point","DisplayPosition":{"Latitude":50.85147,"Longitude":12.95704},"MapView":{"TopLeft":{"Latitude":50.85209,"Longitude":12.9552},"BottomRight":{"Latitude":50.85034,"Longitude":12.95704}},"Address":{"Label":"09131 Chemnitz, Deutschland","Country":"DEU","State":"Sachsen","County":"Chemnitz","City":"Chemnitz","District":"Hilbersdorf","PostalCode":"09131","AdditionalData":[{"value":"Deutschland","key":"CountryName"},{"value":"Sachsen","key":"StateName"},{"value":"Chemnitz","key":"CountyName"}]},"MapReference":{"ReferenceId":"1049358557","Spot":0.59,"SideOfStreet":"right","CountryId":"20147700","StateId":"20191185","CountyId":"20191426","CityId":"20191427"}}},{"Relevance":1.0,"Distance":115.9,"MatchLevel":"street","MatchQuality":{"Country":1.0,"State":1.0,"County":1.0,"City":1.0,"District":1.0,"Street":[1.0],"PostalCode":1.0},"Location":{"LocationId":"NT_IVASFI55vlrVA9pUMI9pQB_l_53549314_R","LocationType":"point","DisplayPosition":{"Latitude":50.85275,"Longitude":12.95682},"MapView":{"TopLeft":{"Latitude":50.85275,"Longitude":12.95583},"BottomRight":{"Latitude":50.85223,"Longitude":12.95682}},"Address":{"Label":"Dresdner Straße, 09131 Chemnitz, Deutschland","Country":"DEU","State":"Sachsen","County":"Chemnitz","City":"Chemnitz","District":"Hilbersdorf","Street":"Dresdner Straße","PostalCode":"09131","AdditionalData":[{"value":"Deutschland","key":"CountryName"},{"value":"Sachsen","key":"StateName"},{"value":"Chemnitz","key":"CountyName"}]},"MapReference":{"ReferenceId":"53549314","Spot":1.0,"SideOfStreet":"right","CountryId":"20147700","StateId":"20191185","CountyId":"20191426","CityId":"20191427"}}},{"Relevance":1.0,"Distance":116.0,"MatchLevel":"houseNumber","MatchQuality":{"Country":1.0,"State":1.0,"County":1.0,"City":1.0,"District":1.0,"Street":[1.0],"HouseNumber":1.0,"PostalCode":1.0},"MatchType":"interpolated","Location":{"LocationId":"NT_RDM.TI9e2if2R82irEIHSC_xQzN","LocationType":"point","DisplayPosition":{"Latitude":50.85277,"Longitude":12.95685},"MapView":{"TopLeft":{"Latitude":50.8538942,"Longitude":12.9550693},"BottomRight":{"Latitude":50.8516458,"Longitude":12.9586307}},"Address":{"Label":"Dresdner Straße 147, 09131 Chemnitz, Deutschland","Country":"DEU","State":"Sachsen","County":"Chemnitz","City":"Chemnitz","District":"Hilbersdorf","Street":"Dresdner Straße","HouseNumber":"147","PostalCode":"09131","AdditionalData":[{"value":"Deutschland","key":"CountryName"},{"value":"Sachsen","key":"StateName"},{"value":"Chemnitz","key":"CountyName"}]},"MapReference":{"ReferenceId":"1187607595","Spot":0.07,"SideOfStreet":"left","CountryId":"20147700","StateId":"20191185","CountyId":"20191426","CityId":"20191427","AddressId":"249721473","RoadLinkId":"496330273"}}}]}]}}