{"Response":{"MetaInfo":{"Timestamp":"2020-03-28T11:55:53.408+0000","NextPageInformation":"2"},"View":[{"_type":"SearchResultsViewType","ViewId":0,"Result":[{"Relevance":1.0,"Distance":-1599.3,"MatchLevel":"landmark","MatchQuality":{"Country":1.0,"State":1.0,"County":1.0,"City":1.0,"District":1.0,"Street":[1.0],"PostalCode":1.0,"Name":1.0},"Location":{"LocationId":"NT_tyhsWnou06E7hXB4X.WOQA_p_gH84Ty65rNlzZParrwzdKC","LocationType":"park","Name":"South Downs National Park","DisplayPosition":{"Latitude":50.88822,"Longitude":0.02546},"MapView":{"TopLeft":{"Latitude":51.19246,"Longitude":-1.33668},"BottomRight":{"Latitude":50.73435,"Longitude":0.27234}},"Address":{"Label":"A26, Lewes, BN8 5, United Kingdom","Country":"GBR","State":"England","County":"East Sussex","City":"Lewes","District":"Lewes","Street":"A26","PostalCode":"BN8 5","AdditionalData":[{"value":"United Kingdom","key":"CountryName"},{"value":"England","key":"StateName"},{"value":"East Sussex","key":"CountyName"}]},"MapReference":{"StateId":"20248595","CountyId":"20335121","CityId":"20335236","DistrictId":"20335237","PlaceId":"1110768615"}}},{"Relevance":1.0,"Distance":0.0,"Direction":0.0,"MatchLevel":"district","MatchQuality":{"Country":1.0,"State":1.0,"County":1.0,"City":1.0,"District":1.0,"PostalCode":1.0},"Location":{"LocationId":"NT_WEHNFcNqW1TB7gQcI-tejC","LocationType":"point","DisplayPosition":{"Latitude":50.8741428,"Longitude":0.0147032},"MapView":{"TopLeft":{"Latitude":50.8865,"Longitude":-0.01655},"BottomRight":{"Latitude":50.86049,"Longitude":0.02653}},"Address":{"Label":"Lewes, England, United Kingdom","Country":"GBR","State":"England","County":"East Sussex","City":"Lewes","District":"Lewes","PostalCode":"BN7 2","AdditionalData":[{"value":"United Kingdom","key":"CountryName"},{"value":"England","key":"StateName"},{"value":"East Sussex","key":"CountyName"}]},"MapReference":{"ReferenceId":"25604848","SideOfStreet":"neither","StateId":"20248595","CountyId":"20335121","CityId":"20335236","DistrictId":"20335237"}}},{"Relevance":1.0,"Distance":19.6,"MatchLevel":"houseNumber","MatchQuality":{"Country":1.0,"State":1.0,"County":1.0,"City":1.0,"District":1.0,"Street":[1.0],"HouseNumber":1.0,"PostalCode":1.0},"MatchType":"interpolated","Location":{"LocationId":"NT_yRWA7pCuVT7QVKEN7duJvC_l_25604708_R_xED","LocationType":"point","DisplayPosition":{"Latitude":50.87423,"Longitude":0.01439},"MapView":{"TopLeft":{"Latitude":50.8753542,"Longitude":0.0126085},"BottomRight":{"Latitude":50.8731059,"Longitude":0.0161715}},"Address":{"Label":"11 Eastgate Street, Lewes, BN7 2LP, United Kingdom","Country":"GBR","State":"England","County":"East Sussex","City":"Lewes","District":"Lewes","Street":"Eastgate Street","HouseNumber":"11","PostalCode":"BN7 2LP","AdditionalData":[{"value":"United Kingdom","key":"CountryName"},{"value":"England","key":"StateName"},{"value":"East Sussex","key":"CountyName"}]},"MapReference":{"ReferenceId":"25604708","Spot":0.25,"SideOfStreet":"right","StateId":"20248595","CountyId":"20335121","CityId":"20335236","DistrictId":"20335237"}}},{"Relevance":1.0,"Distance":25.0,"MatchLevel":"houseNumber","MatchQuality":{"Country":1.0,"State":1.0,"County":1.0,"City":1.0,"District":1.0,"Street":[1.0],"HouseNumber":1.0,"PostalCode":1.0},"MatchType":"interpolated","Location":{"LocationId":"NT_wcUiCxbbaoUg6MdLbAimFA_l_25604707_L_zA","LocationType":"point","DisplayPosition":{"Latitude":50.87409,"Longitude":0.015049},"MapView":{"TopLeft":{"Latitude":50.8752142,"Longitude":0.0132676},"BottomRight":{"Latitude":50.8729658,"Longitude":0.0168305}},"Address":{"Label":"3 Cliffe High Street, Lewes, BN7 2AD, United Kingdom","Country":"GBR","State":"England","County":"East Sussex","City":"Lewes","District":"Lewes","Street":"Cliffe High Street","HouseNumber":"3","PostalCode":"BN7 2AD","AdditionalData":[{"value":"United Kingdom","key":"CountryName"},{"value":"England","key":"StateName"},{"value":"East Sussex","key":"CountyName"}]},"MapReference":{"ReferenceId":"25604707","Spot":0.51,"SideOfStreet":"left","StateId":"20248595","CountyId":"20335121","CityId":"20335236","DistrictId":"20335237"}}},{"Relevance":1.0,"Distance":29.6,"MatchLevel":"postalCode","MatchQuality":{"PostalCode":1.0},"MatchType":"interpolated","Location":{"LocationId":"NT_yaaqVgS3wcKs-WYV6joaAC_l_720125157_L_yIDM","LocationType":"point","DisplayPosition":{"Latitude":50.87393,"Longitude":0.01445},"MapView":{"TopLeft":{"Latitude":50.8829232,"Longitude":1.983E-4},"BottomRight":{"Latitude":50.8649368,"Longitude":0.0287017}},"Address":{"Label":"BN7 2LH, Lewes, England, United Kingdom","Country":"GBR","State":"England","County":"East Sussex","City":"Lewes","PostalCode":"BN7 2LH","AdditionalData":[{"value":"United Kingdom","key":"CountryName"},{"value":"England","key":"StateName"},{"value":"East Sussex","key":"CountyName"}]},"MapReference":{"ReferenceId":"720125157","Spot":0.59,"SideOfStreet":"neither","StateId":"20248595","CountyId":"20335121","CityId":"20335236"}}},{"Relevance":1.0,"Distance":35.5,"MatchLevel":"houseNumber","MatchQuality":{"Country":1.0,"State":1.0,"County":1.0,"City":1.0,"District":1.0,"Street":[1.0],"HouseNumber":1.0,"PostalCode":1.0},"MatchType":"interpolated","Location":{"LocationId":"NT_V8d4bsnInGo9XIIoo8i.VC_l_25604817_L_0ID","LocationType":"point","DisplayPosition":{"Latitude":50.8738457,"Longitude":0.0145164},"MapView":{"TopLeft":{"Latitude":50.8749698,"Longitude":0.0127349},"BottomRight":{"Latitude":50.8727215,"Longitude":0.0162978}},"Address":{"Label":"42 Friars Walk, Lewes, BN7 2, United Kingdom","Country":"GBR","State":"England","County":"East Sussex","City":"Lewes","District":"Lewes","Street":"Friars Walk","HouseNumber":"42","PostalCode":"BN7 2","AdditionalData":[{"value":"United Kingdom","key":"CountryName"},{"value":"England","key":"StateName"},{"value":"East Sussex","key":"CountyName"}]},"MapReference":{"ReferenceId":"25604817","Spot":0.64,"SideOfStreet":"left","StateId":"20248595","CountyId":"20335121","CityId":"20335236","DistrictId":"20335237"}}},{"Relevance":1.0,"Distance":39.1,"MatchLevel":"houseNumber","MatchQuality":{"Country":1.0,"State":1.0,"County":1.0,"City":1.0,"District":1.0,"Street":[1.0],"HouseNumber":1.0,"PostalCode":1.0},"MatchType":"interpolated","Location":{"LocationId":"NT_yaaqVgS3wcKs-WYV6joaAC_l_720125157_L_yIDM","LocationType":"point","DisplayPosition":{"Latitude":50.8740552,"Longitude":0.0141638},"MapView":{"TopLeft":{"Latitude":50.8751794,"Longitude":0.0123824},"BottomRight":{"Latitude":50.8729311,"Longitude":0.0159453}},"Address":{"Label":"220 High Street, Lewes, BN7 2AF, United Kingdom","Country":"GBR","State":"England","County":"East Sussex","City":"Lewes","District":"Lewes","Street":"High Street","HouseNumber":"220","PostalCode":"BN7 2AF","AdditionalData":[{"value":"United Kingdom","key":"CountryName"},{"value":"England","key":"StateName"},{"value":"East Sussex","key":"CountyName"}]},"MapReference":{"ReferenceId":"720125157","Spot":0.59,"SideOfStreet":"left","StateId":"20248595","CountyId":"20335121","CityId":"20335236","DistrictId":"20335237"}}},{"Relevance":1.0,"Distance":41.7,"MatchLevel":"postalCode","MatchQuality":{"PostalCode":1.0},"MatchType":"interpolated","Location":{"LocationId":"NT_yRWA7pCuVT7QVKEN7duJvC_l_25604708_R_xED","LocationType":"point","DisplayPosition":{"Latitude":50.87444,"Longitude":0.01434},"MapView":{"TopLeft":{"Latitude":50.8834332,"Longitude":8.82E-5},"BottomRight":{"Latitude":50.8654468,"Longitude":0.0285918}},"Address":{"Label":"BN7 2LP, Lewes, England, United Kingdom","Country":"GBR","State":"England","County":"East Sussex","City":"Lewes","PostalCode":"BN7 2LP","AdditionalData":[{"value":"United Kingdom","key":"CountryName"},{"value":"England","key":"StateName"},{"value":"East Sussex","key":"CountyName"}]},"MapReference":{"ReferenceId":"25604708","Spot":0.25,"SideOfStreet":"neither","StateId":"20248595","CountyId":"20335121","CityId":"20335236"}}},{"Relevance":1.0,"Distance":52.4,"MatchLevel":"postalCode","MatchQuality":{"PostalCode":1.0},"MatchType":"interpolated","Location":{"LocationId":"NT_wcUiCxbbaoUg6MdLbAimFA_l_25604707_L_zA","LocationType":"point","DisplayPosition":{"Latitude":50.87414,"Longitude":0.01545},"MapView":{"TopLeft":{"Latitude":50.8831332,"Longitude":0.0011983},"BottomRight":{"Latitude":50.8651468,"Longitude":0.0297017}},"Address":{"Label":"BN7 2LD, Lewes, England, United Kingdom","Country":"GBR","State":"England","County":"East Sussex","City":"Lewes","PostalCode":"BN7 2LD","AdditionalData":[{"value":"United Kingdom","key":"CountryName"},{"value":"England","key":"StateName"},{"value":"East Sussex","key":"CountyName"}]},"MapReference":{"ReferenceId":"25604707","Spot":0.51,"SideOfStreet":"neither","StateId":"20248595","CountyId":"20335121","CityId":"20335236"}}},{"Relevance":1.0,"Distance":55.4,"MatchLevel":"street","MatchQuality":{"Country":1.0,"State":1.0,"County":1.0,"City":1.0,"District":1.0,"Street":[1.0],"PostalCode":1.0},"Location":{"LocationId":"NT_cFaMa9lQmqg1QrfsT7FV7A_l_25604634_R","LocationType":"point","DisplayPosition":{"Latitude":50.8746396,"Longitude":0.0146431},"MapView":{"TopLeft":{"Latitude":50.87469,"Longitude":0.01415},"BottomRight":{"Latitude":50.87458,"Longitude":0.01506}},"Address":{"Label":"Eastgate Wharf, Lewes, BN7 2, United Kingdom","Country":"GBR","State":"England","County":"East Sussex","City":"Lewes","District":"Lewes","Street":"Eastgate Wharf","PostalCode":"BN7 2","AdditionalData":[{"value":"United Kingdom","key":"CountryName"},{"value":"England","key":"StateName"},{"value":"East Sussex","key":"CountyName"}]},"MapReference":{"ReferenceId":"25604634","Spot":0.54,"SideOfStreet":"right","StateId":"20248595","CountyId":"20335121","CityId":"20335236","DistrictId":"20335237"}}}]}]}}