{"Response":{"MetaInfo":{"Timestamp":"2020-03-28T09:33:55.861+0000","NextPageInformation":"2"},"View":[{"_type":"SearchResultsViewType","ViewId":0,"Result":[{"Relevance":1.0,"Distance":0.0,"Direction":0.0,"MatchLevel":"city","MatchQuality":{"Country":1.0,"State":1.0,"County":1.0,"City":1.0,"PostalCode":1.0},"Location":{"LocationId":"NT_dkwsccDoCcmpVCiTkHcJRD","LocationType":"point","DisplayPosition":{"Latitude":50.8158147,"Longitude":4.2587041},"MapView":{"TopLeft":{"Latitude":50.82772,"Longitude":4.17347},"BottomRight":{"Latitude":50.74948,"Longitude":4.30988}},"Address":{"Label":"Sint-Pieters-Leeuw, Vlaanderen, België","Country":"BEL","State":"Vlaanderen","County":"Vlaams Brabant","City":"Sint-Pieters-Leeuw","PostalCode":"1600","AdditionalData":[{"value":"België","key":"CountryName"},{"value":"Vlaanderen","key":"StateName"},{"value":"Vlaams Brabant","key":"CountyName"}]},"MapReference":{"ReferenceId":"762955821","SideOfStreet":"neither","CountryId":"20128886","StateId":"20204377","CountyId":"20207856","CityId":"20207961"}}},{"Relevance":1.0,"Distance":71.2,"MatchLevel":"street","MatchQuality":{"Country":1.0,"State":1.0,"County":1.0,"City":1.0,"District":1.0,"PostalCode":1.0},"Location":{"LocationId":"NT_mKjm8A5f9si1jU6jLhyUAB_l_1268774523_R","LocationType":"point","DisplayPosition":{"Latitude":50.8153042,"Longitude":4.2580915},"MapView":{"TopLeft":{"Latitude":50.81551,"Longitude":4.2576},"BottomRight":{"Latitude":50.81527,"Longitude":4.25812}},"Address":{"Label":"1602 Sint-Pieters-Leeuw, België","Country":"BEL","State":"Vlaanderen","County":"Vlaams Brabant","City":"Sint-Pieters-Leeuw","District":"Vlezenbeek","PostalCode":"1602","AdditionalData":[{"value":"België","key":"CountryName"},{"value":"Vlaanderen","key":"StateName"},{"value":"Vlaams Brabant","key":"CountyName"}]},"MapReference":{"ReferenceId":"1268774523","Spot":0.07,"SideOfStreet":"right","CountryId":"20128886","StateId":"20204377","CountyId":"20207856","CityId":"20207961","DistrictId":"20207964"}}},{"Relevance":1.0,"Distance":82.4,"MatchLevel":"street","MatchQuality":{"Country":1.0,"State":1.0,"County":1.0,"City":1.0,"Street":[1.0],"PostalCode":1.0},"Location":{"LocationId":"NT_GzGTtnQNDcnXlPJveyeqGC_l_954934837_L","LocationType":"point","DisplayPosition":{"Latitude":50.81646,"Longitude":4.25928},"MapView":{"TopLeft":{"Latitude":50.81646,"Longitude":4.25928},"BottomRight":{"Latitude":50.81635,"Longitude":4.2596}},"Address":{"Label":"Lenniksebaan, 1070 Anderlecht, België","Country":"BEL","State":"Brussel","County":"Brussel","City":"Anderlecht","Street":"Lenniksebaan","PostalCode":"1070","AdditionalData":[{"value":"België","key":"CountryName"},{"value":"Brussel","key":"StateName"},{"value":"Brussel","key":"CountyName"}]},"MapReference":{"ReferenceId":"954934837","Spot":1.0,"SideOfStreet":"left","CountryId":"20128886","StateId":"20207797","CountyId":"20207798","CityId":"20207799"}}},{"Relevance":1.0,"Distance":83.2,"MatchLevel":"street","MatchQuality":{"Country":1.0,"State":1.0,"County":1.0,"City":1.0,"Street":[1.0],"PostalCode":1.0},"Location":{"LocationId":"NT_GzGTtnQNDcnXlPJveyeqGC_l_1207260735_L","LocationType":"point","DisplayPosition":{"Latitude":50.81652,"Longitude":4.2591},"MapView":{"TopLeft":{"Latitude":50.81652,"Longitude":4.2591},"BottomRight":{"Latitude":50.81646,"Longitude":4.25928}},"Address":{"Label":"Lenniksebaan, 1070 Anderlecht, België","Country":"BEL","State":"Brussel","County":"Brussel","City":"Anderlecht","Street":"Lenniksebaan","PostalCode":"1070","AdditionalData":[{"value":"België","key":"CountryName"},{"value":"Brussel","key":"StateName"},{"value":"Brussel","key":"CountyName"}]},"MapReference":{"ReferenceId":"1207260735","Spot":1.0,"SideOfStreet":"left","CountryId":"20128886","StateId":"20207797","CountyId":"20207798","CityId":"20207799"}}},{"Relevance":1.0,"Distance":85.6,"MatchLevel":"street","MatchQuality":{"Country":1.0,"State":1.0,"County":1.0,"City":1.0,"District":1.0,"Street":[1.0],"PostalCode":1.0},"Location":{"LocationId":"NT_uFdVntoZNgGGu8PWSlvq.C_l_954934835_L","LocationType":"point","DisplayPosition":{"Latitude":50.8165682,"Longitude":4.2589553},"MapView":{"TopLeft":{"Latitude":50.81657,"Longitude":4.25895},"BottomRight":{"Latitude":50.81652,"Longitude":4.2591}},"Address":{"Label":"Lenniksebaan, 1602 Sint-Pieters-Leeuw, België","Country":"BEL","State":"Vlaanderen","County":"Vlaams Brabant","City":"Sint-Pieters-Leeuw","District":"Vlezenbeek","Street":"Lenniksebaan","PostalCode":"1602","AdditionalData":[{"value":"België","key":"CountryName"},{"value":"Vlaanderen","key":"StateName"},{"value":"Vlaams Brabant","key":"CountyName"}]},"MapReference":{"ReferenceId":"954934835","Spot":0.96,"SideOfStreet":"left","CountryId":"20128886","StateId":"20204377","CountyId":"20207856","CityId":"20207961","DistrictId":"20207964"}}},{"Relevance":1.0,"Distance":86.5,"MatchLevel":"street","MatchQuality":{"Country":1.0,"State":1.0,"County":1.0,"City":1.0,"District":1.0,"PostalCode":1.0},"Location":{"LocationId":"NT_mKjm8A5f9si1jU6jLhyUAB_l_1269271346_L","LocationType":"point","DisplayPosition":{"Latitude":50.81547,"Longitude":4.2576},"MapView":{"TopLeft":{"Latitude":50.81547,"Longitude":4.25658},"BottomRight":{"Latitude":50.81358,"Longitude":4.25771}},"Address":{"Label":"1602 Sint-Pieters-Leeuw, België","Country":"BEL","State":"Vlaanderen","County":"Vlaams Brabant","City":"Sint-Pieters-Leeuw","District":"Vlezenbeek","PostalCode":"1602","AdditionalData":[{"value":"België","key":"CountryName"},{"value":"Vlaanderen","key":"StateName"},{"value":"Vlaams Brabant","key":"CountyName"}]},"MapReference":{"ReferenceId":"1269271346","Spot":1.0,"SideOfStreet":"left","CountryId":"20128886","StateId":"20204377","CountyId":"20207856","CityId":"20207961","DistrictId":"20207964"}}},{"Relevance":1.0,"Distance":86.5,"MatchLevel":"street","MatchQuality":{"Country":1.0,"State":1.0,"County":1.0,"City":1.0,"District":1.0,"PostalCode":1.0},"Location":{"LocationId":"NT_mKjm8A5f9si1jU6jLhyUAB_l_1268774529_R","LocationType":"point","DisplayPosition":{"Latitude":50.81547,"Longitude":4.2576},"MapView":{"TopLeft":{"Latitude":50.81568,"Longitude":4.25736},"BottomRight":{"Latitude":50.81547,"Longitude":4.2576}},"Address":{"Label":"1602 Sint-Pieters-Leeuw, België","Country":"BEL","State":"Vlaanderen","County":"Vlaams Brabant","City":"Sint-Pieters-Leeuw","District":"Vlezenbeek","PostalCode":"1602","AdditionalData":[{"value":"België","key":"CountryName"},{"value":"Vlaanderen","key":"StateName"},{"value":"Vlaams Brabant","key":"CountyName"}]},"MapReference":{"ReferenceId":"1268774529","Spot":0.0,"SideOfStreet":"right","CountryId":"20128886","StateId":"20204377","CountyId":"20207856","CityId":"20207961","DistrictId":"20207964"}}},{"Relevance":1.0,"Distance":86.6,"MatchLevel":"street","MatchQuality":{"Country":1.0,"State":1.0,"County":1.0,"City":1.0,"Street":[1.0],"PostalCode":1.0},"Location":{"LocationId":"NT_bfR1h2jbKfnkqztG88v9OA_l_954934834_L","LocationType":"point","DisplayPosition":{"Latitude":50.81635,"Longitude":4.2596},"MapView":{"TopLeft":{"Latitude":50.81635,"Longitude":4.2596},"BottomRight":{"Latitude":50.81618,"Longitude":4.26012}},"Address":{"Label":"Lenniksebaan, 1070 Anderlecht, België","Country":"BEL","State":"Brussel","County":"Brussel","City":"Anderlecht","Street":"Lenniksebaan","PostalCode":"1070","AdditionalData":[{"value":"België","key":"CountryName"},{"value":"Brussel","key":"StateName"},{"value":"Brussel","key":"CountyName"}]},"MapReference":{"ReferenceId":"954934834","Spot":1.0,"SideOfStreet":"left","CountryId":"20128886","StateId":"20207797","CountyId":"20207798","CityId":"20207799"}}},{"Relevance":1.0,"Distance":92.9,"MatchLevel":"houseNumber","MatchQuality":{"Country":1.0,"State":1.0,"County":1.0,"City":1.0,"Street":[1.0],"HouseNumber":1.0,"PostalCode":1.0},"MatchType":"interpolated","Location":{"LocationId":"NT_1Qs4d80cJxWaD6tXMSimUB_5UTM","LocationType":"point","DisplayPosition":{"Latitude":50.81665,"Longitude":4.25871},"MapView":{"TopLeft":{"Latitude":50.8177742,"Longitude":4.2569307},"BottomRight":{"Latitude":50.8155258,"Longitude":4.2604893}},"Address":{"Label":"Lenniksebaan 951, 1070 Anderlecht, België","Country":"BEL","State":"Brussel","County":"Brussel","City":"Anderlecht","Street":"Lenniksebaan","HouseNumber":"951","PostalCode":"1070","AdditionalData":[{"value":"België","key":"CountryName"},{"value":"Brussel","key":"StateName"},{"value":"Brussel","key":"CountyName"}]},"MapReference":{"ReferenceId":"954934836","Spot":0.65,"SideOfStreet":"right","CountryId":"20128886","StateId":"20207797","CountyId":"20207798","CityId":"20207799","AddressId":"381864318","RoadLinkId":"298161096"}}},{"Relevance":1.0,"Distance":93.6,"MatchLevel":"street","MatchQuality":{"Country":1.0,"State":1.0,"County":1.0,"City":1.0,"District":1.0,"PostalCode":1.0},"Location":{"LocationId":"NT_mKjm8A5f9si1jU6jLhyUAB_l_1268774076_R","LocationType":"point","DisplayPosition":{"Latitude":50.81557,"Longitude":4.25743},"MapView":{"TopLeft":{"Latitude":50.81566,"Longitude":4.25641},"BottomRight":{"Latitude":50.81533,"Longitude":4.25743}},"Address":{"Label":"1602 Sint-Pieters-Leeuw, België","Country":"BEL","State":"Vlaanderen","County":"Vlaams Brabant","City":"Sint-Pieters-Leeuw","District":"Vlezenbeek","PostalCode":"1602","AdditionalData":[{"value":"België","key":"CountryName"},{"value":"Vlaanderen","key":"StateName"},{"value":"Vlaams Brabant","key":"CountyName"}]},"MapReference":{"ReferenceId":"1268774076","Spot":0.91,"SideOfStreet":"right","CountryId":"20128886","StateId":"20204377","CountyId":"20207856","CityId":"20207961","DistrictId":"20207964"}}}]}]}}