{"Response":{"MetaInfo":{"Timestamp":"2020-03-28T10:22:17.910+0000","NextPageInformation":"2"},"View":[{"_type":"SearchResultsViewType","ViewId":0,"Result":[{"Relevance":1.0,"Distance":0.0,"Direction":0.0,"MatchLevel":"district","MatchQuality":{"Country":1.0,"State":1.0,"County":1.0,"City":1.0,"District":1.0,"PostalCode":1.0},"Location":{"LocationId":"NT_vHZITjM-32zG3KDZ6f.FAD","LocationType":"point","DisplayPosition":{"Latitude":50.8887087,"Longitude":6.9921019},"MapView":{"TopLeft":{"Latitude":50.8975,"Longitude":6.98302},"BottomRight":{"Latitude":50.87231,"Longitude":7.02242}},"Address":{"Label":"Rodenkirchen, Köln, Nordrhein-Westfalen, Deutschland","Country":"DEU","State":"Nordrhein-Westfalen","County":"Köln","City":"Köln","District":"Rodenkirchen","PostalCode":"50996","AdditionalData":[{"value":"Deutschland","key":"CountryName"},{"value":"Nordrhein-Westfalen","key":"StateName"},{"value":"Köln","key":"CountyName"}]},"MapReference":{"ReferenceId":"572299960","SideOfStreet":"neither","CountryId":"20147700","StateId":"20157369","CountyId":"20158021","CityId":"20158022","DistrictId":"20158041"}}},{"Relevance":1.0,"Distance":24.9,"MatchLevel":"street","MatchQuality":{"Country":1.0,"State":1.0,"County":1.0,"City":1.0,"District":1.0,"Street":[1.0],"PostalCode":1.0},"Location":{"LocationId":"NT_X6V2dNkUH2uiU7hhfrA-YC_l_716797302_R","LocationType":"point","DisplayPosition":{"Latitude":50.8888292,"Longitude":6.9918031},"MapView":{"TopLeft":{"Latitude":50.88902,"Longitude":6.99163},"BottomRight":{"Latitude":50.8884,"Longitude":6.99188}},"Address":{"Label":"Schillingsrotter Straße, 50996 Köln, Deutschland","Country":"DEU","State":"Nordrhein-Westfalen","County":"Köln","City":"Köln","District":"Rodenkirchen","Street":"Schillingsrotter Straße","PostalCode":"50996","AdditionalData":[{"value":"Deutschland","key":"CountryName"},{"value":"Nordrhein-Westfalen","key":"StateName"},{"value":"Köln","key":"CountyName"}]},"MapReference":{"ReferenceId":"716797302","Spot":0.69,"SideOfStreet":"right","CountryId":"20147700","StateId":"20157369","CountyId":"20158021","CityId":"20158022","DistrictId":"20158041"}}},{"Relevance":1.0,"Distance":38.0,"MatchLevel":"street","MatchQuality":{"Country":1.0,"State":1.0,"County":1.0,"City":1.0,"District":1.0,"PostalCode":1.0},"Location":{"LocationId":"NT_KPqOLna0nI4laywKWh2FYC_l_51070086_L","LocationType":"point","DisplayPosition":{"Latitude":50.88902,"Longitude":6.99188},"MapView":{"TopLeft":{"Latitude":50.88934,"Longitude":6.99137},"BottomRight":{"Latitude":50.88902,"Longitude":6.99188}},"Address":{"Label":"50996 Köln, Deutschland","Country":"DEU","State":"Nordrhein-Westfalen","County":"Köln","City":"Köln","District":"Rodenkirchen","PostalCode":"50996","AdditionalData":[{"value":"Deutschland","key":"CountryName"},{"value":"Nordrhein-Westfalen","key":"StateName"},{"value":"Köln","key":"CountyName"}]},"MapReference":{"ReferenceId":"51070086","Spot":0.0,"SideOfStreet":"left","CountryId":"20147700","StateId":"20157369","CountyId":"20158021","CityId":"20158022","DistrictId":"20158041"}}},{"Relevance":1.0,"Distance":39.1,"MatchLevel":"houseNumber","MatchQuality":{"Country":1.0,"State":1.0,"County":1.0,"City":1.0,"District":1.0,"Street":[1.0],"HouseNumber":1.0,"PostalCode":1.0},"MatchType":"interpolated","Location":{"LocationId":"NT_l6AamJYtA6XYwRMdvJg2LB_xYD","LocationType":"point","DisplayPosition":{"Latitude":50.88829,"Longitude":6.99288},"MapView":{"TopLeft":{"Latitude":50.8894142,"Longitude":6.991098},"BottomRight":{"Latitude":50.8871658,"Longitude":6.994662}},"Address":{"Label":"Mildred-Scheel-Straße 16, 50996 Köln, Deutschland","Country":"DEU","State":"Nordrhein-Westfalen","County":"Köln","City":"Köln","District":"Rodenkirchen","Street":"Mildred-Scheel-Straße","HouseNumber":"16","PostalCode":"50996","AdditionalData":[{"value":"Deutschland","key":"CountryName"},{"value":"Nordrhein-Westfalen","key":"StateName"},{"value":"Köln","key":"CountyName"}]},"MapReference":{"ReferenceId":"572299223","Spot":0.0,"SideOfStreet":"left","CountryId":"20147700","StateId":"20157369","CountyId":"20158021","CityId":"20158022","DistrictId":"20158041","AddressId":"169419318","RoadLinkId":"39159644"}}},{"Relevance":1.0,"Distance":40.2,"MatchLevel":"houseNumber","MatchQuality":{"Country":1.0,"State":1.0,"County":1.0,"City":1.0,"District":1.0,"Street":[1.0],"HouseNumber":1.0,"PostalCode":1.0},"MatchType":"interpolated","Location":{"LocationId":"NT_X6V2dNkUH2uiU7hhfrA-YC_zkD","LocationType":"point","DisplayPosition":{"Latitude":50.8891,"Longitude":6.99191},"MapView":{"TopLeft":{"Latitude":50.8902242,"Longitude":6.990128},"BottomRight":{"Latitude":50.8879758,"Longitude":6.993692}},"Address":{"Label":"Schillingsrotter Straße 39, 50996 Köln, Deutschland","Country":"DEU","State":"Nordrhein-Westfalen","County":"Köln","City":"Köln","District":"Rodenkirchen","Street":"Schillingsrotter Straße","HouseNumber":"39","PostalCode":"50996","AdditionalData":[{"value":"Deutschland","key":"CountryName"},{"value":"Nordrhein-Westfalen","key":"StateName"},{"value":"Köln","key":"CountyName"}]},"MapReference":{"ReferenceId":"893861248","Spot":0.11,"SideOfStreet":"right","CountryId":"20147700","StateId":"20157369","CountyId":"20158021","CityId":"20158022","DistrictId":"20158041","AddressId":"169367698","RoadLinkId":"256490252"}}},{"Relevance":1.0,"Distance":57.9,"MatchLevel":"houseNumber","MatchQuality":{"Country":1.0,"State":1.0,"County":1.0,"City":1.0,"District":1.0,"Street":[1.0],"HouseNumber":1.0,"PostalCode":1.0},"MatchType":"interpolated","Location":{"LocationId":"NT_X6V2dNkUH2uiU7hhfrA-YC_0MD","LocationType":"point","DisplayPosition":{"Latitude":50.8883,"Longitude":6.99159},"MapView":{"TopLeft":{"Latitude":50.8894242,"Longitude":6.989808},"BottomRight":{"Latitude":50.8871758,"Longitude":6.993372}},"Address":{"Label":"Schillingsrotter Straße 43, 50996 Köln, Deutschland","Country":"DEU","State":"Nordrhein-Westfalen","County":"Köln","City":"Köln","District":"Rodenkirchen","Street":"Schillingsrotter Straße","HouseNumber":"43","PostalCode":"50996","AdditionalData":[{"value":"Deutschland","key":"CountryName"},{"value":"Nordrhein-Westfalen","key":"StateName"},{"value":"Köln","key":"CountyName"}]},"MapReference":{"ReferenceId":"716797301","Spot":0.5,"SideOfStreet":"right","CountryId":"20147700","StateId":"20157369","CountyId":"20158021","CityId":"20158022","DistrictId":"20158041","AddressId":"169707965","RoadLinkId":"121784279"}}},{"Relevance":1.0,"Distance":61.2,"MatchLevel":"houseNumber","MatchQuality":{"Country":1.0,"State":1.0,"County":1.0,"City":1.0,"District":1.0,"Street":[1.0],"HouseNumber":1.0,"PostalCode":1.0},"MatchType":"interpolated","Location":{"LocationId":"NT_lav.0n7MM84L.eA3xKVqID_yAD","LocationType":"point","DisplayPosition":{"Latitude":50.88844,"Longitude":6.99134},"MapView":{"TopLeft":{"Latitude":50.8895642,"Longitude":6.989558},"BottomRight":{"Latitude":50.8873158,"Longitude":6.993122}},"Address":{"Label":"Etruskerstraße 20, 50996 Köln, Deutschland","Country":"DEU","State":"Nordrhein-Westfalen","County":"Köln","City":"Köln","District":"Rodenkirchen","Street":"Etruskerstraße","HouseNumber":"20","PostalCode":"50996","AdditionalData":[{"value":"Deutschland","key":"CountryName"},{"value":"Nordrhein-Westfalen","key":"StateName"},{"value":"Köln","key":"CountyName"}]},"MapReference":{"ReferenceId":"51070135","Spot":0.71,"SideOfStreet":"left","CountryId":"20147700","StateId":"20157369","CountyId":"20158021","CityId":"20158022","DistrictId":"20158041","AddressId":"209468980","RoadLinkId":"39480836"}}},{"Relevance":1.0,"Distance":64.7,"MatchLevel":"houseNumber","MatchQuality":{"Country":1.0,"State":1.0,"County":1.0,"City":1.0,"District":1.0,"Street":[1.0],"HouseNumber":1.0,"PostalCode":1.0},"MatchType":"interpolated","Location":{"LocationId":"NT_lav.0n7MM84L.eA3xKVqID_xQD","LocationType":"point","DisplayPosition":{"Latitude":50.88869,"Longitude":6.99118},"MapView":{"TopLeft":{"Latitude":50.8898142,"Longitude":6.989398},"BottomRight":{"Latitude":50.8875658,"Longitude":6.992962}},"Address":{"Label":"Etruskerstraße 14, 50996 Köln, Deutschland","Country":"DEU","State":"Nordrhein-Westfalen","County":"Köln","City":"Köln","District":"Rodenkirchen","Street":"Etruskerstraße","HouseNumber":"14","PostalCode":"50996","AdditionalData":[{"value":"Deutschland","key":"CountryName"},{"value":"Nordrhein-Westfalen","key":"StateName"},{"value":"Köln","key":"CountyName"}]},"MapReference":{"ReferenceId":"51070069","Spot":0.28,"SideOfStreet":"left","CountryId":"20147700","StateId":"20157369","CountyId":"20158021","CityId":"20158022","DistrictId":"20158041","AddressId":"168647795","RoadLinkId":"39046973"}}},{"Relevance":1.0,"Distance":68.5,"MatchLevel":"street","MatchQuality":{"Country":1.0,"State":1.0,"County":1.0,"City":1.0,"District":1.0,"Street":[1.0],"PostalCode":1.0},"Location":{"LocationId":"NT_X6V2dNkUH2uiU7hhfrA-YC_l_895405807_R","LocationType":"point","DisplayPosition":{"Latitude":50.8882,"Longitude":6.99155},"MapView":{"TopLeft":{"Latitude":50.8882,"Longitude":6.99152},"BottomRight":{"Latitude":50.88813,"Longitude":6.99155}},"Address":{"Label":"Schillingsrotter Straße, 50996 Köln, Deutschland","Country":"DEU","State":"Nordrhein-Westfalen","County":"Köln","City":"Köln","District":"Rodenkirchen","Street":"Schillingsrotter Straße","PostalCode":"50996","AdditionalData":[{"value":"Deutschland","key":"CountryName"},{"value":"Nordrhein-Westfalen","key":"StateName"},{"value":"Köln","key":"CountyName"}]},"MapReference":{"ReferenceId":"895405807","Spot":1.0,"SideOfStreet":"right","CountryId":"20147700","StateId":"20157369","CountyId":"20158021","CityId":"20158022","DistrictId":"20158041"}}},{"Relevance":1.0,"Distance":75.6,"MatchLevel":"houseNumber","MatchQuality":{"Country":1.0,"State":1.0,"County":1.0,"City":1.0,"District":1.0,"Street":[1.0],"HouseNumber":1.0,"PostalCode":1.0},"MatchType":"interpolated","Location":{"LocationId":"NT_lav.0n7MM84L.eA3xKVqID_yID","LocationType":"point","DisplayPosition":{"Latitude":50.88849,"Longitude":6.99107},"MapView":{"TopLeft":{"Latitude":50.8896142,"Longitude":6.989288},"BottomRight":{"Latitude":50.8873658,"Longitude":6.992852}},"Address":{"Label":"Etruskerstraße 22, 50996 Köln, Deutschland","Country":"DEU","State":"Nordrhein-Westfalen","County":"Köln","City":"Köln","District":"Rodenkirchen","Street":"Etruskerstraße","HouseNumber":"22","PostalCode":"50996","AdditionalData":[{"value":"Deutschland","key":"CountryName"},{"value":"Nordrhein-Westfalen","key":"StateName"},{"value":"Köln","key":"CountyName"}]},"MapReference":{"ReferenceId":"51070136","Spot":0.53,"SideOfStreet":"right","CountryId":"20147700","StateId":"20157369","CountyId":"20158021","CityId":"20158022","DistrictId":"20158041","AddressId":"168960357","RoadLinkId":"39359522"}}}]}]}}