{"Response":{"MetaInfo":{"Timestamp":"2020-03-28T10:40:15.480+0000","NextPageInformation":"2"},"View":[{"_type":"SearchResultsViewType","ViewId":0,"Result":[{"Relevance":1.0,"Distance":-77.0,"MatchLevel":"landmark","MatchQuality":{"Country":1.0,"State":1.0,"County":1.0,"City":1.0,"District":1.0,"Street":[1.0],"PostalCode":1.0,"Name":1.0},"Location":{"LocationId":"NT_FCSPm7oSZpTFlPj.hfy26B_p_7be0LA0yVGBB.vwiBy-bdA","LocationType":"universityCollege","Name":"University of Sussex","DisplayPosition":{"Latitude":50.86597,"Longitude":-0.08231},"MapView":{"TopLeft":{"Latitude":50.8717,"Longitude":-0.09141},"BottomRight":{"Latitude":50.86351,"Longitude":-0.07683}},"Address":{"Label":"Eastern Ring Road, Brighton, BN1 9, United Kingdom","Country":"GBR","State":"England","County":"East Sussex","City":"Brighton","District":"Falmer","Street":"Eastern Ring Road","PostalCode":"BN1 9","AdditionalData":[{"value":"United Kingdom","key":"CountryName"},{"value":"England","key":"StateName"},{"value":"East Sussex","key":"CountyName"}]},"MapReference":{"StateId":"20248595","CountyId":"20335121","CityId":"20335134","DistrictId":"20335138","PlaceId":"18040083"}}},{"Relevance":1.0,"Distance":0.0,"Direction":0.0,"MatchLevel":"district","MatchQuality":{"Country":1.0,"State":1.0,"County":1.0,"City":1.0,"District":1.0,"PostalCode":1.0},"Location":{"LocationId":"NT_Hxsjj3FBUbLsMdxeQ6FiXD","LocationType":"point","DisplayPosition":{"Latitude":50.8695901,"Longitude":-0.0886247},"MapView":{"TopLeft":{"Latitude":50.88037,"Longitude":-0.09086},"BottomRight":{"Latitude":50.8576,"Longitude":-0.0645}},"Address":{"Label":"Falmer, Brighton, England, United Kingdom","Country":"GBR","State":"England","County":"East Sussex","City":"Brighton","District":"Falmer","PostalCode":"BN1 9","AdditionalData":[{"value":"United Kingdom","key":"CountryName"},{"value":"England","key":"StateName"},{"value":"East Sussex","key":"CountyName"}]},"MapReference":{"ReferenceId":"1225225319","SideOfStreet":"neither","StateId":"20248595","CountyId":"20335121","CityId":"20335134","DistrictId":"20335138"}}},{"Relevance":1.0,"Distance":14.1,"MatchLevel":"street","MatchQuality":{"Country":1.0,"State":1.0,"County":1.0,"City":1.0,"District":1.0,"Street":[1.0],"PostalCode":1.0},"Location":{"LocationId":"NT_wDhak3rKGU0NcGml1FIxPC_l_565999636_L","LocationType":"point","DisplayPosition":{"Latitude":50.8696449,"Longitude":-0.0884439},"MapView":{"TopLeft":{"Latitude":50.87025,"Longitude":-0.08896},"BottomRight":{"Latitude":50.86917,"Longitude":-0.0883}},"Address":{"Label":"Refectory Road, Brighton, BN1 9, United Kingdom","Country":"GBR","State":"England","County":"East Sussex","City":"Brighton","District":"Falmer","Street":"Refectory Road","PostalCode":"BN1 9","AdditionalData":[{"value":"United Kingdom","key":"CountryName"},{"value":"England","key":"StateName"},{"value":"East Sussex","key":"CountyName"}]},"MapReference":{"ReferenceId":"565999636","Spot":0.37,"SideOfStreet":"left","StateId":"20248595","CountyId":"20335121","CityId":"20335134","DistrictId":"20335138"}}},{"Relevance":1.0,"Distance":17.1,"MatchLevel":"postalCode","MatchQuality":{"PostalCode":1.0},"Location":{"LocationId":"NT_wDhak3rKGU0NcGml1FIxPC_l_565999636_L","LocationType":"point","DisplayPosition":{"Latitude":50.86949,"Longitude":-0.08844},"MapView":{"TopLeft":{"Latitude":50.8784832,"Longitude":-0.1026903},"BottomRight":{"Latitude":50.8604968,"Longitude":-0.0741897}},"Address":{"Label":"BN1 9RW, Brighton, England, United Kingdom","Country":"GBR","State":"England","County":"East Sussex","City":"Brighton","PostalCode":"BN1 9RW","AdditionalData":[{"value":"United Kingdom","key":"CountryName"},{"value":"England","key":"StateName"},{"value":"East Sussex","key":"CountyName"}]},"MapReference":{"ReferenceId":"565999636","Spot":0.37,"SideOfStreet":"neither","StateId":"20248595","CountyId":"20335121","CityId":"20335134"}}},{"Relevance":1.0,"Distance":51.0,"MatchLevel":"street","MatchQuality":{"Country":1.0,"State":1.0,"County":1.0,"City":1.0,"District":1.0,"Street":[1.0],"PostalCode":1.0},"Location":{"LocationId":"NT_Gd1T7PKdZCFVCUyLUq3PEB_l_565999639_L","LocationType":"point","DisplayPosition":{"Latitude":50.8691336,"Longitude":-0.088561},"MapView":{"TopLeft":{"Latitude":50.86917,"Longitude":-0.08959},"BottomRight":{"Latitude":50.86899,"Longitude":-0.0883}},"Address":{"Label":"Lancaster House Road, Brighton, BN1 9, United Kingdom","Country":"GBR","State":"England","County":"East Sussex","City":"Brighton","District":"Falmer","Street":"Lancaster House Road","PostalCode":"BN1 9","AdditionalData":[{"value":"United Kingdom","key":"CountryName"},{"value":"England","key":"StateName"},{"value":"East Sussex","key":"CountyName"}]},"MapReference":{"ReferenceId":"565999639","Spot":0.8,"SideOfStreet":"left","StateId":"20248595","CountyId":"20335121","CityId":"20335134","DistrictId":"20335138"}}},{"Relevance":1.0,"Distance":52.0,"MatchLevel":"street","MatchQuality":{"Country":1.0,"State":1.0,"County":1.0,"City":1.0,"District":1.0,"Street":[1.0],"PostalCode":1.0},"Location":{"LocationId":"NT_wDhak3rKGU0NcGml1FIxPC_l_565999641_L","LocationType":"point","DisplayPosition":{"Latitude":50.86917,"Longitude":-0.0883},"MapView":{"TopLeft":{"Latitude":50.86917,"Longitude":-0.0883},"BottomRight":{"Latitude":50.86849,"Longitude":-0.08809}},"Address":{"Label":"Refectory Road, Brighton, BN1 9, United Kingdom","Country":"GBR","State":"England","County":"East Sussex","City":"Brighton","District":"Falmer","Street":"Refectory Road","PostalCode":"BN1 9","AdditionalData":[{"value":"United Kingdom","key":"CountryName"},{"value":"England","key":"StateName"},{"value":"East Sussex","key":"CountyName"}]},"MapReference":{"ReferenceId":"565999641","Spot":1.0,"SideOfStreet":"left","StateId":"20248595","CountyId":"20335121","CityId":"20335134","DistrictId":"20335138"}}},{"Relevance":1.0,"Distance":69.6,"MatchLevel":"postalCode","MatchQuality":{"PostalCode":1.0},"Location":{"LocationId":"NT_Gd1T7PKdZCFVCUyLUq3PEB_l_565999639_L","LocationType":"point","DisplayPosition":{"Latitude":50.86909,"Longitude":-0.08922},"MapView":{"TopLeft":{"Latitude":50.8780832,"Longitude":-0.1034702},"BottomRight":{"Latitude":50.8600968,"Longitude":-0.0749698}},"Address":{"Label":"BN1 9QP, Brighton, England, United Kingdom","Country":"GBR","State":"England","County":"East Sussex","City":"Brighton","PostalCode":"BN1 9QP","AdditionalData":[{"value":"United Kingdom","key":"CountryName"},{"value":"England","key":"StateName"},{"value":"East Sussex","key":"CountyName"}]},"MapReference":{"ReferenceId":"565999639","Spot":0.8,"SideOfStreet":"neither","StateId":"20248595","CountyId":"20335121","CityId":"20335134"}}},{"Relevance":1.0,"Distance":77.1,"MatchLevel":"landmark","MatchQuality":{"Country":1.0,"State":1.0,"County":1.0,"City":1.0,"District":1.0,"Street":[1.0],"PostalCode":1.0,"Name":1.0},"Location":{"LocationId":"NT_tosIobImdkUZitCTrYnkgC_p_1eSaSlhAf8iwSJiYJmnzBA","LocationType":"park","Name":"Stanmer Park","DisplayPosition":{"Latitude":50.86422,"Longitude":-0.09542},"MapView":{"TopLeft":{"Latitude":50.87799,"Longitude":-0.12008},"BottomRight":{"Latitude":50.86009,"Longitude":-0.08494}},"Address":{"Label":"Stanmer Park, Brighton, BN1 9, United Kingdom","Country":"GBR","State":"England","County":"East Sussex","City":"Brighton","District":"Stanmer","Street":"Stanmer Park","PostalCode":"BN1 9","AdditionalData":[{"value":"United Kingdom","key":"CountryName"},{"value":"England","key":"StateName"},{"value":"East Sussex","key":"CountyName"}]},"MapReference":{"StateId":"20248595","CountyId":"20335121","CityId":"20335134","DistrictId":"20335147","PlaceId":"1143960884"}}},{"Relevance":1.0,"Distance":77.1,"MatchLevel":"street","MatchQuality":{"Country":1.0,"State":1.0,"County":1.0,"City":1.0,"District":1.0,"Street":[1.0],"PostalCode":1.0},"Location":{"LocationId":"NT_eI5iJwnU.40NDotZnE3ARC_l_565999638_R","LocationType":"point","DisplayPosition":{"Latitude":50.87025,"Longitude":-0.08896},"MapView":{"TopLeft":{"Latitude":50.87025,"Longitude":-0.09007},"BottomRight":{"Latitude":50.86965,"Longitude":-0.08896}},"Address":{"Label":"Park Village Road, Brighton, BN1 9, United Kingdom","Country":"GBR","State":"England","County":"East Sussex","City":"Brighton","District":"Falmer","Street":"Park Village Road","PostalCode":"BN1 9","AdditionalData":[{"value":"United Kingdom","key":"CountryName"},{"value":"England","key":"StateName"},{"value":"East Sussex","key":"CountyName"}]},"MapReference":{"ReferenceId":"565999638","Spot":1.0,"SideOfStreet":"right","StateId":"20248595","CountyId":"20335121","CityId":"20335134","DistrictId":"20335138"}}},{"Relevance":1.0,"Distance":77.1,"MatchLevel":"street","MatchQuality":{"Country":1.0,"State":1.0,"County":1.0,"City":1.0,"District":1.0,"Street":[1.0],"PostalCode":1.0},"Location":{"LocationId":"NT_wDhak3rKGU0NcGml1FIxPC_l_1063161408_L","LocationType":"point","DisplayPosition":{"Latitude":50.87025,"Longitude":-0.08896},"MapView":{"TopLeft":{"Latitude":50.87038,"Longitude":-0.08928},"BottomRight":{"Latitude":50.87025,"Longitude":-0.08896}},"Address":{"Label":"Refectory Road, Brighton, BN1 9, United Kingdom","Country":"GBR","State":"England","County":"East Sussex","City":"Brighton","District":"Falmer","Street":"Refectory Road","PostalCode":"BN1 9","AdditionalData":[{"value":"United Kingdom","key":"CountryName"},{"value":"England","key":"StateName"},{"value":"East Sussex","key":"CountyName"}]},"MapReference":{"ReferenceId":"1063161408","Spot":0.0,"SideOfStreet":"left","StateId":"20248595","CountyId":"20335121","CityId":"20335134","DistrictId":"20335138"}}}]}]}}