{"Response":{"MetaInfo":{"Timestamp":"2020-03-28T10:02:18.121+0000","NextPageInformation":"2"},"View":[{"_type":"SearchResultsViewType","ViewId":0,"Result":[{"Relevance":1.0,"Distance":0.0,"Direction":0.0,"MatchLevel":"district","MatchQuality":{"Country":1.0,"State":1.0,"County":1.0,"City":1.0,"District":1.0,"PostalCode":1.0},"Location":{"LocationId":"NT_JsqzvMkh0sFRAAQ.JVK6nA","LocationType":"point","DisplayPosition":{"Latitude":50.8148613,"Longitude":7.1807721},"MapView":{"TopLeft":{"Latitude":50.82709,"Longitude":7.12631},"BottomRight":{"Latitude":50.79726,"Longitude":7.18634}},"Address":{"Label":"Troisdorf, Nordrhein-Westfalen, Deutschland","Country":"DEU","State":"Nordrhein-Westfalen","County":"Rhein-Sieg-Kreis","City":"Troisdorf","District":"Troisdorf","PostalCode":"53840","AdditionalData":[{"value":"Deutschland","key":"CountryName"},{"value":"Nordrhein-Westfalen","key":"StateName"},{"value":"Rhein-Sieg-Kreis","key":"CountyName"}]},"MapReference":{"ReferenceId":"1199565227","SideOfStreet":"neither","CountryId":"20147700","StateId":"20157369","CountyId":"20158889","CityId":"20159037","DistrictId":"20159043"}}},{"Relevance":1.0,"Distance":10.6,"MatchLevel":"houseNumber","MatchQuality":{"Country":1.0,"State":1.0,"County":1.0,"City":1.0,"District":1.0,"Street":[1.0],"HouseNumber":1.0,"PostalCode":1.0},"MatchType":"interpolated","Location":{"LocationId":"NT_Q5qY9QM0.g3.Hguzy4FdcC_xUD","LocationType":"point","DisplayPosition":{"Latitude":50.81497,"Longitude":7.18075},"MapView":{"TopLeft":{"Latitude":50.8160942,"Longitude":7.1789708},"BottomRight":{"Latitude":50.8138458,"Longitude":7.1825292}},"Address":{"Label":"Brunnenstraße 15, 53840 Troisdorf, Deutschland","Country":"DEU","State":"Nordrhein-Westfalen","County":"Rhein-Sieg-Kreis","City":"Troisdorf","District":"Troisdorf","Street":"Brunnenstraße","HouseNumber":"15","PostalCode":"53840","AdditionalData":[{"value":"Deutschland","key":"CountryName"},{"value":"Nordrhein-Westfalen","key":"StateName"},{"value":"Rhein-Sieg-Kreis","key":"CountyName"}]},"MapReference":{"ReferenceId":"51035765","Spot":0.03,"SideOfStreet":"left","CountryId":"20147700","StateId":"20157369","CountyId":"20158889","CityId":"20159037","DistrictId":"20159043","AddressId":"249445009","RoadLinkId":"39151236"}}},{"Relevance":1.0,"Distance":34.5,"MatchLevel":"houseNumber","MatchQuality":{"Country":1.0,"State":1.0,"County":1.0,"City":1.0,"District":1.0,"Street":[1.0],"HouseNumber":1.0,"PostalCode":1.0},"MatchType":"interpolated","Location":{"LocationId":"NT_twXaX7TPcdouqQZdFzf.kC_yAD","LocationType":"point","DisplayPosition":{"Latitude":50.81481,"Longitude":7.18128},"MapView":{"TopLeft":{"Latitude":50.8159342,"Longitude":7.1795008},"BottomRight":{"Latitude":50.8136858,"Longitude":7.1830592}},"Address":{"Label":"Am Wasserwerk 20, 53840 Troisdorf, Deutschland","Country":"DEU","State":"Nordrhein-Westfalen","County":"Rhein-Sieg-Kreis","City":"Troisdorf","District":"Troisdorf","Street":"Am Wasserwerk","HouseNumber":"20","PostalCode":"53840","AdditionalData":[{"value":"Deutschland","key":"CountryName"},{"value":"Nordrhein-Westfalen","key":"StateName"},{"value":"Rhein-Sieg-Kreis","key":"CountyName"}]},"MapReference":{"ReferenceId":"51035766","Spot":0.51,"SideOfStreet":"left","CountryId":"20147700","StateId":"20157369","CountyId":"20158889","CityId":"20159037","DistrictId":"20159043","AddressId":"194451926","RoadLinkId":"39450807"}}},{"Relevance":1.0,"Distance":37.0,"MatchLevel":"houseNumber","MatchQuality":{"Country":1.0,"State":1.0,"County":1.0,"City":1.0,"District":1.0,"Street":[1.0],"HouseNumber":1.0,"PostalCode":1.0},"MatchType":"interpolated","Location":{"LocationId":"NT_Egxkqu7xn.c6-PWrLKkbrB_zA","LocationType":"point","DisplayPosition":{"Latitude":50.81517,"Longitude":7.18097},"MapView":{"TopLeft":{"Latitude":50.8162942,"Longitude":7.1791908},"BottomRight":{"Latitude":50.8140458,"Longitude":7.1827492}},"Address":{"Label":"Zum Alten Tor 3, 53840 Troisdorf, Deutschland","Country":"DEU","State":"Nordrhein-Westfalen","County":"Rhein-Sieg-Kreis","City":"Troisdorf","District":"Troisdorf","Street":"Zum Alten Tor","HouseNumber":"3","PostalCode":"53840","AdditionalData":[{"value":"Deutschland","key":"CountryName"},{"value":"Nordrhein-Westfalen","key":"StateName"},{"value":"Rhein-Sieg-Kreis","key":"CountyName"}]},"MapReference":{"ReferenceId":"51035764","Spot":0.14,"SideOfStreet":"right","CountryId":"20147700","StateId":"20157369","CountyId":"20158889","CityId":"20159037","DistrictId":"20159043","AddressId":"192541269","RoadLinkId":"39518867"}}},{"Relevance":1.0,"Distance":44.3,"MatchLevel":"houseNumber","MatchQuality":{"Country":1.0,"State":1.0,"County":1.0,"City":1.0,"District":1.0,"Street":[1.0],"HouseNumber":1.0,"PostalCode":1.0},"MatchType":"interpolated","Location":{"LocationId":"NT_r9JHQPE-P6tc99ZfrKKFYA_xcD","LocationType":"point","DisplayPosition":{"Latitude":50.81446,"Longitude":7.18103},"MapView":{"TopLeft":{"Latitude":50.8155842,"Longitude":7.1792508},"BottomRight":{"Latitude":50.8133358,"Longitude":7.1828092}},"Address":{"Label":"Maienstraße 17, 53840 Troisdorf, Deutschland","Country":"DEU","State":"Nordrhein-Westfalen","County":"Rhein-Sieg-Kreis","City":"Troisdorf","District":"Troisdorf","Street":"Maienstraße","HouseNumber":"17","PostalCode":"53840","AdditionalData":[{"value":"Deutschland","key":"CountryName"},{"value":"Nordrhein-Westfalen","key":"StateName"},{"value":"Rhein-Sieg-Kreis","key":"CountyName"}]},"MapReference":{"ReferenceId":"51035917","Spot":0.43,"SideOfStreet":"right","CountryId":"20147700","StateId":"20157369","CountyId":"20158889","CityId":"20159037","DistrictId":"20159043","AddressId":"194583179","RoadLinkId":"39111074"}}},{"Relevance":1.0,"Distance":56.5,"MatchLevel":"houseNumber","MatchQuality":{"Country":1.0,"State":1.0,"County":1.0,"City":1.0,"District":1.0,"Street":[1.0],"HouseNumber":1.0,"PostalCode":1.0},"MatchType":"interpolated","Location":{"LocationId":"NT_r9JHQPE-P6tc99ZfrKKFYA_yAD","LocationType":"point","DisplayPosition":{"Latitude":50.81448,"Longitude":7.18024},"MapView":{"TopLeft":{"Latitude":50.8156042,"Longitude":7.1784608},"BottomRight":{"Latitude":50.8133558,"Longitude":7.1820192}},"Address":{"Label":"Maienstraße 20, 53840 Troisdorf, Deutschland","Country":"DEU","State":"Nordrhein-Westfalen","County":"Rhein-Sieg-Kreis","City":"Troisdorf","District":"Troisdorf","Street":"Maienstraße","HouseNumber":"20","PostalCode":"53840","AdditionalData":[{"value":"Deutschland","key":"CountryName"},{"value":"Nordrhein-Westfalen","key":"StateName"},{"value":"Rhein-Sieg-Kreis","key":"CountyName"}]},"MapReference":{"ReferenceId":"51035916","Spot":0.85,"SideOfStreet":"left","CountryId":"20147700","StateId":"20157369","CountyId":"20158889","CityId":"20159037","DistrictId":"20159043","AddressId":"195574735","RoadLinkId":"39489303"}}},{"Relevance":1.0,"Distance":73.9,"MatchLevel":"street","MatchQuality":{"Country":1.0,"State":1.0,"County":1.0,"City":1.0,"District":1.0,"Street":[1.0],"PostalCode":1.0},"Location":{"LocationId":"NT_twXaX7TPcdouqQZdFzf.kC_l_51035767_L","LocationType":"point","DisplayPosition":{"Latitude":50.81465,"Longitude":7.18177},"MapView":{"TopLeft":{"Latitude":50.81477,"Longitude":7.18177},"BottomRight":{"Latitude":50.81465,"Longitude":7.18204}},"Address":{"Label":"Am Wasserwerk, 53840 Troisdorf, Deutschland","Country":"DEU","State":"Nordrhein-Westfalen","County":"Rhein-Sieg-Kreis","City":"Troisdorf","District":"Troisdorf","Street":"Am Wasserwerk","PostalCode":"53840","AdditionalData":[{"value":"Deutschland","key":"CountryName"},{"value":"Nordrhein-Westfalen","key":"StateName"},{"value":"Rhein-Sieg-Kreis","key":"CountyName"}]},"MapReference":{"ReferenceId":"51035767","Spot":0.0,"SideOfStreet":"left","CountryId":"20147700","StateId":"20157369","CountyId":"20158889","CityId":"20159037","DistrictId":"20159043"}}},{"Relevance":1.0,"Distance":87.9,"MatchLevel":"houseNumber","MatchQuality":{"Country":1.0,"State":1.0,"County":1.0,"City":1.0,"District":1.0,"Street":[1.0],"HouseNumber":1.0,"PostalCode":1.0},"MatchType":"interpolated","Location":{"LocationId":"NT_twXaX7TPcdouqQZdFzf.kC_xYTR","LocationType":"point","DisplayPosition":{"Latitude":50.81454,"Longitude":7.18196},"MapView":{"TopLeft":{"Latitude":50.8156642,"Longitude":7.1801808},"BottomRight":{"Latitude":50.8134158,"Longitude":7.1837392}},"Address":{"Label":"Am Wasserwerk 16E, 53840 Troisdorf, Deutschland","Country":"DEU","State":"Nordrhein-Westfalen","County":"Rhein-Sieg-Kreis","City":"Troisdorf","District":"Troisdorf","Street":"Am Wasserwerk","HouseNumber":"16E","PostalCode":"53840","AdditionalData":[{"value":"Deutschland","key":"CountryName"},{"value":"Nordrhein-Westfalen","key":"StateName"},{"value":"Rhein-Sieg-Kreis","key":"CountyName"}]},"MapReference":{"ReferenceId":"1105327075","Spot":0.63,"SideOfStreet":"left","CountryId":"20147700","StateId":"20157369","CountyId":"20158889","CityId":"20159037","DistrictId":"20159043","AddressId":"199494720","RoadLinkId":"417208651"}}},{"Relevance":1.0,"Distance":90.3,"MatchLevel":"houseNumber","MatchQuality":{"Country":1.0,"State":1.0,"County":1.0,"City":1.0,"District":1.0,"Street":[1.0],"HouseNumber":1.0,"PostalCode":1.0},"MatchType":"interpolated","Location":{"LocationId":"NT_XTqcQ4KwzI-uxI0Qm.BcOA_yMD","LocationType":"point","DisplayPosition":{"Latitude":50.81392,"Longitude":7.1807},"MapView":{"TopLeft":{"Latitude":50.8150442,"Longitude":7.1789208},"BottomRight":{"Latitude":50.8127958,"Longitude":7.1824792}},"Address":{"Label":"Ulrather Blick 23, 53840 Troisdorf, Deutschland","Country":"DEU","State":"Nordrhein-Westfalen","County":"Rhein-Sieg-Kreis","City":"Troisdorf","District":"Troisdorf","Street":"Ulrather Blick","HouseNumber":"23","PostalCode":"53840","AdditionalData":[{"value":"Deutschland","key":"CountryName"},{"value":"Nordrhein-Westfalen","key":"StateName"},{"value":"Rhein-Sieg-Kreis","key":"CountyName"}]},"MapReference":{"ReferenceId":"51035930","Spot":1.0,"SideOfStreet":"right","CountryId":"20147700","StateId":"20157369","CountyId":"20158889","CityId":"20159037","DistrictId":"20159043","AddressId":"249431268","RoadLinkId":"39152574"}}},{"Relevance":1.0,"Distance":104.1,"MatchLevel":"houseNumber","MatchQuality":{"Country":1.0,"State":1.0,"County":1.0,"City":1.0,"District":1.0,"Street":[1.0],"HouseNumber":1.0,"PostalCode":1.0},"MatchType":"interpolated","Location":{"LocationId":"NT_Q5qY9QM0.g3.Hguzy4FdcC_2A","LocationType":"point","DisplayPosition":{"Latitude":50.81574,"Longitude":7.1795},"MapView":{"TopLeft":{"Latitude":50.8168642,"Longitude":7.1777208},"BottomRight":{"Latitude":50.8146158,"Longitude":7.1812792}},"Address":{"Label":"Brunnenstraße 6, 53840 Troisdorf, Deutschland","Country":"DEU","State":"Nordrhein-Westfalen","County":"Rhein-Sieg-Kreis","City":"Troisdorf","District":"Troisdorf","Street":"Brunnenstraße","HouseNumber":"6","PostalCode":"53840","AdditionalData":[{"value":"Deutschland","key":"CountryName"},{"value":"Nordrhein-Westfalen","key":"StateName"},{"value":"Rhein-Sieg-Kreis","key":"CountyName"}]},"MapReference":{"ReferenceId":"51035771","Spot":0.64,"SideOfStreet":"right","CountryId":"20147700","StateId":"20157369","CountyId":"20158889","CityId":"20159037","DistrictId":"20159043","AddressId":"743404786","RoadLinkId":"39002464"}}}]}]}}