{"Response":{"MetaInfo":{"Timestamp":"2020-03-28T10:37:48.906+0000","NextPageInformation":"2"},"View":[{"_type":"SearchResultsViewType","ViewId":0,"Result":[{"Relevance":1.0,"Distance":0.0,"Direction":0.0,"MatchLevel":"district","MatchQuality":{"Country":1.0,"State":1.0,"County":1.0,"City":1.0,"District":1.0,"PostalCode":1.0},"Location":{"LocationId":"NT_YZODtD5ZEeF1sJ7vaisPMB","LocationType":"point","DisplayPosition":{"Latitude":50.8950631,"Longitude":-1.0168332},"MapView":{"TopLeft":{"Latitude":50.90318,"Longitude":-1.01926},"BottomRight":{"Latitude":50.88814,"Longitude":-1.00154}},"Address":{"Label":"Cowplain, Waterlooville, England, United Kingdom","Country":"GBR","State":"England","County":"Hampshire","City":"Waterlooville","District":"Cowplain","PostalCode":"PO8 8","AdditionalData":[{"value":"United Kingdom","key":"CountryName"},{"value":"England","key":"StateName"},{"value":"Hampshire","key":"CountyName"}]},"MapReference":{"ReferenceId":"1225578576","SideOfStreet":"neither","StateId":"20248595","CountyId":"20335863","CityId":"20336363","DistrictId":"20336369"}}},{"Relevance":1.0,"Distance":20.0,"MatchLevel":"houseNumber","MatchQuality":{"Country":1.0,"State":1.0,"County":1.0,"City":1.0,"District":1.0,"Street":[1.0],"HouseNumber":1.0,"PostalCode":1.0},"MatchType":"interpolated","Location":{"LocationId":"NT_673uYsJX77mTyXrO5EForD_l_989659792_R_2A","LocationType":"point","DisplayPosition":{"Latitude":50.89519,"Longitude":-1.0165698},"MapView":{"TopLeft":{"Latitude":50.8963142,"Longitude":-1.0183521},"BottomRight":{"Latitude":50.8940659,"Longitude":-1.0147876}},"Address":{"Label":"6 Padnell Road, Waterlooville, PO8 8DZ, United Kingdom","Country":"GBR","State":"England","County":"Hampshire","City":"Waterlooville","District":"Cowplain","Street":"Padnell Road","HouseNumber":"6","PostalCode":"PO8 8DZ","AdditionalData":[{"value":"United Kingdom","key":"CountryName"},{"value":"England","key":"StateName"},{"value":"Hampshire","key":"CountyName"}]},"MapReference":{"ReferenceId":"989659792","Spot":0.09,"SideOfStreet":"right","StateId":"20248595","CountyId":"20335863","CityId":"20336363","DistrictId":"20336369"}}},{"Relevance":1.0,"Distance":20.3,"MatchLevel":"houseNumber","MatchQuality":{"Country":1.0,"State":1.0,"County":1.0,"City":1.0,"District":1.0,"Street":[1.0],"HouseNumber":1.0,"PostalCode":1.0},"MatchType":"interpolated","Location":{"LocationId":"NT_673uYsJX77mTyXrO5EForD_l_25730431_R_yA","LocationType":"point","DisplayPosition":{"Latitude":50.895142,"Longitude":-1.0171177},"MapView":{"TopLeft":{"Latitude":50.8962662,"Longitude":-1.0189},"BottomRight":{"Latitude":50.8940179,"Longitude":-1.0153354}},"Address":{"Label":"2 Padnell Road, Waterlooville, PO8 8, United Kingdom","Country":"GBR","State":"England","County":"Hampshire","City":"Waterlooville","District":"Cowplain","Street":"Padnell Road","HouseNumber":"2","PostalCode":"PO8 8","AdditionalData":[{"value":"United Kingdom","key":"CountryName"},{"value":"England","key":"StateName"},{"value":"Hampshire","key":"CountyName"}]},"MapReference":{"ReferenceId":"25730431","Spot":0.52,"SideOfStreet":"right","StateId":"20248595","CountyId":"20335863","CityId":"20336363","DistrictId":"20336369"}}},{"Relevance":1.0,"Distance":34.2,"MatchLevel":"houseNumber","MatchQuality":{"Country":1.0,"State":1.0,"County":1.0,"City":1.0,"District":1.0,"Street":[1.0],"HouseNumber":1.0,"PostalCode":1.0},"MatchType":"interpolated","Location":{"LocationId":"NT_H1CIk4Pc3tliTUkzklmPSD_l_989659797_L_xA","LocationType":"point","DisplayPosition":{"Latitude":50.8947605,"Longitude":-1.0167498},"MapView":{"TopLeft":{"Latitude":50.8958847,"Longitude":-1.018532},"BottomRight":{"Latitude":50.8936364,"Longitude":-1.0149675}},"Address":{"Label":"1 Padnell Avenue, Waterlooville, PO8 8DP, United Kingdom","Country":"GBR","State":"England","County":"Hampshire","City":"Waterlooville","District":"Cowplain","Street":"Padnell Avenue","HouseNumber":"1","PostalCode":"PO8 8DP","AdditionalData":[{"value":"United Kingdom","key":"CountryName"},{"value":"England","key":"StateName"},{"value":"Hampshire","key":"CountyName"}]},"MapReference":{"ReferenceId":"989659797","Spot":0.57,"SideOfStreet":"left","StateId":"20248595","CountyId":"20335863","CityId":"20336363","DistrictId":"20336369"}}},{"Relevance":1.0,"Distance":46.7,"MatchLevel":"postalCode","MatchQuality":{"PostalCode":1.0},"Location":{"LocationId":"NT_5Uv6KhiZ1Mw1XGD6LvysDA_l_25730424_R","LocationType":"point","DisplayPosition":{"Latitude":50.89525,"Longitude":-1.01743},"MapView":{"TopLeft":{"Latitude":50.9042432,"Longitude":-1.0316882},"BottomRight":{"Latitude":50.8862568,"Longitude":-1.0031718}},"Address":{"Label":"PO8 8EJ, Waterlooville, England, United Kingdom","Country":"GBR","State":"England","County":"Hampshire","City":"Waterlooville","PostalCode":"PO8 8EJ","AdditionalData":[{"value":"United Kingdom","key":"CountryName"},{"value":"England","key":"StateName"},{"value":"Hampshire","key":"CountyName"}]},"MapReference":{"ReferenceId":"25730424","Spot":0.49,"SideOfStreet":"neither","StateId":"20248595","CountyId":"20335863","CityId":"20336363"}}},{"Relevance":1.0,"Distance":46.9,"MatchLevel":"street","MatchQuality":{"Country":1.0,"State":1.0,"County":1.0,"City":1.0,"District":1.0,"Street":[1.0],"PostalCode":1.0},"Location":{"LocationId":"NT_jySRQ.FMwdAiIwuhpcWaOD_l_25730500_R","LocationType":"point","DisplayPosition":{"Latitude":50.89517,"Longitude":-1.01748},"MapView":{"TopLeft":{"Latitude":50.89517,"Longitude":-1.01783},"BottomRight":{"Latitude":50.89481,"Longitude":-1.01748}},"Address":{"Label":"London Road, Waterlooville, PO8 8, United Kingdom","Country":"GBR","State":"England","County":"Hampshire","City":"Waterlooville","District":"Cowplain","Street":"London Road","PostalCode":"PO8 8","AdditionalData":[{"value":"United Kingdom","key":"CountryName"},{"value":"England","key":"StateName"},{"value":"Hampshire","key":"CountyName"}]},"MapReference":{"ReferenceId":"25730500","Spot":1.0,"SideOfStreet":"right","StateId":"20248595","CountyId":"20335863","CityId":"20336363","DistrictId":"20336369"}}},{"Relevance":1.0,"Distance":46.9,"MatchLevel":"street","MatchQuality":{"Country":1.0,"State":1.0,"County":1.0,"City":1.0,"District":1.0,"Street":[1.0],"PostalCode":1.0},"Location":{"LocationId":"NT_673uYsJX77mTyXrO5EForD_l_25730425_L","LocationType":"point","DisplayPosition":{"Latitude":50.89517,"Longitude":-1.01748},"MapView":{"TopLeft":{"Latitude":50.89519,"Longitude":-1.01761},"BottomRight":{"Latitude":50.89517,"Longitude":-1.01748}},"Address":{"Label":"Padnell Road, Waterlooville, PO8 8, United Kingdom","Country":"GBR","State":"England","County":"Hampshire","City":"Waterlooville","District":"Cowplain","Street":"Padnell Road","PostalCode":"PO8 8","AdditionalData":[{"value":"United Kingdom","key":"CountryName"},{"value":"England","key":"StateName"},{"value":"Hampshire","key":"CountyName"}]},"MapReference":{"ReferenceId":"25730425","Spot":0.0,"SideOfStreet":"left","StateId":"20248595","CountyId":"20335863","CityId":"20336363","DistrictId":"20336369"}}},{"Relevance":1.0,"Distance":49.0,"MatchLevel":"street","MatchQuality":{"Country":1.0,"State":1.0,"County":1.0,"City":1.0,"District":1.0,"Street":[1.0],"PostalCode":1.0},"Location":{"LocationId":"NT_5Uv6KhiZ1Mw1XGD6LvysDA_l_25730424_R","LocationType":"point","DisplayPosition":{"Latitude":50.8953252,"Longitude":-1.0173949},"MapView":{"TopLeft":{"Latitude":50.8955,"Longitude":-1.01748},"BottomRight":{"Latitude":50.89517,"Longitude":-1.01736}},"Address":{"Label":"London Road, Waterlooville, PO8 8, United Kingdom","Country":"GBR","State":"England","County":"Hampshire","City":"Waterlooville","District":"Cowplain","Street":"London Road","PostalCode":"PO8 8","AdditionalData":[{"value":"United Kingdom","key":"CountryName"},{"value":"England","key":"StateName"},{"value":"Hampshire","key":"CountyName"}]},"MapReference":{"ReferenceId":"25730424","Spot":0.49,"SideOfStreet":"right","StateId":"20248595","CountyId":"20335863","CityId":"20336363","DistrictId":"20336369"}}},{"Relevance":1.0,"Distance":51.8,"MatchLevel":"postalCode","MatchQuality":{"PostalCode":1.0},"Location":{"LocationId":"NT_jySRQ.FMwdAiIwuhpcWaOD_l_25730500_R","LocationType":"point","DisplayPosition":{"Latitude":50.89498,"Longitude":-1.01756},"MapView":{"TopLeft":{"Latitude":50.9039732,"Longitude":-1.0318181},"BottomRight":{"Latitude":50.8859868,"Longitude":-1.0033019}},"Address":{"Label":"PO8 8DB, Waterlooville, England, United Kingdom","Country":"GBR","State":"England","County":"Hampshire","City":"Waterlooville","PostalCode":"PO8 8DB","AdditionalData":[{"value":"United Kingdom","key":"CountryName"},{"value":"England","key":"StateName"},{"value":"Hampshire","key":"CountyName"}]},"MapReference":{"ReferenceId":"25730500","Spot":1.0,"SideOfStreet":"neither","StateId":"20248595","CountyId":"20335863","CityId":"20336363"}}},{"Relevance":1.0,"Distance":55.4,"MatchLevel":"houseNumber","MatchQuality":{"Country":1.0,"State":1.0,"County":1.0,"City":1.0,"District":1.0,"Street":[1.0],"HouseNumber":1.0,"PostalCode":1.0},"MatchType":"interpolated","Location":{"LocationId":"NT_5Uv6KhiZ1Mw1XGD6LvysDA_l_25730419_L_4UD","LocationType":"point","DisplayPosition":{"Latitude":50.89531,"Longitude":-1.01752},"MapView":{"TopLeft":{"Latitude":50.8964342,"Longitude":-1.0193023},"BottomRight":{"Latitude":50.8941859,"Longitude":-1.0157377}},"Address":{"Label":"85 London Road, Waterlooville, PO8 8XB, United Kingdom","Country":"GBR","State":"England","County":"Hampshire","City":"Waterlooville","District":"Cowplain","Street":"London Road","HouseNumber":"85","PostalCode":"PO8 8XB","AdditionalData":[{"value":"United Kingdom","key":"CountryName"},{"value":"England","key":"StateName"},{"value":"Hampshire","key":"CountyName"}]},"MapReference":{"ReferenceId":"25730419","Spot":0.38,"SideOfStreet":"left","StateId":"20248595","CountyId":"20335863","CityId":"20336363","DistrictId":"20336369"}}}]}]}}