{"Response":{"MetaInfo":{"Timestamp":"2020-03-28T09:36:56.606+0000","NextPageInformation":"2"},"View":[{"_type":"SearchResultsViewType","ViewId":0,"Result":[{"Relevance":1.0,"Distance":0.0,"Direction":0.0,"MatchLevel":"district","MatchQuality":{"Country":1.0,"State":1.0,"County":1.0,"City":1.0,"District":1.0,"PostalCode":1.0},"Location":{"LocationId":"NT_6rQeWnFMHjZS-Rz5j7C2mD","LocationType":"point","DisplayPosition":{"Latitude":50.8943902,"Longitude":12.0816484},"MapView":{"TopLeft":{"Latitude":50.927,"Longitude":12.04044},"BottomRight":{"Latitude":50.82512,"Longitude":12.12423}},"Address":{"Label":"Gera, Thüringen, Deutschland","Country":"DEU","State":"Thüringen","County":"Gera","City":"Gera","District":"Gera","PostalCode":"07545","AdditionalData":[{"value":"Deutschland","key":"CountryName"},{"value":"Thüringen","key":"StateName"},{"value":"Gera","key":"CountyName"}]},"MapReference":{"ReferenceId":"53446936","SideOfStreet":"neither","CountryId":"20147700","StateId":"20196974","CountyId":"20197000","CityId":"20197001","DistrictId":"20197003"}}},{"Relevance":1.0,"Distance":23.4,"MatchLevel":"houseNumber","MatchQuality":{"Country":1.0,"State":1.0,"County":1.0,"City":1.0,"District":1.0,"Street":[1.0],"HouseNumber":1.0,"PostalCode":1.0},"MatchType":"interpolated","Location":{"LocationId":"NT_lVKTDno88-31dv7DUJsqdC_2A","LocationType":"point","DisplayPosition":{"Latitude":50.89418,"Longitude":12.08167},"MapView":{"TopLeft":{"Latitude":50.8953042,"Longitude":12.0798878},"BottomRight":{"Latitude":50.8930558,"Longitude":12.0834522}},"Address":{"Label":"Straße des Bergmanns 6, 07545 Gera, Deutschland","Country":"DEU","State":"Thüringen","County":"Gera","City":"Gera","District":"Gera","Street":"Straße des Bergmanns","HouseNumber":"6","PostalCode":"07545","AdditionalData":[{"value":"Deutschland","key":"CountryName"},{"value":"Thüringen","key":"StateName"},{"value":"Gera","key":"CountyName"}]},"MapReference":{"ReferenceId":"1199849617","Spot":0.87,"SideOfStreet":"left","CountryId":"20147700","StateId":"20196974","CountyId":"20197000","CityId":"20197001","DistrictId":"20197003","AddressId":"189661326","RoadLinkId":"511961742"}}},{"Relevance":1.0,"Distance":39.0,"MatchLevel":"houseNumber","MatchQuality":{"Country":1.0,"State":1.0,"County":1.0,"City":1.0,"District":1.0,"Street":[1.0],"HouseNumber":1.0,"PostalCode":1.0},"MatchType":"interpolated","Location":{"LocationId":"NT_lVKTDno88-31dv7DUJsqdC_l_1199849650_L_zA","LocationType":"point","DisplayPosition":{"Latitude":50.8941705,"Longitude":12.0811153},"MapView":{"TopLeft":{"Latitude":50.8952947,"Longitude":12.079333},"BottomRight":{"Latitude":50.8930464,"Longitude":12.0828975}},"Address":{"Label":"Straße des Bergmanns 3, 07545 Gera, Deutschland","Country":"DEU","State":"Thüringen","County":"Gera","City":"Gera","District":"Gera","Street":"Straße des Bergmanns","HouseNumber":"3","PostalCode":"07545","AdditionalData":[{"value":"Deutschland","key":"CountryName"},{"value":"Thüringen","key":"StateName"},{"value":"Gera","key":"CountyName"}]},"MapReference":{"ReferenceId":"1199849650","Spot":0.51,"SideOfStreet":"left","CountryId":"20147700","StateId":"20196974","CountyId":"20197000","CityId":"20197001","DistrictId":"20197003"}}},{"Relevance":1.0,"Distance":62.1,"MatchLevel":"houseNumber","MatchQuality":{"Country":1.0,"State":1.0,"County":1.0,"City":1.0,"District":1.0,"Street":[1.0],"HouseNumber":1.0,"PostalCode":1.0},"MatchType":"interpolated","Location":{"LocationId":"NT_c1iejMCvrBTwLFyLi1PWBD_xA","LocationType":"point","DisplayPosition":{"Latitude":50.89445,"Longitude":12.08287},"MapView":{"TopLeft":{"Latitude":50.8955742,"Longitude":12.0810878},"BottomRight":{"Latitude":50.8933258,"Longitude":12.0846522}},"Address":{"Label":"Johannes-R.-Becher-Straße 1, 07546 Gera, Deutschland","Country":"DEU","State":"Thüringen","County":"Gera","City":"Gera","District":"Gera","Street":"Johannes-R.-Becher-Straße","HouseNumber":"1","PostalCode":"07546","AdditionalData":[{"value":"Deutschland","key":"CountryName"},{"value":"Thüringen","key":"StateName"},{"value":"Gera","key":"CountyName"}]},"MapReference":{"ReferenceId":"53446101","Spot":0.97,"SideOfStreet":"left","CountryId":"20147700","StateId":"20196974","CountyId":"20197000","CityId":"20197001","DistrictId":"20197003","AddressId":"189369898","RoadLinkId":"40104052"}}},{"Relevance":1.0,"Distance":69.9,"MatchLevel":"street","MatchQuality":{"Country":1.0,"State":1.0,"County":1.0,"City":1.0,"District":1.0,"Street":[1.0],"PostalCode":1.0},"Location":{"LocationId":"NT_i3liU9GgNCfr9Ata91pNgC_l_53446071_L","LocationType":"point","DisplayPosition":{"Latitude":50.895,"Longitude":12.08189},"MapView":{"TopLeft":{"Latitude":50.895,"Longitude":12.08189},"BottomRight":{"Latitude":50.89465,"Longitude":12.08304}},"Address":{"Label":"Bert-Brecht-Straße, 07546 Gera, Deutschland","Country":"DEU","State":"Thüringen","County":"Gera","City":"Gera","District":"Gera","Street":"Bert-Brecht-Straße","PostalCode":"07546","AdditionalData":[{"value":"Deutschland","key":"CountryName"},{"value":"Thüringen","key":"StateName"},{"value":"Gera","key":"CountyName"}]},"MapReference":{"ReferenceId":"53446071","Spot":1.0,"SideOfStreet":"left","CountryId":"20147700","StateId":"20196974","CountyId":"20197000","CityId":"20197001","DistrictId":"20197003"}}},{"Relevance":1.0,"Distance":71.0,"MatchLevel":"street","MatchQuality":{"Country":1.0,"State":1.0,"County":1.0,"City":1.0,"District":1.0,"Street":[1.0],"PostalCode":1.0},"Location":{"LocationId":"NT_i3liU9GgNCfr9Ata91pNgC_l_53446056_L","LocationType":"point","DisplayPosition":{"Latitude":50.8950194,"Longitude":12.0818178},"MapView":{"TopLeft":{"Latitude":50.89507,"Longitude":12.08163},"BottomRight":{"Latitude":50.895,"Longitude":12.08189}},"Address":{"Label":"Bert-Brecht-Straße, 07546 Gera, Deutschland","Country":"DEU","State":"Thüringen","County":"Gera","City":"Gera","District":"Gera","Street":"Bert-Brecht-Straße","PostalCode":"07546","AdditionalData":[{"value":"Deutschland","key":"CountryName"},{"value":"Thüringen","key":"StateName"},{"value":"Gera","key":"CountyName"}]},"MapReference":{"ReferenceId":"53446056","Spot":0.28,"SideOfStreet":"left","CountryId":"20147700","StateId":"20196974","CountyId":"20197000","CityId":"20197001","DistrictId":"20197003"}}},{"Relevance":1.0,"Distance":71.7,"MatchLevel":"street","MatchQuality":{"Country":1.0,"State":1.0,"County":1.0,"City":1.0,"District":1.0,"Street":[1.0],"PostalCode":1.0},"Location":{"LocationId":"NT_lVKTDno88-31dv7DUJsqdC_l_1199849649_L","LocationType":"point","DisplayPosition":{"Latitude":50.89415,"Longitude":12.0807},"MapView":{"TopLeft":{"Latitude":50.89415,"Longitude":12.08003},"BottomRight":{"Latitude":50.89409,"Longitude":12.0807}},"Address":{"Label":"Straße des Bergmanns, 07545 Gera, Deutschland","Country":"DEU","State":"Thüringen","County":"Gera","City":"Gera","District":"Gera","Street":"Straße des Bergmanns","PostalCode":"07545","AdditionalData":[{"value":"Deutschland","key":"CountryName"},{"value":"Thüringen","key":"StateName"},{"value":"Gera","key":"CountyName"}]},"MapReference":{"ReferenceId":"1199849649","Spot":1.0,"SideOfStreet":"left","CountryId":"20147700","StateId":"20196974","CountyId":"20197000","CityId":"20197001","DistrictId":"20197003"}}},{"Relevance":1.0,"Distance":72.3,"MatchLevel":"houseNumber","MatchQuality":{"Country":1.0,"State":1.0,"County":1.0,"City":1.0,"District":1.0,"Street":[1.0],"HouseNumber":1.0,"PostalCode":1.0},"MatchType":"interpolated","Location":{"LocationId":"NT_jW3Yj8mpYOXFAnjFEDipIA_xITO","LocationType":"point","DisplayPosition":{"Latitude":50.8938,"Longitude":12.08208},"MapView":{"TopLeft":{"Latitude":50.8949242,"Longitude":12.0802978},"BottomRight":{"Latitude":50.8926758,"Longitude":12.0838622}},"Address":{"Label":"Gagarinstraße 129, 07545 Gera, Deutschland","Country":"DEU","State":"Thüringen","County":"Gera","City":"Gera","District":"Gera","Street":"Gagarinstraße","HouseNumber":"129","PostalCode":"07545","AdditionalData":[{"value":"Deutschland","key":"CountryName"},{"value":"Thüringen","key":"StateName"},{"value":"Gera","key":"CountyName"}]},"MapReference":{"ReferenceId":"53655944","Spot":0.86,"SideOfStreet":"left","CountryId":"20147700","StateId":"20196974","CountyId":"20197000","CityId":"20197001","DistrictId":"20197003","AddressId":"189172079","RoadLinkId":"40121329"}}},{"Relevance":1.0,"Distance":79.3,"MatchLevel":"street","MatchQuality":{"Country":1.0,"State":1.0,"County":1.0,"City":1.0,"District":1.0,"Street":[1.0],"PostalCode":1.0},"Location":{"LocationId":"NT_jW3Yj8mpYOXFAnjFEDipIA_l_565433973_L","LocationType":"point","DisplayPosition":{"Latitude":50.89406,"Longitude":12.08265},"MapView":{"TopLeft":{"Latitude":50.89406,"Longitude":12.08264},"BottomRight":{"Latitude":50.89381,"Longitude":12.08265}},"Address":{"Label":"Gagarinstraße, 07545 Gera, Deutschland","Country":"DEU","State":"Thüringen","County":"Gera","City":"Gera","District":"Gera","Street":"Gagarinstraße","PostalCode":"07545","AdditionalData":[{"value":"Deutschland","key":"CountryName"},{"value":"Thüringen","key":"StateName"},{"value":"Gera","key":"CountyName"}]},"MapReference":{"ReferenceId":"565433973","Spot":1.0,"SideOfStreet":"left","CountryId":"20147700","StateId":"20196974","CountyId":"20197000","CityId":"20197001","DistrictId":"20197003"}}},{"Relevance":1.0,"Distance":79.3,"MatchLevel":"street","MatchQuality":{"Country":1.0,"State":1.0,"County":1.0,"City":1.0,"District":1.0,"Street":[1.0],"PostalCode":1.0},"Location":{"LocationId":"NT_lVKTDno88-31dv7DUJsqdC_l_565433971_R","LocationType":"point","DisplayPosition":{"Latitude":50.89406,"Longitude":12.08265},"MapView":{"TopLeft":{"Latitude":50.89406,"Longitude":12.08265},"BottomRight":{"Latitude":50.894,"Longitude":12.08289}},"Address":{"Label":"Straße des Bergmanns, 07545 Gera, Deutschland","Country":"DEU","State":"Thüringen","County":"Gera","City":"Gera","District":"Gera","Street":"Straße des Bergmanns","PostalCode":"07545","AdditionalData":[{"value":"Deutschland","key":"CountryName"},{"value":"Thüringen","key":"StateName"},{"value":"Gera","key":"CountyName"}]},"MapReference":{"ReferenceId":"565433971","Spot":1.0,"SideOfStreet":"right","CountryId":"20147700","StateId":"20196974","CountyId":"20197000","CityId":"20197001","DistrictId":"20197003"}}}]}]}}