{"Response":{"MetaInfo":{"Timestamp":"2020-03-28T10:58:03.512+0000","NextPageInformation":"2"},"View":[{"_type":"SearchResultsViewType","ViewId":0,"Result":[{"Relevance":1.0,"Distance":0.0,"Direction":0.0,"MatchLevel":"district","MatchQuality":{"Country":1.0,"State":1.0,"County":1.0,"City":1.0,"District":1.0,"PostalCode":1.0},"Location":{"LocationId":"NT_zhfjbwGVey0fkh4ESeO3bD","LocationType":"point","DisplayPosition":{"Latitude":50.8713204,"Longitude":10.5124571},"MapView":{"TopLeft":{"Latitude":50.88698,"Longitude":10.49465},"BottomRight":{"Latitude":50.87031,"Longitude":10.5262}},"Address":{"Label":"Bad Tabarz, Thüringen, Deutschland","Country":"DEU","State":"Thüringen","County":"Gotha","City":"Bad Tabarz","District":"Bad Tabarz","PostalCode":"99891","AdditionalData":[{"value":"Deutschland","key":"CountryName"},{"value":"Thüringen","key":"StateName"},{"value":"Gotha","key":"CountyName"}]},"MapReference":{"ReferenceId":"554809998","SideOfStreet":"neither","CountryId":"20147700","StateId":"20196974","CountyId":"20197983","CityId":"20198096","DistrictId":"20198098"}}},{"Relevance":1.0,"Distance":23.6,"MatchLevel":"landmark","MatchQuality":{"Country":1.0,"State":1.0,"Name":1.0},"Location":{"LocationId":"NT_9Mj0wYOT8.dkVTGFr7ODPC","LocationType":"woodland","Name":"Thüringer Wald","DisplayPosition":{"Latitude":50.82443,"Longitude":10.63087},"MapView":{"TopLeft":{"Latitude":50.93351,"Longitude":10.40169},"BottomRight":{"Latitude":50.71534,"Longitude":10.78051}},"Address":{"Label":"Deutschland","Country":"DEU","State":"Thüringen","AdditionalData":[{"value":"Deutschland","key":"CountryName"},{"value":"Thüringen","key":"StateName"}]},"MapReference":{"CountryId":"20147700","StateId":"20196974","PlaceId":"69517529"}}},{"Relevance":1.0,"Distance":42.4,"MatchLevel":"street","MatchQuality":{"Country":1.0,"State":1.0,"County":1.0,"City":1.0,"District":1.0,"PostalCode":1.0},"Location":{"LocationId":"NT_yQOLwwuEI6v-jjzqR8OtNB_l_544006976_L","LocationType":"point","DisplayPosition":{"Latitude":50.8709677,"Longitude":10.5126877},"MapView":{"TopLeft":{"Latitude":50.87145,"Longitude":10.51263},"BottomRight":{"Latitude":50.87093,"Longitude":10.51358}},"Address":{"Label":"99891 Bad Tabarz, Deutschland","Country":"DEU","State":"Thüringen","County":"Gotha","City":"Bad Tabarz","District":"Bad Tabarz","PostalCode":"99891","AdditionalData":[{"value":"Deutschland","key":"CountryName"},{"value":"Thüringen","key":"StateName"},{"value":"Gotha","key":"CountyName"}]},"MapReference":{"ReferenceId":"544006976","Spot":0.06,"SideOfStreet":"left","CountryId":"20147700","StateId":"20196974","CountyId":"20197983","CityId":"20198096","DistrictId":"20198098"}}},{"Relevance":1.0,"Distance":45.1,"MatchLevel":"street","MatchQuality":{"Country":1.0,"State":1.0,"County":1.0,"City":1.0,"PostalCode":1.0},"Location":{"LocationId":"NT_FfrgzBmicXYsvUx--gJu4C_l_544006974_L","LocationType":"point","DisplayPosition":{"Latitude":50.87093,"Longitude":10.51263},"MapView":{"TopLeft":{"Latitude":50.87093,"Longitude":10.51099},"BottomRight":{"Latitude":50.86783,"Longitude":10.51263}},"Address":{"Label":"99891 Bad Tabarz, Deutschland","Country":"DEU","State":"Thüringen","County":"Gotha","City":"Bad Tabarz","PostalCode":"99891","AdditionalData":[{"value":"Deutschland","key":"CountryName"},{"value":"Thüringen","key":"StateName"},{"value":"Gotha","key":"CountyName"}]},"MapReference":{"ReferenceId":"544006974","Spot":1.0,"SideOfStreet":"left","CountryId":"20147700","StateId":"20196974","CountyId":"20197983","CityId":"20198096"}}},{"Relevance":1.0,"Distance":53.3,"MatchLevel":"houseNumber","MatchQuality":{"Country":1.0,"State":1.0,"County":1.0,"City":1.0,"Street":[1.0],"HouseNumber":1.0,"PostalCode":1.0},"MatchType":"interpolated","Location":{"LocationId":"NT_dMkI4DKFa7lZZjshh8XLQA_0gD","LocationType":"point","DisplayPosition":{"Latitude":50.87128,"Longitude":10.5117},"MapView":{"TopLeft":{"Latitude":50.8724042,"Longitude":10.5099186},"BottomRight":{"Latitude":50.8701558,"Longitude":10.5134814}},"Address":{"Label":"Lauchagrundstraße 48, 99891 Bad Tabarz, Deutschland","Country":"DEU","State":"Thüringen","County":"Gotha","City":"Bad Tabarz","Street":"Lauchagrundstraße","HouseNumber":"48","PostalCode":"99891","AdditionalData":[{"value":"Deutschland","key":"CountryName"},{"value":"Thüringen","key":"StateName"},{"value":"Gotha","key":"CountyName"}]},"MapReference":{"ReferenceId":"544006971","Spot":0.93,"SideOfStreet":"left","CountryId":"20147700","StateId":"20196974","CountyId":"20197983","CityId":"20198096","AddressId":"189378475","RoadLinkId":"39674658"}}},{"Relevance":1.0,"Distance":59.5,"MatchLevel":"houseNumber","MatchQuality":{"Country":1.0,"State":1.0,"County":1.0,"City":1.0,"District":1.0,"Street":[1.0],"HouseNumber":1.0,"PostalCode":1.0},"MatchType":"interpolated","Location":{"LocationId":"NT_ecU65dnZI-CBHILYBd-b.C_0QD","LocationType":"point","DisplayPosition":{"Latitude":50.87174,"Longitude":10.51193},"MapView":{"TopLeft":{"Latitude":50.8728642,"Longitude":10.5101486},"BottomRight":{"Latitude":50.8706158,"Longitude":10.5137114}},"Address":{"Label":"Lauchagrundstraße 44, 99891 Bad Tabarz, Deutschland","Country":"DEU","State":"Thüringen","County":"Gotha","City":"Bad Tabarz","District":"Bad Tabarz","Street":"Lauchagrundstraße","HouseNumber":"44","PostalCode":"99891","AdditionalData":[{"value":"Deutschland","key":"CountryName"},{"value":"Thüringen","key":"StateName"},{"value":"Gotha","key":"CountyName"}]},"MapReference":{"ReferenceId":"544006980","Spot":0.44,"SideOfStreet":"left","CountryId":"20147700","StateId":"20196974","CountyId":"20197983","CityId":"20198096","DistrictId":"20198098","AddressId":"622366380","RoadLinkId":"39649785"}}},{"Relevance":1.0,"Distance":80.1,"MatchLevel":"street","MatchQuality":{"Country":1.0,"State":1.0,"County":1.0,"City":1.0,"District":1.0,"Street":[1.0],"PostalCode":1.0},"Location":{"LocationId":"NT_kcCegdpWpT.h77h0i015gD_l_554810257_L","LocationType":"point","DisplayPosition":{"Latitude":50.87145,"Longitude":10.51358},"MapView":{"TopLeft":{"Latitude":50.87145,"Longitude":10.51358},"BottomRight":{"Latitude":50.87121,"Longitude":10.51487}},"Address":{"Label":"Friedensweg, 99891 Bad Tabarz, Deutschland","Country":"DEU","State":"Thüringen","County":"Gotha","City":"Bad Tabarz","District":"Bad Tabarz","Street":"Friedensweg","PostalCode":"99891","AdditionalData":[{"value":"Deutschland","key":"CountryName"},{"value":"Thüringen","key":"StateName"},{"value":"Gotha","key":"CountyName"}]},"MapReference":{"ReferenceId":"554810257","Spot":1.0,"SideOfStreet":"left","CountryId":"20147700","StateId":"20196974","CountyId":"20197983","CityId":"20198096","DistrictId":"20198098"}}},{"Relevance":1.0,"Distance":86.8,"MatchLevel":"street","MatchQuality":{"Country":1.0,"State":1.0,"County":1.0,"City":1.0,"District":1.0,"PostalCode":1.0},"Location":{"LocationId":"NT_yQOLwwuEI6v-jjzqR8OtNB_l_544006982_L","LocationType":"point","DisplayPosition":{"Latitude":50.87207,"Longitude":10.51211},"MapView":{"TopLeft":{"Latitude":50.87217,"Longitude":10.51101},"BottomRight":{"Latitude":50.87207,"Longitude":10.51211}},"Address":{"Label":"99891 Bad Tabarz, Deutschland","Country":"DEU","State":"Thüringen","County":"Gotha","City":"Bad Tabarz","District":"Bad Tabarz","PostalCode":"99891","AdditionalData":[{"value":"Deutschland","key":"CountryName"},{"value":"Thüringen","key":"StateName"},{"value":"Gotha","key":"CountyName"}]},"MapReference":{"ReferenceId":"544006982","Spot":0.0,"SideOfStreet":"left","CountryId":"20147700","StateId":"20196974","CountyId":"20197983","CityId":"20198096","DistrictId":"20198098"}}},{"Relevance":1.0,"Distance":100.5,"MatchLevel":"houseNumber","MatchQuality":{"Country":1.0,"State":1.0,"County":1.0,"City":1.0,"District":1.0,"Street":[1.0],"HouseNumber":1.0,"PostalCode":1.0},"MatchType":"interpolated","Location":{"LocationId":"NT_bm6tqCFZ81s3.ylCZ8nJND_zQD","LocationType":"point","DisplayPosition":{"Latitude":50.87158,"Longitude":10.5139},"MapView":{"TopLeft":{"Latitude":50.8727042,"Longitude":10.5121186},"BottomRight":{"Latitude":50.8704558,"Longitude":10.5156814}},"Address":{"Label":"Zimmerbergstraße 34, 99891 Bad Tabarz, Deutschland","Country":"DEU","State":"Thüringen","County":"Gotha","City":"Bad Tabarz","District":"Bad Tabarz","Street":"Zimmerbergstraße","HouseNumber":"34","PostalCode":"99891","AdditionalData":[{"value":"Deutschland","key":"CountryName"},{"value":"Thüringen","key":"StateName"},{"value":"Gotha","key":"CountyName"}]},"MapReference":{"ReferenceId":"544006919","Spot":0.37,"SideOfStreet":"left","CountryId":"20147700","StateId":"20196974","CountyId":"20197983","CityId":"20198096","DistrictId":"20198098","AddressId":"189363128","RoadLinkId":"39799774"}}},{"Relevance":1.0,"Distance":102.4,"MatchLevel":"houseNumber","MatchQuality":{"Country":1.0,"State":1.0,"County":1.0,"City":1.0,"District":1.0,"Street":[1.0],"HouseNumber":1.0,"PostalCode":1.0},"MatchType":"interpolated","Location":{"LocationId":"NT_ecU65dnZI-CBHILYBd-b.C_zED","LocationType":"point","DisplayPosition":{"Latitude":50.87231,"Longitude":10.51225},"MapView":{"TopLeft":{"Latitude":50.8734342,"Longitude":10.5104686},"BottomRight":{"Latitude":50.8711858,"Longitude":10.5140314}},"Address":{"Label":"Lauchagrundstraße 31, 99891 Bad Tabarz, Deutschland","Country":"DEU","State":"Thüringen","County":"Gotha","City":"Bad Tabarz","District":"Bad Tabarz","Street":"Lauchagrundstraße","HouseNumber":"31","PostalCode":"99891","AdditionalData":[{"value":"Deutschland","key":"CountryName"},{"value":"Thüringen","key":"StateName"},{"value":"Gotha","key":"CountyName"}]},"MapReference":{"ReferenceId":"544006981","Spot":0.32,"SideOfStreet":"right","CountryId":"20147700","StateId":"20196974","CountyId":"20197983","CityId":"20198096","DistrictId":"20198098","AddressId":"189613599","RoadLinkId":"39955554"}}}]}]}}