{"Response":{"MetaInfo":{"Timestamp":"2020-03-28T11:39:36.208+0000","NextPageInformation":"2"},"View":[{"_type":"SearchResultsViewType","ViewId":0,"Result":[{"Relevance":1.0,"Distance":0.0,"Direction":0.0,"MatchLevel":"district","MatchQuality":{"Country":1.0,"State":1.0,"County":1.0,"City":1.0,"District":1.0,"PostalCode":1.0},"Location":{"LocationId":"NT_X.SHyErUrCcMVXlLjyacNB","LocationType":"point","DisplayPosition":{"Latitude":50.8264438,"Longitude":4.7018348},"MapView":{"TopLeft":{"Latitude":50.83314,"Longitude":4.69465},"BottomRight":{"Latitude":50.82006,"Longitude":4.72624}},"Address":{"Label":"Blanden, Oud-Heverlee, Vlaanderen, België","Country":"BEL","State":"Vlaanderen","County":"Vlaams Brabant","City":"Oud-Heverlee","District":"Blanden","PostalCode":"3052","AdditionalData":[{"value":"België","key":"CountryName"},{"value":"Vlaanderen","key":"StateName"},{"value":"Vlaams Brabant","key":"CountyName"}]},"MapReference":{"ReferenceId":"763009308","SideOfStreet":"neither","CountryId":"20128886","StateId":"20204377","CountyId":"20207856","CityId":"20208156","DistrictId":"20208158"}}},{"Relevance":1.0,"Distance":8.6,"MatchLevel":"houseNumber","MatchQuality":{"Country":1.0,"State":1.0,"County":1.0,"City":1.0,"District":1.0,"Street":[1.0],"HouseNumber":1.0,"PostalCode":1.0},"MatchType":"interpolated","Location":{"LocationId":"NT_qBvVAT16Rm8sgnE50DO7iB_xA","LocationType":"point","DisplayPosition":{"Latitude":50.82621,"Longitude":4.7018},"MapView":{"TopLeft":{"Latitude":50.8273342,"Longitude":4.7000204},"BottomRight":{"Latitude":50.8250858,"Longitude":4.7035796}},"Address":{"Label":"Bierbeekstraat 1, 3052 Oud-Heverlee, België","Country":"BEL","State":"Vlaanderen","County":"Vlaams Brabant","City":"Oud-Heverlee","District":"Blanden","Street":"Bierbeekstraat","HouseNumber":"1","PostalCode":"3052","AdditionalData":[{"value":"België","key":"CountryName"},{"value":"Vlaanderen","key":"StateName"},{"value":"Vlaams Brabant","key":"CountyName"}]},"MapReference":{"ReferenceId":"60875058","Spot":0.69,"SideOfStreet":"right","CountryId":"20128886","StateId":"20204377","CountyId":"20207856","CityId":"20208156","DistrictId":"20208158","AddressId":"400135227","RoadLinkId":"30477252"}}},{"Relevance":1.0,"Distance":13.7,"MatchLevel":"houseNumber","MatchQuality":{"Country":1.0,"State":1.0,"County":1.0,"City":1.0,"District":1.0,"Street":[1.0],"HouseNumber":1.0,"PostalCode":1.0},"MatchType":"interpolated","Location":{"LocationId":"NT_9mFAFxOmP2uscAsz4dfb2C_4MD","LocationType":"point","DisplayPosition":{"Latitude":50.82651,"Longitude":4.70142},"MapView":{"TopLeft":{"Latitude":50.8276342,"Longitude":4.6996404},"BottomRight":{"Latitude":50.8253858,"Longitude":4.7031996}},"Address":{"Label":"Naamsesteenweg 83, 3052 Oud-Heverlee, België","Country":"BEL","State":"Vlaanderen","County":"Vlaams Brabant","City":"Oud-Heverlee","District":"Blanden","Street":"Naamsesteenweg","HouseNumber":"83","PostalCode":"3052","AdditionalData":[{"value":"België","key":"CountryName"},{"value":"Vlaanderen","key":"StateName"},{"value":"Vlaams Brabant","key":"CountyName"}]},"MapReference":{"ReferenceId":"727627832","Spot":0.06,"SideOfStreet":"right","CountryId":"20128886","StateId":"20204377","CountyId":"20207856","CityId":"20208156","DistrictId":"20208158","AddressId":"399549690","RoadLinkId":"130464866"}}},{"Relevance":1.0,"Distance":14.3,"MatchLevel":"houseNumber","MatchQuality":{"Country":1.0,"State":1.0,"County":1.0,"City":1.0,"District":1.0,"Street":[1.0],"HouseNumber":1.0,"PostalCode":1.0},"MatchType":"interpolated","Location":{"LocationId":"NT_UZQdOPZvRyxVkpJOPpLU5A_l_580421784_R_xA","LocationType":"point","DisplayPosition":{"Latitude":50.8262444,"Longitude":4.7016012},"MapView":{"TopLeft":{"Latitude":50.8273686,"Longitude":4.6998215},"BottomRight":{"Latitude":50.8251203,"Longitude":4.7033808}},"Address":{"Label":"Bierbeekstraat 1, 3052 Oud-Heverlee, België","Country":"BEL","State":"Vlaanderen","County":"Vlaams Brabant","City":"Oud-Heverlee","District":"Blanden","Street":"Bierbeekstraat","HouseNumber":"1","PostalCode":"3052","AdditionalData":[{"value":"België","key":"CountryName"},{"value":"Vlaanderen","key":"StateName"},{"value":"Vlaams Brabant","key":"CountyName"}]},"MapReference":{"ReferenceId":"580421784","Spot":0.72,"SideOfStreet":"right","CountryId":"20128886","StateId":"20204377","CountyId":"20207856","CityId":"20208156","DistrictId":"20208158"}}},{"Relevance":1.0,"Distance":27.8,"MatchLevel":"street","MatchQuality":{"Country":1.0,"State":1.0,"County":1.0,"City":1.0,"District":1.0,"Street":[1.0],"PostalCode":1.0},"Location":{"LocationId":"NT_qBvVAT16Rm8sgnE50DO7iB_l_59735074_R","LocationType":"point","DisplayPosition":{"Latitude":50.82623,"Longitude":4.70163},"MapView":{"TopLeft":{"Latitude":50.82623,"Longitude":4.70163},"BottomRight":{"Latitude":50.82602,"Longitude":4.70212}},"Address":{"Label":"Bierbeekstraat, 3052 Oud-Heverlee, België","Country":"BEL","State":"Vlaanderen","County":"Vlaams Brabant","City":"Oud-Heverlee","District":"Blanden","Street":"Bierbeekstraat","PostalCode":"3052","AdditionalData":[{"value":"België","key":"CountryName"},{"value":"Vlaanderen","key":"StateName"},{"value":"Vlaams Brabant","key":"CountyName"}]},"MapReference":{"ReferenceId":"59735074","Spot":1.0,"SideOfStreet":"right","CountryId":"20128886","StateId":"20204377","CountyId":"20207856","CityId":"20208156","DistrictId":"20208158"}}},{"Relevance":1.0,"Distance":27.9,"MatchLevel":"houseNumber","MatchQuality":{"Country":1.0,"State":1.0,"County":1.0,"City":1.0,"District":1.0,"Street":[1.0],"HouseNumber":1.0,"PostalCode":1.0},"MatchType":"interpolated","Location":{"LocationId":"NT_9mFAFxOmP2uscAsz4dfb2C_2AD","LocationType":"point","DisplayPosition":{"Latitude":50.82633,"Longitude":4.70148},"MapView":{"TopLeft":{"Latitude":50.8274542,"Longitude":4.6997004},"BottomRight":{"Latitude":50.8252058,"Longitude":4.7032596}},"Address":{"Label":"Naamsesteenweg 60, 3052 Oud-Heverlee, België","Country":"BEL","State":"Vlaanderen","County":"Vlaams Brabant","City":"Oud-Heverlee","District":"Blanden","Street":"Naamsesteenweg","HouseNumber":"60","PostalCode":"3052","AdditionalData":[{"value":"België","key":"CountryName"},{"value":"Vlaanderen","key":"StateName"},{"value":"Vlaams Brabant","key":"CountyName"}]},"MapReference":{"ReferenceId":"580421783","Spot":0.91,"SideOfStreet":"left","CountryId":"20128886","StateId":"20204377","CountyId":"20207856","CityId":"20208156","DistrictId":"20208158","AddressId":"401238589","RoadLinkId":"30650222"}}},{"Relevance":1.0,"Distance":34.9,"MatchLevel":"street","MatchQuality":{"Country":1.0,"State":1.0,"County":1.0,"City":1.0,"District":1.0,"Street":[1.0],"PostalCode":1.0},"Location":{"LocationId":"NT_APOfTFkNCi1ol6HaKrmU8B_l_1131987237_L","LocationType":"point","DisplayPosition":{"Latitude":50.82642,"Longitude":4.70233},"MapView":{"TopLeft":{"Latitude":50.82671,"Longitude":4.70233},"BottomRight":{"Latitude":50.82642,"Longitude":4.70248}},"Address":{"Label":"Expresweg, 3052 Oud-Heverlee, België","Country":"BEL","State":"Vlaanderen","County":"Vlaams Brabant","City":"Oud-Heverlee","District":"Blanden","Street":"Expresweg","PostalCode":"3052","AdditionalData":[{"value":"België","key":"CountryName"},{"value":"Vlaanderen","key":"StateName"},{"value":"Vlaams Brabant","key":"CountyName"}]},"MapReference":{"ReferenceId":"1131987237","Spot":0.0,"SideOfStreet":"left","CountryId":"20128886","StateId":"20204377","CountyId":"20207856","CityId":"20208156","DistrictId":"20208158"}}},{"Relevance":1.0,"Distance":36.3,"MatchLevel":"street","MatchQuality":{"Country":1.0,"State":1.0,"County":1.0,"City":1.0,"District":1.0,"Street":[1.0],"PostalCode":1.0},"Location":{"LocationId":"NT_-.6WgwjDuX-p4UAOEWsTWB_l_1131987236_L","LocationType":"point","DisplayPosition":{"Latitude":50.8262329,"Longitude":4.7022302},"MapView":{"TopLeft":{"Latitude":50.82642,"Longitude":4.70217},"BottomRight":{"Latitude":50.82612,"Longitude":4.70233}},"Address":{"Label":"Expresweg, 3052 Oud-Heverlee, België","Country":"BEL","State":"Vlaanderen","County":"Vlaams Brabant","City":"Oud-Heverlee","District":"Blanden","Street":"Expresweg","PostalCode":"3052","AdditionalData":[{"value":"België","key":"CountryName"},{"value":"Vlaanderen","key":"StateName"},{"value":"Vlaams Brabant","key":"CountyName"}]},"MapReference":{"ReferenceId":"1131987236","Spot":0.38,"SideOfStreet":"left","CountryId":"20128886","StateId":"20204377","CountyId":"20207856","CityId":"20208156","DistrictId":"20208158"}}},{"Relevance":1.0,"Distance":43.0,"MatchLevel":"street","MatchQuality":{"Country":1.0,"State":1.0,"County":1.0,"City":1.0,"District":1.0,"Street":[1.0],"PostalCode":1.0},"Location":{"LocationId":"NT_APOfTFkNCi1ol6HaKrmU8B_l_53727501_L","LocationType":"point","DisplayPosition":{"Latitude":50.82612,"Longitude":4.70217},"MapView":{"TopLeft":{"Latitude":50.82612,"Longitude":4.70212},"BottomRight":{"Latitude":50.82602,"Longitude":4.70217}},"Address":{"Label":"Naamsesteenweg, 3052 Oud-Heverlee, België","Country":"BEL","State":"Vlaanderen","County":"Vlaams Brabant","City":"Oud-Heverlee","District":"Blanden","Street":"Naamsesteenweg","PostalCode":"3052","AdditionalData":[{"value":"België","key":"CountryName"},{"value":"Vlaanderen","key":"StateName"},{"value":"Vlaams Brabant","key":"CountyName"}]},"MapReference":{"ReferenceId":"53727501","Spot":1.0,"SideOfStreet":"left","CountryId":"20128886","StateId":"20204377","CountyId":"20207856","CityId":"20208156","DistrictId":"20208158"}}},{"Relevance":1.0,"Distance":43.0,"MatchLevel":"street","MatchQuality":{"Country":1.0,"State":1.0,"County":1.0,"City":1.0,"District":1.0,"Street":[1.0],"PostalCode":1.0},"Location":{"LocationId":"NT_UZQdOPZvRyxVkpJOPpLU5A_l_53727493_R","LocationType":"point","DisplayPosition":{"Latitude":50.82612,"Longitude":4.70217},"MapView":{"TopLeft":{"Latitude":50.82612,"Longitude":4.70217},"BottomRight":{"Latitude":50.82608,"Longitude":4.70234}},"Address":{"Label":"Bierbeekstraat, 3052 Oud-Heverlee, België","Country":"BEL","State":"Vlaanderen","County":"Vlaams Brabant","City":"Oud-Heverlee","District":"Blanden","Street":"Bierbeekstraat","PostalCode":"3052","AdditionalData":[{"value":"België","key":"CountryName"},{"value":"Vlaanderen","key":"StateName"},{"value":"Vlaams Brabant","key":"CountyName"}]},"MapReference":{"ReferenceId":"53727493","Spot":1.0,"SideOfStreet":"right","CountryId":"20128886","StateId":"20204377","CountyId":"20207856","CityId":"20208156","DistrictId":"20208158"}}}]}]}}