{"Response":{"MetaInfo":{"Timestamp":"2020-03-28T10:51:55.728+0000","NextPageInformation":"2"},"View":[{"_type":"SearchResultsViewType","ViewId":0,"Result":[{"Relevance":1.0,"Distance":0.0,"Direction":0.0,"MatchLevel":"district","MatchQuality":{"Country":1.0,"State":1.0,"County":1.0,"City":1.0,"District":1.0,"PostalCode":1.0},"Location":{"LocationId":"NT_TwkgtH9bSeI5QSmKOpe6lB","LocationType":"point","DisplayPosition":{"Latitude":50.8534822,"Longitude":4.3603011},"MapView":{"TopLeft":{"Latitude":50.85607,"Longitude":4.35238},"BottomRight":{"Latitude":50.84837,"Longitude":4.3634}},"Address":{"Label":"Martelaars, Brussel, België","Country":"BEL","State":"Brussel","County":"Brussel","City":"Brussel","District":"Martelaars","PostalCode":"1000","AdditionalData":[{"value":"België","key":"CountryName"},{"value":"Brussel","key":"StateName"},{"value":"Brussel","key":"CountyName"}]},"MapReference":{"ReferenceId":"53881972","SideOfStreet":"neither","CountryId":"20128886","StateId":"20207797","CountyId":"20207798","CityId":"20207808"}}},{"Relevance":1.0,"Distance":19.8,"MatchLevel":"houseNumber","MatchQuality":{"Country":1.0,"State":1.0,"County":1.0,"City":1.0,"District":1.0,"Street":[1.0],"HouseNumber":1.0,"PostalCode":1.0},"MatchType":"interpolated","Location":{"LocationId":"NT_z5k9XdxJKLkuMHGAyNE97D_xADM","LocationType":"point","DisplayPosition":{"Latitude":50.85361,"Longitude":4.36049},"MapView":{"TopLeft":{"Latitude":50.8547342,"Longitude":4.3587093},"BottomRight":{"Latitude":50.8524858,"Longitude":4.3622707}},"Address":{"Label":"Broekstraat 100, 1000 Brussel, België","Country":"BEL","State":"Brussel","County":"Brussel","City":"Brussel","District":"Martelaars","Street":"Broekstraat","HouseNumber":"100","PostalCode":"1000","AdditionalData":[{"value":"België","key":"CountryName"},{"value":"Brussel","key":"StateName"},{"value":"Brussel","key":"CountyName"}]},"MapReference":{"ReferenceId":"1215370158","Spot":0.47,"SideOfStreet":"left","CountryId":"20128886","StateId":"20207797","CountyId":"20207798","CityId":"20207808","AddressId":"381839920","RoadLinkId":"531477628"}}},{"Relevance":1.0,"Distance":23.6,"MatchLevel":"houseNumber","MatchQuality":{"Country":1.0,"State":1.0,"County":1.0,"City":1.0,"District":1.0,"Street":[1.0],"HouseNumber":1.0,"PostalCode":1.0},"MatchType":"interpolated","Location":{"LocationId":"NT_z5k9XdxJKLkuMHGAyNE97D_5QD","LocationType":"point","DisplayPosition":{"Latitude":50.85327,"Longitude":4.36031},"MapView":{"TopLeft":{"Latitude":50.8543942,"Longitude":4.3585293},"BottomRight":{"Latitude":50.8521458,"Longitude":4.3620907}},"Address":{"Label":"Broekstraat 94, 1000 Brussel, België","Country":"BEL","State":"Brussel","County":"Brussel","City":"Brussel","District":"Martelaars","Street":"Broekstraat","HouseNumber":"94","PostalCode":"1000","AdditionalData":[{"value":"België","key":"CountryName"},{"value":"Brussel","key":"StateName"},{"value":"Brussel","key":"CountyName"}]},"MapReference":{"ReferenceId":"801805388","Spot":0.66,"SideOfStreet":"left","CountryId":"20128886","StateId":"20207797","CountyId":"20207798","CityId":"20207808","AddressId":"381630686","RoadLinkId":"191466641"}}},{"Relevance":1.0,"Distance":45.0,"MatchLevel":"houseNumber","MatchQuality":{"Country":1.0,"State":1.0,"County":1.0,"City":1.0,"District":1.0,"Street":[1.0],"HouseNumber":1.0,"PostalCode":1.0},"MatchType":"interpolated","Location":{"LocationId":"NT_vsAw8aJAj8Nw4rX0OvU.0C_1ID","LocationType":"point","DisplayPosition":{"Latitude":50.85305,"Longitude":4.35962},"MapView":{"TopLeft":{"Latitude":50.8541742,"Longitude":4.3578393},"BottomRight":{"Latitude":50.8519258,"Longitude":4.3614007}},"Address":{"Label":"Blekerijstraat 52, 1000 Brussel, België","Country":"BEL","State":"Brussel","County":"Brussel","City":"Brussel","District":"Martelaars","Street":"Blekerijstraat","HouseNumber":"52","PostalCode":"1000","AdditionalData":[{"value":"België","key":"CountryName"},{"value":"Brussel","key":"StateName"},{"value":"Brussel","key":"CountyName"}]},"MapReference":{"ReferenceId":"53881893","Spot":0.44,"SideOfStreet":"right","CountryId":"20128886","StateId":"20207797","CountyId":"20207798","CityId":"20207808","AddressId":"381723116","RoadLinkId":"30423752"}}},{"Relevance":1.0,"Distance":50.8,"MatchLevel":"houseNumber","MatchQuality":{"Country":1.0,"State":1.0,"County":1.0,"City":1.0,"District":1.0,"Street":[1.0],"HouseNumber":1.0,"PostalCode":1.0},"MatchType":"interpolated","Location":{"LocationId":"NT_z5k9XdxJKLkuMHGAyNE97D_xADN","LocationType":"point","DisplayPosition":{"Latitude":50.85386,"Longitude":4.36068},"MapView":{"TopLeft":{"Latitude":50.8549842,"Longitude":4.3588993},"BottomRight":{"Latitude":50.8527358,"Longitude":4.3624607}},"Address":{"Label":"Broekstraat 104, 1000 Brussel, België","Country":"BEL","State":"Brussel","County":"Brussel","City":"Brussel","District":"Martelaars","Street":"Broekstraat","HouseNumber":"104","PostalCode":"1000","AdditionalData":[{"value":"België","key":"CountryName"},{"value":"Brussel","key":"StateName"},{"value":"Brussel","key":"CountyName"}]},"MapReference":{"ReferenceId":"1215370159","Spot":0.87,"SideOfStreet":"left","CountryId":"20128886","StateId":"20207797","CountyId":"20207798","CityId":"20207808","AddressId":"381839922","RoadLinkId":"531477629"}}},{"Relevance":1.0,"Distance":58.1,"MatchLevel":"houseNumber","MatchQuality":{"Country":1.0,"State":1.0,"County":1.0,"City":1.0,"District":1.0,"Street":[1.0],"HouseNumber":1.0,"PostalCode":1.0},"MatchType":"interpolated","Location":{"LocationId":"NT_sDD0ZBDuQsso5uYcjCDfaA_yA","LocationType":"point","DisplayPosition":{"Latitude":50.85281,"Longitude":4.36024},"MapView":{"TopLeft":{"Latitude":50.8539342,"Longitude":4.3584593},"BottomRight":{"Latitude":50.8516858,"Longitude":4.3620207}},"Address":{"Label":"Ommegangstraat 2, 1000 Brussel, België","Country":"BEL","State":"Brussel","County":"Brussel","City":"Brussel","District":"Martelaars","Street":"Ommegangstraat","HouseNumber":"2","PostalCode":"1000","AdditionalData":[{"value":"België","key":"CountryName"},{"value":"Brussel","key":"StateName"},{"value":"Brussel","key":"CountyName"}]},"MapReference":{"ReferenceId":"53882592","Spot":0.92,"SideOfStreet":"right","CountryId":"20128886","StateId":"20207797","CountyId":"20207798","CityId":"20207808","AddressId":"381844905","RoadLinkId":"30289442"}}},{"Relevance":1.0,"Distance":75.3,"MatchLevel":"houseNumber","MatchQuality":{"Country":1.0,"State":1.0,"County":1.0,"City":1.0,"District":1.0,"Street":[1.0],"HouseNumber":1.0,"PostalCode":1.0},"MatchType":"interpolated","Location":{"LocationId":"NT_z5k9XdxJKLkuMHGAyNE97D_xEDN","LocationType":"point","DisplayPosition":{"Latitude":50.85406,"Longitude":4.36083},"MapView":{"TopLeft":{"Latitude":50.8551842,"Longitude":4.3590493},"BottomRight":{"Latitude":50.8529358,"Longitude":4.3626107}},"Address":{"Label":"Broekstraat 114, 1000 Brussel, België","Country":"BEL","State":"Brussel","County":"Brussel","City":"Brussel","District":"Martelaars","Street":"Broekstraat","HouseNumber":"114","PostalCode":"1000","AdditionalData":[{"value":"België","key":"CountryName"},{"value":"Brussel","key":"StateName"},{"value":"Brussel","key":"CountyName"}]},"MapReference":{"ReferenceId":"1084281478","Spot":0.47,"SideOfStreet":"left","CountryId":"20128886","StateId":"20207797","CountyId":"20207798","CityId":"20207808","AddressId":"381689293","RoadLinkId":"400659992"}}},{"Relevance":1.0,"Distance":82.7,"MatchLevel":"houseNumber","MatchQuality":{"Country":1.0,"State":1.0,"County":1.0,"City":1.0,"District":1.0,"Street":[1.0],"HouseNumber":1.0,"PostalCode":1.0},"MatchType":"interpolated","Location":{"LocationId":"NT_yL3Lednw3TT0hrXdbh23QC_3A","LocationType":"point","DisplayPosition":{"Latitude":50.85411,"Longitude":4.35936},"MapView":{"TopLeft":{"Latitude":50.8552342,"Longitude":4.3575793},"BottomRight":{"Latitude":50.8529858,"Longitude":4.3611407}},"Address":{"Label":"Asstraat 7, 1000 Brussel, België","Country":"BEL","State":"Brussel","County":"Brussel","City":"Brussel","District":"Martelaars","Street":"Asstraat","HouseNumber":"7","PostalCode":"1000","AdditionalData":[{"value":"België","key":"CountryName"},{"value":"Brussel","key":"StateName"},{"value":"Brussel","key":"CountyName"}]},"MapReference":{"ReferenceId":"1129891614","Spot":0.62,"SideOfStreet":"right","CountryId":"20128886","StateId":"20207797","CountyId":"20207798","CityId":"20207808","AddressId":"381697286","RoadLinkId":"439894907"}}},{"Relevance":1.0,"Distance":85.8,"MatchLevel":"houseNumber","MatchQuality":{"Country":1.0,"State":1.0,"County":1.0,"City":1.0,"District":1.0,"Street":[1.0],"HouseNumber":1.0,"PostalCode":1.0},"MatchType":"interpolated","Location":{"LocationId":"NT_yL3Lednw3TT0hrXdbh23QC_xA","LocationType":"point","DisplayPosition":{"Latitude":50.85359,"Longitude":4.3589},"MapView":{"TopLeft":{"Latitude":50.8547142,"Longitude":4.3571193},"BottomRight":{"Latitude":50.8524658,"Longitude":4.3606807}},"Address":{"Label":"Asstraat 1, 1000 Brussel, België","Country":"BEL","State":"Brussel","County":"Brussel","City":"Brussel","District":"Martelaars","Street":"Asstraat","HouseNumber":"1","PostalCode":"1000","AdditionalData":[{"value":"België","key":"CountryName"},{"value":"Brussel","key":"StateName"},{"value":"Brussel","key":"CountyName"}]},"MapReference":{"ReferenceId":"53881896","Spot":1.0,"SideOfStreet":"right","CountryId":"20128886","StateId":"20207797","CountyId":"20207798","CityId":"20207808","AddressId":"381846012","RoadLinkId":"30755557"}}},{"Relevance":1.0,"Distance":96.0,"MatchLevel":"houseNumber","MatchQuality":{"Country":1.0,"State":1.0,"County":1.0,"City":1.0,"District":1.0,"Street":[1.0],"HouseNumber":1.0,"PostalCode":1.0},"MatchType":"interpolated","Location":{"LocationId":"NT_T-fiOtCUO6mQDUJWvgPjaB_zUD","LocationType":"point","DisplayPosition":{"Latitude":50.85455,"Longitude":4.36081},"MapView":{"TopLeft":{"Latitude":50.8556742,"Longitude":4.3590293},"BottomRight":{"Latitude":50.8534258,"Longitude":4.3625907}},"Address":{"Label":"Kruidtuinlaan 35, 1000 Brussel, België","Country":"BEL","State":"Brussel","County":"Brussel","City":"Brussel","District":"Martelaars","Street":"Kruidtuinlaan","HouseNumber":"35","PostalCode":"1000","AdditionalData":[{"value":"België","key":"CountryName"},{"value":"Brussel","key":"StateName"},{"value":"Brussel","key":"CountyName"}]},"MapReference":{"ReferenceId":"778978820","Spot":0.81,"SideOfStreet":"left","CountryId":"20128886","StateId":"20207797","CountyId":"20207798","CityId":"20207808","AddressId":"381896850","RoadLinkId":"172464752"}}}]}]}}