{"Response":{"MetaInfo":{"Timestamp":"2020-03-28T10:13:12.687+0000","NextPageInformation":"2"},"View":[{"_type":"SearchResultsViewType","ViewId":0,"Result":[{"Relevance":1.0,"Distance":-1718.3,"MatchLevel":"landmark","MatchQuality":{"Country":1.0,"State":1.0,"Name":1.0},"Location":{"LocationId":"NT_LJW3wdwoKxTIgSq39NisWB","LocationType":"woodland","Name":"Bory Stobrawskie","DisplayPosition":{"Latitude":50.83321,"Longitude":18.04566},"MapView":{"TopLeft":{"Latitude":51.09219,"Longitude":17.42756},"BottomRight":{"Latitude":50.57423,"Longitude":18.49719}},"Address":{"Label":"Polska","Country":"POL","State":"Woj. Opolskie","AdditionalData":[{"value":"Polska","key":"CountryName"},{"value":"Woj. Opolskie","key":"StateName"}]},"MapReference":{"CountryId":"20624059","StateId":"20627925","PlaceId":"560992313"}}},{"Relevance":1.0,"Distance":0.0,"Direction":0.0,"MatchLevel":"district","MatchQuality":{"Country":1.0,"State":1.0,"County":1.0,"City":1.0,"District":1.0,"PostalCode":1.0},"Location":{"LocationId":"NT_QCC7za56k3OjZ-VO.O1MMB","LocationType":"point","DisplayPosition":{"Latitude":50.8802268,"Longitude":18.4152578},"MapView":{"TopLeft":{"Latitude":50.89958,"Longitude":18.38792},"BottomRight":{"Latitude":50.86235,"Longitude":18.44126}},"Address":{"Label":"Olesno, Woj. Opolskie, Polska","Country":"POL","State":"Woj. Opolskie","County":"Powiat Oleski","City":"Olesno","District":"Olesno","PostalCode":"46-300","AdditionalData":[{"value":"Polska","key":"CountryName"},{"value":"Woj. Opolskie","key":"StateName"},{"value":"Powiat Oleski","key":"CountyName"}]},"MapReference":{"ReferenceId":"594243766","SideOfStreet":"neither","CountryId":"20624059","StateId":"20627925","CountyId":"20628027","CityId":"20628032","DistrictId":"20690445"}}},{"Relevance":1.0,"Distance":5.8,"MatchLevel":"houseNumber","MatchQuality":{"Country":1.0,"State":1.0,"County":1.0,"City":1.0,"District":1.0,"Street":[1.0],"HouseNumber":1.0,"PostalCode":1.0},"MatchType":"interpolated","Location":{"LocationId":"NT_Uv3Fos0UT2OEEt90d44h0D_yMTQ","LocationType":"point","DisplayPosition":{"Latitude":50.88018,"Longitude":18.41522},"MapView":{"TopLeft":{"Latitude":50.8813042,"Longitude":18.4134383},"BottomRight":{"Latitude":50.8790558,"Longitude":18.4170017}},"Address":{"Label":"ulica Ignacego Krasickiego 23A, 46-300 Olesno, Polska","Country":"POL","State":"Woj. Opolskie","County":"Powiat Oleski","City":"Olesno","District":"Olesno","Street":"ulica Ignacego Krasickiego","HouseNumber":"23A","PostalCode":"46-300","AdditionalData":[{"value":"Polska","key":"CountryName"},{"value":"Woj. Opolskie","key":"StateName"},{"value":"Powiat Oleski","key":"CountyName"}]},"MapReference":{"ReferenceId":"594243038","Spot":0.77,"SideOfStreet":"right","CountryId":"20624059","StateId":"20627925","CountyId":"20628027","CityId":"20628032","DistrictId":"20690445","AddressId":"209945989","RoadLinkId":"172871116"}}},{"Relevance":1.0,"Distance":31.0,"MatchLevel":"houseNumber","MatchQuality":{"Country":1.0,"State":1.0,"County":1.0,"City":1.0,"District":1.0,"Street":[1.0],"HouseNumber":1.0,"PostalCode":1.0},"MatchType":"interpolated","Location":{"LocationId":"NT_krJxEsavHAJtdugNMZ7wKB_xA","LocationType":"point","DisplayPosition":{"Latitude":50.88023,"Longitude":18.4159},"MapView":{"TopLeft":{"Latitude":50.8813542,"Longitude":18.4141183},"BottomRight":{"Latitude":50.8791058,"Longitude":18.4176817}},"Address":{"Label":"ulica Jaworowa 1, 46-300 Olesno, Polska","Country":"POL","State":"Woj. Opolskie","County":"Powiat Oleski","City":"Olesno","District":"Olesno","Street":"ulica Jaworowa","HouseNumber":"1","PostalCode":"46-300","AdditionalData":[{"value":"Polska","key":"CountryName"},{"value":"Woj. Opolskie","key":"StateName"},{"value":"Powiat Oleski","key":"CountyName"}]},"MapReference":{"ReferenceId":"1272513266","Spot":0.32,"SideOfStreet":"left","CountryId":"20624059","StateId":"20627925","CountyId":"20628027","CityId":"20628032","DistrictId":"20690445","AddressId":"210391001","RoadLinkId":"599869941"}}},{"Relevance":1.0,"Distance":61.1,"MatchLevel":"houseNumber","MatchQuality":{"Country":1.0,"State":1.0,"County":1.0,"City":1.0,"District":1.0,"Street":[1.0],"HouseNumber":1.0,"PostalCode":1.0},"MatchType":"interpolated","Location":{"LocationId":"NT_krJxEsavHAJtdugNMZ7wKB_0A","LocationType":"point","DisplayPosition":{"Latitude":50.87991,"Longitude":18.41597},"MapView":{"TopLeft":{"Latitude":50.8810342,"Longitude":18.4141883},"BottomRight":{"Latitude":50.8787858,"Longitude":18.4177517}},"Address":{"Label":"ulica Jaworowa 4, 46-300 Olesno, Polska","Country":"POL","State":"Woj. Opolskie","County":"Powiat Oleski","City":"Olesno","District":"Olesno","Street":"ulica Jaworowa","HouseNumber":"4","PostalCode":"46-300","AdditionalData":[{"value":"Polska","key":"CountryName"},{"value":"Woj. Opolskie","key":"StateName"},{"value":"Powiat Oleski","key":"CountyName"}]},"MapReference":{"ReferenceId":"1272513265","Spot":1.0,"SideOfStreet":"right","CountryId":"20624059","StateId":"20627925","CountyId":"20628027","CityId":"20628032","DistrictId":"20690445","AddressId":"731627267","RoadLinkId":"599869940"}}},{"Relevance":1.0,"Distance":73.0,"MatchLevel":"houseNumber","MatchQuality":{"Country":1.0,"State":1.0,"County":1.0,"City":1.0,"District":1.0,"Street":[1.0],"HouseNumber":1.0,"PostalCode":1.0},"MatchType":"interpolated","Location":{"LocationId":"NT_Uv3Fos0UT2OEEt90d44h0D_xkD","LocationType":"point","DisplayPosition":{"Latitude":50.87948,"Longitude":18.41592},"MapView":{"TopLeft":{"Latitude":50.8806042,"Longitude":18.4141383},"BottomRight":{"Latitude":50.8783558,"Longitude":18.4177017}},"Address":{"Label":"ulica Ignacego Krasickiego 19, 46-300 Olesno, Polska","Country":"POL","State":"Woj. Opolskie","County":"Powiat Oleski","City":"Olesno","District":"Olesno","Street":"ulica Ignacego Krasickiego","HouseNumber":"19","PostalCode":"46-300","AdditionalData":[{"value":"Polska","key":"CountryName"},{"value":"Woj. Opolskie","key":"StateName"},{"value":"Powiat Oleski","key":"CountyName"}]},"MapReference":{"ReferenceId":"594243037","Spot":0.59,"SideOfStreet":"left","CountryId":"20624059","StateId":"20627925","CountyId":"20628027","CityId":"20628032","DistrictId":"20690445","AddressId":"211102616","RoadLinkId":"96484301"}}},{"Relevance":1.0,"Distance":73.7,"MatchLevel":"houseNumber","MatchQuality":{"Country":1.0,"State":1.0,"County":1.0,"City":1.0,"District":1.0,"Street":[1.0],"HouseNumber":1.0,"PostalCode":1.0},"MatchType":"interpolated","Location":{"LocationId":"NT_Uv3Fos0UT2OEEt90d44h0D_xETQ","LocationType":"point","DisplayPosition":{"Latitude":50.8796,"Longitude":18.41643},"MapView":{"TopLeft":{"Latitude":50.8807242,"Longitude":18.4146483},"BottomRight":{"Latitude":50.8784758,"Longitude":18.4182117}},"Address":{"Label":"ulica Ignacego Krasickiego 11A, 46-300 Olesno, Polska","Country":"POL","State":"Woj. Opolskie","County":"Powiat Oleski","City":"Olesno","District":"Olesno","Street":"ulica Ignacego Krasickiego","HouseNumber":"11A","PostalCode":"46-300","AdditionalData":[{"value":"Polska","key":"CountryName"},{"value":"Woj. Opolskie","key":"StateName"},{"value":"Powiat Oleski","key":"CountyName"}]},"MapReference":{"ReferenceId":"1272512033","Spot":0.35,"SideOfStreet":"left","CountryId":"20624059","StateId":"20627925","CountyId":"20628027","CityId":"20628032","DistrictId":"20690445","AddressId":"211411564","RoadLinkId":"599867901"}}},{"Relevance":1.0,"Distance":84.2,"MatchLevel":"houseNumber","MatchQuality":{"Country":1.0,"State":1.0,"County":1.0,"City":1.0,"District":1.0,"Street":[1.0],"HouseNumber":1.0,"PostalCode":1.0},"MatchType":"interpolated","Location":{"LocationId":"NT_Uv3Fos0UT2OEEt90d44h0D_yUD","LocationType":"point","DisplayPosition":{"Latitude":50.87932,"Longitude":18.41529},"MapView":{"TopLeft":{"Latitude":50.8804442,"Longitude":18.4135083},"BottomRight":{"Latitude":50.8781958,"Longitude":18.4170717}},"Address":{"Label":"ulica Ignacego Krasickiego 25, 46-300 Olesno, Polska","Country":"POL","State":"Woj. Opolskie","County":"Powiat Oleski","City":"Olesno","District":"Olesno","Street":"ulica Ignacego Krasickiego","HouseNumber":"25","PostalCode":"46-300","AdditionalData":[{"value":"Polska","key":"CountryName"},{"value":"Woj. Opolskie","key":"StateName"},{"value":"Powiat Oleski","key":"CountyName"}]},"MapReference":{"ReferenceId":"1272512022","Spot":0.9,"SideOfStreet":"left","CountryId":"20624059","StateId":"20627925","CountyId":"20628027","CityId":"20628032","DistrictId":"20690445","AddressId":"732073040","RoadLinkId":"599867890"}}},{"Relevance":1.0,"Distance":84.8,"MatchLevel":"houseNumber","MatchQuality":{"Country":1.0,"State":1.0,"County":1.0,"City":1.0,"District":1.0,"Street":[1.0],"HouseNumber":1.0,"PostalCode":1.0},"MatchType":"interpolated","Location":{"LocationId":"NT_krJxEsavHAJtdugNMZ7wKB_xMD","LocationType":"point","DisplayPosition":{"Latitude":50.88096,"Longitude":18.41585},"MapView":{"TopLeft":{"Latitude":50.8820842,"Longitude":18.4140683},"BottomRight":{"Latitude":50.8798358,"Longitude":18.4176317}},"Address":{"Label":"ulica Jaworowa 13, 46-300 Olesno, Polska","Country":"POL","State":"Woj. Opolskie","County":"Powiat Oleski","City":"Olesno","District":"Olesno","Street":"ulica Jaworowa","HouseNumber":"13","PostalCode":"46-300","AdditionalData":[{"value":"Polska","key":"CountryName"},{"value":"Woj. Opolskie","key":"StateName"},{"value":"Powiat Oleski","key":"CountyName"}]},"MapReference":{"ReferenceId":"1272513264","Spot":0.28,"SideOfStreet":"left","CountryId":"20624059","StateId":"20627925","CountyId":"20628027","CityId":"20628032","DistrictId":"20690445","AddressId":"211155341","RoadLinkId":"599869939"}}},{"Relevance":1.0,"Distance":95.4,"MatchLevel":"street","MatchQuality":{"Country":1.0,"State":1.0,"County":1.0,"City":1.0,"District":1.0,"Street":[1.0],"PostalCode":1.0},"Location":{"LocationId":"NT_55cymw.0tGpUC8uhgEuF7D_l_1272512745_R","LocationType":"point","DisplayPosition":{"Latitude":50.87939,"Longitude":18.41556},"MapView":{"TopLeft":{"Latitude":50.87939,"Longitude":18.41556},"BottomRight":{"Latitude":50.87918,"Longitude":18.41571}},"Address":{"Label":"ulica Juliusza Słowackiego, 46-300 Olesno, Polska","Country":"POL","State":"Woj. Opolskie","County":"Powiat Oleski","City":"Olesno","District":"Olesno","Street":"ulica Juliusza Słowackiego","PostalCode":"46-300","AdditionalData":[{"value":"Polska","key":"CountryName"},{"value":"Woj. Opolskie","key":"StateName"},{"value":"Powiat Oleski","key":"CountyName"}]},"MapReference":{"ReferenceId":"1272512745","Spot":1.0,"SideOfStreet":"right","CountryId":"20624059","StateId":"20627925","CountyId":"20628027","CityId":"20628032","DistrictId":"20690445"}}}]}]}}