{"Response":{"MetaInfo":{"Timestamp":"2020-03-28T11:41:07.831+0000","NextPageInformation":"2"},"View":[{"_type":"SearchResultsViewType","ViewId":0,"Result":[{"Relevance":1.0,"Distance":0.0,"Direction":0.0,"MatchLevel":"district","MatchQuality":{"Country":1.0,"State":1.0,"County":1.0,"City":1.0,"District":1.0,"PostalCode":1.0},"Location":{"LocationId":"NT_zhfjbwGVey0fkh4ESeO3bD","LocationType":"point","DisplayPosition":{"Latitude":50.8759963,"Longitude":10.5152657},"MapView":{"TopLeft":{"Latitude":50.88698,"Longitude":10.49465},"BottomRight":{"Latitude":50.87031,"Longitude":10.5262}},"Address":{"Label":"Bad Tabarz, Thüringen, Deutschland","Country":"DEU","State":"Thüringen","County":"Gotha","City":"Bad Tabarz","District":"Bad Tabarz","PostalCode":"99891","AdditionalData":[{"value":"Deutschland","key":"CountryName"},{"value":"Thüringen","key":"StateName"},{"value":"Gotha","key":"CountyName"}]},"MapReference":{"ReferenceId":"554809998","SideOfStreet":"neither","CountryId":"20147700","StateId":"20196974","CountyId":"20197983","CityId":"20198096","DistrictId":"20198098"}}},{"Relevance":1.0,"Distance":10.8,"MatchLevel":"houseNumber","MatchQuality":{"Country":1.0,"State":1.0,"County":1.0,"City":1.0,"District":1.0,"Street":[1.0],"HouseNumber":1.0,"PostalCode":1.0},"MatchType":"interpolated","Location":{"LocationId":"NT_ecU65dnZI-CBHILYBd-b.C_0A","LocationType":"point","DisplayPosition":{"Latitude":50.8759,"Longitude":10.51528},"MapView":{"TopLeft":{"Latitude":50.8770242,"Longitude":10.5134985},"BottomRight":{"Latitude":50.8747758,"Longitude":10.5170615}},"Address":{"Label":"Lauchagrundstraße 4, 99891 Bad Tabarz, Deutschland","Country":"DEU","State":"Thüringen","County":"Gotha","City":"Bad Tabarz","District":"Bad Tabarz","Street":"Lauchagrundstraße","HouseNumber":"4","PostalCode":"99891","AdditionalData":[{"value":"Deutschland","key":"CountryName"},{"value":"Thüringen","key":"StateName"},{"value":"Gotha","key":"CountyName"}]},"MapReference":{"ReferenceId":"544006782","Spot":0.62,"SideOfStreet":"left","CountryId":"20147700","StateId":"20196974","CountyId":"20197983","CityId":"20198096","DistrictId":"20198098","AddressId":"189529420","RoadLinkId":"39869154"}}},{"Relevance":1.0,"Distance":37.3,"MatchLevel":"houseNumber","MatchQuality":{"Country":1.0,"State":1.0,"County":1.0,"City":1.0,"District":1.0,"Street":[1.0],"HouseNumber":1.0,"PostalCode":1.0},"MatchType":"interpolated","Location":{"LocationId":"NT_bm6tqCFZ81s3.ylCZ8nJND_yA","LocationType":"point","DisplayPosition":{"Latitude":50.87591,"Longitude":10.51597},"MapView":{"TopLeft":{"Latitude":50.8770342,"Longitude":10.5141885},"BottomRight":{"Latitude":50.8747858,"Longitude":10.5177515}},"Address":{"Label":"Zimmerbergstraße 2, 99891 Bad Tabarz, Deutschland","Country":"DEU","State":"Thüringen","County":"Gotha","City":"Bad Tabarz","District":"Bad Tabarz","Street":"Zimmerbergstraße","HouseNumber":"2","PostalCode":"99891","AdditionalData":[{"value":"Deutschland","key":"CountryName"},{"value":"Thüringen","key":"StateName"},{"value":"Gotha","key":"CountyName"}]},"MapReference":{"ReferenceId":"544006779","Spot":0.15,"SideOfStreet":"left","CountryId":"20147700","StateId":"20196974","CountyId":"20197983","CityId":"20198096","DistrictId":"20198098","AddressId":"189536289","RoadLinkId":"174322201"}}},{"Relevance":1.0,"Distance":41.5,"MatchLevel":"houseNumber","MatchQuality":{"Country":1.0,"State":1.0,"County":1.0,"City":1.0,"District":1.0,"Street":[1.0],"HouseNumber":1.0,"PostalCode":1.0},"MatchType":"interpolated","Location":{"LocationId":"NT_2lckJM-k8qIynRCs0zWAFB_zgD","LocationType":"point","DisplayPosition":{"Latitude":50.87643,"Longitude":10.51582},"MapView":{"TopLeft":{"Latitude":50.8775542,"Longitude":10.5140384},"BottomRight":{"Latitude":50.8753058,"Longitude":10.5176016}},"Address":{"Label":"Reinhardsbrunner Straße 38, 99891 Bad Tabarz, Deutschland","Country":"DEU","State":"Thüringen","County":"Gotha","City":"Bad Tabarz","District":"Bad Tabarz","Street":"Reinhardsbrunner Straße","HouseNumber":"38","PostalCode":"99891","AdditionalData":[{"value":"Deutschland","key":"CountryName"},{"value":"Thüringen","key":"StateName"},{"value":"Gotha","key":"CountyName"}]},"MapReference":{"ReferenceId":"781432918","Spot":0.2,"SideOfStreet":"left","CountryId":"20147700","StateId":"20196974","CountyId":"20197983","CityId":"20198096","DistrictId":"20198098","AddressId":"189556922","RoadLinkId":"174322022"}}},{"Relevance":1.0,"Distance":50.3,"MatchLevel":"street","MatchQuality":{"Country":1.0,"State":1.0,"County":1.0,"City":1.0,"District":1.0,"Street":[1.0],"PostalCode":1.0},"Location":{"LocationId":"NT_T6O9C562U1Aq50aM..GqDC_l_544006778_R","LocationType":"point","DisplayPosition":{"Latitude":50.87608,"Longitude":10.51597},"MapView":{"TopLeft":{"Latitude":50.87608,"Longitude":10.51597},"BottomRight":{"Latitude":50.87608,"Longitude":10.51616}},"Address":{"Label":"Spindler Platz, 99891 Bad Tabarz, Deutschland","Country":"DEU","State":"Thüringen","County":"Gotha","City":"Bad Tabarz","District":"Bad Tabarz","Street":"Spindler Platz","PostalCode":"99891","AdditionalData":[{"value":"Deutschland","key":"CountryName"},{"value":"Thüringen","key":"StateName"},{"value":"Gotha","key":"CountyName"}]},"MapReference":{"ReferenceId":"544006778","Spot":0.0,"SideOfStreet":"right","CountryId":"20147700","StateId":"20196974","CountyId":"20197983","CityId":"20198096","DistrictId":"20198098"}}},{"Relevance":1.0,"Distance":50.3,"MatchLevel":"street","MatchQuality":{"Country":1.0,"State":1.0,"County":1.0,"City":1.0,"District":1.0,"Street":[1.0],"PostalCode":1.0},"Location":{"LocationId":"NT_2lckJM-k8qIynRCs0zWAFB_l_781432917_L","LocationType":"point","DisplayPosition":{"Latitude":50.87608,"Longitude":10.51597},"MapView":{"TopLeft":{"Latitude":50.87625,"Longitude":10.51597},"BottomRight":{"Latitude":50.87608,"Longitude":10.51604}},"Address":{"Label":"Reinhardsbrunner Straße, 99891 Bad Tabarz, Deutschland","Country":"DEU","State":"Thüringen","County":"Gotha","City":"Bad Tabarz","District":"Bad Tabarz","Street":"Reinhardsbrunner Straße","PostalCode":"99891","AdditionalData":[{"value":"Deutschland","key":"CountryName"},{"value":"Thüringen","key":"StateName"},{"value":"Gotha","key":"CountyName"}]},"MapReference":{"ReferenceId":"781432917","Spot":0.0,"SideOfStreet":"left","CountryId":"20147700","StateId":"20196974","CountyId":"20197983","CityId":"20198096","DistrictId":"20198098"}}},{"Relevance":1.0,"Distance":69.9,"MatchLevel":"houseNumber","MatchQuality":{"Country":1.0,"State":1.0,"County":1.0,"City":1.0,"District":1.0,"Street":[1.0],"HouseNumber":1.0,"PostalCode":1.0},"MatchType":"interpolated","Location":{"LocationId":"NT_bm6tqCFZ81s3.ylCZ8nJND_0A","LocationType":"point","DisplayPosition":{"Latitude":50.87546,"Longitude":10.51606},"MapView":{"TopLeft":{"Latitude":50.8765842,"Longitude":10.5142785},"BottomRight":{"Latitude":50.8743358,"Longitude":10.5178415}},"Address":{"Label":"Zimmerbergstraße 4, 99891 Bad Tabarz, Deutschland","Country":"DEU","State":"Thüringen","County":"Gotha","City":"Bad Tabarz","District":"Bad Tabarz","Street":"Zimmerbergstraße","HouseNumber":"4","PostalCode":"99891","AdditionalData":[{"value":"Deutschland","key":"CountryName"},{"value":"Thüringen","key":"StateName"},{"value":"Gotha","key":"CountyName"}]},"MapReference":{"ReferenceId":"544006793","Spot":0.38,"SideOfStreet":"left","CountryId":"20147700","StateId":"20196974","CountyId":"20197983","CityId":"20198096","DistrictId":"20198098","AddressId":"189235895","RoadLinkId":"39666825"}}},{"Relevance":1.0,"Distance":84.7,"MatchLevel":"houseNumber","MatchQuality":{"Country":1.0,"State":1.0,"County":1.0,"City":1.0,"District":1.0,"Street":[1.0],"HouseNumber":1.0,"PostalCode":1.0},"MatchType":"interpolated","Location":{"LocationId":"NT_899OU0vjgKX1d-wtzX7cGB_3A","LocationType":"point","DisplayPosition":{"Latitude":50.87605,"Longitude":10.51395},"MapView":{"TopLeft":{"Latitude":50.8771742,"Longitude":10.5121685},"BottomRight":{"Latitude":50.8749258,"Longitude":10.5157315}},"Address":{"Label":"Böttchergasse 7, 99891 Bad Tabarz, Deutschland","Country":"DEU","State":"Thüringen","County":"Gotha","City":"Bad Tabarz","District":"Bad Tabarz","Street":"Böttchergasse","HouseNumber":"7","PostalCode":"99891","AdditionalData":[{"value":"Deutschland","key":"CountryName"},{"value":"Thüringen","key":"StateName"},{"value":"Gotha","key":"CountyName"}]},"MapReference":{"ReferenceId":"554809980","Spot":0.54,"SideOfStreet":"right","CountryId":"20147700","StateId":"20196974","CountyId":"20197983","CityId":"20198096","DistrictId":"20198098","AddressId":"189588032","RoadLinkId":"40122160"}}},{"Relevance":1.0,"Distance":101.1,"MatchLevel":"houseNumber","MatchQuality":{"Country":1.0,"State":1.0,"County":1.0,"City":1.0,"District":1.0,"Street":[1.0],"HouseNumber":1.0,"PostalCode":1.0},"MatchType":"interpolated","Location":{"LocationId":"NT_bm6tqCFZ81s3.ylCZ8nJND_4A","LocationType":"point","DisplayPosition":{"Latitude":50.87506,"Longitude":10.51596},"MapView":{"TopLeft":{"Latitude":50.8761842,"Longitude":10.5141785},"BottomRight":{"Latitude":50.8739358,"Longitude":10.5177415}},"Address":{"Label":"Zimmerbergstraße 8, 99891 Bad Tabarz, Deutschland","Country":"DEU","State":"Thüringen","County":"Gotha","City":"Bad Tabarz","District":"Bad Tabarz","Street":"Zimmerbergstraße","HouseNumber":"8","PostalCode":"99891","AdditionalData":[{"value":"Deutschland","key":"CountryName"},{"value":"Thüringen","key":"StateName"},{"value":"Gotha","key":"CountyName"}]},"MapReference":{"ReferenceId":"544006794","Spot":0.78,"SideOfStreet":"left","CountryId":"20147700","StateId":"20196974","CountyId":"20197983","CityId":"20198096","DistrictId":"20198098","AddressId":"189566054","RoadLinkId":"39722731"}}},{"Relevance":1.0,"Distance":115.4,"MatchLevel":"houseNumber","MatchQuality":{"Country":1.0,"State":1.0,"County":1.0,"City":1.0,"District":1.0,"Street":[1.0],"HouseNumber":1.0,"PostalCode":1.0},"MatchType":"interpolated","Location":{"LocationId":"NT_hIgsAOsrE7QkW8QmSKxmiB_xEE","LocationType":"point","DisplayPosition":{"Latitude":50.87661,"Longitude":10.51668},"MapView":{"TopLeft":{"Latitude":50.8777342,"Longitude":10.5148984},"BottomRight":{"Latitude":50.8754858,"Longitude":10.5184616}},"Address":{"Label":"Waltershäuser Straße 1A, 99891 Bad Tabarz, Deutschland","Country":"DEU","State":"Thüringen","County":"Gotha","City":"Bad Tabarz","District":"Bad Tabarz","Street":"Waltershäuser Straße","HouseNumber":"1A","PostalCode":"99891","AdditionalData":[{"value":"Deutschland","key":"CountryName"},{"value":"Thüringen","key":"StateName"},{"value":"Gotha","key":"CountyName"}]},"MapReference":{"ReferenceId":"554809380","Spot":0.4,"SideOfStreet":"left","CountryId":"20147700","StateId":"20196974","CountyId":"20197983","CityId":"20198096","DistrictId":"20198098","AddressId":"189284694","RoadLinkId":"39641919"}}}]}]}}