{"Response":{"MetaInfo":{"Timestamp":"2020-03-28T11:01:02.660+0000","NextPageInformation":"2"},"View":[{"_type":"SearchResultsViewType","ViewId":0,"Result":[{"Relevance":1.0,"Distance":0.0,"Direction":0.0,"MatchLevel":"district","MatchQuality":{"Country":1.0,"State":1.0,"County":1.0,"City":1.0,"District":1.0,"PostalCode":1.0},"Location":{"LocationId":"NT_0pyyiA4IBgpcwg.J7HXQIC","LocationType":"point","DisplayPosition":{"Latitude":50.8107817,"Longitude":12.5493202},"MapView":{"TopLeft":{"Latitude":50.84278,"Longitude":12.49648},"BottomRight":{"Latitude":50.7984,"Longitude":12.58933}},"Address":{"Label":"Glauchau, Sachsen, Deutschland","Country":"DEU","State":"Sachsen","County":"Zwickau","City":"Glauchau","District":"Glauchau","PostalCode":"08371","AdditionalData":[{"value":"Deutschland","key":"CountryName"},{"value":"Sachsen","key":"StateName"},{"value":"Zwickau","key":"CountyName"}]},"MapReference":{"ReferenceId":"540777966","SideOfStreet":"neither","CountryId":"20147700","StateId":"20191185","CountyId":"20191467","CityId":"20211857","DistrictId":"20212675"}}},{"Relevance":1.0,"Distance":4.7,"MatchLevel":"houseNumber","MatchQuality":{"Country":1.0,"State":1.0,"County":1.0,"City":1.0,"District":1.0,"Street":[1.0],"HouseNumber":1.0,"PostalCode":1.0},"MatchType":"interpolated","Location":{"LocationId":"NT_Ln-okQ2EXKVPfGeMqGIvCC_2YE","LocationType":"point","DisplayPosition":{"Latitude":50.8108,"Longitude":12.54926},"MapView":{"TopLeft":{"Latitude":50.8119242,"Longitude":12.5474809},"BottomRight":{"Latitude":50.8096758,"Longitude":12.5510391}},"Address":{"Label":"Virchowstraße 6F, 08371 Glauchau, Deutschland","Country":"DEU","State":"Sachsen","County":"Zwickau","City":"Glauchau","District":"Glauchau","Street":"Virchowstraße","HouseNumber":"6F","PostalCode":"08371","AdditionalData":[{"value":"Deutschland","key":"CountryName"},{"value":"Sachsen","key":"StateName"},{"value":"Zwickau","key":"CountyName"}]},"MapReference":{"ReferenceId":"548123654","Spot":0.91,"SideOfStreet":"left","CountryId":"20147700","StateId":"20191185","CountyId":"20191467","CityId":"20211857","DistrictId":"20212675","AddressId":"190084533","RoadLinkId":"39606401"}}},{"Relevance":1.0,"Distance":32.7,"MatchLevel":"street","MatchQuality":{"Country":1.0,"State":1.0,"County":1.0,"City":1.0,"District":1.0,"Street":[1.0],"PostalCode":1.0},"Location":{"LocationId":"NT_Ln-okQ2EXKVPfGeMqGIvCC_l_1133704563_R","LocationType":"point","DisplayPosition":{"Latitude":50.81096,"Longitude":12.54895},"MapView":{"TopLeft":{"Latitude":50.8112,"Longitude":12.54846},"BottomRight":{"Latitude":50.81096,"Longitude":12.54895}},"Address":{"Label":"Virchowstraße, 08371 Glauchau, Deutschland","Country":"DEU","State":"Sachsen","County":"Zwickau","City":"Glauchau","District":"Glauchau","Street":"Virchowstraße","PostalCode":"08371","AdditionalData":[{"value":"Deutschland","key":"CountryName"},{"value":"Sachsen","key":"StateName"},{"value":"Zwickau","key":"CountyName"}]},"MapReference":{"ReferenceId":"1133704563","Spot":0.0,"SideOfStreet":"right","CountryId":"20147700","StateId":"20191185","CountyId":"20191467","CityId":"20211857","DistrictId":"20212675"}}},{"Relevance":1.0,"Distance":65.4,"MatchLevel":"houseNumber","MatchQuality":{"Country":1.0,"State":1.0,"County":1.0,"City":1.0,"District":1.0,"Street":[1.0],"HouseNumber":1.0,"PostalCode":1.0},"MatchType":"interpolated","Location":{"LocationId":"NT_NWPMoAHWEU59PhJ.M-sSKB_zUD","LocationType":"point","DisplayPosition":{"Latitude":50.81138,"Longitude":12.54872},"MapView":{"TopLeft":{"Latitude":50.8125042,"Longitude":12.5469409},"BottomRight":{"Latitude":50.8102558,"Longitude":12.5504991}},"Address":{"Label":"Robert-Koch-Siedlung 35, 08371 Glauchau, Deutschland","Country":"DEU","State":"Sachsen","County":"Zwickau","City":"Glauchau","District":"Glauchau","Street":"Robert-Koch-Siedlung","HouseNumber":"35","PostalCode":"08371","AdditionalData":[{"value":"Deutschland","key":"CountryName"},{"value":"Sachsen","key":"StateName"},{"value":"Zwickau","key":"CountyName"}]},"MapReference":{"ReferenceId":"1133704567","Spot":0.35,"SideOfStreet":"right","CountryId":"20147700","StateId":"20191185","CountyId":"20191467","CityId":"20211857","DistrictId":"20212675","AddressId":"190216160","RoadLinkId":"443660661"}}},{"Relevance":1.0,"Distance":65.6,"MatchLevel":"houseNumber","MatchQuality":{"Country":1.0,"State":1.0,"County":1.0,"City":1.0,"District":1.0,"Street":[1.0],"HouseNumber":1.0,"PostalCode":1.0},"MatchType":"interpolated","Location":{"LocationId":"NT_NWPMoAHWEU59PhJ.M-sSKB_zkD","LocationType":"point","DisplayPosition":{"Latitude":50.8114,"Longitude":12.54946},"MapView":{"TopLeft":{"Latitude":50.8125242,"Longitude":12.5476809},"BottomRight":{"Latitude":50.8102758,"Longitude":12.5512391}},"Address":{"Label":"Robert-Koch-Siedlung 39, 08371 Glauchau, Deutschland","Country":"DEU","State":"Sachsen","County":"Zwickau","City":"Glauchau","District":"Glauchau","Street":"Robert-Koch-Siedlung","HouseNumber":"39","PostalCode":"08371","AdditionalData":[{"value":"Deutschland","key":"CountryName"},{"value":"Sachsen","key":"StateName"},{"value":"Zwickau","key":"CountyName"}]},"MapReference":{"ReferenceId":"1133721272","Spot":0.32,"SideOfStreet":"right","CountryId":"20147700","StateId":"20191185","CountyId":"20191467","CityId":"20211857","DistrictId":"20212675","AddressId":"189969196","RoadLinkId":"443670666"}}},{"Relevance":1.0,"Distance":79.7,"MatchLevel":"street","MatchQuality":{"Country":1.0,"State":1.0,"County":1.0,"City":1.0,"District":1.0,"PostalCode":1.0},"Location":{"LocationId":"NT_d0c.wIFio0QAG6D0mvnAaD_l_1188149188_L","LocationType":"point","DisplayPosition":{"Latitude":50.8104,"Longitude":12.55028},"MapView":{"TopLeft":{"Latitude":50.81116,"Longitude":12.55028},"BottomRight":{"Latitude":50.8104,"Longitude":12.55133}},"Address":{"Label":"08371 Glauchau, Deutschland","Country":"DEU","State":"Sachsen","County":"Zwickau","City":"Glauchau","District":"Glauchau","PostalCode":"08371","AdditionalData":[{"value":"Deutschland","key":"CountryName"},{"value":"Sachsen","key":"StateName"},{"value":"Zwickau","key":"CountyName"}]},"MapReference":{"ReferenceId":"1188149188","Spot":0.0,"SideOfStreet":"left","CountryId":"20147700","StateId":"20191185","CountyId":"20191467","CityId":"20211857","DistrictId":"20212675"}}},{"Relevance":1.0,"Distance":108.3,"MatchLevel":"street","MatchQuality":{"Country":1.0,"State":1.0,"County":1.0,"City":1.0,"District":1.0,"Street":[1.0],"PostalCode":1.0},"Location":{"LocationId":"NT_NWPMoAHWEU59PhJ.M-sSKB_l_1133704568_L","LocationType":"point","DisplayPosition":{"Latitude":50.81175,"Longitude":12.54916},"MapView":{"TopLeft":{"Latitude":50.81202,"Longitude":12.54885},"BottomRight":{"Latitude":50.81175,"Longitude":12.54916}},"Address":{"Label":"Robert-Koch-Siedlung, 08371 Glauchau, Deutschland","Country":"DEU","State":"Sachsen","County":"Zwickau","City":"Glauchau","District":"Glauchau","Street":"Robert-Koch-Siedlung","PostalCode":"08371","AdditionalData":[{"value":"Deutschland","key":"CountryName"},{"value":"Sachsen","key":"StateName"},{"value":"Zwickau","key":"CountyName"}]},"MapReference":{"ReferenceId":"1133704568","Spot":0.0,"SideOfStreet":"left","CountryId":"20147700","StateId":"20191185","CountyId":"20191467","CityId":"20211857","DistrictId":"20212675"}}},{"Relevance":1.0,"Distance":117.0,"MatchLevel":"houseNumber","MatchQuality":{"Country":1.0,"State":1.0,"County":1.0,"City":1.0,"District":1.0,"Street":[1.0],"HouseNumber":1.0,"PostalCode":1.0},"MatchType":"interpolated","Location":{"LocationId":"NT_NWPMoAHWEU59PhJ.M-sSKB_zMD","LocationType":"point","DisplayPosition":{"Latitude":50.81199,"Longitude":12.54867},"MapView":{"TopLeft":{"Latitude":50.8131142,"Longitude":12.5468909},"BottomRight":{"Latitude":50.8108658,"Longitude":12.5504491}},"Address":{"Label":"Robert-Koch-Siedlung 33, 08371 Glauchau, Deutschland","Country":"DEU","State":"Sachsen","County":"Zwickau","City":"Glauchau","District":"Glauchau","Street":"Robert-Koch-Siedlung","HouseNumber":"33","PostalCode":"08371","AdditionalData":[{"value":"Deutschland","key":"CountryName"},{"value":"Sachsen","key":"StateName"},{"value":"Zwickau","key":"CountyName"}]},"MapReference":{"ReferenceId":"1133704570","Spot":0.0,"SideOfStreet":"left","CountryId":"20147700","StateId":"20191185","CountyId":"20191467","CityId":"20211857","DistrictId":"20212675","AddressId":"190216157","RoadLinkId":"443660665"}}},{"Relevance":1.0,"Distance":125.1,"MatchLevel":"houseNumber","MatchQuality":{"Country":1.0,"State":1.0,"County":1.0,"City":1.0,"District":1.0,"Street":[1.0],"HouseNumber":1.0,"PostalCode":1.0},"MatchType":"interpolated","Location":{"LocationId":"NT_AbdAA7MTTpkMyCXkpFrX2C_1MD","LocationType":"point","DisplayPosition":{"Latitude":50.80963,"Longitude":12.5483},"MapView":{"TopLeft":{"Latitude":50.8107542,"Longitude":12.546521},"BottomRight":{"Latitude":50.8085058,"Longitude":12.550079}},"Address":{"Label":"Wettiner Straße 53, 08371 Glauchau, Deutschland","Country":"DEU","State":"Sachsen","County":"Zwickau","City":"Glauchau","District":"Glauchau","Street":"Wettiner Straße","HouseNumber":"53","PostalCode":"08371","AdditionalData":[{"value":"Deutschland","key":"CountryName"},{"value":"Sachsen","key":"StateName"},{"value":"Zwickau","key":"CountyName"}]},"MapReference":{"ReferenceId":"548123656","Spot":0.02,"SideOfStreet":"right","CountryId":"20147700","StateId":"20191185","CountyId":"20191467","CityId":"20211857","DistrictId":"20212675","AddressId":"189913770","RoadLinkId":"39876231"}}},{"Relevance":1.0,"Distance":126.3,"MatchLevel":"houseNumber","MatchQuality":{"Country":1.0,"State":1.0,"County":1.0,"City":1.0,"District":1.0,"Street":[1.0],"HouseNumber":1.0,"PostalCode":1.0},"MatchType":"interpolated","Location":{"LocationId":"NT_Ln-okQ2EXKVPfGeMqGIvCC_2A","LocationType":"point","DisplayPosition":{"Latitude":50.81147,"Longitude":12.54789},"MapView":{"TopLeft":{"Latitude":50.8125942,"Longitude":12.5461109},"BottomRight":{"Latitude":50.8103458,"Longitude":12.5496691}},"Address":{"Label":"Virchowstraße 6, 08371 Glauchau, Deutschland","Country":"DEU","State":"Sachsen","County":"Zwickau","City":"Glauchau","District":"Glauchau","Street":"Virchowstraße","HouseNumber":"6","PostalCode":"08371","AdditionalData":[{"value":"Deutschland","key":"CountryName"},{"value":"Sachsen","key":"StateName"},{"value":"Zwickau","key":"CountyName"}]},"MapReference":{"ReferenceId":"1133704564","Spot":0.59,"SideOfStreet":"left","CountryId":"20147700","StateId":"20191185","CountyId":"20191467","CityId":"20211857","DistrictId":"20212675","AddressId":"190198458","RoadLinkId":"443660652"}}}]}]}}