{"Response":{"MetaInfo":{"Timestamp":"2020-03-28T11:45:12.648+0000","NextPageInformation":"2"},"View":[{"_type":"SearchResultsViewType","ViewId":0,"Result":[{"Relevance":1.0,"Distance":0.0,"Direction":0.0,"MatchLevel":"district","MatchQuality":{"Country":1.0,"State":1.0,"County":1.0,"City":1.0,"District":1.0,"PostalCode":1.0},"Location":{"LocationId":"NT_3QVr0ID103JnnGL5p0hXED","LocationType":"point","DisplayPosition":{"Latitude":50.8565389,"Longitude":13.0760339},"MapView":{"TopLeft":{"Latitude":50.86748,"Longitude":13.05593},"BottomRight":{"Latitude":50.83706,"Longitude":13.08918}},"Address":{"Label":"Flöha, Sachsen, Deutschland","Country":"DEU","State":"Sachsen","County":"Mittelsachsen","City":"Flöha","District":"Flöha","PostalCode":"09557","AdditionalData":[{"value":"Deutschland","key":"CountryName"},{"value":"Sachsen","key":"StateName"},{"value":"Mittelsachsen","key":"CountyName"}]},"MapReference":{"ReferenceId":"843922888","SideOfStreet":"neither","CountryId":"20147700","StateId":"20191185","CountyId":"23409401","CityId":"20192136","DistrictId":"20192139"}}},{"Relevance":1.0,"Distance":15.0,"MatchLevel":"houseNumber","MatchQuality":{"Country":1.0,"State":1.0,"County":1.0,"City":1.0,"District":1.0,"Street":[1.0],"HouseNumber":1.0,"PostalCode":1.0},"MatchType":"interpolated","Location":{"LocationId":"NT_dzekpdohhVp-9MmIYA2aRD_zgD","LocationType":"point","DisplayPosition":{"Latitude":50.85644,"Longitude":13.07618},"MapView":{"TopLeft":{"Latitude":50.8575642,"Longitude":13.0743992},"BottomRight":{"Latitude":50.8553158,"Longitude":13.0779608}},"Address":{"Label":"Rudolf-Breitscheid-Straße 38, 09557 Flöha, Deutschland","Country":"DEU","State":"Sachsen","County":"Mittelsachsen","City":"Flöha","District":"Flöha","Street":"Rudolf-Breitscheid-Straße","HouseNumber":"38","PostalCode":"09557","AdditionalData":[{"value":"Deutschland","key":"CountryName"},{"value":"Sachsen","key":"StateName"},{"value":"Mittelsachsen","key":"CountyName"}]},"MapReference":{"ReferenceId":"543873951","Spot":0.1,"SideOfStreet":"left","CountryId":"20147700","StateId":"20191185","CountyId":"23409401","CityId":"20192136","DistrictId":"20192139","AddressId":"190135383","RoadLinkId":"39702685"}}},{"Relevance":1.0,"Distance":27.9,"MatchLevel":"houseNumber","MatchQuality":{"Country":1.0,"State":1.0,"County":1.0,"City":1.0,"District":1.0,"Street":[1.0],"HouseNumber":1.0,"PostalCode":1.0},"MatchType":"interpolated","Location":{"LocationId":"NT_dzekpdohhVp-9MmIYA2aRD_zYD","LocationType":"point","DisplayPosition":{"Latitude":50.85654,"Longitude":13.07561},"MapView":{"TopLeft":{"Latitude":50.8576642,"Longitude":13.0738292},"BottomRight":{"Latitude":50.8554158,"Longitude":13.0773908}},"Address":{"Label":"Rudolf-Breitscheid-Straße 36, 09557 Flöha, Deutschland","Country":"DEU","State":"Sachsen","County":"Mittelsachsen","City":"Flöha","District":"Flöha","Street":"Rudolf-Breitscheid-Straße","HouseNumber":"36","PostalCode":"09557","AdditionalData":[{"value":"Deutschland","key":"CountryName"},{"value":"Sachsen","key":"StateName"},{"value":"Mittelsachsen","key":"CountyName"}]},"MapReference":{"ReferenceId":"548119640","Spot":0.14,"SideOfStreet":"right","CountryId":"20147700","StateId":"20191185","CountyId":"23409401","CityId":"20192136","DistrictId":"20192139","AddressId":"190062252","RoadLinkId":"39756510"}}},{"Relevance":1.0,"Distance":34.4,"MatchLevel":"houseNumber","MatchQuality":{"Country":1.0,"State":1.0,"County":1.0,"City":1.0,"District":1.0,"Street":[1.0],"HouseNumber":1.0,"PostalCode":1.0},"MatchType":"interpolated","Location":{"LocationId":"NT_0OpsI-5LJ4PHqgMvoLYW2A_0A","LocationType":"point","DisplayPosition":{"Latitude":50.85626,"Longitude":13.07581},"MapView":{"TopLeft":{"Latitude":50.8573842,"Longitude":13.0740292},"BottomRight":{"Latitude":50.8551358,"Longitude":13.0775908}},"Address":{"Label":"Bahnhofstraße 4, 09557 Flöha, Deutschland","Country":"DEU","State":"Sachsen","County":"Mittelsachsen","City":"Flöha","District":"Flöha","Street":"Bahnhofstraße","HouseNumber":"4","PostalCode":"09557","AdditionalData":[{"value":"Deutschland","key":"CountryName"},{"value":"Sachsen","key":"StateName"},{"value":"Mittelsachsen","key":"CountyName"}]},"MapReference":{"ReferenceId":"543873881","Spot":0.49,"SideOfStreet":"right","CountryId":"20147700","StateId":"20191185","CountyId":"23409401","CityId":"20192136","DistrictId":"20192139","AddressId":"189880097","RoadLinkId":"40075408"}}},{"Relevance":1.0,"Distance":55.6,"MatchLevel":"houseNumber","MatchQuality":{"Country":1.0,"State":1.0,"County":1.0,"City":1.0,"District":1.0,"Street":[1.0],"HouseNumber":1.0,"PostalCode":1.0},"MatchType":"interpolated","Location":{"LocationId":"NT_0OpsI-5LJ4PHqgMvoLYW2A_2A","LocationType":"point","DisplayPosition":{"Latitude":50.85703,"Longitude":13.07618},"MapView":{"TopLeft":{"Latitude":50.8581542,"Longitude":13.0743992},"BottomRight":{"Latitude":50.8559058,"Longitude":13.0779608}},"Address":{"Label":"Bahnhofstraße 6, 09557 Flöha, Deutschland","Country":"DEU","State":"Sachsen","County":"Mittelsachsen","City":"Flöha","District":"Flöha","Street":"Bahnhofstraße","HouseNumber":"6","PostalCode":"09557","AdditionalData":[{"value":"Deutschland","key":"CountryName"},{"value":"Sachsen","key":"StateName"},{"value":"Mittelsachsen","key":"CountyName"}]},"MapReference":{"ReferenceId":"543873845","Spot":0.63,"SideOfStreet":"right","CountryId":"20147700","StateId":"20191185","CountyId":"23409401","CityId":"20192136","DistrictId":"20192139","AddressId":"189757636","RoadLinkId":"39940963"}}},{"Relevance":1.0,"Distance":57.1,"MatchLevel":"street","MatchQuality":{"Country":1.0,"State":1.0,"County":1.0,"City":1.0,"District":1.0,"Street":[1.0],"PostalCode":1.0},"Location":{"LocationId":"NT_0OpsI-5LJ4PHqgMvoLYW2A_l_977234456_L","LocationType":"point","DisplayPosition":{"Latitude":50.85606,"Longitude":13.07574},"MapView":{"TopLeft":{"Latitude":50.85606,"Longitude":13.07562},"BottomRight":{"Latitude":50.856,"Longitude":13.07574}},"Address":{"Label":"Bahnhofstraße, 09557 Flöha, Deutschland","Country":"DEU","State":"Sachsen","County":"Mittelsachsen","City":"Flöha","District":"Flöha","Street":"Bahnhofstraße","PostalCode":"09557","AdditionalData":[{"value":"Deutschland","key":"CountryName"},{"value":"Sachsen","key":"StateName"},{"value":"Mittelsachsen","key":"CountyName"}]},"MapReference":{"ReferenceId":"977234456","Spot":1.0,"SideOfStreet":"left","CountryId":"20147700","StateId":"20191185","CountyId":"23409401","CityId":"20192136","DistrictId":"20192139"}}},{"Relevance":1.0,"Distance":59.0,"MatchLevel":"street","MatchQuality":{"Country":1.0,"State":1.0,"County":1.0,"City":1.0,"District":1.0,"Street":[1.0],"PostalCode":1.0},"Location":{"LocationId":"NT_0OpsI-5LJ4PHqgMvoLYW2A_l_543873994_R","LocationType":"point","DisplayPosition":{"Latitude":50.8560239,"Longitude":13.0758324},"MapView":{"TopLeft":{"Latitude":50.85606,"Longitude":13.07574},"BottomRight":{"Latitude":50.85597,"Longitude":13.07597}},"Address":{"Label":"Bahnhofstraße, 09557 Flöha, Deutschland","Country":"DEU","State":"Sachsen","County":"Mittelsachsen","City":"Flöha","District":"Flöha","Street":"Bahnhofstraße","PostalCode":"09557","AdditionalData":[{"value":"Deutschland","key":"CountryName"},{"value":"Sachsen","key":"StateName"},{"value":"Mittelsachsen","key":"CountyName"}]},"MapReference":{"ReferenceId":"543873994","Spot":0.6,"SideOfStreet":"right","CountryId":"20147700","StateId":"20191185","CountyId":"23409401","CityId":"20192136","DistrictId":"20192139"}}},{"Relevance":1.0,"Distance":61.9,"MatchLevel":"houseNumber","MatchQuality":{"Country":1.0,"State":1.0,"County":1.0,"City":1.0,"District":1.0,"Street":[1.0],"HouseNumber":1.0,"PostalCode":1.0},"MatchType":"interpolated","Location":{"LocationId":"NT_0OpsI-5LJ4PHqgMvoLYW2A_5A","LocationType":"point","DisplayPosition":{"Latitude":50.85596,"Longitude":13.07549},"MapView":{"TopLeft":{"Latitude":50.8570842,"Longitude":13.0737092},"BottomRight":{"Latitude":50.8548358,"Longitude":13.0772708}},"Address":{"Label":"Bahnhofstraße 9, 09557 Flöha, Deutschland","Country":"DEU","State":"Sachsen","County":"Mittelsachsen","City":"Flöha","District":"Flöha","Street":"Bahnhofstraße","HouseNumber":"9","PostalCode":"09557","AdditionalData":[{"value":"Deutschland","key":"CountryName"},{"value":"Sachsen","key":"StateName"},{"value":"Mittelsachsen","key":"CountyName"}]},"MapReference":{"ReferenceId":"977234455","Spot":0.91,"SideOfStreet":"left","CountryId":"20147700","StateId":"20191185","CountyId":"23409401","CityId":"20192136","DistrictId":"20192139","AddressId":"199326516","RoadLinkId":"311688191"}}},{"Relevance":1.0,"Distance":66.6,"MatchLevel":"street","MatchQuality":{"Country":1.0,"State":1.0,"County":1.0,"City":1.0,"District":1.0,"Street":[1.0],"PostalCode":1.0},"Location":{"LocationId":"NT_0OpsI-5LJ4PHqgMvoLYW2A_l_977234458_R","LocationType":"point","DisplayPosition":{"Latitude":50.856,"Longitude":13.07562},"MapView":{"TopLeft":{"Latitude":50.856,"Longitude":13.07562},"BottomRight":{"Latitude":50.85592,"Longitude":13.07564}},"Address":{"Label":"Bahnhofstraße, 09557 Flöha, Deutschland","Country":"DEU","State":"Sachsen","County":"Mittelsachsen","City":"Flöha","District":"Flöha","Street":"Bahnhofstraße","PostalCode":"09557","AdditionalData":[{"value":"Deutschland","key":"CountryName"},{"value":"Sachsen","key":"StateName"},{"value":"Mittelsachsen","key":"CountyName"}]},"MapReference":{"ReferenceId":"977234458","Spot":1.0,"SideOfStreet":"right","CountryId":"20147700","StateId":"20191185","CountyId":"23409401","CityId":"20192136","DistrictId":"20192139"}}},{"Relevance":1.0,"Distance":74.2,"MatchLevel":"street","MatchQuality":{"Country":1.0,"State":1.0,"County":1.0,"City":1.0,"District":1.0,"Street":[1.0],"PostalCode":1.0},"Location":{"LocationId":"NT_0OpsI-5LJ4PHqgMvoLYW2A_l_1207321371_R","LocationType":"point","DisplayPosition":{"Latitude":50.85592,"Longitude":13.07564},"MapView":{"TopLeft":{"Latitude":50.85592,"Longitude":13.07544},"BottomRight":{"Latitude":50.85577,"Longitude":13.07564}},"Address":{"Label":"Bahnhofstraße, 09557 Flöha, Deutschland","Country":"DEU","State":"Sachsen","County":"Mittelsachsen","City":"Flöha","District":"Flöha","Street":"Bahnhofstraße","PostalCode":"09557","AdditionalData":[{"value":"Deutschland","key":"CountryName"},{"value":"Sachsen","key":"StateName"},{"value":"Mittelsachsen","key":"CountyName"}]},"MapReference":{"ReferenceId":"1207321371","Spot":1.0,"SideOfStreet":"right","CountryId":"20147700","StateId":"20191185","CountyId":"23409401","CityId":"20192136","DistrictId":"20192139"}}}]}]}}