{"Response":{"MetaInfo":{"Timestamp":"2020-03-28T11:38:36.151+0000","NextPageInformation":"2"},"View":[{"_type":"SearchResultsViewType","ViewId":0,"Result":[{"Relevance":1.0,"Distance":0.0,"Direction":0.0,"MatchLevel":"city","MatchQuality":{"Country":1.0,"State":1.0,"County":1.0,"City":1.0,"PostalCode":1.0},"Location":{"LocationId":"NT_SHfeh7z839h9waXKahQ0RD","LocationType":"point","DisplayPosition":{"Latitude":50.8134483,"Longitude":4.9276233},"MapView":{"TopLeft":{"Latitude":50.86415,"Longitude":4.85161},"BottomRight":{"Latitude":50.75221,"Longitude":5.01952}},"Address":{"Label":"Tienen, Vlaanderen, België","Country":"BEL","State":"Vlaanderen","County":"Vlaams Brabant","City":"Tienen","PostalCode":"3300","AdditionalData":[{"value":"België","key":"CountryName"},{"value":"Vlaanderen","key":"StateName"},{"value":"Vlaams Brabant","key":"CountyName"}]},"MapReference":{"ReferenceId":"905102157","SideOfStreet":"neither","CountryId":"20128886","StateId":"20204377","CountyId":"20207856","CityId":"20208174"}}},{"Relevance":1.0,"Distance":8.1,"MatchLevel":"houseNumber","MatchQuality":{"Country":1.0,"State":1.0,"County":1.0,"City":1.0,"Street":[1.0],"HouseNumber":1.0,"PostalCode":1.0},"MatchType":"interpolated","Location":{"LocationId":"NT_KfUaSJetBDIa4gBjR2RAEA_zgD","LocationType":"point","DisplayPosition":{"Latitude":50.81336,"Longitude":4.92777},"MapView":{"TopLeft":{"Latitude":50.8144842,"Longitude":4.9259909},"BottomRight":{"Latitude":50.8122358,"Longitude":4.9295491}},"Address":{"Label":"Aarschotsesteenweg 38, 3300 Tienen, België","Country":"BEL","State":"Vlaanderen","County":"Vlaams Brabant","City":"Tienen","Street":"Aarschotsesteenweg","HouseNumber":"38","PostalCode":"3300","AdditionalData":[{"value":"België","key":"CountryName"},{"value":"Vlaanderen","key":"StateName"},{"value":"Vlaams Brabant","key":"CountyName"}]},"MapReference":{"ReferenceId":"820022371","Spot":1.0,"SideOfStreet":"left","CountryId":"20128886","StateId":"20204377","CountyId":"20207856","CityId":"20208174","AddressId":"401052211","RoadLinkId":"206855367"}}},{"Relevance":1.0,"Distance":14.3,"MatchLevel":"houseNumber","MatchQuality":{"Country":1.0,"State":1.0,"County":1.0,"City":1.0,"Street":[1.0],"HouseNumber":1.0,"PostalCode":1.0},"MatchType":"interpolated","Location":{"LocationId":"NT_KfUaSJetBDIa4gBjR2RAEA_0ID","LocationType":"point","DisplayPosition":{"Latitude":50.81357,"Longitude":4.92769},"MapView":{"TopLeft":{"Latitude":50.8146942,"Longitude":4.9259108},"BottomRight":{"Latitude":50.8124458,"Longitude":4.9294692}},"Address":{"Label":"Aarschotsesteenweg 42, 3300 Tienen, België","Country":"BEL","State":"Vlaanderen","County":"Vlaams Brabant","City":"Tienen","Street":"Aarschotsesteenweg","HouseNumber":"42","PostalCode":"3300","AdditionalData":[{"value":"België","key":"CountryName"},{"value":"Vlaanderen","key":"StateName"},{"value":"Vlaams Brabant","key":"CountyName"}]},"MapReference":{"ReferenceId":"820022372","Spot":0.12,"SideOfStreet":"left","CountryId":"20128886","StateId":"20204377","CountyId":"20207856","CityId":"20208174","AddressId":"400893299","RoadLinkId":"206855368"}}},{"Relevance":1.0,"Distance":23.7,"MatchLevel":"houseNumber","MatchQuality":{"Country":1.0,"State":1.0,"County":1.0,"City":1.0,"Street":[1.0],"HouseNumber":1.0,"PostalCode":1.0},"MatchType":"interpolated","Location":{"LocationId":"NT_L13M4AMK0q8aIegvI617oC_yA","LocationType":"point","DisplayPosition":{"Latitude":50.81341,"Longitude":4.92799},"MapView":{"TopLeft":{"Latitude":50.8145342,"Longitude":4.9262109},"BottomRight":{"Latitude":50.8122858,"Longitude":4.9297691}},"Address":{"Label":"Park Passionisten 2, 3300 Tienen, België","Country":"BEL","State":"Vlaanderen","County":"Vlaams Brabant","City":"Tienen","Street":"Park Passionisten","HouseNumber":"2","PostalCode":"3300","AdditionalData":[{"value":"België","key":"CountryName"},{"value":"Vlaanderen","key":"StateName"},{"value":"Vlaams Brabant","key":"CountyName"}]},"MapReference":{"ReferenceId":"1126996568","Spot":0.07,"SideOfStreet":"left","CountryId":"20128886","StateId":"20204377","CountyId":"20207856","CityId":"20208174","AddressId":"775355888","RoadLinkId":"436839474"}}},{"Relevance":1.0,"Distance":36.7,"MatchLevel":"houseNumber","MatchQuality":{"Country":1.0,"State":1.0,"County":1.0,"City":1.0,"Street":[1.0],"HouseNumber":1.0,"PostalCode":1.0},"MatchType":"interpolated","Location":{"LocationId":"NT_rf0Ma2LOdjtAFgEao0f2DC_1A","LocationType":"point","DisplayPosition":{"Latitude":50.8131,"Longitude":4.92722},"MapView":{"TopLeft":{"Latitude":50.8142242,"Longitude":4.9254409},"BottomRight":{"Latitude":50.8119758,"Longitude":4.9289991}},"Address":{"Label":"Breisemstraat 5, 3300 Tienen, België","Country":"BEL","State":"Vlaanderen","County":"Vlaams Brabant","City":"Tienen","Street":"Breisemstraat","HouseNumber":"5","PostalCode":"3300","AdditionalData":[{"value":"België","key":"CountryName"},{"value":"Vlaanderen","key":"StateName"},{"value":"Vlaams Brabant","key":"CountyName"}]},"MapReference":{"ReferenceId":"53729082","Spot":0.68,"SideOfStreet":"right","CountryId":"20128886","StateId":"20204377","CountyId":"20207856","CityId":"20208174","AddressId":"399546623","RoadLinkId":"30850073"}}},{"Relevance":1.0,"Distance":54.8,"MatchLevel":"houseNumber","MatchQuality":{"Country":1.0,"State":1.0,"County":1.0,"City":1.0,"Street":[1.0],"HouseNumber":1.0,"PostalCode":1.0},"MatchType":"interpolated","Location":{"LocationId":"NT_rf0Ma2LOdjtAFgEao0f2DC_5A","LocationType":"point","DisplayPosition":{"Latitude":50.81318,"Longitude":4.92679},"MapView":{"TopLeft":{"Latitude":50.8143042,"Longitude":4.9250109},"BottomRight":{"Latitude":50.8120558,"Longitude":4.9285691}},"Address":{"Label":"Breisemstraat 9, 3300 Tienen, België","Country":"BEL","State":"Vlaanderen","County":"Vlaams Brabant","City":"Tienen","Street":"Breisemstraat","HouseNumber":"9","PostalCode":"3300","AdditionalData":[{"value":"België","key":"CountryName"},{"value":"Vlaanderen","key":"StateName"},{"value":"Vlaams Brabant","key":"CountyName"}]},"MapReference":{"ReferenceId":"59717969","Spot":0.03,"SideOfStreet":"right","CountryId":"20128886","StateId":"20204377","CountyId":"20207856","CityId":"20208174","AddressId":"401024672","RoadLinkId":"30788798"}}},{"Relevance":1.0,"Distance":78.4,"MatchLevel":"houseNumber","MatchQuality":{"Country":1.0,"State":1.0,"County":1.0,"City":1.0,"Street":[1.0],"HouseNumber":1.0,"PostalCode":1.0},"MatchType":"interpolated","Location":{"LocationId":"NT_KfUaSJetBDIa4gBjR2RAEA_xYD","LocationType":"point","DisplayPosition":{"Latitude":50.81279,"Longitude":4.92799},"MapView":{"TopLeft":{"Latitude":50.8139142,"Longitude":4.9262109},"BottomRight":{"Latitude":50.8116658,"Longitude":4.9297691}},"Address":{"Label":"Aarschotsesteenweg 16, 3300 Tienen, België","Country":"BEL","State":"Vlaanderen","County":"Vlaams Brabant","City":"Tienen","Street":"Aarschotsesteenweg","HouseNumber":"16","PostalCode":"3300","AdditionalData":[{"value":"België","key":"CountryName"},{"value":"Vlaanderen","key":"StateName"},{"value":"Vlaams Brabant","key":"CountyName"}]},"MapReference":{"ReferenceId":"580403991","Spot":0.65,"SideOfStreet":"left","CountryId":"20128886","StateId":"20204377","CountyId":"20207856","CityId":"20208174","AddressId":"400835418","RoadLinkId":"30517806"}}},{"Relevance":1.0,"Distance":92.7,"MatchLevel":"houseNumber","MatchQuality":{"Country":1.0,"State":1.0,"County":1.0,"City":1.0,"Street":[1.0],"HouseNumber":1.0,"PostalCode":1.0},"MatchType":"interpolated","Location":{"LocationId":"NT_iZg9TRMoJRHCHfDGNZ7UdD_yA","LocationType":"point","DisplayPosition":{"Latitude":50.81276,"Longitude":4.92671},"MapView":{"TopLeft":{"Latitude":50.8138842,"Longitude":4.9249309},"BottomRight":{"Latitude":50.8116358,"Longitude":4.9284891}},"Address":{"Label":"Verzetstraat 2, 3300 Tienen, België","Country":"BEL","State":"Vlaanderen","County":"Vlaams Brabant","City":"Tienen","Street":"Verzetstraat","HouseNumber":"2","PostalCode":"3300","AdditionalData":[{"value":"België","key":"CountryName"},{"value":"Vlaanderen","key":"StateName"},{"value":"Vlaams Brabant","key":"CountyName"}]},"MapReference":{"ReferenceId":"59717957","Spot":0.37,"SideOfStreet":"right","CountryId":"20128886","StateId":"20204377","CountyId":"20207856","CityId":"20208174","AddressId":"400393931","RoadLinkId":"30303754"}}},{"Relevance":1.0,"Distance":115.4,"MatchLevel":"houseNumber","MatchQuality":{"Country":1.0,"State":1.0,"County":1.0,"City":1.0,"Street":[1.0],"HouseNumber":1.0,"PostalCode":1.0},"MatchType":"interpolated","Location":{"LocationId":"NT_KfUaSJetBDIa4gBjR2RAEA_0A","LocationType":"point","DisplayPosition":{"Latitude":50.81249,"Longitude":4.92817},"MapView":{"TopLeft":{"Latitude":50.8136142,"Longitude":4.9263909},"BottomRight":{"Latitude":50.8113658,"Longitude":4.9299491}},"Address":{"Label":"Aarschotsesteenweg 4, 3300 Tienen, België","Country":"BEL","State":"Vlaanderen","County":"Vlaams Brabant","City":"Tienen","Street":"Aarschotsesteenweg","HouseNumber":"4","PostalCode":"3300","AdditionalData":[{"value":"België","key":"CountryName"},{"value":"Vlaanderen","key":"StateName"},{"value":"Vlaams Brabant","key":"CountyName"}]},"MapReference":{"ReferenceId":"580403990","Spot":0.84,"SideOfStreet":"left","CountryId":"20128886","StateId":"20204377","CountyId":"20207856","CityId":"20208174","AddressId":"400973912","RoadLinkId":"30657431"}}},{"Relevance":1.0,"Distance":117.1,"MatchLevel":"houseNumber","MatchQuality":{"Country":1.0,"State":1.0,"County":1.0,"City":1.0,"Street":[1.0],"HouseNumber":1.0,"PostalCode":1.0},"MatchType":"interpolated","Location":{"LocationId":"NT_4d5MNe3A3pavUnquMWih2B_l_905435494_L_3A","LocationType":"point","DisplayPosition":{"Latitude":50.8123532,"Longitude":4.9283372},"MapView":{"TopLeft":{"Latitude":50.8134774,"Longitude":4.9265581},"BottomRight":{"Latitude":50.8112291,"Longitude":4.9301163}},"Address":{"Label":"Albertvest 7, 3300 Tienen, België","Country":"BEL","State":"Vlaanderen","County":"Vlaams Brabant","City":"Tienen","Street":"Albertvest","HouseNumber":"7","PostalCode":"3300","AdditionalData":[{"value":"België","key":"CountryName"},{"value":"Vlaanderen","key":"StateName"},{"value":"Vlaams Brabant","key":"CountyName"}]},"MapReference":{"ReferenceId":"905435494","Spot":0.19,"SideOfStreet":"left","CountryId":"20128886","StateId":"20204377","CountyId":"20207856","CityId":"20208174"}}}]}]}}