{"Response":{"MetaInfo":{"Timestamp":"2020-03-28T10:03:37.846+0000","NextPageInformation":"2"},"View":[{"_type":"SearchResultsViewType","ViewId":0,"Result":[{"Relevance":1.0,"Distance":0.0,"Direction":0.0,"MatchLevel":"district","MatchQuality":{"Country":1.0,"State":1.0,"County":1.0,"City":1.0,"District":1.0,"PostalCode":1.0},"Location":{"LocationId":"NT_d4b7lnXbcHgMVYvOJsPfgC","LocationType":"point","DisplayPosition":{"Latitude":50.8592003,"Longitude":7.1040178},"MapView":{"TopLeft":{"Latitude":50.87264,"Longitude":7.0956},"BottomRight":{"Latitude":50.8517,"Longitude":7.11939}},"Address":{"Label":"Wahnheide, Köln, Nordrhein-Westfalen, Deutschland","Country":"DEU","State":"Nordrhein-Westfalen","County":"Köln","City":"Köln","District":"Wahnheide","PostalCode":"51147","AdditionalData":[{"value":"Deutschland","key":"CountryName"},{"value":"Nordrhein-Westfalen","key":"StateName"},{"value":"Köln","key":"CountyName"}]},"MapReference":{"ReferenceId":"51047145","SideOfStreet":"neither","CountryId":"20147700","StateId":"20157369","CountyId":"20158021","CityId":"20158022","DistrictId":"20300088"}}},{"Relevance":1.0,"Distance":5.6,"MatchLevel":"houseNumber","MatchQuality":{"Country":1.0,"State":1.0,"County":1.0,"City":1.0,"District":1.0,"Street":[1.0],"HouseNumber":1.0,"PostalCode":1.0},"MatchType":"interpolated","Location":{"LocationId":"NT_cv63dza4kDlneZeZULGqoD_yEzN","LocationType":"point","DisplayPosition":{"Latitude":50.85904,"Longitude":7.10395},"MapView":{"TopLeft":{"Latitude":50.8601642,"Longitude":7.1021691},"BottomRight":{"Latitude":50.8579158,"Longitude":7.1057309}},"Address":{"Label":"Heidestraße 217, 51147 Köln, Deutschland","Country":"DEU","State":"Nordrhein-Westfalen","County":"Köln","City":"Köln","District":"Wahnheide","Street":"Heidestraße","HouseNumber":"217","PostalCode":"51147","AdditionalData":[{"value":"Deutschland","key":"CountryName"},{"value":"Nordrhein-Westfalen","key":"StateName"},{"value":"Köln","key":"CountyName"}]},"MapReference":{"ReferenceId":"1196830127","Spot":0.77,"SideOfStreet":"left","CountryId":"20147700","StateId":"20157369","CountyId":"20158021","CityId":"20158022","DistrictId":"20300088","AddressId":"249338763","RoadLinkId":"507428620"}}},{"Relevance":1.0,"Distance":15.7,"MatchLevel":"houseNumber","MatchQuality":{"Country":1.0,"State":1.0,"County":1.0,"City":1.0,"District":1.0,"Street":[1.0],"HouseNumber":1.0,"PostalCode":1.0},"MatchType":"interpolated","Location":{"LocationId":"NT_cv63dza4kDlneZeZULGqoD_yITM","LocationType":"point","DisplayPosition":{"Latitude":50.85905,"Longitude":7.10425},"MapView":{"TopLeft":{"Latitude":50.8601742,"Longitude":7.1024691},"BottomRight":{"Latitude":50.8579258,"Longitude":7.1060309}},"Address":{"Label":"Heidestraße 221, 51147 Köln, Deutschland","Country":"DEU","State":"Nordrhein-Westfalen","County":"Köln","City":"Köln","District":"Wahnheide","Street":"Heidestraße","HouseNumber":"221","PostalCode":"51147","AdditionalData":[{"value":"Deutschland","key":"CountryName"},{"value":"Nordrhein-Westfalen","key":"StateName"},{"value":"Köln","key":"CountyName"}]},"MapReference":{"ReferenceId":"1196830128","Spot":0.1,"SideOfStreet":"left","CountryId":"20147700","StateId":"20157369","CountyId":"20158021","CityId":"20158022","DistrictId":"20300088","AddressId":"249338761","RoadLinkId":"507428621"}}},{"Relevance":1.0,"Distance":41.8,"MatchLevel":"houseNumber","MatchQuality":{"Country":1.0,"State":1.0,"County":1.0,"City":1.0,"District":1.0,"Street":[1.0],"HouseNumber":1.0,"PostalCode":1.0},"MatchType":"interpolated","Location":{"LocationId":"NT_QaSNW3Y-E9fG8k30AnZ8lC_xME","LocationType":"point","DisplayPosition":{"Latitude":50.85952,"Longitude":7.10457},"MapView":{"TopLeft":{"Latitude":50.8606442,"Longitude":7.1027891},"BottomRight":{"Latitude":50.8583958,"Longitude":7.1063509}},"Address":{"Label":"Magazinstraße 1C, 51147 Köln, Deutschland","Country":"DEU","State":"Nordrhein-Westfalen","County":"Köln","City":"Köln","District":"Wahnheide","Street":"Magazinstraße","HouseNumber":"1C","PostalCode":"51147","AdditionalData":[{"value":"Deutschland","key":"CountryName"},{"value":"Nordrhein-Westfalen","key":"StateName"},{"value":"Köln","key":"CountyName"}]},"MapReference":{"ReferenceId":"1196836687","Spot":0.28,"SideOfStreet":"left","CountryId":"20147700","StateId":"20157369","CountyId":"20158021","CityId":"20158022","DistrictId":"20300088","AddressId":"622162938","RoadLinkId":"507447362"}}},{"Relevance":1.0,"Distance":53.6,"MatchLevel":"houseNumber","MatchQuality":{"Country":1.0,"State":1.0,"County":1.0,"City":1.0,"District":1.0,"Street":[1.0],"HouseNumber":1.0,"PostalCode":1.0},"MatchType":"interpolated","Location":{"LocationId":"NT_cv63dza4kDlneZeZULGqoD_yIzN","LocationType":"point","DisplayPosition":{"Latitude":50.85907,"Longitude":7.1048},"MapView":{"TopLeft":{"Latitude":50.8601942,"Longitude":7.1030191},"BottomRight":{"Latitude":50.8579458,"Longitude":7.1065809}},"Address":{"Label":"Heidestraße 227, 51147 Köln, Deutschland","Country":"DEU","State":"Nordrhein-Westfalen","County":"Köln","City":"Köln","District":"Wahnheide","Street":"Heidestraße","HouseNumber":"227","PostalCode":"51147","AdditionalData":[{"value":"Deutschland","key":"CountryName"},{"value":"Nordrhein-Westfalen","key":"StateName"},{"value":"Köln","key":"CountyName"}]},"MapReference":{"ReferenceId":"1196808933","Spot":0.33,"SideOfStreet":"left","CountryId":"20147700","StateId":"20157369","CountyId":"20158021","CityId":"20158022","DistrictId":"20300088","AddressId":"249314278","RoadLinkId":"507396203"}}},{"Relevance":1.0,"Distance":69.8,"MatchLevel":"street","MatchQuality":{"Country":1.0,"State":1.0,"County":1.0,"City":1.0,"District":1.0,"Street":[1.0],"PostalCode":1.0},"Location":{"LocationId":"NT_7pv5RqrZUWg7KsJLJYIiPA_l_740934502_R","LocationType":"point","DisplayPosition":{"Latitude":50.85901,"Longitude":7.10307},"MapView":{"TopLeft":{"Latitude":50.85901,"Longitude":7.10307},"BottomRight":{"Latitude":50.85865,"Longitude":7.10308}},"Address":{"Label":"Linder Weg, 51147 Köln, Deutschland","Country":"DEU","State":"Nordrhein-Westfalen","County":"Köln","City":"Köln","District":"Wahnheide","Street":"Linder Weg","PostalCode":"51147","AdditionalData":[{"value":"Deutschland","key":"CountryName"},{"value":"Nordrhein-Westfalen","key":"StateName"},{"value":"Köln","key":"CountyName"}]},"MapReference":{"ReferenceId":"740934502","Spot":1.0,"SideOfStreet":"right","CountryId":"20147700","StateId":"20157369","CountyId":"20158021","CityId":"20158022","DistrictId":"20300088"}}},{"Relevance":1.0,"Distance":80.3,"MatchLevel":"houseNumber","MatchQuality":{"Country":1.0,"State":1.0,"County":1.0,"City":1.0,"District":1.0,"Street":[1.0],"HouseNumber":1.0,"PostalCode":1.0},"MatchType":"interpolated","Location":{"LocationId":"NT_cv63dza4kDlneZeZULGqoD_yMTM","LocationType":"point","DisplayPosition":{"Latitude":50.85909,"Longitude":7.10517},"MapView":{"TopLeft":{"Latitude":50.8602142,"Longitude":7.1033891},"BottomRight":{"Latitude":50.8579658,"Longitude":7.1069509}},"Address":{"Label":"Heidestraße 231, 51147 Köln, Deutschland","Country":"DEU","State":"Nordrhein-Westfalen","County":"Köln","City":"Köln","District":"Wahnheide","Street":"Heidestraße","HouseNumber":"231","PostalCode":"51147","AdditionalData":[{"value":"Deutschland","key":"CountryName"},{"value":"Nordrhein-Westfalen","key":"StateName"},{"value":"Köln","key":"CountyName"}]},"MapReference":{"ReferenceId":"1196808934","Spot":0.0,"SideOfStreet":"left","CountryId":"20147700","StateId":"20157369","CountyId":"20158021","CityId":"20158022","DistrictId":"20300088","AddressId":"249314254","RoadLinkId":"507396204"}}},{"Relevance":1.0,"Distance":89.9,"MatchLevel":"houseNumber","MatchQuality":{"Country":1.0,"State":1.0,"County":1.0,"City":1.0,"District":1.0,"Street":[1.0],"HouseNumber":1.0,"PostalCode":1.0},"MatchType":"interpolated","Location":{"LocationId":"NT_7pv5RqrZUWg7KsJLJYIiPA_yEE","LocationType":"point","DisplayPosition":{"Latitude":50.85865,"Longitude":7.10308},"MapView":{"TopLeft":{"Latitude":50.8597742,"Longitude":7.1012991},"BottomRight":{"Latitude":50.8575258,"Longitude":7.1048609}},"Address":{"Label":"Linder Weg 2A, 51147 Köln, Deutschland","Country":"DEU","State":"Nordrhein-Westfalen","County":"Köln","City":"Köln","District":"Wahnheide","Street":"Linder Weg","HouseNumber":"2A","PostalCode":"51147","AdditionalData":[{"value":"Deutschland","key":"CountryName"},{"value":"Nordrhein-Westfalen","key":"StateName"},{"value":"Köln","key":"CountyName"}]},"MapReference":{"ReferenceId":"740934501","Spot":1.0,"SideOfStreet":"left","CountryId":"20147700","StateId":"20157369","CountyId":"20158021","CityId":"20158022","DistrictId":"20300088","AddressId":"168600447","RoadLinkId":"139691095"}}},{"Relevance":1.0,"Distance":94.2,"MatchLevel":"houseNumber","MatchQuality":{"Country":1.0,"State":1.0,"County":1.0,"City":1.0,"District":1.0,"Street":[1.0],"HouseNumber":1.0,"PostalCode":1.0},"MatchType":"interpolated","Location":{"LocationId":"NT_94Sehz6mgV3h4Nbs01bMVC_yUTQ","LocationType":"point","DisplayPosition":{"Latitude":50.85811,"Longitude":7.10361},"MapView":{"TopLeft":{"Latitude":50.8592342,"Longitude":7.1018291},"BottomRight":{"Latitude":50.8569858,"Longitude":7.1053909}},"Address":{"Label":"Scheuermühlenstraße 25A, 51147 Köln, Deutschland","Country":"DEU","State":"Nordrhein-Westfalen","County":"Köln","City":"Köln","District":"Wahnheide","Street":"Scheuermühlenstraße","HouseNumber":"25A","PostalCode":"51147","AdditionalData":[{"value":"Deutschland","key":"CountryName"},{"value":"Nordrhein-Westfalen","key":"StateName"},{"value":"Köln","key":"CountyName"}]},"MapReference":{"ReferenceId":"51047179","Spot":0.82,"SideOfStreet":"right","CountryId":"20147700","StateId":"20157369","CountyId":"20158021","CityId":"20158022","DistrictId":"20300088","AddressId":"743369889","RoadLinkId":"39354162"}}},{"Relevance":1.0,"Distance":97.4,"MatchLevel":"houseNumber","MatchQuality":{"Country":1.0,"State":1.0,"County":1.0,"City":1.0,"District":1.0,"Street":[1.0],"HouseNumber":1.0,"PostalCode":1.0},"MatchType":"interpolated","Location":{"LocationId":"NT_cv63dza4kDlneZeZULGqoD_xkTO","LocationType":"point","DisplayPosition":{"Latitude":50.85899,"Longitude":7.10267},"MapView":{"TopLeft":{"Latitude":50.8601142,"Longitude":7.1008891},"BottomRight":{"Latitude":50.8578658,"Longitude":7.1044509}},"Address":{"Label":"Heidestraße 199, 51147 Köln, Deutschland","Country":"DEU","State":"Nordrhein-Westfalen","County":"Köln","City":"Köln","District":"Wahnheide","Street":"Heidestraße","HouseNumber":"199","PostalCode":"51147","AdditionalData":[{"value":"Deutschland","key":"CountryName"},{"value":"Nordrhein-Westfalen","key":"StateName"},{"value":"Köln","key":"CountyName"}]},"MapReference":{"ReferenceId":"51047155","Spot":0.4,"SideOfStreet":"left","CountryId":"20147700","StateId":"20157369","CountyId":"20158021","CityId":"20158022","DistrictId":"20300088","AddressId":"249489145","RoadLinkId":"39264591"}}}]}]}}