{"Response":{"MetaInfo":{"Timestamp":"2020-03-28T10:37:57.629+0000","NextPageInformation":"2"},"View":[{"_type":"SearchResultsViewType","ViewId":0,"Result":[{"Relevance":1.0,"Distance":0.0,"Direction":0.0,"MatchLevel":"district","MatchQuality":{"Country":1.0,"State":1.0,"County":1.0,"City":1.0,"District":1.0,"PostalCode":1.0},"Location":{"LocationId":"NT_Mzpfh-uOZf2I-yXVZ3l0kD","LocationType":"point","DisplayPosition":{"Latitude":50.8376653,"Longitude":-0.7883701},"MapView":{"TopLeft":{"Latitude":50.86166,"Longitude":-0.82557},"BottomRight":{"Latitude":50.81744,"Longitude":-0.73743}},"Address":{"Label":"Chichester, England, United Kingdom","Country":"GBR","State":"England","County":"West Sussex","City":"Chichester","District":"Chichester","PostalCode":"PO19 1","AdditionalData":[{"value":"United Kingdom","key":"CountryName"},{"value":"England","key":"StateName"},{"value":"West Sussex","key":"CountyName"}]},"MapReference":{"ReferenceId":"25582119","SideOfStreet":"neither","StateId":"20248595","CountyId":"20338671","CityId":"20338715","DistrictId":"20338716"}}},{"Relevance":1.0,"Distance":6.6,"MatchLevel":"houseNumber","MatchQuality":{"Country":1.0,"State":1.0,"County":1.0,"City":1.0,"District":1.0,"Street":[1.0],"HouseNumber":1.0,"PostalCode":1.0},"MatchType":"interpolated","Location":{"LocationId":"NT_wVfdjAbnlRjjEvP-X4EViB_l_25690235_R_2A","LocationType":"point","DisplayPosition":{"Latitude":50.83762,"Longitude":-0.78843},"MapView":{"TopLeft":{"Latitude":50.8387442,"Longitude":-0.7902101},"BottomRight":{"Latitude":50.8364959,"Longitude":-0.7866499}},"Address":{"Label":"6 Parklands Road, Chichester, PO19 3DT, United Kingdom","Country":"GBR","State":"England","County":"West Sussex","City":"Chichester","District":"Chichester","Street":"Parklands Road","HouseNumber":"6","PostalCode":"PO19 3DT","AdditionalData":[{"value":"United Kingdom","key":"CountryName"},{"value":"England","key":"StateName"},{"value":"West Sussex","key":"CountyName"}]},"MapReference":{"ReferenceId":"25690235","Spot":0.17,"SideOfStreet":"right","StateId":"20248595","CountyId":"20338671","CityId":"20338715","DistrictId":"20338716"}}},{"Relevance":1.0,"Distance":31.3,"MatchLevel":"houseNumber","MatchQuality":{"Country":1.0,"State":1.0,"County":1.0,"City":1.0,"District":1.0,"Street":[1.0],"HouseNumber":1.0,"PostalCode":1.0},"MatchType":"interpolated","Location":{"LocationId":"NT_ARBO7SJULuYxpsegkIlkwB_l_25581921_L_yA","LocationType":"point","DisplayPosition":{"Latitude":50.8374431,"Longitude":-0.7887804},"MapView":{"TopLeft":{"Latitude":50.8385673,"Longitude":-0.7905604},"BottomRight":{"Latitude":50.836319,"Longitude":-0.7870003}},"Address":{"Label":"2 Beech Avenue, Chichester, PO19 3DR, United Kingdom","Country":"GBR","State":"England","County":"West Sussex","City":"Chichester","District":"Chichester","Street":"Beech Avenue","HouseNumber":"2","PostalCode":"PO19 3DR","AdditionalData":[{"value":"United Kingdom","key":"CountryName"},{"value":"England","key":"StateName"},{"value":"West Sussex","key":"CountyName"}]},"MapReference":{"ReferenceId":"25581921","Spot":0.88,"SideOfStreet":"left","StateId":"20248595","CountyId":"20338671","CityId":"20338715","DistrictId":"20338716"}}},{"Relevance":1.0,"Distance":51.8,"MatchLevel":"houseNumber","MatchQuality":{"Country":1.0,"State":1.0,"County":1.0,"City":1.0,"District":1.0,"Street":[1.0],"HouseNumber":1.0,"PostalCode":1.0},"MatchType":"interpolated","Location":{"LocationId":"NT_wVfdjAbnlRjjEvP-X4EViB_l_25582051_L_5A","LocationType":"point","DisplayPosition":{"Latitude":50.8372025,"Longitude":-0.7882799},"MapView":{"TopLeft":{"Latitude":50.8383267,"Longitude":-0.7900599},"BottomRight":{"Latitude":50.8360783,"Longitude":-0.7864998}},"Address":{"Label":"9 Parklands Road, Chichester, PO19 3DP, United Kingdom","Country":"GBR","State":"England","County":"West Sussex","City":"Chichester","District":"Chichester","Street":"Parklands Road","HouseNumber":"9","PostalCode":"PO19 3DP","AdditionalData":[{"value":"United Kingdom","key":"CountryName"},{"value":"England","key":"StateName"},{"value":"West Sussex","key":"CountyName"}]},"MapReference":{"ReferenceId":"25582051","Spot":0.65,"SideOfStreet":"left","StateId":"20248595","CountyId":"20338671","CityId":"20338715","DistrictId":"20338716"}}},{"Relevance":1.0,"Distance":65.0,"MatchLevel":"houseNumber","MatchQuality":{"Country":1.0,"State":1.0,"County":1.0,"City":1.0,"District":1.0,"Street":[1.0],"HouseNumber":1.0,"PostalCode":1.0},"MatchType":"interpolated","Location":{"LocationId":"NT_wVfdjAbnlRjjEvP-X4EViB_l_837512756_L_ycD","LocationType":"point","DisplayPosition":{"Latitude":50.83825,"Longitude":-0.78838},"MapView":{"TopLeft":{"Latitude":50.8393742,"Longitude":-0.7901601},"BottomRight":{"Latitude":50.8371259,"Longitude":-0.7865999}},"Address":{"Label":"27 Parklands Road, Chichester, PO19 3DX, United Kingdom","Country":"GBR","State":"England","County":"West Sussex","City":"Chichester","District":"Chichester","Street":"Parklands Road","HouseNumber":"27","PostalCode":"PO19 3DX","AdditionalData":[{"value":"United Kingdom","key":"CountryName"},{"value":"England","key":"StateName"},{"value":"West Sussex","key":"CountyName"}]},"MapReference":{"ReferenceId":"837512756","Spot":0.0,"SideOfStreet":"left","StateId":"20248595","CountyId":"20338671","CityId":"20338715","DistrictId":"20338716"}}},{"Relevance":1.0,"Distance":67.2,"MatchLevel":"houseNumber","MatchQuality":{"Country":1.0,"State":1.0,"County":1.0,"City":1.0,"District":1.0,"Street":[1.0],"HouseNumber":1.0,"PostalCode":1.0},"MatchType":"interpolated","Location":{"LocationId":"NT_wVfdjAbnlRjjEvP-X4EViB_l_25581607_R_xYD","LocationType":"point","DisplayPosition":{"Latitude":50.83834,"Longitude":-0.78823},"MapView":{"TopLeft":{"Latitude":50.8394642,"Longitude":-0.7900101},"BottomRight":{"Latitude":50.8372159,"Longitude":-0.7864499}},"Address":{"Label":"16 Parklands Road, Chichester, PO19 3DT, United Kingdom","Country":"GBR","State":"England","County":"West Sussex","City":"Chichester","District":"Chichester","Street":"Parklands Road","HouseNumber":"16","PostalCode":"PO19 3DT","AdditionalData":[{"value":"United Kingdom","key":"CountryName"},{"value":"England","key":"StateName"},{"value":"West Sussex","key":"CountyName"}]},"MapReference":{"ReferenceId":"25581607","Spot":0.42,"SideOfStreet":"right","StateId":"20248595","CountyId":"20338671","CityId":"20338715","DistrictId":"20338716"}}},{"Relevance":1.0,"Distance":75.2,"MatchLevel":"postalCode","MatchQuality":{"PostalCode":1.0},"MatchType":"interpolated","Location":{"LocationId":"NT_wVfdjAbnlRjjEvP-X4EViB_l_25582051_L_5A","LocationType":"point","DisplayPosition":{"Latitude":50.83699,"Longitude":-0.78832},"MapView":{"TopLeft":{"Latitude":50.8459832,"Longitude":-0.8025604},"BottomRight":{"Latitude":50.8279968,"Longitude":-0.7740796}},"Address":{"Label":"PO19 3DP, Chichester, England, United Kingdom","Country":"GBR","State":"England","County":"West Sussex","City":"Chichester","PostalCode":"PO19 3DP","AdditionalData":[{"value":"United Kingdom","key":"CountryName"},{"value":"England","key":"StateName"},{"value":"West Sussex","key":"CountyName"}]},"MapReference":{"ReferenceId":"25582051","Spot":0.65,"SideOfStreet":"neither","StateId":"20248595","CountyId":"20338671","CityId":"20338715"}}},{"Relevance":1.0,"Distance":93.1,"MatchLevel":"houseNumber","MatchQuality":{"Country":1.0,"State":1.0,"County":1.0,"City":1.0,"District":1.0,"Street":[1.0],"HouseNumber":1.0,"PostalCode":1.0},"MatchType":"interpolated","Location":{"LocationId":"NT_7ZzbeqjAdSsuvjFKpPZboC_l_566019842_L_4A","LocationType":"point","DisplayPosition":{"Latitude":50.8371796,"Longitude":-0.7870548},"MapView":{"TopLeft":{"Latitude":50.8383037,"Longitude":-0.7888349},"BottomRight":{"Latitude":50.8360554,"Longitude":-0.7852747}},"Address":{"Label":"8 Henty Gardens, Chichester, PO19 3DL, United Kingdom","Country":"GBR","State":"England","County":"West Sussex","City":"Chichester","District":"Chichester","Street":"Henty Gardens","HouseNumber":"8","PostalCode":"PO19 3DL","AdditionalData":[{"value":"United Kingdom","key":"CountryName"},{"value":"England","key":"StateName"},{"value":"West Sussex","key":"CountyName"}]},"MapReference":{"ReferenceId":"566019842","Spot":0.49,"SideOfStreet":"left","StateId":"20248595","CountyId":"20338671","CityId":"20338715","DistrictId":"20338716"}}},{"Relevance":1.0,"Distance":94.2,"MatchLevel":"houseNumber","MatchQuality":{"Country":1.0,"State":1.0,"County":1.0,"City":1.0,"District":1.0,"Street":[1.0],"HouseNumber":1.0,"PostalCode":1.0},"MatchType":"interpolated","Location":{"LocationId":"NT_wVfdjAbnlRjjEvP-X4EViB_l_837512757_L_zMD","LocationType":"point","DisplayPosition":{"Latitude":50.8385069,"Longitude":-0.788216},"MapView":{"TopLeft":{"Latitude":50.839631,"Longitude":-0.7899961},"BottomRight":{"Latitude":50.8373827,"Longitude":-0.7864359}},"Address":{"Label":"33 Parklands Road, Chichester, PO19 3DX, United Kingdom","Country":"GBR","State":"England","County":"West Sussex","City":"Chichester","District":"Chichester","Street":"Parklands Road","HouseNumber":"33","PostalCode":"PO19 3DX","AdditionalData":[{"value":"United Kingdom","key":"CountryName"},{"value":"England","key":"StateName"},{"value":"West Sussex","key":"CountyName"}]},"MapReference":{"ReferenceId":"837512757","Spot":0.52,"SideOfStreet":"left","StateId":"20248595","CountyId":"20338671","CityId":"20338715","DistrictId":"20338716"}}},{"Relevance":1.0,"Distance":102.4,"MatchLevel":"houseNumber","MatchQuality":{"Country":1.0,"State":1.0,"County":1.0,"City":1.0,"District":1.0,"Street":[1.0],"HouseNumber":1.0,"PostalCode":1.0},"MatchType":"interpolated","Location":{"LocationId":"NT_wVfdjAbnlRjjEvP-X4EViB_l_25581562_R_yID","LocationType":"point","DisplayPosition":{"Latitude":50.8386501,"Longitude":-0.7879798},"MapView":{"TopLeft":{"Latitude":50.8397743,"Longitude":-0.7897599},"BottomRight":{"Latitude":50.837526,"Longitude":-0.7861997}},"Address":{"Label":"22 Parklands Road, Chichester, PO19 3DT, United Kingdom","Country":"GBR","State":"England","County":"West Sussex","City":"Chichester","District":"Chichester","Street":"Parklands Road","HouseNumber":"22","PostalCode":"PO19 3DT","AdditionalData":[{"value":"United Kingdom","key":"CountryName"},{"value":"England","key":"StateName"},{"value":"West Sussex","key":"CountyName"}]},"MapReference":{"ReferenceId":"25581562","Spot":0.07,"SideOfStreet":"right","StateId":"20248595","CountyId":"20338671","CityId":"20338715","DistrictId":"20338716"}}}]}]}}