{"Response":{"MetaInfo":{"Timestamp":"2020-03-28T10:10:49.954+0000","NextPageInformation":"2"},"View":[{"_type":"SearchResultsViewType","ViewId":0,"Result":[{"Relevance":1.0,"Distance":0.0,"Direction":0.0,"MatchLevel":"district","MatchQuality":{"Country":1.0,"State":1.0,"County":1.0,"City":1.0,"District":1.0,"PostalCode":1.0},"Location":{"LocationId":"NT_h2YxsREqmHFuJxEfnPQBjB","LocationType":"point","DisplayPosition":{"Latitude":50.8210419,"Longitude":-0.1353969},"MapView":{"TopLeft":{"Latitude":50.87111,"Longitude":-0.17689},"BottomRight":{"Latitude":50.80833,"Longitude":-0.0866}},"Address":{"Label":"Brighton, England, United Kingdom","Country":"GBR","State":"England","County":"East Sussex","City":"Brighton","District":"Brighton","PostalCode":"BN2 9","AdditionalData":[{"value":"United Kingdom","key":"CountryName"},{"value":"England","key":"StateName"},{"value":"East Sussex","key":"CountyName"}]},"MapReference":{"ReferenceId":"850546450","SideOfStreet":"neither","StateId":"20248595","CountyId":"20335121","CityId":"20335134","DistrictId":"20335135"}}},{"Relevance":1.0,"Distance":10.9,"MatchLevel":"houseNumber","MatchQuality":{"Country":1.0,"State":1.0,"County":1.0,"City":1.0,"District":1.0,"Street":[1.0],"HouseNumber":1.0,"PostalCode":1.0},"MatchType":"interpolated","Location":{"LocationId":"NT_3qkh0sAlsyXZNHMxFI.QyB_l_25615557_R_1A","LocationType":"point","DisplayPosition":{"Latitude":50.8209588,"Longitude":-0.1353063},"MapView":{"TopLeft":{"Latitude":50.8220829,"Longitude":-0.1370857},"BottomRight":{"Latitude":50.8198346,"Longitude":-0.1335268}},"Address":{"Label":"5 St James's Street, Brighton, BN2 1RE, United Kingdom","Country":"GBR","State":"England","County":"East Sussex","City":"Brighton","District":"Brighton","Street":"St James's Street","HouseNumber":"5","PostalCode":"BN2 1RE","AdditionalData":[{"value":"United Kingdom","key":"CountryName"},{"value":"England","key":"StateName"},{"value":"East Sussex","key":"CountyName"}]},"MapReference":{"ReferenceId":"25615557","Spot":0.51,"SideOfStreet":"right","StateId":"20248595","CountyId":"20335121","CityId":"20335134","DistrictId":"20335135"}}},{"Relevance":1.0,"Distance":11.6,"MatchLevel":"houseNumber","MatchQuality":{"Country":1.0,"State":1.0,"County":1.0,"City":1.0,"District":1.0,"Street":[1.0],"HouseNumber":1.0,"PostalCode":1.0},"MatchType":"interpolated","Location":{"LocationId":"NT_xzX-sX-U.BPnNxCz4Sg.CB_l_565999493_L_xIjM","LocationType":"point","DisplayPosition":{"Latitude":50.82098,"Longitude":-0.1355301},"MapView":{"TopLeft":{"Latitude":50.8221042,"Longitude":-0.1373095},"BottomRight":{"Latitude":50.8198559,"Longitude":-0.1337506}},"Address":{"Label":"122 St James's Street, Brighton, BN2 1TH, United Kingdom","Country":"GBR","State":"England","County":"East Sussex","City":"Brighton","District":"Brighton","Street":"St James's Street","HouseNumber":"122","PostalCode":"BN2 1TH","AdditionalData":[{"value":"United Kingdom","key":"CountryName"},{"value":"England","key":"StateName"},{"value":"East Sussex","key":"CountyName"}]},"MapReference":{"ReferenceId":"565999493","Spot":0.0,"SideOfStreet":"left","StateId":"20248595","CountyId":"20335121","CityId":"20335134","DistrictId":"20335135"}}},{"Relevance":1.0,"Distance":14.6,"MatchLevel":"postalCode","MatchQuality":{"PostalCode":1.0},"MatchType":"interpolated","Location":{"LocationId":"NT_3qkh0sAlsyXZNHMxFI.QyB_l_25615557_R_1A","LocationType":"point","DisplayPosition":{"Latitude":50.821,"Longitude":-0.1352},"MapView":{"TopLeft":{"Latitude":50.8299932,"Longitude":-0.1494355},"BottomRight":{"Latitude":50.8120068,"Longitude":-0.1209645}},"Address":{"Label":"BN2 1RE, Brighton, England, United Kingdom","Country":"GBR","State":"England","County":"East Sussex","City":"Brighton","PostalCode":"BN2 1RE","AdditionalData":[{"value":"United Kingdom","key":"CountryName"},{"value":"England","key":"StateName"},{"value":"East Sussex","key":"CountyName"}]},"MapReference":{"ReferenceId":"25615557","Spot":0.51,"SideOfStreet":"neither","StateId":"20248595","CountyId":"20335121","CityId":"20335134"}}},{"Relevance":1.0,"Distance":20.6,"MatchLevel":"street","MatchQuality":{"Country":1.0,"State":1.0,"County":1.0,"City":1.0,"District":1.0,"Street":[1.0],"PostalCode":1.0},"Location":{"LocationId":"NT_9hl3xk7-1-njxymI2S-6wC_l_565999495_R","LocationType":"point","DisplayPosition":{"Latitude":50.8211568,"Longitude":-0.1356266},"MapView":{"TopLeft":{"Latitude":50.82119,"Longitude":-0.1357},"BottomRight":{"Latitude":50.82101,"Longitude":-0.13561}},"Address":{"Label":"St James's Place, Brighton, BN2 1, United Kingdom","Country":"GBR","State":"England","County":"East Sussex","City":"Brighton","District":"Brighton","Street":"St James's Place","PostalCode":"BN2 1","AdditionalData":[{"value":"United Kingdom","key":"CountryName"},{"value":"England","key":"StateName"},{"value":"East Sussex","key":"CountyName"}]},"MapReference":{"ReferenceId":"565999495","Spot":0.82,"SideOfStreet":"right","StateId":"20248595","CountyId":"20335121","CityId":"20335134","DistrictId":"20335135"}}},{"Relevance":1.0,"Distance":31.0,"MatchLevel":"houseNumber","MatchQuality":{"Country":1.0,"State":1.0,"County":1.0,"City":1.0,"District":1.0,"Street":[1.0],"HouseNumber":1.0,"PostalCode":1.0},"MatchType":"interpolated","Location":{"LocationId":"NT_3qkh0sAlsyXZNHMxFI.QyB_l_25615561_R_xMD","LocationType":"point","DisplayPosition":{"Latitude":50.82093,"Longitude":-0.13497},"MapView":{"TopLeft":{"Latitude":50.8220542,"Longitude":-0.1367495},"BottomRight":{"Latitude":50.8198058,"Longitude":-0.1331906}},"Address":{"Label":"13 St James's Street, Brighton, BN2 1RE, United Kingdom","Country":"GBR","State":"England","County":"East Sussex","City":"Brighton","District":"Brighton","Street":"St James's Street","HouseNumber":"13","PostalCode":"BN2 1RE","AdditionalData":[{"value":"United Kingdom","key":"CountryName"},{"value":"England","key":"StateName"},{"value":"East Sussex","key":"CountyName"}]},"MapReference":{"ReferenceId":"25615561","Spot":0.5,"SideOfStreet":"right","StateId":"20248595","CountyId":"20335121","CityId":"20335134","DistrictId":"20335135"}}},{"Relevance":1.0,"Distance":31.1,"MatchLevel":"houseNumber","MatchQuality":{"Country":1.0,"State":1.0,"County":1.0,"City":1.0,"District":1.0,"Street":[1.0],"HouseNumber":1.0,"PostalCode":1.0},"MatchType":"interpolated","Location":{"LocationId":"NT_xdUWwVL5VlWdMrrsumOClC_l_565999484_L_yA","LocationType":"point","DisplayPosition":{"Latitude":50.8210401,"Longitude":-0.1348},"MapView":{"TopLeft":{"Latitude":50.8221643,"Longitude":-0.1365794},"BottomRight":{"Latitude":50.819916,"Longitude":-0.1330205}},"Address":{"Label":"2 George Street, Brighton, BN2 1RH, United Kingdom","Country":"GBR","State":"England","County":"East Sussex","City":"Brighton","District":"Brighton","Street":"George Street","HouseNumber":"2","PostalCode":"BN2 1RH","AdditionalData":[{"value":"United Kingdom","key":"CountryName"},{"value":"England","key":"StateName"},{"value":"East Sussex","key":"CountyName"}]},"MapReference":{"ReferenceId":"565999484","Spot":0.19,"SideOfStreet":"left","StateId":"20248595","CountyId":"20335121","CityId":"20335134","DistrictId":"20335135"}}},{"Relevance":1.0,"Distance":36.1,"MatchLevel":"houseNumber","MatchQuality":{"Country":1.0,"State":1.0,"County":1.0,"City":1.0,"District":1.0,"Street":[1.0],"HouseNumber":1.0,"PostalCode":1.0},"MatchType":"interpolated","Location":{"LocationId":"NT_xzX-sX-U.BPnNxCz4Sg.CB_l_565999494_R_1A","LocationType":"point","DisplayPosition":{"Latitude":50.82103,"Longitude":-0.1359101},"MapView":{"TopLeft":{"Latitude":50.8221542,"Longitude":-0.1376895},"BottomRight":{"Latitude":50.8199059,"Longitude":-0.1341306}},"Address":{"Label":"5 St James's Street, Brighton, BN2 1, United Kingdom","Country":"GBR","State":"England","County":"East Sussex","City":"Brighton","District":"Brighton","Street":"St James's Street","HouseNumber":"5","PostalCode":"BN2 1","AdditionalData":[{"value":"United Kingdom","key":"CountryName"},{"value":"England","key":"StateName"},{"value":"East Sussex","key":"CountyName"}]},"MapReference":{"ReferenceId":"565999494","Spot":0.36,"SideOfStreet":"right","StateId":"20248595","CountyId":"20335121","CityId":"20335134","DistrictId":"20335135"}}},{"Relevance":1.0,"Distance":37.2,"MatchLevel":"houseNumber","MatchQuality":{"Country":1.0,"State":1.0,"County":1.0,"City":1.0,"District":1.0,"Street":[1.0],"HouseNumber":1.0,"PostalCode":1.0},"MatchType":"interpolated","Location":{"LocationId":"NT_dRKL7HSWaimox4-r0kPjyD_l_25615748_R_xED","LocationType":"point","DisplayPosition":{"Latitude":50.8207257,"Longitude":-0.1355713},"MapView":{"TopLeft":{"Latitude":50.8218499,"Longitude":-0.1373507},"BottomRight":{"Latitude":50.8196016,"Longitude":-0.1337918}},"Address":{"Label":"11 Manchester Street, Brighton, BN2 1TF, United Kingdom","Country":"GBR","State":"England","County":"East Sussex","City":"Brighton","District":"Brighton","Street":"Manchester Street","HouseNumber":"11","PostalCode":"BN2 1TF","AdditionalData":[{"value":"United Kingdom","key":"CountryName"},{"value":"England","key":"StateName"},{"value":"East Sussex","key":"CountyName"}]},"MapReference":{"ReferenceId":"25615748","Spot":0.76,"SideOfStreet":"right","StateId":"20248595","CountyId":"20335121","CityId":"20335134","DistrictId":"20335135"}}},{"Relevance":1.0,"Distance":40.8,"MatchLevel":"houseNumber","MatchQuality":{"Country":1.0,"State":1.0,"County":1.0,"City":1.0,"District":1.0,"Street":[1.0],"HouseNumber":1.0,"PostalCode":1.0},"MatchType":"interpolated","Location":{"LocationId":"NT_WbK1huEb5bT6d.IANIHNVC_l_25615761_L_yMD","LocationType":"point","DisplayPosition":{"Latitude":50.820636,"Longitude":-0.135124},"MapView":{"TopLeft":{"Latitude":50.8217602,"Longitude":-0.1369034},"BottomRight":{"Latitude":50.8195119,"Longitude":-0.1333446}},"Address":{"Label":"23 Charles Street, Brighton, BN2 1TG, United Kingdom","Country":"GBR","State":"England","County":"East Sussex","City":"Brighton","District":"Brighton","Street":"Charles Street","HouseNumber":"23","PostalCode":"BN2 1TG","AdditionalData":[{"value":"United Kingdom","key":"CountryName"},{"value":"England","key":"StateName"},{"value":"East Sussex","key":"CountyName"}]},"MapReference":{"ReferenceId":"25615761","Spot":0.72,"SideOfStreet":"left","StateId":"20248595","CountyId":"20335121","CityId":"20335134","DistrictId":"20335135"}}}]}]}}