{"Response":{"MetaInfo":{"Timestamp":"2020-03-28T10:15:52.866+0000","NextPageInformation":"2"},"View":[{"_type":"SearchResultsViewType","ViewId":0,"Result":[{"Relevance":1.0,"Distance":0.0,"Direction":0.0,"MatchLevel":"district","MatchQuality":{"Country":1.0,"State":1.0,"County":1.0,"City":1.0,"District":1.0,"PostalCode":1.0},"Location":{"LocationId":"NT_dtA.IoxEwlomqOMQ1hY11A","LocationType":"point","DisplayPosition":{"Latitude":50.8657329,"Longitude":4.6961527},"MapView":{"TopLeft":{"Latitude":50.86908,"Longitude":4.67243},"BottomRight":{"Latitude":50.84803,"Longitude":4.71819}},"Address":{"Label":"Heverlee, Leuven, Vlaanderen, België","Country":"BEL","State":"Vlaanderen","County":"Vlaams Brabant","City":"Leuven","District":"Heverlee","PostalCode":"3001","AdditionalData":[{"value":"België","key":"CountryName"},{"value":"Vlaanderen","key":"StateName"},{"value":"Vlaams Brabant","key":"CountyName"}]},"MapReference":{"ReferenceId":"727628989","SideOfStreet":"neither","CountryId":"20128886","StateId":"20204377","CountyId":"20207856","CityId":"20208143","DistrictId":"20208146"}}},{"Relevance":1.0,"Distance":7.5,"MatchLevel":"houseNumber","MatchQuality":{"Country":1.0,"State":1.0,"County":1.0,"City":1.0,"District":1.0,"Street":[1.0],"HouseNumber":1.0,"PostalCode":1.0},"MatchType":"interpolated","Location":{"LocationId":"NT_RjG-kuNDzZaPC9AZHwshsB_5kD","LocationType":"point","DisplayPosition":{"Latitude":50.86575,"Longitude":4.69605},"MapView":{"TopLeft":{"Latitude":50.8668742,"Longitude":4.6942689},"BottomRight":{"Latitude":50.8646258,"Longitude":4.6978311}},"Address":{"Label":"Naamsesteenweg 99, 3001 Leuven, België","Country":"BEL","State":"Vlaanderen","County":"Vlaams Brabant","City":"Leuven","District":"Heverlee","Street":"Naamsesteenweg","HouseNumber":"99","PostalCode":"3001","AdditionalData":[{"value":"België","key":"CountryName"},{"value":"Vlaanderen","key":"StateName"},{"value":"Vlaams Brabant","key":"CountyName"}]},"MapReference":{"ReferenceId":"53722297","Spot":0.18,"SideOfStreet":"right","CountryId":"20128886","StateId":"20204377","CountyId":"20207856","CityId":"20208143","DistrictId":"20208146","AddressId":"401543941","RoadLinkId":"30592810"}}},{"Relevance":1.0,"Distance":14.3,"MatchLevel":"houseNumber","MatchQuality":{"Country":1.0,"State":1.0,"County":1.0,"City":1.0,"District":1.0,"Street":[1.0],"HouseNumber":1.0,"PostalCode":1.0},"MatchType":"interpolated","Location":{"LocationId":"NT_RjG-kuNDzZaPC9AZHwshsB_xATM","LocationType":"point","DisplayPosition":{"Latitude":50.86563,"Longitude":4.69603},"MapView":{"TopLeft":{"Latitude":50.8667542,"Longitude":4.6942489},"BottomRight":{"Latitude":50.8645058,"Longitude":4.6978111}},"Address":{"Label":"Naamsesteenweg 101, 3001 Leuven, België","Country":"BEL","State":"Vlaanderen","County":"Vlaams Brabant","City":"Leuven","District":"Heverlee","Street":"Naamsesteenweg","HouseNumber":"101","PostalCode":"3001","AdditionalData":[{"value":"België","key":"CountryName"},{"value":"Vlaanderen","key":"StateName"},{"value":"Vlaams Brabant","key":"CountyName"}]},"MapReference":{"ReferenceId":"1204039990","Spot":0.65,"SideOfStreet":"right","CountryId":"20128886","StateId":"20204377","CountyId":"20207856","CityId":"20208143","DistrictId":"20208146","AddressId":"401503567","RoadLinkId":"517204304"}}},{"Relevance":1.0,"Distance":18.2,"MatchLevel":"street","MatchQuality":{"Country":1.0,"State":1.0,"County":1.0,"City":1.0,"District":1.0,"Street":[1.0],"PostalCode":1.0},"Location":{"LocationId":"NT_JYCldWaWNBJK.24eB6iFeD_l_54026447_L","LocationType":"point","DisplayPosition":{"Latitude":50.86589,"Longitude":4.69608},"MapView":{"TopLeft":{"Latitude":50.866,"Longitude":4.6959},"BottomRight":{"Latitude":50.86589,"Longitude":4.69608}},"Address":{"Label":"Dreefstraat, 3001 Leuven, België","Country":"BEL","State":"Vlaanderen","County":"Vlaams Brabant","City":"Leuven","District":"Heverlee","Street":"Dreefstraat","PostalCode":"3001","AdditionalData":[{"value":"België","key":"CountryName"},{"value":"Vlaanderen","key":"StateName"},{"value":"Vlaams Brabant","key":"CountyName"}]},"MapReference":{"ReferenceId":"54026447","Spot":0.0,"SideOfStreet":"left","CountryId":"20128886","StateId":"20204377","CountyId":"20207856","CityId":"20208143","DistrictId":"20208146"}}},{"Relevance":1.0,"Distance":23.1,"MatchLevel":"houseNumber","MatchQuality":{"Country":1.0,"State":1.0,"County":1.0,"City":1.0,"District":1.0,"Street":[1.0],"HouseNumber":1.0,"PostalCode":1.0},"MatchType":"interpolated","Location":{"LocationId":"NT_RjG-kuNDzZaPC9AZHwshsB_5MD","LocationType":"point","DisplayPosition":{"Latitude":50.86594,"Longitude":4.69612},"MapView":{"TopLeft":{"Latitude":50.8670642,"Longitude":4.6943388},"BottomRight":{"Latitude":50.8648158,"Longitude":4.6979012}},"Address":{"Label":"Naamsesteenweg 93, 3001 Leuven, België","Country":"BEL","State":"Vlaanderen","County":"Vlaams Brabant","City":"Leuven","District":"Heverlee","Street":"Naamsesteenweg","HouseNumber":"93","PostalCode":"3001","AdditionalData":[{"value":"België","key":"CountryName"},{"value":"Vlaanderen","key":"StateName"},{"value":"Vlaams Brabant","key":"CountyName"}]},"MapReference":{"ReferenceId":"53722273","Spot":0.43,"SideOfStreet":"right","CountryId":"20128886","StateId":"20204377","CountyId":"20207856","CityId":"20208143","DistrictId":"20208146","AddressId":"399711544","RoadLinkId":"30756927"}}},{"Relevance":1.0,"Distance":25.1,"MatchLevel":"houseNumber","MatchQuality":{"Country":1.0,"State":1.0,"County":1.0,"City":1.0,"District":1.0,"Street":[1.0],"HouseNumber":1.0,"PostalCode":1.0},"MatchType":"interpolated","Location":{"LocationId":"NT_3dLZ6F7xMu6vfhiDmmCinB_yA","LocationType":"point","DisplayPosition":{"Latitude":50.86578,"Longitude":4.69655},"MapView":{"TopLeft":{"Latitude":50.8669042,"Longitude":4.6947689},"BottomRight":{"Latitude":50.8646558,"Longitude":4.6983311}},"Address":{"Label":"Groenstraat 2, 3001 Leuven, België","Country":"BEL","State":"Vlaanderen","County":"Vlaams Brabant","City":"Leuven","District":"Heverlee","Street":"Groenstraat","HouseNumber":"2","PostalCode":"3001","AdditionalData":[{"value":"België","key":"CountryName"},{"value":"Vlaanderen","key":"StateName"},{"value":"Vlaams Brabant","key":"CountyName"}]},"MapReference":{"ReferenceId":"1114097811","Spot":0.67,"SideOfStreet":"left","CountryId":"20128886","StateId":"20204377","CountyId":"20207856","CityId":"20208143","DistrictId":"20208146","AddressId":"399908869","RoadLinkId":"424042568"}}},{"Relevance":1.0,"Distance":29.8,"MatchLevel":"street","MatchQuality":{"Country":1.0,"State":1.0,"County":1.0,"City":1.0,"District":1.0,"Street":[1.0],"PostalCode":1.0},"Location":{"LocationId":"NT_TDjIxZ.PxhdEdB7Al0gnTA_l_820052159_R","LocationType":"point","DisplayPosition":{"Latitude":50.866,"Longitude":4.69618},"MapView":{"TopLeft":{"Latitude":50.86607,"Longitude":4.69618},"BottomRight":{"Latitude":50.866,"Longitude":4.69624}},"Address":{"Label":"Naamsesteenweg, 3001 Leuven, België","Country":"BEL","State":"Vlaanderen","County":"Vlaams Brabant","City":"Leuven","District":"Heverlee","Street":"Naamsesteenweg","PostalCode":"3001","AdditionalData":[{"value":"België","key":"CountryName"},{"value":"Vlaanderen","key":"StateName"},{"value":"Vlaams Brabant","key":"CountyName"}]},"MapReference":{"ReferenceId":"820052159","Spot":0.0,"SideOfStreet":"right","CountryId":"20128886","StateId":"20204377","CountyId":"20207856","CityId":"20208143","DistrictId":"20208146"}}},{"Relevance":1.0,"Distance":34.1,"MatchLevel":"houseNumber","MatchQuality":{"Country":1.0,"State":1.0,"County":1.0,"City":1.0,"District":1.0,"Street":[1.0],"HouseNumber":1.0,"PostalCode":1.0},"MatchType":"interpolated","Location":{"LocationId":"NT_rdtN8usxbEhWvZXY08JwPC_xME","LocationType":"point","DisplayPosition":{"Latitude":50.86558,"Longitude":4.69573},"MapView":{"TopLeft":{"Latitude":50.8667042,"Longitude":4.6939489},"BottomRight":{"Latitude":50.8644558,"Longitude":4.6975111}},"Address":{"Label":"Waversebaan 1C, 3001 Leuven, België","Country":"BEL","State":"Vlaanderen","County":"Vlaams Brabant","City":"Leuven","District":"Heverlee","Street":"Waversebaan","HouseNumber":"1C","PostalCode":"3001","AdditionalData":[{"value":"België","key":"CountryName"},{"value":"Vlaanderen","key":"StateName"},{"value":"Vlaams Brabant","key":"CountyName"}]},"MapReference":{"ReferenceId":"580421765","Spot":0.16,"SideOfStreet":"right","CountryId":"20128886","StateId":"20204377","CountyId":"20207856","CityId":"20208143","DistrictId":"20208146","AddressId":"737355756","RoadLinkId":"30599975"}}},{"Relevance":1.0,"Distance":36.1,"MatchLevel":"houseNumber","MatchQuality":{"Country":1.0,"State":1.0,"County":1.0,"City":1.0,"District":1.0,"Street":[1.0],"HouseNumber":1.0,"PostalCode":1.0},"MatchType":"interpolated","Location":{"LocationId":"NT_RjG-kuNDzZaPC9AZHwshsB_xAzN","LocationType":"point","DisplayPosition":{"Latitude":50.86541,"Longitude":4.69601},"MapView":{"TopLeft":{"Latitude":50.8665342,"Longitude":4.6942289},"BottomRight":{"Latitude":50.8642858,"Longitude":4.6977911}},"Address":{"Label":"Naamsesteenweg 107, 3001 Leuven, België","Country":"BEL","State":"Vlaanderen","County":"Vlaams Brabant","City":"Leuven","District":"Heverlee","Street":"Naamsesteenweg","HouseNumber":"107","PostalCode":"3001","AdditionalData":[{"value":"België","key":"CountryName"},{"value":"Vlaanderen","key":"StateName"},{"value":"Vlaams Brabant","key":"CountyName"}]},"MapReference":{"ReferenceId":"1204039991","Spot":0.86,"SideOfStreet":"right","CountryId":"20128886","StateId":"20204377","CountyId":"20207856","CityId":"20208143","DistrictId":"20208146","AddressId":"401503581","RoadLinkId":"517204305"}}},{"Relevance":1.0,"Distance":40.1,"MatchLevel":"houseNumber","MatchQuality":{"Country":1.0,"State":1.0,"County":1.0,"City":1.0,"District":1.0,"Street":[1.0],"HouseNumber":1.0,"PostalCode":1.0},"MatchType":"interpolated","Location":{"LocationId":"NT_RjG-kuNDzZaPC9AZHwshsB_xAjM","LocationType":"point","DisplayPosition":{"Latitude":50.86608,"Longitude":4.696},"MapView":{"TopLeft":{"Latitude":50.8672042,"Longitude":4.6942188},"BottomRight":{"Latitude":50.8649558,"Longitude":4.6977812}},"Address":{"Label":"Naamsesteenweg 102, 3001 Leuven, België","Country":"BEL","State":"Vlaanderen","County":"Vlaams Brabant","City":"Leuven","District":"Heverlee","Street":"Naamsesteenweg","HouseNumber":"102","PostalCode":"3001","AdditionalData":[{"value":"België","key":"CountryName"},{"value":"Vlaanderen","key":"StateName"},{"value":"Vlaams Brabant","key":"CountyName"}]},"MapReference":{"ReferenceId":"1114097808","Spot":0.67,"SideOfStreet":"left","CountryId":"20128886","StateId":"20204377","CountyId":"20207856","CityId":"20208143","DistrictId":"20208146","AddressId":"626361680","RoadLinkId":"424042565"}}}]}]}}