{"Response":{"MetaInfo":{"Timestamp":"2020-03-28T11:39:31.234+0000","NextPageInformation":"2"},"View":[{"_type":"SearchResultsViewType","ViewId":0,"Result":[{"Relevance":1.0,"Distance":0.0,"Direction":0.0,"MatchLevel":"city","MatchQuality":{"Country":1.0,"State":1.0,"County":1.0,"City":1.0,"PostalCode":1.0},"Location":{"LocationId":"NT_SHfeh7z839h9waXKahQ0RD","LocationType":"point","DisplayPosition":{"Latitude":50.810188,"Longitude":4.9367776},"MapView":{"TopLeft":{"Latitude":50.86415,"Longitude":4.85161},"BottomRight":{"Latitude":50.75221,"Longitude":5.01952}},"Address":{"Label":"Tienen, Vlaanderen, België","Country":"BEL","State":"Vlaanderen","County":"Vlaams Brabant","City":"Tienen","PostalCode":"3300","AdditionalData":[{"value":"België","key":"CountryName"},{"value":"Vlaanderen","key":"StateName"},{"value":"Vlaams Brabant","key":"CountyName"}]},"MapReference":{"ReferenceId":"905102157","SideOfStreet":"neither","CountryId":"20128886","StateId":"20204377","CountyId":"20207856","CityId":"20208174"}}},{"Relevance":1.0,"Distance":10.1,"MatchLevel":"houseNumber","MatchQuality":{"Country":1.0,"State":1.0,"County":1.0,"City":1.0,"Street":[1.0],"HouseNumber":1.0,"PostalCode":1.0},"MatchType":"interpolated","Location":{"LocationId":"NT_.jKQiD4Rnd0pBuA2HZqosA_1kD","LocationType":"point","DisplayPosition":{"Latitude":50.81019,"Longitude":4.93663},"MapView":{"TopLeft":{"Latitude":50.8113142,"Longitude":4.934851},"BottomRight":{"Latitude":50.8090658,"Longitude":4.938409}},"Address":{"Label":"Gilainstraat 59, 3300 Tienen, België","Country":"BEL","State":"Vlaanderen","County":"Vlaams Brabant","City":"Tienen","Street":"Gilainstraat","HouseNumber":"59","PostalCode":"3300","AdditionalData":[{"value":"België","key":"CountryName"},{"value":"Vlaanderen","key":"StateName"},{"value":"Vlaams Brabant","key":"CountyName"}]},"MapReference":{"ReferenceId":"901859364","Spot":0.84,"SideOfStreet":"right","CountryId":"20128886","StateId":"20204377","CountyId":"20207856","CityId":"20208174","AddressId":"399672873","RoadLinkId":"263427916"}}},{"Relevance":1.0,"Distance":30.5,"MatchLevel":"houseNumber","MatchQuality":{"Country":1.0,"State":1.0,"County":1.0,"City":1.0,"Street":[1.0],"HouseNumber":1.0,"PostalCode":1.0},"MatchType":"interpolated","Location":{"LocationId":"NT_.jKQiD4Rnd0pBuA2HZqosA_2UD","LocationType":"point","DisplayPosition":{"Latitude":50.81037,"Longitude":4.93647},"MapView":{"TopLeft":{"Latitude":50.8114942,"Longitude":4.934691},"BottomRight":{"Latitude":50.8092458,"Longitude":4.938249}},"Address":{"Label":"Gilainstraat 65, 3300 Tienen, België","Country":"BEL","State":"Vlaanderen","County":"Vlaams Brabant","City":"Tienen","Street":"Gilainstraat","HouseNumber":"65","PostalCode":"3300","AdditionalData":[{"value":"België","key":"CountryName"},{"value":"Vlaanderen","key":"StateName"},{"value":"Vlaams Brabant","key":"CountyName"}]},"MapReference":{"ReferenceId":"901859365","Spot":0.18,"SideOfStreet":"right","CountryId":"20128886","StateId":"20204377","CountyId":"20207856","CityId":"20208174","AddressId":"399397776","RoadLinkId":"263427917"}}},{"Relevance":1.0,"Distance":49.0,"MatchLevel":"houseNumber","MatchQuality":{"Country":1.0,"State":1.0,"County":1.0,"City":1.0,"Street":[1.0],"HouseNumber":1.0,"PostalCode":1.0},"MatchType":"interpolated","Location":{"LocationId":"NT_vdz5cQCqB0cO20GFTp3bUB_yEE","LocationType":"point","DisplayPosition":{"Latitude":50.80972,"Longitude":4.93723},"MapView":{"TopLeft":{"Latitude":50.8108442,"Longitude":4.935451},"BottomRight":{"Latitude":50.8085958,"Longitude":4.939009}},"Address":{"Label":"Waaibergstraat 2A, 3300 Tienen, België","Country":"BEL","State":"Vlaanderen","County":"Vlaams Brabant","City":"Tienen","Street":"Waaibergstraat","HouseNumber":"2A","PostalCode":"3300","AdditionalData":[{"value":"België","key":"CountryName"},{"value":"Vlaanderen","key":"StateName"},{"value":"Vlaams Brabant","key":"CountyName"}]},"MapReference":{"ReferenceId":"1215540545","Spot":0.29,"SideOfStreet":"left","CountryId":"20128886","StateId":"20204377","CountyId":"20207856","CityId":"20208174","AddressId":"399853995","RoadLinkId":"531708433"}}},{"Relevance":1.0,"Distance":59.8,"MatchLevel":"houseNumber","MatchQuality":{"Country":1.0,"State":1.0,"County":1.0,"City":1.0,"Street":[1.0],"HouseNumber":1.0,"PostalCode":1.0},"MatchType":"interpolated","Location":{"LocationId":"NT_3Ob44JRkJayXSE9r96TYjC_yYD","LocationType":"point","DisplayPosition":{"Latitude":50.80958,"Longitude":4.93683},"MapView":{"TopLeft":{"Latitude":50.8107042,"Longitude":4.935051},"BottomRight":{"Latitude":50.8084558,"Longitude":4.938609}},"Address":{"Label":"Oude Vestenstraat 26, 3300 Tienen, België","Country":"BEL","State":"Vlaanderen","County":"Vlaams Brabant","City":"Tienen","Street":"Oude Vestenstraat","HouseNumber":"26","PostalCode":"3300","AdditionalData":[{"value":"België","key":"CountryName"},{"value":"Vlaanderen","key":"StateName"},{"value":"Vlaams Brabant","key":"CountyName"}]},"MapReference":{"ReferenceId":"901860150","Spot":0.8,"SideOfStreet":"left","CountryId":"20128886","StateId":"20204377","CountyId":"20207856","CityId":"20208174","AddressId":"400199086","RoadLinkId":"263428896"}}},{"Relevance":1.0,"Distance":65.8,"MatchLevel":"houseNumber","MatchQuality":{"Country":1.0,"State":1.0,"County":1.0,"City":1.0,"Street":[1.0],"HouseNumber":1.0,"PostalCode":1.0},"MatchType":"interpolated","Location":{"LocationId":"NT_vdz5cQCqB0cO20GFTp3bUB_yYD","LocationType":"point","DisplayPosition":{"Latitude":50.80989,"Longitude":4.93777},"MapView":{"TopLeft":{"Latitude":50.8110142,"Longitude":4.935991},"BottomRight":{"Latitude":50.8087658,"Longitude":4.939549}},"Address":{"Label":"Waaibergstraat 26, 3300 Tienen, België","Country":"BEL","State":"Vlaanderen","County":"Vlaams Brabant","City":"Tienen","Street":"Waaibergstraat","HouseNumber":"26","PostalCode":"3300","AdditionalData":[{"value":"België","key":"CountryName"},{"value":"Vlaanderen","key":"StateName"},{"value":"Vlaams Brabant","key":"CountyName"}]},"MapReference":{"ReferenceId":"1215540567","Spot":0.17,"SideOfStreet":"left","CountryId":"20128886","StateId":"20204377","CountyId":"20207856","CityId":"20208174","AddressId":"399854000","RoadLinkId":"531708455"}}},{"Relevance":1.0,"Distance":70.2,"MatchLevel":"houseNumber","MatchQuality":{"Country":1.0,"State":1.0,"County":1.0,"City":1.0,"Street":[1.0],"HouseNumber":1.0,"PostalCode":1.0},"MatchType":"interpolated","Location":{"LocationId":"NT_.jKQiD4Rnd0pBuA2HZqosA_zcD","LocationType":"point","DisplayPosition":{"Latitude":50.80959,"Longitude":4.9371},"MapView":{"TopLeft":{"Latitude":50.8107142,"Longitude":4.935321},"BottomRight":{"Latitude":50.8084658,"Longitude":4.938879}},"Address":{"Label":"Gilainstraat 37, 3300 Tienen, België","Country":"BEL","State":"Vlaanderen","County":"Vlaams Brabant","City":"Tienen","Street":"Gilainstraat","HouseNumber":"37","PostalCode":"3300","AdditionalData":[{"value":"België","key":"CountryName"},{"value":"Vlaanderen","key":"StateName"},{"value":"Vlaams Brabant","key":"CountyName"}]},"MapReference":{"ReferenceId":"763506962","Spot":0.72,"SideOfStreet":"right","CountryId":"20128886","StateId":"20204377","CountyId":"20207856","CityId":"20208174","AddressId":"401133836","RoadLinkId":"157801661"}}},{"Relevance":1.0,"Distance":80.3,"MatchLevel":"houseNumber","MatchQuality":{"Country":1.0,"State":1.0,"County":1.0,"City":1.0,"Street":[1.0],"HouseNumber":1.0,"PostalCode":1.0},"MatchType":"interpolated","Location":{"LocationId":"NT_.jKQiD4Rnd0pBuA2HZqosA_4UD","LocationType":"point","DisplayPosition":{"Latitude":50.81073,"Longitude":4.93608},"MapView":{"TopLeft":{"Latitude":50.8118542,"Longitude":4.934301},"BottomRight":{"Latitude":50.8096058,"Longitude":4.937859}},"Address":{"Label":"Gilainstraat 85, 3300 Tienen, België","Country":"BEL","State":"Vlaanderen","County":"Vlaams Brabant","City":"Tienen","Street":"Gilainstraat","HouseNumber":"85","PostalCode":"3300","AdditionalData":[{"value":"België","key":"CountryName"},{"value":"Vlaanderen","key":"StateName"},{"value":"Vlaams Brabant","key":"CountyName"}]},"MapReference":{"ReferenceId":"901859363","Spot":0.0,"SideOfStreet":"right","CountryId":"20128886","StateId":"20204377","CountyId":"20207856","CityId":"20208174","AddressId":"399980699","RoadLinkId":"263427915"}}},{"Relevance":1.0,"Distance":95.2,"MatchLevel":"houseNumber","MatchQuality":{"Country":1.0,"State":1.0,"County":1.0,"City":1.0,"Street":[1.0],"HouseNumber":1.0,"PostalCode":1.0},"MatchType":"interpolated","Location":{"LocationId":"NT_.jKQiD4Rnd0pBuA2HZqosA_zMD","LocationType":"point","DisplayPosition":{"Latitude":50.80939,"Longitude":4.93727},"MapView":{"TopLeft":{"Latitude":50.8105142,"Longitude":4.935491},"BottomRight":{"Latitude":50.8082658,"Longitude":4.939049}},"Address":{"Label":"Gilainstraat 33, 3300 Tienen, België","Country":"BEL","State":"Vlaanderen","County":"Vlaams Brabant","City":"Tienen","Street":"Gilainstraat","HouseNumber":"33","PostalCode":"3300","AdditionalData":[{"value":"België","key":"CountryName"},{"value":"Vlaanderen","key":"StateName"},{"value":"Vlaams Brabant","key":"CountyName"}]},"MapReference":{"ReferenceId":"763506961","Spot":0.97,"SideOfStreet":"right","CountryId":"20128886","StateId":"20204377","CountyId":"20207856","CityId":"20208174","AddressId":"400030290","RoadLinkId":"157801660"}}},{"Relevance":1.0,"Distance":102.4,"MatchLevel":"houseNumber","MatchQuality":{"Country":1.0,"State":1.0,"County":1.0,"City":1.0,"Street":[1.0],"HouseNumber":1.0,"PostalCode":1.0},"MatchType":"interpolated","Location":{"LocationId":"NT_vdz5cQCqB0cO20GFTp3bUB_0AD","LocationType":"point","DisplayPosition":{"Latitude":50.81015,"Longitude":4.93835},"MapView":{"TopLeft":{"Latitude":50.8112742,"Longitude":4.936571},"BottomRight":{"Latitude":50.8090258,"Longitude":4.940129}},"Address":{"Label":"Waaibergstraat 40, 3300 Tienen, België","Country":"BEL","State":"Vlaanderen","County":"Vlaams Brabant","City":"Tienen","Street":"Waaibergstraat","HouseNumber":"40","PostalCode":"3300","AdditionalData":[{"value":"België","key":"CountryName"},{"value":"Vlaanderen","key":"StateName"},{"value":"Vlaams Brabant","key":"CountyName"}]},"MapReference":{"ReferenceId":"1215540568","Spot":0.21,"SideOfStreet":"left","CountryId":"20128886","StateId":"20204377","CountyId":"20207856","CityId":"20208174","AddressId":"399854008","RoadLinkId":"531708456"}}}]}]}}