{"Response":{"MetaInfo":{"Timestamp":"2020-03-28T10:56:54.308+0000","NextPageInformation":"2"},"View":[{"_type":"SearchResultsViewType","ViewId":0,"Result":[{"Relevance":1.0,"Distance":0.0,"Direction":0.0,"MatchLevel":"district","MatchQuality":{"Country":1.0,"State":1.0,"County":1.0,"City":1.0,"District":1.0,"PostalCode":1.0},"Location":{"LocationId":"NT_kJpOBe1LaLlCywL8uWeDgC","LocationType":"point","DisplayPosition":{"Latitude":50.8614129,"Longitude":11.3381364},"MapView":{"TopLeft":{"Latitude":50.86889,"Longitude":11.32763},"BottomRight":{"Latitude":50.85551,"Longitude":11.35216}},"Address":{"Label":"Blankenhain, Thüringen, Deutschland","Country":"DEU","State":"Thüringen","County":"Weimarer Land","City":"Blankenhain","District":"Blankenhain","PostalCode":"99444","AdditionalData":[{"value":"Deutschland","key":"CountryName"},{"value":"Thüringen","key":"StateName"},{"value":"Weimarer Land","key":"CountyName"}]},"MapReference":{"ReferenceId":"813166407","SideOfStreet":"neither","CountryId":"20147700","StateId":"20196974","CountyId":"20198538","CityId":"20198551","DistrictId":"20198553"}}},{"Relevance":1.0,"Distance":9.6,"MatchLevel":"houseNumber","MatchQuality":{"Country":1.0,"State":1.0,"County":1.0,"City":1.0,"District":1.0,"Street":[1.0],"HouseNumber":1.0,"PostalCode":1.0},"MatchType":"interpolated","Location":{"LocationId":"NT_b72obzRcSY.PHSiXify8VC_1A","LocationType":"point","DisplayPosition":{"Latitude":50.86145,"Longitude":11.33826},"MapView":{"TopLeft":{"Latitude":50.8625742,"Longitude":11.336479},"BottomRight":{"Latitude":50.8603258,"Longitude":11.340041}},"Address":{"Label":"Carolinenstraße 5, 99444 Blankenhain, Deutschland","Country":"DEU","State":"Thüringen","County":"Weimarer Land","City":"Blankenhain","District":"Blankenhain","Street":"Carolinenstraße","HouseNumber":"5","PostalCode":"99444","AdditionalData":[{"value":"Deutschland","key":"CountryName"},{"value":"Thüringen","key":"StateName"},{"value":"Weimarer Land","key":"CountyName"}]},"MapReference":{"ReferenceId":"548084666","Spot":0.87,"SideOfStreet":"right","CountryId":"20147700","StateId":"20196974","CountyId":"20198538","CityId":"20198551","DistrictId":"20198553","AddressId":"189571492","RoadLinkId":"39847201"}}},{"Relevance":1.0,"Distance":13.1,"MatchLevel":"houseNumber","MatchQuality":{"Country":1.0,"State":1.0,"County":1.0,"City":1.0,"District":1.0,"Street":[1.0],"HouseNumber":1.0,"PostalCode":1.0},"MatchType":"interpolated","Location":{"LocationId":"NT_pwLC4ptS5T5bRaEbWmdPOD_3A","LocationType":"point","DisplayPosition":{"Latitude":50.86134,"Longitude":11.33799},"MapView":{"TopLeft":{"Latitude":50.8624642,"Longitude":11.336209},"BottomRight":{"Latitude":50.8602158,"Longitude":11.339771}},"Address":{"Label":"Lindenstraße 7, 99444 Blankenhain, Deutschland","Country":"DEU","State":"Thüringen","County":"Weimarer Land","City":"Blankenhain","District":"Blankenhain","Street":"Lindenstraße","HouseNumber":"7","PostalCode":"99444","AdditionalData":[{"value":"Deutschland","key":"CountryName"},{"value":"Thüringen","key":"StateName"},{"value":"Weimarer Land","key":"CountyName"}]},"MapReference":{"ReferenceId":"548084664","Spot":0.91,"SideOfStreet":"left","CountryId":"20147700","StateId":"20196974","CountyId":"20198538","CityId":"20198551","DistrictId":"20198553","AddressId":"189626154","RoadLinkId":"39743435"}}},{"Relevance":1.0,"Distance":21.5,"MatchLevel":"houseNumber","MatchQuality":{"Country":1.0,"State":1.0,"County":1.0,"City":1.0,"District":1.0,"Street":[1.0],"HouseNumber":1.0,"PostalCode":1.0},"MatchType":"interpolated","Location":{"LocationId":"NT_pwLC4ptS5T5bRaEbWmdPOD_1EE","LocationType":"point","DisplayPosition":{"Latitude":50.8616,"Longitude":11.33806},"MapView":{"TopLeft":{"Latitude":50.8627242,"Longitude":11.336279},"BottomRight":{"Latitude":50.8604758,"Longitude":11.339841}},"Address":{"Label":"Lindenstraße 5A, 99444 Blankenhain, Deutschland","Country":"DEU","State":"Thüringen","County":"Weimarer Land","City":"Blankenhain","District":"Blankenhain","Street":"Lindenstraße","HouseNumber":"5A","PostalCode":"99444","AdditionalData":[{"value":"Deutschland","key":"CountryName"},{"value":"Thüringen","key":"StateName"},{"value":"Weimarer Land","key":"CountyName"}]},"MapReference":{"ReferenceId":"548084793","Spot":0.12,"SideOfStreet":"left","CountryId":"20147700","StateId":"20196974","CountyId":"20198538","CityId":"20198551","DistrictId":"20198553","AddressId":"189590942","RoadLinkId":"39965547"}}},{"Relevance":1.0,"Distance":78.7,"MatchLevel":"houseNumber","MatchQuality":{"Country":1.0,"State":1.0,"County":1.0,"City":1.0,"District":1.0,"Street":[1.0],"HouseNumber":1.0,"PostalCode":1.0},"MatchType":"interpolated","Location":{"LocationId":"NT_uBi6l6pUxXg9BlJlCbOSmC_0A","LocationType":"point","DisplayPosition":{"Latitude":50.86217,"Longitude":11.33873},"MapView":{"TopLeft":{"Latitude":50.8632942,"Longitude":11.336949},"BottomRight":{"Latitude":50.8610458,"Longitude":11.340511}},"Address":{"Label":"Schulberg 4, 99444 Blankenhain, Deutschland","Country":"DEU","State":"Thüringen","County":"Weimarer Land","City":"Blankenhain","District":"Blankenhain","Street":"Schulberg","HouseNumber":"4","PostalCode":"99444","AdditionalData":[{"value":"Deutschland","key":"CountryName"},{"value":"Thüringen","key":"StateName"},{"value":"Weimarer Land","key":"CountyName"}]},"MapReference":{"ReferenceId":"548084763","Spot":0.81,"SideOfStreet":"left","CountryId":"20147700","StateId":"20196974","CountyId":"20198538","CityId":"20198551","DistrictId":"20198553","AddressId":"189371655","RoadLinkId":"40040388"}}},{"Relevance":1.0,"Distance":115.1,"MatchLevel":"street","MatchQuality":{"Country":1.0,"State":1.0,"County":1.0,"City":1.0,"District":1.0,"Street":[1.0],"PostalCode":1.0},"Location":{"LocationId":"NT_uBi6l6pUxXg9BlJlCbOSmC_l_548084653_L","LocationType":"point","DisplayPosition":{"Latitude":50.86123,"Longitude":11.33975},"MapView":{"TopLeft":{"Latitude":50.86166,"Longitude":11.33975},"BottomRight":{"Latitude":50.86123,"Longitude":11.33987}},"Address":{"Label":"Schulberg, 99444 Blankenhain, Deutschland","Country":"DEU","State":"Thüringen","County":"Weimarer Land","City":"Blankenhain","District":"Blankenhain","Street":"Schulberg","PostalCode":"99444","AdditionalData":[{"value":"Deutschland","key":"CountryName"},{"value":"Thüringen","key":"StateName"},{"value":"Weimarer Land","key":"CountyName"}]},"MapReference":{"ReferenceId":"548084653","Spot":0.0,"SideOfStreet":"left","CountryId":"20147700","StateId":"20196974","CountyId":"20198538","CityId":"20198551","DistrictId":"20198553"}}},{"Relevance":1.0,"Distance":117.3,"MatchLevel":"houseNumber","MatchQuality":{"Country":1.0,"State":1.0,"County":1.0,"City":1.0,"District":1.0,"Street":[1.0],"HouseNumber":1.0,"PostalCode":1.0},"MatchType":"interpolated","Location":{"LocationId":"NT_pwLC4ptS5T5bRaEbWmdPOD_yA","LocationType":"point","DisplayPosition":{"Latitude":50.86243,"Longitude":11.33858},"MapView":{"TopLeft":{"Latitude":50.8635542,"Longitude":11.336799},"BottomRight":{"Latitude":50.8613058,"Longitude":11.340361}},"Address":{"Label":"Lindenstraße 2, 99444 Blankenhain, Deutschland","Country":"DEU","State":"Thüringen","County":"Weimarer Land","City":"Blankenhain","District":"Blankenhain","Street":"Lindenstraße","HouseNumber":"2","PostalCode":"99444","AdditionalData":[{"value":"Deutschland","key":"CountryName"},{"value":"Thüringen","key":"StateName"},{"value":"Weimarer Land","key":"CountyName"}]},"MapReference":{"ReferenceId":"548084772","Spot":0.22,"SideOfStreet":"right","CountryId":"20147700","StateId":"20196974","CountyId":"20198538","CityId":"20198551","DistrictId":"20198553","AddressId":"189661200","RoadLinkId":"39759320"}}},{"Relevance":1.0,"Distance":124.1,"MatchLevel":"houseNumber","MatchQuality":{"Country":1.0,"State":1.0,"County":1.0,"City":1.0,"District":1.0,"Street":[1.0],"HouseNumber":1.0,"PostalCode":1.0},"MatchType":"interpolated","Location":{"LocationId":"NT_6BV0OymedjzOoN7Wf1qz9C_zIE","LocationType":"point","DisplayPosition":{"Latitude":50.86123,"Longitude":11.33988},"MapView":{"TopLeft":{"Latitude":50.8623542,"Longitude":11.338099},"BottomRight":{"Latitude":50.8601058,"Longitude":11.341661}},"Address":{"Label":"Kirchplatz 3B, 99444 Blankenhain, Deutschland","Country":"DEU","State":"Thüringen","County":"Weimarer Land","City":"Blankenhain","District":"Blankenhain","Street":"Kirchplatz","HouseNumber":"3B","PostalCode":"99444","AdditionalData":[{"value":"Deutschland","key":"CountryName"},{"value":"Thüringen","key":"StateName"},{"value":"Weimarer Land","key":"CountyName"}]},"MapReference":{"ReferenceId":"548084691","Spot":0.87,"SideOfStreet":"right","CountryId":"20147700","StateId":"20196974","CountyId":"20198538","CityId":"20198551","DistrictId":"20198553","AddressId":"249518382","RoadLinkId":"226861134"}}},{"Relevance":1.0,"Distance":148.1,"MatchLevel":"houseNumber","MatchQuality":{"Country":1.0,"State":1.0,"County":1.0,"City":1.0,"District":1.0,"Street":[1.0],"HouseNumber":1.0,"PostalCode":1.0},"MatchType":"interpolated","Location":{"LocationId":"NT_JL5czx5T155RtrHm1wC6QB_4A","LocationType":"point","DisplayPosition":{"Latitude":50.86268,"Longitude":11.33936},"MapView":{"TopLeft":{"Latitude":50.8638042,"Longitude":11.337579},"BottomRight":{"Latitude":50.8615558,"Longitude":11.341141}},"Address":{"Label":"Am Voigtplatz 8, 99444 Blankenhain, Deutschland","Country":"DEU","State":"Thüringen","County":"Weimarer Land","City":"Blankenhain","District":"Blankenhain","Street":"Am Voigtplatz","HouseNumber":"8","PostalCode":"99444","AdditionalData":[{"value":"Deutschland","key":"CountryName"},{"value":"Thüringen","key":"StateName"},{"value":"Weimarer Land","key":"CountyName"}]},"MapReference":{"ReferenceId":"548084617","Spot":0.89,"SideOfStreet":"left","CountryId":"20147700","StateId":"20196974","CountyId":"20198538","CityId":"20198551","DistrictId":"20198553","AddressId":"189204670","RoadLinkId":"39649015"}}},{"Relevance":1.0,"Distance":177.3,"MatchLevel":"street","MatchQuality":{"Country":1.0,"State":1.0,"County":1.0,"City":1.0,"District":1.0,"Street":[1.0],"PostalCode":1.0},"Location":{"LocationId":"NT_pQVjDzfBueRmO312CS5BJB_l_548084783_L","LocationType":"point","DisplayPosition":{"Latitude":50.86298,"Longitude":11.3386},"MapView":{"TopLeft":{"Latitude":50.86298,"Longitude":11.3386},"BottomRight":{"Latitude":50.86285,"Longitude":11.33902}},"Address":{"Label":"Am Waldbad, 99444 Blankenhain, Deutschland","Country":"DEU","State":"Thüringen","County":"Weimarer Land","City":"Blankenhain","District":"Blankenhain","Street":"Am Waldbad","PostalCode":"99444","AdditionalData":[{"value":"Deutschland","key":"CountryName"},{"value":"Thüringen","key":"StateName"},{"value":"Weimarer Land","key":"CountyName"}]},"MapReference":{"ReferenceId":"548084783","Spot":1.0,"SideOfStreet":"left","CountryId":"20147700","StateId":"20196974","CountyId":"20198538","CityId":"20198551","DistrictId":"20198553"}}}]}]}}