{"Response":{"MetaInfo":{"Timestamp":"2020-03-28T11:38:11.480+0000","NextPageInformation":"2"},"View":[{"_type":"SearchResultsViewType","ViewId":0,"Result":[{"Relevance":1.0,"Distance":0.0,"Direction":0.0,"MatchLevel":"district","MatchQuality":{"Country":1.0,"State":1.0,"County":1.0,"City":1.0,"District":1.0,"PostalCode":1.0},"Location":{"LocationId":"NT_fRMyw4WOw4tYW8U78-BOOD","LocationType":"point","DisplayPosition":{"Latitude":50.820601,"Longitude":4.8881238},"MapView":{"TopLeft":{"Latitude":50.82636,"Longitude":4.87757},"BottomRight":{"Latitude":50.81284,"Longitude":4.89559}},"Address":{"Label":"Kumtich, Tienen, Vlaanderen, België","Country":"BEL","State":"Vlaanderen","County":"Vlaams Brabant","City":"Tienen","District":"Kumtich","PostalCode":"3300","AdditionalData":[{"value":"België","key":"CountryName"},{"value":"Vlaanderen","key":"StateName"},{"value":"Vlaams Brabant","key":"CountyName"}]},"MapReference":{"ReferenceId":"763641645","SideOfStreet":"neither","CountryId":"20128886","StateId":"20204377","CountyId":"20207856","CityId":"20208174","DistrictId":"20208180"}}},{"Relevance":1.0,"Distance":9.6,"MatchLevel":"houseNumber","MatchQuality":{"Country":1.0,"State":1.0,"County":1.0,"City":1.0,"District":1.0,"Street":[1.0],"HouseNumber":1.0,"PostalCode":1.0},"MatchType":"interpolated","Location":{"LocationId":"NT_3nmYv0Yz4Im2oblGDRXVqB_ykD","LocationType":"point","DisplayPosition":{"Latitude":50.82068,"Longitude":4.88807},"MapView":{"TopLeft":{"Latitude":50.8218042,"Longitude":4.8862906},"BottomRight":{"Latitude":50.8195558,"Longitude":4.8898494}},"Address":{"Label":"Kumtichstraat 29, 3300 Tienen, België","Country":"BEL","State":"Vlaanderen","County":"Vlaams Brabant","City":"Tienen","District":"Kumtich","Street":"Kumtichstraat","HouseNumber":"29","PostalCode":"3300","AdditionalData":[{"value":"België","key":"CountryName"},{"value":"Vlaanderen","key":"StateName"},{"value":"Vlaams Brabant","key":"CountyName"}]},"MapReference":{"ReferenceId":"1132196857","Spot":0.19,"SideOfStreet":"right","CountryId":"20128886","StateId":"20204377","CountyId":"20207856","CityId":"20208174","DistrictId":"20208180","AddressId":"401664680","RoadLinkId":"442130511"}}},{"Relevance":1.0,"Distance":30.7,"MatchLevel":"houseNumber","MatchQuality":{"Country":1.0,"State":1.0,"County":1.0,"City":1.0,"District":1.0,"Street":[1.0],"HouseNumber":1.0,"PostalCode":1.0},"MatchType":"interpolated","Location":{"LocationId":"NT_3nmYv0Yz4Im2oblGDRXVqB_xkD","LocationType":"point","DisplayPosition":{"Latitude":50.82047,"Longitude":4.88769},"MapView":{"TopLeft":{"Latitude":50.8215942,"Longitude":4.8859106},"BottomRight":{"Latitude":50.8193458,"Longitude":4.8894694}},"Address":{"Label":"Kumtichstraat 19, 3300 Tienen, België","Country":"BEL","State":"Vlaanderen","County":"Vlaams Brabant","City":"Tienen","District":"Kumtich","Street":"Kumtichstraat","HouseNumber":"19","PostalCode":"3300","AdditionalData":[{"value":"België","key":"CountryName"},{"value":"Vlaanderen","key":"StateName"},{"value":"Vlaams Brabant","key":"CountyName"}]},"MapReference":{"ReferenceId":"763641651","Spot":0.83,"SideOfStreet":"right","CountryId":"20128886","StateId":"20204377","CountyId":"20207856","CityId":"20208174","DistrictId":"20208180","AddressId":"399718508","RoadLinkId":"157964308"}}},{"Relevance":1.0,"Distance":46.0,"MatchLevel":"houseNumber","MatchQuality":{"Country":1.0,"State":1.0,"County":1.0,"City":1.0,"District":1.0,"Street":[1.0],"HouseNumber":1.0,"PostalCode":1.0},"MatchType":"interpolated","Location":{"LocationId":"NT_JBbAMmu0h8xWDzCrZ6oBZA_2ID","LocationType":"point","DisplayPosition":{"Latitude":50.82099,"Longitude":4.88773},"MapView":{"TopLeft":{"Latitude":50.8221142,"Longitude":4.8859506},"BottomRight":{"Latitude":50.8198658,"Longitude":4.8895094}},"Address":{"Label":"Keibergstraat 62, 3300 Tienen, België","Country":"BEL","State":"Vlaanderen","County":"Vlaams Brabant","City":"Tienen","District":"Kumtich","Street":"Keibergstraat","HouseNumber":"62","PostalCode":"3300","AdditionalData":[{"value":"België","key":"CountryName"},{"value":"Vlaanderen","key":"StateName"},{"value":"Vlaams Brabant","key":"CountyName"}]},"MapReference":{"ReferenceId":"1105134621","Spot":0.3,"SideOfStreet":"right","CountryId":"20128886","StateId":"20204377","CountyId":"20207856","CityId":"20208174","DistrictId":"20208180","AddressId":"400617927","RoadLinkId":"416950477"}}},{"Relevance":1.0,"Distance":84.4,"MatchLevel":"houseNumber","MatchQuality":{"Country":1.0,"State":1.0,"County":1.0,"City":1.0,"District":1.0,"Street":[1.0],"HouseNumber":1.0,"PostalCode":1.0},"MatchType":"interpolated","Location":{"LocationId":"NT_2C7y6GSKOaCjd0krX2AnXA_yA","LocationType":"point","DisplayPosition":{"Latitude":50.81991,"Longitude":4.88709},"MapView":{"TopLeft":{"Latitude":50.8210342,"Longitude":4.8853106},"BottomRight":{"Latitude":50.8187858,"Longitude":4.8888694}},"Address":{"Label":"Sint-Gillisplein 2, 3300 Tienen, België","Country":"BEL","State":"Vlaanderen","County":"Vlaams Brabant","City":"Tienen","District":"Kumtich","Street":"Sint-Gillisplein","HouseNumber":"2","PostalCode":"3300","AdditionalData":[{"value":"België","key":"CountryName"},{"value":"Vlaanderen","key":"StateName"},{"value":"Vlaams Brabant","key":"CountyName"}]},"MapReference":{"ReferenceId":"53728149","Spot":1.0,"SideOfStreet":"right","CountryId":"20128886","StateId":"20204377","CountyId":"20207856","CityId":"20208174","DistrictId":"20208180","AddressId":"400941421","RoadLinkId":"30901404"}}},{"Relevance":1.0,"Distance":88.8,"MatchLevel":"houseNumber","MatchQuality":{"Country":1.0,"State":1.0,"County":1.0,"City":1.0,"District":1.0,"Street":[1.0],"HouseNumber":1.0,"PostalCode":1.0},"MatchType":"interpolated","Location":{"LocationId":"NT_3nmYv0Yz4Im2oblGDRXVqB_l_763641650_R_3A","LocationType":"point","DisplayPosition":{"Latitude":50.8200644,"Longitude":4.8871879},"MapView":{"TopLeft":{"Latitude":50.8211886,"Longitude":4.8854085},"BottomRight":{"Latitude":50.8189403,"Longitude":4.8889673}},"Address":{"Label":"Kumtichstraat 7, 3300 Tienen, België","Country":"BEL","State":"Vlaanderen","County":"Vlaams Brabant","City":"Tienen","District":"Kumtich","Street":"Kumtichstraat","HouseNumber":"7","PostalCode":"3300","AdditionalData":[{"value":"België","key":"CountryName"},{"value":"Vlaanderen","key":"StateName"},{"value":"Vlaams Brabant","key":"CountyName"}]},"MapReference":{"ReferenceId":"763641650","Spot":0.73,"SideOfStreet":"right","CountryId":"20128886","StateId":"20204377","CountyId":"20207856","CityId":"20208174","DistrictId":"20208180"}}},{"Relevance":1.0,"Distance":94.2,"MatchLevel":"houseNumber","MatchQuality":{"Country":1.0,"State":1.0,"County":1.0,"City":1.0,"District":1.0,"Street":[1.0],"HouseNumber":1.0,"PostalCode":1.0},"MatchType":"interpolated","Location":{"LocationId":"NT_2C7y6GSKOaCjd0krX2AnXA_1cD","LocationType":"point","DisplayPosition":{"Latitude":50.81999,"Longitude":4.8869},"MapView":{"TopLeft":{"Latitude":50.8211142,"Longitude":4.8851206},"BottomRight":{"Latitude":50.8188658,"Longitude":4.8886794}},"Address":{"Label":"Sint-Gillisplein 57, 3300 Tienen, België","Country":"BEL","State":"Vlaanderen","County":"Vlaams Brabant","City":"Tienen","District":"Kumtich","Street":"Sint-Gillisplein","HouseNumber":"57","PostalCode":"3300","AdditionalData":[{"value":"België","key":"CountryName"},{"value":"Vlaanderen","key":"StateName"},{"value":"Vlaams Brabant","key":"CountyName"}]},"MapReference":{"ReferenceId":"59713765","Spot":0.5,"SideOfStreet":"right","CountryId":"20128886","StateId":"20204377","CountyId":"20207856","CityId":"20208174","DistrictId":"20208180","AddressId":"626280250","RoadLinkId":"30238456"}}},{"Relevance":1.0,"Distance":108.2,"MatchLevel":"houseNumber","MatchQuality":{"Country":1.0,"State":1.0,"County":1.0,"City":1.0,"District":1.0,"Street":[1.0],"HouseNumber":1.0,"PostalCode":1.0},"MatchType":"interpolated","Location":{"LocationId":"NT_C2kSd7LbtRVxqAkuFek5mA_xUD","LocationType":"point","DisplayPosition":{"Latitude":50.82064,"Longitude":4.88626},"MapView":{"TopLeft":{"Latitude":50.8217642,"Longitude":4.8844806},"BottomRight":{"Latitude":50.8195158,"Longitude":4.8880394}},"Address":{"Label":"Groenhofstraat 15, 3300 Tienen, België","Country":"BEL","State":"Vlaanderen","County":"Vlaams Brabant","City":"Tienen","District":"Kumtich","Street":"Groenhofstraat","HouseNumber":"15","PostalCode":"3300","AdditionalData":[{"value":"België","key":"CountryName"},{"value":"Vlaanderen","key":"StateName"},{"value":"Vlaams Brabant","key":"CountyName"}]},"MapReference":{"ReferenceId":"1105134619","Spot":0.44,"SideOfStreet":"right","CountryId":"20128886","StateId":"20204377","CountyId":"20207856","CityId":"20208174","DistrictId":"20208180","AddressId":"400095162","RoadLinkId":"416950475"}}},{"Relevance":1.0,"Distance":112.6,"MatchLevel":"houseNumber","MatchQuality":{"Country":1.0,"State":1.0,"County":1.0,"City":1.0,"District":1.0,"Street":[1.0],"HouseNumber":1.0,"PostalCode":1.0},"MatchType":"interpolated","Location":{"LocationId":"NT_3nmYv0Yz4Im2oblGDRXVqB_2MD","LocationType":"point","DisplayPosition":{"Latitude":50.82126,"Longitude":4.88934},"MapView":{"TopLeft":{"Latitude":50.8223842,"Longitude":4.8875606},"BottomRight":{"Latitude":50.8201358,"Longitude":4.8911194}},"Address":{"Label":"Kumtichstraat 63, 3300 Tienen, België","Country":"BEL","State":"Vlaanderen","County":"Vlaams Brabant","City":"Tienen","District":"Kumtich","Street":"Kumtichstraat","HouseNumber":"63","PostalCode":"3300","AdditionalData":[{"value":"België","key":"CountryName"},{"value":"Vlaanderen","key":"StateName"},{"value":"Vlaams Brabant","key":"CountyName"}]},"MapReference":{"ReferenceId":"1132196858","Spot":0.0,"SideOfStreet":"right","CountryId":"20128886","StateId":"20204377","CountyId":"20207856","CityId":"20208174","DistrictId":"20208180","AddressId":"401664686","RoadLinkId":"442130512"}}},{"Relevance":1.0,"Distance":133.8,"MatchLevel":"houseNumber","MatchQuality":{"Country":1.0,"State":1.0,"County":1.0,"City":1.0,"District":1.0,"Street":[1.0],"HouseNumber":1.0,"PostalCode":1.0},"MatchType":"interpolated","Location":{"LocationId":"NT_2C7y6GSKOaCjd0krX2AnXA_xUD","LocationType":"point","DisplayPosition":{"Latitude":50.8192,"Longitude":4.88769},"MapView":{"TopLeft":{"Latitude":50.8203242,"Longitude":4.8859106},"BottomRight":{"Latitude":50.8180758,"Longitude":4.8894694}},"Address":{"Label":"Sint-Gillisplein 15, 3300 Tienen, België","Country":"BEL","State":"Vlaanderen","County":"Vlaams Brabant","City":"Tienen","District":"Kumtich","Street":"Sint-Gillisplein","HouseNumber":"15","PostalCode":"3300","AdditionalData":[{"value":"België","key":"CountryName"},{"value":"Vlaanderen","key":"StateName"},{"value":"Vlaams Brabant","key":"CountyName"}]},"MapReference":{"ReferenceId":"59713846","Spot":0.78,"SideOfStreet":"right","CountryId":"20128886","StateId":"20204377","CountyId":"20207856","CityId":"20208174","DistrictId":"20208180","AddressId":"400631199","RoadLinkId":"30894091"}}}]}]}}