{"Response":{"MetaInfo":{"Timestamp":"2020-03-28T11:58:20.083+0000","NextPageInformation":"2"},"View":[{"_type":"SearchResultsViewType","ViewId":0,"Result":[{"Relevance":1.0,"Distance":-755.3,"MatchLevel":"landmark","MatchQuality":{"Country":1.0,"State":1.0,"County":1.0,"Name":1.0},"Location":{"LocationId":"NT_pD4f6JF-mSIRCqUPTCFRZA","LocationType":"island","Name":"Portsea Island","DisplayPosition":{"Latitude":50.80731,"Longitude":-1.06999},"MapView":{"TopLeft":{"Latitude":50.837,"Longitude":-1.11178},"BottomRight":{"Latitude":50.77762,"Longitude":-1.02808}},"Address":{"Label":"United Kingdom","Country":"GBR","State":"England","County":"Hampshire","AdditionalData":[{"value":"United Kingdom","key":"CountryName"},{"value":"England","key":"StateName"},{"value":"Hampshire","key":"CountyName"}]},"MapReference":{"StateId":"20248595","CountyId":"20335863","PlaceId":"1499827007"}}},{"Relevance":1.0,"Distance":0.0,"Direction":0.0,"MatchLevel":"district","MatchQuality":{"Country":1.0,"State":1.0,"County":1.0,"City":1.0,"District":1.0,"PostalCode":1.0},"Location":{"LocationId":"NT_PwdvytGI5gmwRrCnqlgs1A","LocationType":"point","DisplayPosition":{"Latitude":50.8132071,"Longitude":-1.0800216},"MapView":{"TopLeft":{"Latitude":50.85606,"Longitude":-1.1178},"BottomRight":{"Latitude":50.77762,"Longitude":-1.0164}},"Address":{"Label":"Portsmouth, England, United Kingdom","Country":"GBR","State":"England","County":"Hampshire","City":"Portsmouth","District":"Portsmouth","PostalCode":"PO1 4","AdditionalData":[{"value":"United Kingdom","key":"CountryName"},{"value":"England","key":"StateName"},{"value":"Hampshire","key":"CountyName"}]},"MapReference":{"ReferenceId":"25744093","SideOfStreet":"neither","StateId":"20248595","CountyId":"20335863","CityId":"20336217","DistrictId":"20336218"}}},{"Relevance":1.0,"Distance":10.2,"MatchLevel":"houseNumber","MatchQuality":{"Country":1.0,"State":1.0,"County":1.0,"City":1.0,"District":1.0,"Street":[1.0],"HouseNumber":1.0,"PostalCode":1.0},"MatchType":"interpolated","Location":{"LocationId":"NT_6v6qeE-lcLmy3jh2641miA_l_25742811_R_yA","LocationType":"point","DisplayPosition":{"Latitude":50.8132801,"Longitude":-1.08011},"MapView":{"TopLeft":{"Latitude":50.8144042,"Longitude":-1.0818892},"BottomRight":{"Latitude":50.8121559,"Longitude":-1.0783309}},"Address":{"Label":"2 London Road, Portsmouth, PO2 0LH, United Kingdom","Country":"GBR","State":"England","County":"Hampshire","City":"Portsmouth","District":"Portsmouth","Street":"London Road","HouseNumber":"2","PostalCode":"PO2 0LH","AdditionalData":[{"value":"United Kingdom","key":"CountryName"},{"value":"England","key":"StateName"},{"value":"Hampshire","key":"CountyName"}]},"MapReference":{"ReferenceId":"25742811","Spot":0.25,"SideOfStreet":"right","StateId":"20248595","CountyId":"20335863","CityId":"20336217","DistrictId":"20336218"}}},{"Relevance":1.0,"Distance":12.7,"MatchLevel":"houseNumber","MatchQuality":{"Country":1.0,"State":1.0,"County":1.0,"City":1.0,"District":1.0,"Street":[1.0],"HouseNumber":1.0,"PostalCode":1.0},"MatchType":"interpolated","Location":{"LocationId":"NT_2-944LQLhnF-Lh2R5GQXlC_l_1122712491_L_4UD","LocationType":"point","DisplayPosition":{"Latitude":50.813148,"Longitude":-1.080176},"MapView":{"TopLeft":{"Latitude":50.8142722,"Longitude":-1.0819551},"BottomRight":{"Latitude":50.8120238,"Longitude":-1.0783968}},"Address":{"Label":"85 Kingston Crescent, Portsmouth, PO2 8, United Kingdom","Country":"GBR","State":"England","County":"Hampshire","City":"Portsmouth","District":"Portsmouth","Street":"Kingston Crescent","HouseNumber":"85","PostalCode":"PO2 8","AdditionalData":[{"value":"United Kingdom","key":"CountryName"},{"value":"England","key":"StateName"},{"value":"Hampshire","key":"CountyName"}]},"MapReference":{"ReferenceId":"1122712491","Spot":0.8,"SideOfStreet":"left","StateId":"20248595","CountyId":"20335863","CityId":"20336217","DistrictId":"20336218"}}},{"Relevance":1.0,"Distance":19.1,"MatchLevel":"houseNumber","MatchQuality":{"Country":1.0,"State":1.0,"County":1.0,"City":1.0,"District":1.0,"Street":[1.0],"HouseNumber":1.0,"PostalCode":1.0},"MatchType":"interpolated","Location":{"LocationId":"NT_xjvEy8R994VnZrtXSUXs7B_l_1183366081_R_yUjM","LocationType":"point","DisplayPosition":{"Latitude":50.813,"Longitude":-1.0800871},"MapView":{"TopLeft":{"Latitude":50.8141242,"Longitude":-1.0818663},"BottomRight":{"Latitude":50.8118759,"Longitude":-1.078308}},"Address":{"Label":"252 Kingston Road, Portsmouth, PO2 7AZ, United Kingdom","Country":"GBR","State":"England","County":"Hampshire","City":"Portsmouth","District":"Portsmouth","Street":"Kingston Road","HouseNumber":"252","PostalCode":"PO2 7AZ","AdditionalData":[{"value":"United Kingdom","key":"CountryName"},{"value":"England","key":"StateName"},{"value":"Hampshire","key":"CountyName"}]},"MapReference":{"ReferenceId":"1183366081","Spot":0.56,"SideOfStreet":"right","StateId":"20248595","CountyId":"20335863","CityId":"20336217","DistrictId":"20336218"}}},{"Relevance":1.0,"Distance":24.1,"MatchLevel":"postalCode","MatchQuality":{"PostalCode":1.0},"MatchType":"interpolated","Location":{"LocationId":"NT_xjvEy8R994VnZrtXSUXs7B_l_1183366081_R_yUjM","LocationType":"point","DisplayPosition":{"Latitude":50.81299,"Longitude":-1.08002},"MapView":{"TopLeft":{"Latitude":50.8219832,"Longitude":-1.0942531},"BottomRight":{"Latitude":50.8039968,"Longitude":-1.0657869}},"Address":{"Label":"PO2 7AZ, Portsmouth, England, United Kingdom","Country":"GBR","State":"England","County":"Hampshire","City":"Portsmouth","PostalCode":"PO2 7AZ","AdditionalData":[{"value":"United Kingdom","key":"CountryName"},{"value":"England","key":"StateName"},{"value":"Hampshire","key":"CountyName"}]},"MapReference":{"ReferenceId":"1183366081","Spot":0.56,"SideOfStreet":"neither","StateId":"20248595","CountyId":"20335863","CityId":"20336217"}}},{"Relevance":1.0,"Distance":30.3,"MatchLevel":"street","MatchQuality":{"Country":1.0,"State":1.0,"County":1.0,"City":1.0,"District":1.0,"Street":[1.0],"PostalCode":1.0},"Location":{"LocationId":"NT_mjhxdCTpucE6T-kG6YnBWA_l_566015476_R","LocationType":"point","DisplayPosition":{"Latitude":50.81314,"Longitude":-1.08044},"MapView":{"TopLeft":{"Latitude":50.81397,"Longitude":-1.08115},"BottomRight":{"Latitude":50.81314,"Longitude":-1.08044}},"Address":{"Label":"Pitcroft Lane, Portsmouth, PO2 8, United Kingdom","Country":"GBR","State":"England","County":"Hampshire","City":"Portsmouth","District":"Portsmouth","Street":"Pitcroft Lane","PostalCode":"PO2 8","AdditionalData":[{"value":"United Kingdom","key":"CountryName"},{"value":"England","key":"StateName"},{"value":"Hampshire","key":"CountyName"}]},"MapReference":{"ReferenceId":"566015476","Spot":0.0,"SideOfStreet":"right","StateId":"20248595","CountyId":"20335863","CityId":"20336217","DistrictId":"20336218"}}},{"Relevance":1.0,"Distance":33.6,"MatchLevel":"houseNumber","MatchQuality":{"Country":1.0,"State":1.0,"County":1.0,"City":1.0,"District":1.0,"Street":[1.0],"HouseNumber":1.0,"PostalCode":1.0},"MatchType":"interpolated","Location":{"LocationId":"NT_2-944LQLhnF-Lh2R5GQXlC_l_1122712490_L_3UD","LocationType":"point","DisplayPosition":{"Latitude":50.81314,"Longitude":-1.0804875},"MapView":{"TopLeft":{"Latitude":50.8142642,"Longitude":-1.0822666},"BottomRight":{"Latitude":50.8120158,"Longitude":-1.0787083}},"Address":{"Label":"75 Kingston Crescent, Portsmouth, PO2 8AA, United Kingdom","Country":"GBR","State":"England","County":"Hampshire","City":"Portsmouth","District":"Portsmouth","Street":"Kingston Crescent","HouseNumber":"75","PostalCode":"PO2 8AA","AdditionalData":[{"value":"United Kingdom","key":"CountryName"},{"value":"England","key":"StateName"},{"value":"Hampshire","key":"CountyName"}]},"MapReference":{"ReferenceId":"1122712490","Spot":0.75,"SideOfStreet":"left","StateId":"20248595","CountyId":"20335863","CityId":"20336217","DistrictId":"20336218"}}},{"Relevance":1.0,"Distance":33.7,"MatchLevel":"postalCode","MatchQuality":{"PostalCode":1.0},"MatchType":"interpolated","Location":{"LocationId":"NT_6v6qeE-lcLmy3jh2641miA_l_25742811_R_yA","LocationType":"point","DisplayPosition":{"Latitude":50.81351,"Longitude":-1.08004},"MapView":{"TopLeft":{"Latitude":50.8225032,"Longitude":-1.0942732},"BottomRight":{"Latitude":50.8045168,"Longitude":-1.0658068}},"Address":{"Label":"PO2 0LH, Portsmouth, England, United Kingdom","Country":"GBR","State":"England","County":"Hampshire","City":"Portsmouth","PostalCode":"PO2 0LH","AdditionalData":[{"value":"United Kingdom","key":"CountryName"},{"value":"England","key":"StateName"},{"value":"Hampshire","key":"CountyName"}]},"MapReference":{"ReferenceId":"25742811","Spot":0.25,"SideOfStreet":"neither","StateId":"20248595","CountyId":"20335863","CityId":"20336217"}}},{"Relevance":1.0,"Distance":36.2,"MatchLevel":"postalCode","MatchQuality":{"PostalCode":1.0},"Location":{"LocationId":"NT_mjhxdCTpucE6T-kG6YnBWA_l_566015476_R","LocationType":"point","DisplayPosition":{"Latitude":50.81329,"Longitude":-1.08052},"MapView":{"TopLeft":{"Latitude":50.8222832,"Longitude":-1.0947532},"BottomRight":{"Latitude":50.8042968,"Longitude":-1.0662868}},"Address":{"Label":"PO2 8AE, Portsmouth, England, United Kingdom","Country":"GBR","State":"England","County":"Hampshire","City":"Portsmouth","PostalCode":"PO2 8AE","AdditionalData":[{"value":"United Kingdom","key":"CountryName"},{"value":"England","key":"StateName"},{"value":"Hampshire","key":"CountyName"}]},"MapReference":{"ReferenceId":"566015476","Spot":0.0,"SideOfStreet":"neither","StateId":"20248595","CountyId":"20335863","CityId":"20336217"}}}]}]}}