{"Response":{"MetaInfo":{"Timestamp":"2020-03-28T09:35:53.676+0000","NextPageInformation":"2"},"View":[{"_type":"SearchResultsViewType","ViewId":0,"Result":[{"Relevance":1.0,"Distance":0.0,"Direction":0.0,"MatchLevel":"district","MatchQuality":{"Country":1.0,"State":1.0,"County":1.0,"City":1.0,"District":1.0,"PostalCode":1.0},"Location":{"LocationId":"NT_KMMM-.TB8V0PAramXwyapA","LocationType":"point","DisplayPosition":{"Latitude":50.820962,"Longitude":6.9855183},"MapView":{"TopLeft":{"Latitude":50.83143,"Longitude":6.95593},"BottomRight":{"Latitude":50.79909,"Longitude":7.02297}},"Address":{"Label":"Wesseling, Nordrhein-Westfalen, Deutschland","Country":"DEU","State":"Nordrhein-Westfalen","County":"Rhein-Erft-Kreis","City":"Wesseling","District":"Wesseling","PostalCode":"50389","AdditionalData":[{"value":"Deutschland","key":"CountryName"},{"value":"Nordrhein-Westfalen","key":"StateName"},{"value":"Rhein-Erft-Kreis","key":"CountyName"}]},"MapReference":{"ReferenceId":"836600011","SideOfStreet":"neither","CountryId":"20147700","StateId":"20157369","CountyId":"20158311","CityId":"20158401","DistrictId":"20158405"}}},{"Relevance":1.0,"Distance":22.6,"MatchLevel":"landmark","MatchQuality":{"Country":1.0,"State":1.0,"County":1.0,"City":1.0,"District":1.0,"PostalCode":1.0,"Name":1.0},"Location":{"LocationId":"NT_wctiJoLdqXtbAt25fUJsfB","LocationType":"industrialComplex","Name":"Feldmühle","DisplayPosition":{"Latitude":50.81967,"Longitude":6.98448},"MapView":{"TopLeft":{"Latitude":50.82312,"Longitude":6.97914},"BottomRight":{"Latitude":50.81622,"Longitude":6.98874}},"Address":{"Label":"50389 Wesseling, Deutschland","Country":"DEU","State":"Nordrhein-Westfalen","County":"Rhein-Erft-Kreis","City":"Wesseling","District":"Wesseling","PostalCode":"50389","AdditionalData":[{"value":"Deutschland","key":"CountryName"},{"value":"Nordrhein-Westfalen","key":"StateName"},{"value":"Rhein-Erft-Kreis","key":"CountyName"}]},"MapReference":{"CountryId":"20147700","StateId":"20157369","CountyId":"20158311","CityId":"20158401","DistrictId":"20158405","PlaceId":"64706050"}}},{"Relevance":1.0,"Distance":22.6,"MatchLevel":"street","MatchQuality":{"Country":1.0,"State":1.0,"County":1.0,"City":1.0,"District":1.0,"Street":[1.0],"PostalCode":1.0},"Location":{"LocationId":"NT_vkS.LqQQu2AyHrmhEpum1D_l_1102342687_R","LocationType":"point","DisplayPosition":{"Latitude":50.8207694,"Longitude":6.9854137},"MapView":{"TopLeft":{"Latitude":50.82092,"Longitude":6.98514},"BottomRight":{"Latitude":50.82063,"Longitude":6.9857}},"Address":{"Label":"Konrad-Adenauer-Straße, 50389 Wesseling, Deutschland","Country":"DEU","State":"Nordrhein-Westfalen","County":"Rhein-Erft-Kreis","City":"Wesseling","District":"Wesseling","Street":"Konrad-Adenauer-Straße","PostalCode":"50389","AdditionalData":[{"value":"Deutschland","key":"CountryName"},{"value":"Nordrhein-Westfalen","key":"StateName"},{"value":"Rhein-Erft-Kreis","key":"CountyName"}]},"MapReference":{"ReferenceId":"1102342687","Spot":0.5,"SideOfStreet":"right","CountryId":"20147700","StateId":"20157369","CountyId":"20158311","CityId":"20158401","DistrictId":"20158405"}}},{"Relevance":1.0,"Distance":27.0,"MatchLevel":"street","MatchQuality":{"Country":1.0,"State":1.0,"County":1.0,"City":1.0,"District":1.0,"Street":[1.0],"PostalCode":1.0},"Location":{"LocationId":"NT_H2Ahh2LOAJF10q.5ChdHuC_l_1102342685_R","LocationType":"point","DisplayPosition":{"Latitude":50.82092,"Longitude":6.98514},"MapView":{"TopLeft":{"Latitude":50.82107,"Longitude":6.98491},"BottomRight":{"Latitude":50.82092,"Longitude":6.98514}},"Address":{"Label":"Konrad-Adenauer-Straße, 50389 Wesseling, Deutschland","Country":"DEU","State":"Nordrhein-Westfalen","County":"Rhein-Erft-Kreis","City":"Wesseling","District":"Wesseling","Street":"Konrad-Adenauer-Straße","PostalCode":"50389","AdditionalData":[{"value":"Deutschland","key":"CountryName"},{"value":"Nordrhein-Westfalen","key":"StateName"},{"value":"Rhein-Erft-Kreis","key":"CountyName"}]},"MapReference":{"ReferenceId":"1102342685","Spot":0.0,"SideOfStreet":"right","CountryId":"20147700","StateId":"20157369","CountyId":"20158311","CityId":"20158401","DistrictId":"20158405"}}},{"Relevance":1.0,"Distance":39.1,"MatchLevel":"street","MatchQuality":{"Country":1.0,"State":1.0,"County":1.0,"City":1.0,"District":1.0,"Street":[1.0],"PostalCode":1.0},"Location":{"LocationId":"NT_vkS.LqQQu2AyHrmhEpum1D_l_1102342686_R","LocationType":"point","DisplayPosition":{"Latitude":50.82063,"Longitude":6.9857},"MapView":{"TopLeft":{"Latitude":50.82063,"Longitude":6.9857},"BottomRight":{"Latitude":50.82047,"Longitude":6.98614}},"Address":{"Label":"Konrad-Adenauer-Straße, 50389 Wesseling, Deutschland","Country":"DEU","State":"Nordrhein-Westfalen","County":"Rhein-Erft-Kreis","City":"Wesseling","District":"Wesseling","Street":"Konrad-Adenauer-Straße","PostalCode":"50389","AdditionalData":[{"value":"Deutschland","key":"CountryName"},{"value":"Nordrhein-Westfalen","key":"StateName"},{"value":"Rhein-Erft-Kreis","key":"CountyName"}]},"MapReference":{"ReferenceId":"1102342686","Spot":1.0,"SideOfStreet":"right","CountryId":"20147700","StateId":"20157369","CountyId":"20158311","CityId":"20158401","DistrictId":"20158405"}}},{"Relevance":1.0,"Distance":44.4,"MatchLevel":"street","MatchQuality":{"Country":1.0,"State":1.0,"County":1.0,"City":1.0,"District":1.0,"Street":[1.0],"PostalCode":1.0},"Location":{"LocationId":"NT_H2Ahh2LOAJF10q.5ChdHuC_l_1102342680_R","LocationType":"point","DisplayPosition":{"Latitude":50.82107,"Longitude":6.98491},"MapView":{"TopLeft":{"Latitude":50.82122,"Longitude":6.98469},"BottomRight":{"Latitude":50.82107,"Longitude":6.98491}},"Address":{"Label":"Konrad-Adenauer-Straße, 50389 Wesseling, Deutschland","Country":"DEU","State":"Nordrhein-Westfalen","County":"Rhein-Erft-Kreis","City":"Wesseling","District":"Wesseling","Street":"Konrad-Adenauer-Straße","PostalCode":"50389","AdditionalData":[{"value":"Deutschland","key":"CountryName"},{"value":"Nordrhein-Westfalen","key":"StateName"},{"value":"Rhein-Erft-Kreis","key":"CountyName"}]},"MapReference":{"ReferenceId":"1102342680","Spot":0.0,"SideOfStreet":"right","CountryId":"20147700","StateId":"20157369","CountyId":"20158311","CityId":"20158401","DistrictId":"20158405"}}},{"Relevance":1.0,"Distance":46.5,"MatchLevel":"houseNumber","MatchQuality":{"Country":1.0,"State":1.0,"County":1.0,"City":1.0,"District":1.0,"Street":[1.0],"HouseNumber":1.0,"PostalCode":1.0},"MatchType":"interpolated","Location":{"LocationId":"NT_8q6RYuExGryeQxW29HYlZC_yA","LocationType":"point","DisplayPosition":{"Latitude":50.82091,"Longitude":6.98625},"MapView":{"TopLeft":{"Latitude":50.8220342,"Longitude":6.9844706},"BottomRight":{"Latitude":50.8197858,"Longitude":6.9880294}},"Address":{"Label":"Eichsfelder Straße 2, 50389 Wesseling, Deutschland","Country":"DEU","State":"Nordrhein-Westfalen","County":"Rhein-Erft-Kreis","City":"Wesseling","District":"Wesseling","Street":"Eichsfelder Straße","HouseNumber":"2","PostalCode":"50389","AdditionalData":[{"value":"Deutschland","key":"CountryName"},{"value":"Nordrhein-Westfalen","key":"StateName"},{"value":"Rhein-Erft-Kreis","key":"CountyName"}]},"MapReference":{"ReferenceId":"993343968","Spot":1.0,"SideOfStreet":"left","CountryId":"20147700","StateId":"20157369","CountyId":"20158311","CityId":"20158401","DistrictId":"20158405","AddressId":"594126741","RoadLinkId":"321889736"}}},{"Relevance":1.0,"Distance":64.9,"MatchLevel":"street","MatchQuality":{"Country":1.0,"State":1.0,"County":1.0,"City":1.0,"District":1.0,"Street":[1.0],"PostalCode":1.0},"Location":{"LocationId":"NT_vkS.LqQQu2AyHrmhEpum1D_l_1102342681_R","LocationType":"point","DisplayPosition":{"Latitude":50.82122,"Longitude":6.98469},"MapView":{"TopLeft":{"Latitude":50.82161,"Longitude":6.98406},"BottomRight":{"Latitude":50.82122,"Longitude":6.98469}},"Address":{"Label":"Konrad-Adenauer-Straße, 50389 Wesseling, Deutschland","Country":"DEU","State":"Nordrhein-Westfalen","County":"Rhein-Erft-Kreis","City":"Wesseling","District":"Wesseling","Street":"Konrad-Adenauer-Straße","PostalCode":"50389","AdditionalData":[{"value":"Deutschland","key":"CountryName"},{"value":"Nordrhein-Westfalen","key":"StateName"},{"value":"Rhein-Erft-Kreis","key":"CountyName"}]},"MapReference":{"ReferenceId":"1102342681","Spot":0.0,"SideOfStreet":"right","CountryId":"20147700","StateId":"20157369","CountyId":"20158311","CityId":"20158401","DistrictId":"20158405"}}},{"Relevance":1.0,"Distance":70.0,"MatchLevel":"street","MatchQuality":{"Country":1.0,"State":1.0,"County":1.0,"City":1.0,"District":1.0,"Street":[1.0],"PostalCode":1.0},"Location":{"LocationId":"NT_vkS.LqQQu2AyHrmhEpum1D_l_1102325403_R","LocationType":"point","DisplayPosition":{"Latitude":50.82047,"Longitude":6.98614},"MapView":{"TopLeft":{"Latitude":50.82047,"Longitude":6.98614},"BottomRight":{"Latitude":50.8203,"Longitude":6.98693}},"Address":{"Label":"Konrad-Adenauer-Straße, 50389 Wesseling, Deutschland","Country":"DEU","State":"Nordrhein-Westfalen","County":"Rhein-Erft-Kreis","City":"Wesseling","District":"Wesseling","Street":"Konrad-Adenauer-Straße","PostalCode":"50389","AdditionalData":[{"value":"Deutschland","key":"CountryName"},{"value":"Nordrhein-Westfalen","key":"StateName"},{"value":"Rhein-Erft-Kreis","key":"CountyName"}]},"MapReference":{"ReferenceId":"1102325403","Spot":1.0,"SideOfStreet":"right","CountryId":"20147700","StateId":"20157369","CountyId":"20158311","CityId":"20158401","DistrictId":"20158405"}}},{"Relevance":1.0,"Distance":81.4,"MatchLevel":"houseNumber","MatchQuality":{"Country":1.0,"State":1.0,"County":1.0,"City":1.0,"District":1.0,"Street":[1.0],"HouseNumber":1.0,"PostalCode":1.0},"MatchType":"interpolated","Location":{"LocationId":"NT_7cA9evIL3SqNd0827ATN.A_2A","LocationType":"point","DisplayPosition":{"Latitude":50.82097,"Longitude":6.98675},"MapView":{"TopLeft":{"Latitude":50.8220942,"Longitude":6.9849706},"BottomRight":{"Latitude":50.8198458,"Longitude":6.9885294}},"Address":{"Label":"Südstraße 6, 50389 Wesseling, Deutschland","Country":"DEU","State":"Nordrhein-Westfalen","County":"Rhein-Erft-Kreis","City":"Wesseling","District":"Wesseling","Street":"Südstraße","HouseNumber":"6","PostalCode":"50389","AdditionalData":[{"value":"Deutschland","key":"CountryName"},{"value":"Nordrhein-Westfalen","key":"StateName"},{"value":"Rhein-Erft-Kreis","key":"CountyName"}]},"MapReference":{"ReferenceId":"993343967","Spot":0.16,"SideOfStreet":"left","CountryId":"20147700","StateId":"20157369","CountyId":"20158311","CityId":"20158401","DistrictId":"20158405","AddressId":"622176310","RoadLinkId":"321889735"}}}]}]}}