{"Response":{"MetaInfo":{"Timestamp":"2020-03-28T10:36:23.033+0000","NextPageInformation":"2"},"View":[{"_type":"SearchResultsViewType","ViewId":0,"Result":[{"Relevance":1.0,"Distance":0.0,"Direction":0.0,"MatchLevel":"district","MatchQuality":{"Country":1.0,"State":1.0,"County":1.0,"City":1.0,"District":1.0,"PostalCode":1.0},"Location":{"LocationId":"NT_TTMF90GcRCvSyEMXRYoabD","LocationType":"point","DisplayPosition":{"Latitude":50.8423816,"Longitude":0.4337267},"MapView":{"TopLeft":{"Latitude":50.86376,"Longitude":0.41421},"BottomRight":{"Latitude":50.83164,"Longitude":0.50767}},"Address":{"Label":"Bexhill on Sea, England, United Kingdom","Country":"GBR","State":"England","County":"East Sussex","City":"Bexhill on Sea","District":"Bexhill on Sea","PostalCode":"TN40 2","AdditionalData":[{"value":"United Kingdom","key":"CountryName"},{"value":"England","key":"StateName"},{"value":"East Sussex","key":"CountyName"}]},"MapReference":{"ReferenceId":"836106196","SideOfStreet":"neither","StateId":"20248595","CountyId":"20335121","CityId":"20335132","DistrictId":"20335133"}}},{"Relevance":1.0,"Distance":8.8,"MatchLevel":"street","MatchQuality":{"Country":1.0,"State":1.0,"County":1.0,"City":1.0,"District":1.0,"Street":[1.0],"PostalCode":1.0},"Location":{"LocationId":"NT_AR8dgWa3IsmjJi9eq0owXA_l_25608640_R","LocationType":"point","DisplayPosition":{"Latitude":50.8424606,"Longitude":0.4337229},"MapView":{"TopLeft":{"Latitude":50.84247,"Longitude":0.43371},"BottomRight":{"Latitude":50.84246,"Longitude":0.43392}},"Address":{"Label":"Mansell Close, Bexhill on Sea, TN39 4, United Kingdom","Country":"GBR","State":"England","County":"East Sussex","City":"Bexhill on Sea","District":"Bexhill on Sea","Street":"Mansell Close","PostalCode":"TN39 4","AdditionalData":[{"value":"United Kingdom","key":"CountryName"},{"value":"England","key":"StateName"},{"value":"East Sussex","key":"CountyName"}]},"MapReference":{"ReferenceId":"25608640","Spot":0.06,"SideOfStreet":"right","StateId":"20248595","CountyId":"20335121","CityId":"20335132","DistrictId":"20335133"}}},{"Relevance":1.0,"Distance":10.1,"MatchLevel":"houseNumber","MatchQuality":{"Country":1.0,"State":1.0,"County":1.0,"City":1.0,"District":1.0,"Street":[1.0],"HouseNumber":1.0,"PostalCode":1.0},"MatchType":"interpolated","Location":{"LocationId":"NT_HiohgQWTt7IGU1i.pqZXtD_l_25608713_L_3YD","LocationType":"point","DisplayPosition":{"Latitude":50.8422914,"Longitude":0.4337395},"MapView":{"TopLeft":{"Latitude":50.8434156,"Longitude":0.4319593},"BottomRight":{"Latitude":50.8411673,"Longitude":0.4355198}},"Address":{"Label":"76 Cooden Sea Road, Bexhill on Sea, TN39 4SP, United Kingdom","Country":"GBR","State":"England","County":"East Sussex","City":"Bexhill on Sea","District":"Bexhill on Sea","Street":"Cooden Sea Road","HouseNumber":"76","PostalCode":"TN39 4SP","AdditionalData":[{"value":"United Kingdom","key":"CountryName"},{"value":"England","key":"StateName"},{"value":"East Sussex","key":"CountyName"}]},"MapReference":{"ReferenceId":"25608713","Spot":0.73,"SideOfStreet":"left","StateId":"20248595","CountyId":"20335121","CityId":"20335132","DistrictId":"20335133"}}},{"Relevance":1.0,"Distance":15.8,"MatchLevel":"street","MatchQuality":{"Country":1.0,"State":1.0,"County":1.0,"City":1.0,"District":1.0,"Street":[1.0],"PostalCode":1.0},"Location":{"LocationId":"NT_HiohgQWTt7IGU1i.pqZXtD_l_25608712_L","LocationType":"point","DisplayPosition":{"Latitude":50.8424456,"Longitude":0.4339278},"MapView":{"TopLeft":{"Latitude":50.84247,"Longitude":0.43392},"BottomRight":{"Latitude":50.84203,"Longitude":0.43405}},"Address":{"Label":"Cooden Sea Road, Bexhill on Sea, TN39 4, United Kingdom","Country":"GBR","State":"England","County":"East Sussex","City":"Bexhill on Sea","District":"Bexhill on Sea","Street":"Cooden Sea Road","PostalCode":"TN39 4","AdditionalData":[{"value":"United Kingdom","key":"CountryName"},{"value":"England","key":"StateName"},{"value":"East Sussex","key":"CountyName"}]},"MapReference":{"ReferenceId":"25608712","Spot":0.94,"SideOfStreet":"left","StateId":"20248595","CountyId":"20335121","CityId":"20335132","DistrictId":"20335133"}}},{"Relevance":1.0,"Distance":19.3,"MatchLevel":"houseNumber","MatchQuality":{"Country":1.0,"State":1.0,"County":1.0,"City":1.0,"District":1.0,"Street":[1.0],"HouseNumber":1.0,"PostalCode":1.0},"MatchType":"interpolated","Location":{"LocationId":"NT_ZNr9BamNDofdgxRcgLrkyC_l_25608639_L_3QD","LocationType":"point","DisplayPosition":{"Latitude":50.8426059,"Longitude":0.4338834},"MapView":{"TopLeft":{"Latitude":50.84373,"Longitude":0.4321032},"BottomRight":{"Latitude":50.8414817,"Longitude":0.4356637}},"Address":{"Label":"74 Cooden Sea Road, Bexhill on Sea, TN39 4SP, United Kingdom","Country":"GBR","State":"England","County":"East Sussex","City":"Bexhill on Sea","District":"Bexhill on Sea","Street":"Cooden Sea Road","HouseNumber":"74","PostalCode":"TN39 4SP","AdditionalData":[{"value":"United Kingdom","key":"CountryName"},{"value":"England","key":"StateName"},{"value":"East Sussex","key":"CountyName"}]},"MapReference":{"ReferenceId":"25608639","Spot":0.52,"SideOfStreet":"left","StateId":"20248595","CountyId":"20335121","CityId":"20335132","DistrictId":"20335133"}}},{"Relevance":1.0,"Distance":32.1,"MatchLevel":"houseNumber","MatchQuality":{"Country":1.0,"State":1.0,"County":1.0,"City":1.0,"District":1.0,"Street":[1.0],"HouseNumber":1.0,"PostalCode":1.0},"MatchType":"interpolated","Location":{"LocationId":"NT_AR8dgWa3IsmjJi9eq0owXA_l_25608726_R_xA","LocationType":"point","DisplayPosition":{"Latitude":50.8424458,"Longitude":0.4332811},"MapView":{"TopLeft":{"Latitude":50.84357,"Longitude":0.4315008},"BottomRight":{"Latitude":50.8413217,"Longitude":0.4350613}},"Address":{"Label":"1 Mansell Close, Bexhill on Sea, TN39 4XA, United Kingdom","Country":"GBR","State":"England","County":"East Sussex","City":"Bexhill on Sea","District":"Bexhill on Sea","Street":"Mansell Close","HouseNumber":"1","PostalCode":"TN39 4XA","AdditionalData":[{"value":"United Kingdom","key":"CountryName"},{"value":"England","key":"StateName"},{"value":"East Sussex","key":"CountyName"}]},"MapReference":{"ReferenceId":"25608726","Spot":0.75,"SideOfStreet":"right","StateId":"20248595","CountyId":"20335121","CityId":"20335132","DistrictId":"20335133"}}},{"Relevance":1.0,"Distance":32.6,"MatchLevel":"postalCode","MatchQuality":{"PostalCode":1.0},"MatchType":"interpolated","Location":{"LocationId":"NT_HiohgQWTt7IGU1i.pqZXtD_l_25608713_L_3YD","LocationType":"point","DisplayPosition":{"Latitude":50.84209,"Longitude":0.43378},"MapView":{"TopLeft":{"Latitude":50.8510832,"Longitude":0.4195381},"BottomRight":{"Latitude":50.8330968,"Longitude":0.4480219}},"Address":{"Label":"TN39 4SP, Bexhill on Sea, England, United Kingdom","Country":"GBR","State":"England","County":"East Sussex","City":"Bexhill on Sea","PostalCode":"TN39 4SP","AdditionalData":[{"value":"United Kingdom","key":"CountryName"},{"value":"England","key":"StateName"},{"value":"East Sussex","key":"CountyName"}]},"MapReference":{"ReferenceId":"25608713","Spot":0.73,"SideOfStreet":"neither","StateId":"20248595","CountyId":"20335121","CityId":"20335132"}}},{"Relevance":1.0,"Distance":32.9,"MatchLevel":"houseNumber","MatchQuality":{"Country":1.0,"State":1.0,"County":1.0,"City":1.0,"District":1.0,"Street":[1.0],"HouseNumber":1.0,"PostalCode":1.0},"MatchType":"interpolated","Location":{"LocationId":"NT_ZNr9BamNDofdgxRcgLrkyC_l_25608586_L_3ID","LocationType":"point","DisplayPosition":{"Latitude":50.84273,"Longitude":0.43385},"MapView":{"TopLeft":{"Latitude":50.8438542,"Longitude":0.4320697},"BottomRight":{"Latitude":50.8416059,"Longitude":0.4356303}},"Address":{"Label":"72 Cooden Sea Road, Bexhill on Sea, TN39 4SL, United Kingdom","Country":"GBR","State":"England","County":"East Sussex","City":"Bexhill on Sea","District":"Bexhill on Sea","Street":"Cooden Sea Road","HouseNumber":"72","PostalCode":"TN39 4SL","AdditionalData":[{"value":"United Kingdom","key":"CountryName"},{"value":"England","key":"StateName"},{"value":"East Sussex","key":"CountyName"}]},"MapReference":{"ReferenceId":"25608586","Spot":0.0,"SideOfStreet":"left","StateId":"20248595","CountyId":"20335121","CityId":"20335132","DistrictId":"20335133"}}},{"Relevance":1.0,"Distance":38.1,"MatchLevel":"street","MatchQuality":{"Country":1.0,"State":1.0,"County":1.0,"City":1.0,"District":1.0,"Street":[1.0],"PostalCode":1.0},"Location":{"LocationId":"NT_8jV.w7CpzrfX6OT.mZgQdB_l_25608599_R","LocationType":"point","DisplayPosition":{"Latitude":50.842724,"Longitude":0.4337118},"MapView":{"TopLeft":{"Latitude":50.84273,"Longitude":0.43339},"BottomRight":{"Latitude":50.84271,"Longitude":0.43385}},"Address":{"Label":"Kennel Lane, Bexhill on Sea, TN39 4, United Kingdom","Country":"GBR","State":"England","County":"East Sussex","City":"Bexhill on Sea","District":"Bexhill on Sea","Street":"Kennel Lane","PostalCode":"TN39 4","AdditionalData":[{"value":"United Kingdom","key":"CountryName"},{"value":"England","key":"StateName"},{"value":"East Sussex","key":"CountyName"}]},"MapReference":{"ReferenceId":"25608599","Spot":0.7,"SideOfStreet":"right","StateId":"20248595","CountyId":"20335121","CityId":"20335132","DistrictId":"20335133"}}},{"Relevance":1.0,"Distance":43.5,"MatchLevel":"street","MatchQuality":{"Country":1.0,"State":1.0,"County":1.0,"City":1.0,"District":1.0,"Street":[1.0],"PostalCode":1.0},"Location":{"LocationId":"NT_8jV.w7CpzrfX6OT.mZgQdB_l_25608638_R","LocationType":"point","DisplayPosition":{"Latitude":50.84271,"Longitude":0.43339},"MapView":{"TopLeft":{"Latitude":50.84271,"Longitude":0.43113},"BottomRight":{"Latitude":50.84252,"Longitude":0.43339}},"Address":{"Label":"Kennel Lane, Bexhill on Sea, TN39 4, United Kingdom","Country":"GBR","State":"England","County":"East Sussex","City":"Bexhill on Sea","District":"Bexhill on Sea","Street":"Kennel Lane","PostalCode":"TN39 4","AdditionalData":[{"value":"United Kingdom","key":"CountryName"},{"value":"England","key":"StateName"},{"value":"East Sussex","key":"CountyName"}]},"MapReference":{"ReferenceId":"25608638","Spot":1.0,"SideOfStreet":"right","StateId":"20248595","CountyId":"20335121","CityId":"20335132","DistrictId":"20335133"}}}]}]}}