{"Response":{"MetaInfo":{"Timestamp":"2020-03-28T11:15:36.065+0000","NextPageInformation":"2"},"View":[{"_type":"SearchResultsViewType","ViewId":0,"Result":[{"Relevance":1.0,"Distance":0.0,"Direction":0.0,"MatchLevel":"district","MatchQuality":{"Country":1.0,"State":1.0,"County":1.0,"City":1.0,"District":1.0,"PostalCode":1.0},"Location":{"LocationId":"NT_h2YxsREqmHFuJxEfnPQBjB","LocationType":"point","DisplayPosition":{"Latitude":50.8316363,"Longitude":-0.1140014},"MapView":{"TopLeft":{"Latitude":50.87111,"Longitude":-0.17689},"BottomRight":{"Latitude":50.80833,"Longitude":-0.0866}},"Address":{"Label":"Brighton, England, United Kingdom","Country":"GBR","State":"England","County":"East Sussex","City":"Brighton","District":"Brighton","PostalCode":"BN2 9","AdditionalData":[{"value":"United Kingdom","key":"CountryName"},{"value":"England","key":"StateName"},{"value":"East Sussex","key":"CountyName"}]},"MapReference":{"ReferenceId":"850546450","SideOfStreet":"neither","StateId":"20248595","CountyId":"20335121","CityId":"20335134","DistrictId":"20335135"}}},{"Relevance":1.0,"Distance":8.2,"MatchLevel":"houseNumber","MatchQuality":{"Country":1.0,"State":1.0,"County":1.0,"City":1.0,"District":1.0,"Street":[1.0],"HouseNumber":1.0,"PostalCode":1.0},"MatchType":"interpolated","Location":{"LocationId":"NT_rOlQ0jThndc1XaZRY9HbkC_l_1232196605_L_yczN","LocationType":"point","DisplayPosition":{"Latitude":50.8317102,"Longitude":-0.1140035},"MapView":{"TopLeft":{"Latitude":50.8328344,"Longitude":-0.1157834},"BottomRight":{"Latitude":50.8305861,"Longitude":-0.1122237}},"Address":{"Label":"277 Elm Grove, Brighton, BN2 3EA, United Kingdom","Country":"GBR","State":"England","County":"East Sussex","City":"Brighton","District":"Brighton","Street":"Elm Grove","HouseNumber":"277","PostalCode":"BN2 3EA","AdditionalData":[{"value":"United Kingdom","key":"CountryName"},{"value":"England","key":"StateName"},{"value":"East Sussex","key":"CountyName"}]},"MapReference":{"ReferenceId":"1232196605","Spot":0.62,"SideOfStreet":"left","StateId":"20248595","CountyId":"20335121","CityId":"20335134","DistrictId":"20335135"}}},{"Relevance":1.0,"Distance":18.6,"MatchLevel":"postalCode","MatchQuality":{"PostalCode":1.0},"MatchType":"interpolated","Location":{"LocationId":"NT_rOlQ0jThndc1XaZRY9HbkC_l_1232196605_L_yczN","LocationType":"point","DisplayPosition":{"Latitude":50.83174,"Longitude":-0.11421},"MapView":{"TopLeft":{"Latitude":50.8407332,"Longitude":-0.1284488},"BottomRight":{"Latitude":50.8227468,"Longitude":-0.0999712}},"Address":{"Label":"BN2 3EA, Brighton, England, United Kingdom","Country":"GBR","State":"England","County":"East Sussex","City":"Brighton","PostalCode":"BN2 3EA","AdditionalData":[{"value":"United Kingdom","key":"CountryName"},{"value":"England","key":"StateName"},{"value":"East Sussex","key":"CountyName"}]},"MapReference":{"ReferenceId":"1232196605","Spot":0.62,"SideOfStreet":"neither","StateId":"20248595","CountyId":"20335121","CityId":"20335134"}}},{"Relevance":1.0,"Distance":52.9,"MatchLevel":"houseNumber","MatchQuality":{"Country":1.0,"State":1.0,"County":1.0,"City":1.0,"District":1.0,"Street":[1.0],"HouseNumber":1.0,"PostalCode":1.0},"MatchType":"interpolated","Location":{"LocationId":"NT_Fqyle96Pqmh4eYUK8Mp4QA_l_25612674_R_yYD","LocationType":"point","DisplayPosition":{"Latitude":50.8322438,"Longitude":-0.1140918},"MapView":{"TopLeft":{"Latitude":50.8333679,"Longitude":-0.1158717},"BottomRight":{"Latitude":50.8311196,"Longitude":-0.1123119}},"Address":{"Label":"26 May Road, Brighton, BN2 3EB, United Kingdom","Country":"GBR","State":"England","County":"East Sussex","City":"Brighton","District":"Brighton","Street":"May Road","HouseNumber":"26","PostalCode":"BN2 3EB","AdditionalData":[{"value":"United Kingdom","key":"CountryName"},{"value":"England","key":"StateName"},{"value":"East Sussex","key":"CountyName"}]},"MapReference":{"ReferenceId":"25612674","Spot":0.58,"SideOfStreet":"right","StateId":"20248595","CountyId":"20335121","CityId":"20335134","DistrictId":"20335135"}}},{"Relevance":1.0,"Distance":64.9,"MatchLevel":"postalCode","MatchQuality":{"PostalCode":1.0},"MatchType":"interpolated","Location":{"LocationId":"NT_Fqyle96Pqmh4eYUK8Mp4QA_l_25612674_R_yYD","LocationType":"point","DisplayPosition":{"Latitude":50.83221,"Longitude":-0.11383},"MapView":{"TopLeft":{"Latitude":50.8412032,"Longitude":-0.1280689},"BottomRight":{"Latitude":50.8232168,"Longitude":-0.0995911}},"Address":{"Label":"BN2 3EB, Brighton, England, United Kingdom","Country":"GBR","State":"England","County":"East Sussex","City":"Brighton","PostalCode":"BN2 3EB","AdditionalData":[{"value":"United Kingdom","key":"CountryName"},{"value":"England","key":"StateName"},{"value":"East Sussex","key":"CountyName"}]},"MapReference":{"ReferenceId":"25612674","Spot":0.58,"SideOfStreet":"neither","StateId":"20248595","CountyId":"20335121","CityId":"20335134"}}},{"Relevance":1.0,"Distance":71.2,"MatchLevel":"houseNumber","MatchQuality":{"Country":1.0,"State":1.0,"County":1.0,"City":1.0,"District":1.0,"Street":[1.0],"HouseNumber":1.0,"PostalCode":1.0},"MatchType":"interpolated","Location":{"LocationId":"NT_Fqyle96Pqmh4eYUK8Mp4QA_l_25612705_L_0ID","LocationType":"point","DisplayPosition":{"Latitude":50.8321372,"Longitude":-0.1130724},"MapView":{"TopLeft":{"Latitude":50.8332613,"Longitude":-0.1148523},"BottomRight":{"Latitude":50.831013,"Longitude":-0.1112925}},"Address":{"Label":"42 May Road, Brighton, BN2 3EB, United Kingdom","Country":"GBR","State":"England","County":"East Sussex","City":"Brighton","District":"Brighton","Street":"May Road","HouseNumber":"42","PostalCode":"BN2 3EB","AdditionalData":[{"value":"United Kingdom","key":"CountryName"},{"value":"England","key":"StateName"},{"value":"East Sussex","key":"CountyName"}]},"MapReference":{"ReferenceId":"25612705","Spot":0.5,"SideOfStreet":"left","StateId":"20248595","CountyId":"20335121","CityId":"20335134","DistrictId":"20335135"}}},{"Relevance":1.0,"Distance":95.3,"MatchLevel":"street","MatchQuality":{"Country":1.0,"State":1.0,"County":1.0,"City":1.0,"District":1.0,"Street":[1.0],"PostalCode":1.0},"Location":{"LocationId":"NT_.gVS3JFFGYvip0e.wuiykD_l_25612721_L","LocationType":"point","DisplayPosition":{"Latitude":50.83188,"Longitude":-0.1127},"MapView":{"TopLeft":{"Latitude":50.83191,"Longitude":-0.1127},"BottomRight":{"Latitude":50.83188,"Longitude":-0.11255}},"Address":{"Label":"Warren Road, Brighton, BN2 3, United Kingdom","Country":"GBR","State":"England","County":"East Sussex","City":"Brighton","District":"Brighton","Street":"Warren Road","PostalCode":"BN2 3","AdditionalData":[{"value":"United Kingdom","key":"CountryName"},{"value":"England","key":"StateName"},{"value":"East Sussex","key":"CountyName"}]},"MapReference":{"ReferenceId":"25612721","Spot":0.0,"SideOfStreet":"left","StateId":"20248595","CountyId":"20335121","CityId":"20335134","DistrictId":"20335135"}}},{"Relevance":1.0,"Distance":95.3,"MatchLevel":"street","MatchQuality":{"Country":1.0,"State":1.0,"County":1.0,"City":1.0,"District":1.0,"Street":[1.0],"PostalCode":1.0},"Location":{"LocationId":"NT_hVNhlhLq299ytFkuxS0N0D_l_25612775_L","LocationType":"point","DisplayPosition":{"Latitude":50.83188,"Longitude":-0.1127},"MapView":{"TopLeft":{"Latitude":50.83188,"Longitude":-0.1127},"BottomRight":{"Latitude":50.83167,"Longitude":-0.11261}},"Address":{"Label":"Freshfield Road, Brighton, BN2 3, United Kingdom","Country":"GBR","State":"England","County":"East Sussex","City":"Brighton","District":"Brighton","Street":"Freshfield Road","PostalCode":"BN2 3","AdditionalData":[{"value":"United Kingdom","key":"CountryName"},{"value":"England","key":"StateName"},{"value":"East Sussex","key":"CountyName"}]},"MapReference":{"ReferenceId":"25612775","Spot":1.0,"SideOfStreet":"left","StateId":"20248595","CountyId":"20335121","CityId":"20335134","DistrictId":"20335135"}}},{"Relevance":1.0,"Distance":95.4,"MatchLevel":"landmark","MatchQuality":{"Country":1.0,"State":1.0,"County":1.0,"City":1.0,"District":1.0,"Street":[1.0],"PostalCode":1.0,"Name":1.0},"Location":{"LocationId":"NT_jKVzYyT8LG.TFROkQWgT-B_p_w1XC3Wv8MlZv813b0CE2pC","LocationType":"cemetery","Name":"Brighton and Preston Cemetery","DisplayPosition":{"Latitude":50.83663,"Longitude":-0.11146},"MapView":{"TopLeft":{"Latitude":50.83665,"Longitude":-0.12018},"BottomRight":{"Latitude":50.83242,"Longitude":-0.10995}},"Address":{"Label":"Bear Road, Brighton, BN2 4, United Kingdom","Country":"GBR","State":"England","County":"East Sussex","City":"Brighton","District":"Brighton","Street":"Bear Road","PostalCode":"BN2 4","AdditionalData":[{"value":"United Kingdom","key":"CountryName"},{"value":"England","key":"StateName"},{"value":"East Sussex","key":"CountyName"}]},"MapReference":{"StateId":"20248595","CountyId":"20335121","CityId":"20335134","DistrictId":"20335135","PlaceId":"1144030058"}}},{"Relevance":1.0,"Distance":97.8,"MatchLevel":"street","MatchQuality":{"Country":1.0,"State":1.0,"County":1.0,"City":1.0,"District":1.0,"Street":[1.0],"PostalCode":1.0},"Location":{"LocationId":"NT_hVNhlhLq299ytFkuxS0N0D_l_25612774_L","LocationType":"point","DisplayPosition":{"Latitude":50.83167,"Longitude":-0.11261},"MapView":{"TopLeft":{"Latitude":50.83191,"Longitude":-0.11261},"BottomRight":{"Latitude":50.83167,"Longitude":-0.11252}},"Address":{"Label":"Freshfield Road, Brighton, BN2 3, United Kingdom","Country":"GBR","State":"England","County":"East Sussex","City":"Brighton","District":"Brighton","Street":"Freshfield Road","PostalCode":"BN2 3","AdditionalData":[{"value":"United Kingdom","key":"CountryName"},{"value":"England","key":"StateName"},{"value":"East Sussex","key":"CountyName"}]},"MapReference":{"ReferenceId":"25612774","Spot":0.0,"SideOfStreet":"left","StateId":"20248595","CountyId":"20335121","CityId":"20335134","DistrictId":"20335135"}}}]}]}}