{"Response":{"MetaInfo":{"Timestamp":"2020-03-28T10:22:39.815+0000","NextPageInformation":"2"},"View":[{"_type":"SearchResultsViewType","ViewId":0,"Result":[{"Relevance":1.0,"Distance":0.0,"Direction":0.0,"MatchLevel":"district","MatchQuality":{"Country":1.0,"State":1.0,"County":1.0,"City":1.0,"District":1.0,"PostalCode":1.0},"Location":{"LocationId":"NT_6rQeWnFMHjZS-Rz5j7C2mD","LocationType":"point","DisplayPosition":{"Latitude":50.8828339,"Longitude":12.0811568},"MapView":{"TopLeft":{"Latitude":50.927,"Longitude":12.04044},"BottomRight":{"Latitude":50.82512,"Longitude":12.12423}},"Address":{"Label":"Gera, Thüringen, Deutschland","Country":"DEU","State":"Thüringen","County":"Gera","City":"Gera","District":"Gera","PostalCode":"07545","AdditionalData":[{"value":"Deutschland","key":"CountryName"},{"value":"Thüringen","key":"StateName"},{"value":"Gera","key":"CountyName"}]},"MapReference":{"ReferenceId":"53446936","SideOfStreet":"neither","CountryId":"20147700","StateId":"20196974","CountyId":"20197000","CityId":"20197001","DistrictId":"20197003"}}},{"Relevance":1.0,"Distance":14.9,"MatchLevel":"houseNumber","MatchQuality":{"Country":1.0,"State":1.0,"County":1.0,"City":1.0,"District":1.0,"Street":[1.0],"HouseNumber":1.0,"PostalCode":1.0},"MatchType":"interpolated","Location":{"LocationId":"NT_Rlh4Ta6HopzvRsKKU6TtaC_zA","LocationType":"point","DisplayPosition":{"Latitude":50.88273,"Longitude":12.08139},"MapView":{"TopLeft":{"Latitude":50.8838542,"Longitude":12.0796082},"BottomRight":{"Latitude":50.8816058,"Longitude":12.0831718}},"Address":{"Label":"Zabelstraße 3, 07545 Gera, Deutschland","Country":"DEU","State":"Thüringen","County":"Gera","City":"Gera","District":"Gera","Street":"Zabelstraße","HouseNumber":"3","PostalCode":"07545","AdditionalData":[{"value":"Deutschland","key":"CountryName"},{"value":"Thüringen","key":"StateName"},{"value":"Gera","key":"CountyName"}]},"MapReference":{"ReferenceId":"53446649","Spot":0.34,"SideOfStreet":"left","CountryId":"20147700","StateId":"20196974","CountyId":"20197000","CityId":"20197001","DistrictId":"20197003","AddressId":"189201661","RoadLinkId":"39976567"}}},{"Relevance":1.0,"Distance":47.5,"MatchLevel":"street","MatchQuality":{"Country":1.0,"State":1.0,"County":1.0,"City":1.0,"District":1.0,"Street":[1.0],"PostalCode":1.0},"Location":{"LocationId":"NT_snWjuMbPBgtBWzN-1qGuOC_l_1230966448_L","LocationType":"point","DisplayPosition":{"Latitude":50.8824081,"Longitude":12.0812126},"MapView":{"TopLeft":{"Latitude":50.88243,"Longitude":12.08016},"BottomRight":{"Latitude":50.88227,"Longitude":12.08138}},"Address":{"Label":"Platz der Demokratie, 07545 Gera, Deutschland","Country":"DEU","State":"Thüringen","County":"Gera","City":"Gera","District":"Gera","Street":"Platz der Demokratie","PostalCode":"07545","AdditionalData":[{"value":"Deutschland","key":"CountryName"},{"value":"Thüringen","key":"StateName"},{"value":"Gera","key":"CountyName"}]},"MapReference":{"ReferenceId":"1230966448","Spot":0.86,"SideOfStreet":"left","CountryId":"20147700","StateId":"20196974","CountyId":"20197000","CityId":"20197001","DistrictId":"20197003"}}},{"Relevance":1.0,"Distance":47.6,"MatchLevel":"street","MatchQuality":{"Country":1.0,"State":1.0,"County":1.0,"City":1.0,"District":1.0,"Street":[1.0],"PostalCode":1.0},"Location":{"LocationId":"NT_snWjuMbPBgtBWzN-1qGuOC_l_1230966449_L","LocationType":"point","DisplayPosition":{"Latitude":50.88243,"Longitude":12.08138},"MapView":{"TopLeft":{"Latitude":50.88244,"Longitude":12.08138},"BottomRight":{"Latitude":50.88243,"Longitude":12.08148}},"Address":{"Label":"Platz der Demokratie, 07545 Gera, Deutschland","Country":"DEU","State":"Thüringen","County":"Gera","City":"Gera","District":"Gera","Street":"Platz der Demokratie","PostalCode":"07545","AdditionalData":[{"value":"Deutschland","key":"CountryName"},{"value":"Thüringen","key":"StateName"},{"value":"Gera","key":"CountyName"}]},"MapReference":{"ReferenceId":"1230966449","Spot":0.0,"SideOfStreet":"left","CountryId":"20147700","StateId":"20196974","CountyId":"20197000","CityId":"20197001","DistrictId":"20197003"}}},{"Relevance":1.0,"Distance":47.6,"MatchLevel":"street","MatchQuality":{"Country":1.0,"State":1.0,"County":1.0,"City":1.0,"District":1.0,"PostalCode":1.0},"Location":{"LocationId":"NT_08Sh-faDwQpV-bjndys8IA_l_1230968438_L","LocationType":"point","DisplayPosition":{"Latitude":50.88243,"Longitude":12.08138},"MapView":{"TopLeft":{"Latitude":50.88243,"Longitude":12.08138},"BottomRight":{"Latitude":50.88238,"Longitude":12.08138}},"Address":{"Label":"07545 Gera, Deutschland","Country":"DEU","State":"Thüringen","County":"Gera","City":"Gera","District":"Gera","PostalCode":"07545","AdditionalData":[{"value":"Deutschland","key":"CountryName"},{"value":"Thüringen","key":"StateName"},{"value":"Gera","key":"CountyName"}]},"MapReference":{"ReferenceId":"1230968438","Spot":1.0,"SideOfStreet":"left","CountryId":"20147700","StateId":"20196974","CountyId":"20197000","CityId":"20197001","DistrictId":"20197003"}}},{"Relevance":1.0,"Distance":49.3,"MatchLevel":"street","MatchQuality":{"Country":1.0,"State":1.0,"County":1.0,"City":1.0,"District":1.0,"Street":[1.0],"PostalCode":1.0},"Location":{"LocationId":"NT_Rlh4Ta6HopzvRsKKU6TtaC_l_53446673_L","LocationType":"point","DisplayPosition":{"Latitude":50.88244,"Longitude":12.08148},"MapView":{"TopLeft":{"Latitude":50.88244,"Longitude":12.08148},"BottomRight":{"Latitude":50.88209,"Longitude":12.0816}},"Address":{"Label":"Zabelstraße, 07545 Gera, Deutschland","Country":"DEU","State":"Thüringen","County":"Gera","City":"Gera","District":"Gera","Street":"Zabelstraße","PostalCode":"07545","AdditionalData":[{"value":"Deutschland","key":"CountryName"},{"value":"Thüringen","key":"StateName"},{"value":"Gera","key":"CountyName"}]},"MapReference":{"ReferenceId":"53446673","Spot":1.0,"SideOfStreet":"left","CountryId":"20147700","StateId":"20196974","CountyId":"20197000","CityId":"20197001","DistrictId":"20197003"}}},{"Relevance":1.0,"Distance":52.7,"MatchLevel":"street","MatchQuality":{"Country":1.0,"State":1.0,"County":1.0,"City":1.0,"District":1.0,"PostalCode":1.0},"Location":{"LocationId":"NT_08Sh-faDwQpV-bjndys8IA_l_1230968444_L","LocationType":"point","DisplayPosition":{"Latitude":50.882361,"Longitude":12.0812093},"MapView":{"TopLeft":{"Latitude":50.88238,"Longitude":12.08016},"BottomRight":{"Latitude":50.88225,"Longitude":12.08138}},"Address":{"Label":"07545 Gera, Deutschland","Country":"DEU","State":"Thüringen","County":"Gera","City":"Gera","District":"Gera","PostalCode":"07545","AdditionalData":[{"value":"Deutschland","key":"CountryName"},{"value":"Thüringen","key":"StateName"},{"value":"Gera","key":"CountyName"}]},"MapReference":{"ReferenceId":"1230968444","Spot":0.86,"SideOfStreet":"left","CountryId":"20147700","StateId":"20196974","CountyId":"20197000","CityId":"20197001","DistrictId":"20197003"}}},{"Relevance":1.0,"Distance":52.8,"MatchLevel":"street","MatchQuality":{"Country":1.0,"State":1.0,"County":1.0,"City":1.0,"District":1.0,"PostalCode":1.0},"Location":{"LocationId":"NT_08Sh-faDwQpV-bjndys8IA_l_1230968432_L","LocationType":"point","DisplayPosition":{"Latitude":50.88238,"Longitude":12.08138},"MapView":{"TopLeft":{"Latitude":50.88238,"Longitude":12.08138},"BottomRight":{"Latitude":50.8818,"Longitude":12.08154}},"Address":{"Label":"07545 Gera, Deutschland","Country":"DEU","State":"Thüringen","County":"Gera","City":"Gera","District":"Gera","PostalCode":"07545","AdditionalData":[{"value":"Deutschland","key":"CountryName"},{"value":"Thüringen","key":"StateName"},{"value":"Gera","key":"CountyName"}]},"MapReference":{"ReferenceId":"1230968432","Spot":1.0,"SideOfStreet":"left","CountryId":"20147700","StateId":"20196974","CountyId":"20197000","CityId":"20197001","DistrictId":"20197003"}}},{"Relevance":1.0,"Distance":68.7,"MatchLevel":"houseNumber","MatchQuality":{"Country":1.0,"State":1.0,"County":1.0,"City":1.0,"District":1.0,"Street":[1.0],"HouseNumber":1.0,"PostalCode":1.0},"MatchType":"interpolated","Location":{"LocationId":"NT_UAUgt6Sk9Y4-qjeKjS6gqA_0A","LocationType":"point","DisplayPosition":{"Latitude":50.88307,"Longitude":12.08011},"MapView":{"TopLeft":{"Latitude":50.8841942,"Longitude":12.0783282},"BottomRight":{"Latitude":50.8819458,"Longitude":12.0818918}},"Address":{"Label":"Friedrich-Engels-Straße 4, 07545 Gera, Deutschland","Country":"DEU","State":"Thüringen","County":"Gera","City":"Gera","District":"Gera","Street":"Friedrich-Engels-Straße","HouseNumber":"4","PostalCode":"07545","AdditionalData":[{"value":"Deutschland","key":"CountryName"},{"value":"Thüringen","key":"StateName"},{"value":"Gera","key":"CountyName"}]},"MapReference":{"ReferenceId":"53446598","Spot":0.29,"SideOfStreet":"right","CountryId":"20147700","StateId":"20196974","CountyId":"20197000","CityId":"20197001","DistrictId":"20197003","AddressId":"189546644","RoadLinkId":"40113582"}}},{"Relevance":1.0,"Distance":71.2,"MatchLevel":"houseNumber","MatchQuality":{"Country":1.0,"State":1.0,"County":1.0,"City":1.0,"District":1.0,"Street":[1.0],"HouseNumber":1.0,"PostalCode":1.0},"MatchType":"interpolated","Location":{"LocationId":"NT_UAUgt6Sk9Y4-qjeKjS6gqA_xAD","LocationType":"point","DisplayPosition":{"Latitude":50.88337,"Longitude":12.08193},"MapView":{"TopLeft":{"Latitude":50.8844942,"Longitude":12.0801482},"BottomRight":{"Latitude":50.8822458,"Longitude":12.0837118}},"Address":{"Label":"Friedrich-Engels-Straße 10, 07545 Gera, Deutschland","Country":"DEU","State":"Thüringen","County":"Gera","City":"Gera","District":"Gera","Street":"Friedrich-Engels-Straße","HouseNumber":"10","PostalCode":"07545","AdditionalData":[{"value":"Deutschland","key":"CountryName"},{"value":"Thüringen","key":"StateName"},{"value":"Gera","key":"CountyName"}]},"MapReference":{"ReferenceId":"565399259","Spot":0.38,"SideOfStreet":"right","CountryId":"20147700","StateId":"20196974","CountyId":"20197000","CityId":"20197001","DistrictId":"20197003","AddressId":"189606831","RoadLinkId":"40060141"}}}]}]}}