{"Response":{"MetaInfo":{"Timestamp":"2020-03-28T10:25:24.176+0000","NextPageInformation":"2"},"View":[{"_type":"SearchResultsViewType","ViewId":0,"Result":[{"Relevance":1.0,"Distance":0.0,"Direction":0.0,"MatchLevel":"district","MatchQuality":{"Country":1.0,"State":1.0,"County":1.0,"City":1.0,"District":1.0,"PostalCode":1.0},"Location":{"LocationId":"NT_-UQzb7XfTLd.1mXrqC9OwD","LocationType":"point","DisplayPosition":{"Latitude":50.8713749,"Longitude":8.0236533},"MapView":{"TopLeft":{"Latitude":50.92809,"Longitude":7.95524},"BottomRight":{"Latitude":50.82279,"Longitude":8.08161}},"Address":{"Label":"Siegen, Nordrhein-Westfalen, Deutschland","Country":"DEU","State":"Nordrhein-Westfalen","County":"Siegen-Wittgenstein","City":"Siegen","District":"Siegen","PostalCode":"57072","AdditionalData":[{"value":"Deutschland","key":"CountryName"},{"value":"Nordrhein-Westfalen","key":"StateName"},{"value":"Siegen-Wittgenstein","key":"CountyName"}]},"MapReference":{"ReferenceId":"51565866","SideOfStreet":"neither","CountryId":"20147700","StateId":"20157369","CountyId":"20160652","CityId":"20160750","DistrictId":"20160752"}}},{"Relevance":1.0,"Distance":13.0,"MatchLevel":"houseNumber","MatchQuality":{"Country":1.0,"State":1.0,"County":1.0,"City":1.0,"District":1.0,"Street":[1.0],"HouseNumber":1.0,"PostalCode":1.0},"MatchType":"interpolated","Location":{"LocationId":"NT_jBcKoCKq-j-vULHlEX.cBB_5A","LocationType":"point","DisplayPosition":{"Latitude":50.87116,"Longitude":8.02355},"MapView":{"TopLeft":{"Latitude":50.8722842,"Longitude":8.0217686},"BottomRight":{"Latitude":50.8700358,"Longitude":8.0253314}},"Address":{"Label":"Frankfurter Straße 9, 57074 Siegen, Deutschland","Country":"DEU","State":"Nordrhein-Westfalen","County":"Siegen-Wittgenstein","City":"Siegen","District":"Siegen","Street":"Frankfurter Straße","HouseNumber":"9","PostalCode":"57074","AdditionalData":[{"value":"Deutschland","key":"CountryName"},{"value":"Nordrhein-Westfalen","key":"StateName"},{"value":"Siegen-Wittgenstein","key":"CountyName"}]},"MapReference":{"ReferenceId":"75422951","Spot":0.83,"SideOfStreet":"right","CountryId":"20147700","StateId":"20157369","CountyId":"20160652","CityId":"20160750","DistrictId":"20160752","AddressId":"195304261","RoadLinkId":"34949759"}}},{"Relevance":1.0,"Distance":26.3,"MatchLevel":"houseNumber","MatchQuality":{"Country":1.0,"State":1.0,"County":1.0,"City":1.0,"District":1.0,"Street":[1.0],"HouseNumber":1.0,"PostalCode":1.0},"MatchType":"interpolated","Location":{"LocationId":"NT_jBcKoCKq-j-vULHlEX.cBB_3A","LocationType":"point","DisplayPosition":{"Latitude":50.87118,"Longitude":8.0233},"MapView":{"TopLeft":{"Latitude":50.8723042,"Longitude":8.0215186},"BottomRight":{"Latitude":50.8700558,"Longitude":8.0250814}},"Address":{"Label":"Frankfurter Straße 7, 57074 Siegen, Deutschland","Country":"DEU","State":"Nordrhein-Westfalen","County":"Siegen-Wittgenstein","City":"Siegen","District":"Siegen","Street":"Frankfurter Straße","HouseNumber":"7","PostalCode":"57074","AdditionalData":[{"value":"Deutschland","key":"CountryName"},{"value":"Nordrhein-Westfalen","key":"StateName"},{"value":"Siegen-Wittgenstein","key":"CountyName"}]},"MapReference":{"ReferenceId":"75422952","Spot":0.03,"SideOfStreet":"right","CountryId":"20147700","StateId":"20157369","CountyId":"20160652","CityId":"20160750","DistrictId":"20160752","AddressId":"194152917","RoadLinkId":"35373701"}}},{"Relevance":1.0,"Distance":74.4,"MatchLevel":"street","MatchQuality":{"Country":1.0,"State":1.0,"County":1.0,"City":1.0,"District":1.0,"Street":[1.0],"PostalCode":1.0},"Location":{"LocationId":"NT_wLMIE1NQ9eCX3W.a3W.f6B_l_51565963_R","LocationType":"point","DisplayPosition":{"Latitude":50.8712,"Longitude":8.02263},"MapView":{"TopLeft":{"Latitude":50.87122,"Longitude":8.02229},"BottomRight":{"Latitude":50.8712,"Longitude":8.02263}},"Address":{"Label":"Frankfurter Straße, 57074 Siegen, Deutschland","Country":"DEU","State":"Nordrhein-Westfalen","County":"Siegen-Wittgenstein","City":"Siegen","District":"Siegen","Street":"Frankfurter Straße","PostalCode":"57074","AdditionalData":[{"value":"Deutschland","key":"CountryName"},{"value":"Nordrhein-Westfalen","key":"StateName"},{"value":"Siegen-Wittgenstein","key":"CountyName"}]},"MapReference":{"ReferenceId":"51565963","Spot":0.0,"SideOfStreet":"right","CountryId":"20147700","StateId":"20157369","CountyId":"20160652","CityId":"20160750","DistrictId":"20160752"}}},{"Relevance":1.0,"Distance":75.9,"MatchLevel":"houseNumber","MatchQuality":{"Country":1.0,"State":1.0,"County":1.0,"City":1.0,"District":1.0,"Street":[1.0],"HouseNumber":1.0,"PostalCode":1.0},"MatchType":"interpolated","Location":{"LocationId":"NT_ZKwaErqYaE7vfxA4uBTihA_xUD","LocationType":"point","DisplayPosition":{"Latitude":50.87175,"Longitude":8.0224},"MapView":{"TopLeft":{"Latitude":50.8728742,"Longitude":8.0206186},"BottomRight":{"Latitude":50.8706258,"Longitude":8.0241814}},"Address":{"Label":"Löhrtor 15, 57072 Siegen, Deutschland","Country":"DEU","State":"Nordrhein-Westfalen","County":"Siegen-Wittgenstein","City":"Siegen","District":"Siegen","Street":"Löhrtor","HouseNumber":"15","PostalCode":"57072","AdditionalData":[{"value":"Deutschland","key":"CountryName"},{"value":"Nordrhein-Westfalen","key":"StateName"},{"value":"Siegen-Wittgenstein","key":"CountyName"}]},"MapReference":{"ReferenceId":"51565957","Spot":0.46,"SideOfStreet":"right","CountryId":"20147700","StateId":"20157369","CountyId":"20160652","CityId":"20160750","DistrictId":"20160752","AddressId":"194699804","RoadLinkId":"35132627"}}},{"Relevance":1.0,"Distance":76.1,"MatchLevel":"houseNumber","MatchQuality":{"Country":1.0,"State":1.0,"County":1.0,"City":1.0,"District":1.0,"Street":[1.0],"HouseNumber":1.0,"PostalCode":1.0},"MatchType":"interpolated","Location":{"LocationId":"NT_mqXW1OAOMpPLgDL81bzXBC_yA","LocationType":"point","DisplayPosition":{"Latitude":50.87098,"Longitude":8.02466},"MapView":{"TopLeft":{"Latitude":50.8721042,"Longitude":8.0228787},"BottomRight":{"Latitude":50.8698558,"Longitude":8.0264413}},"Address":{"Label":"Melanchthonstraße 2, 57074 Siegen, Deutschland","Country":"DEU","State":"Nordrhein-Westfalen","County":"Siegen-Wittgenstein","City":"Siegen","District":"Siegen","Street":"Melanchthonstraße","HouseNumber":"2","PostalCode":"57074","AdditionalData":[{"value":"Deutschland","key":"CountryName"},{"value":"Nordrhein-Westfalen","key":"StateName"},{"value":"Siegen-Wittgenstein","key":"CountyName"}]},"MapReference":{"ReferenceId":"51566065","Spot":0.87,"SideOfStreet":"left","CountryId":"20147700","StateId":"20157369","CountyId":"20160652","CityId":"20160750","DistrictId":"20160752","AddressId":"196458185","RoadLinkId":"35390591"}}},{"Relevance":1.0,"Distance":77.6,"MatchLevel":"street","MatchQuality":{"Country":1.0,"State":1.0,"County":1.0,"City":1.0,"District":1.0,"PostalCode":1.0},"Location":{"LocationId":"NT_GMaARdB7I5f8NkT0blovhD_l_1211659394_R","LocationType":"point","DisplayPosition":{"Latitude":50.87165,"Longitude":8.02467},"MapView":{"TopLeft":{"Latitude":50.87166,"Longitude":8.02467},"BottomRight":{"Latitude":50.87165,"Longitude":8.02488}},"Address":{"Label":"57074 Siegen, Deutschland","Country":"DEU","State":"Nordrhein-Westfalen","County":"Siegen-Wittgenstein","City":"Siegen","District":"Siegen","PostalCode":"57074","AdditionalData":[{"value":"Deutschland","key":"CountryName"},{"value":"Nordrhein-Westfalen","key":"StateName"},{"value":"Siegen-Wittgenstein","key":"CountyName"}]},"MapReference":{"ReferenceId":"1211659394","Spot":0.0,"SideOfStreet":"right","CountryId":"20147700","StateId":"20157369","CountyId":"20160652","CityId":"20160750","DistrictId":"20160752"}}},{"Relevance":1.0,"Distance":84.2,"MatchLevel":"houseNumber","MatchQuality":{"Country":1.0,"State":1.0,"County":1.0,"City":1.0,"District":1.0,"Street":[1.0],"HouseNumber":1.0,"PostalCode":1.0},"MatchType":"interpolated","Location":{"LocationId":"NT_gyGewZ5S3wY6YnYIcLW0VA_xA","LocationType":"point","DisplayPosition":{"Latitude":50.8708,"Longitude":8.02256},"MapView":{"TopLeft":{"Latitude":50.8719242,"Longitude":8.0207787},"BottomRight":{"Latitude":50.8696758,"Longitude":8.0243413}},"Address":{"Label":"Schnabelstraße 1, 57074 Siegen, Deutschland","Country":"DEU","State":"Nordrhein-Westfalen","County":"Siegen-Wittgenstein","City":"Siegen","District":"Siegen","Street":"Schnabelstraße","HouseNumber":"1","PostalCode":"57074","AdditionalData":[{"value":"Deutschland","key":"CountryName"},{"value":"Nordrhein-Westfalen","key":"StateName"},{"value":"Siegen-Wittgenstein","key":"CountyName"}]},"MapReference":{"ReferenceId":"51566041","Spot":0.54,"SideOfStreet":"right","CountryId":"20147700","StateId":"20157369","CountyId":"20160652","CityId":"20160750","DistrictId":"20160752","AddressId":"195243784","RoadLinkId":"35436106"}}},{"Relevance":1.0,"Distance":88.8,"MatchLevel":"houseNumber","MatchQuality":{"Country":1.0,"State":1.0,"County":1.0,"City":1.0,"District":1.0,"Street":[1.0],"HouseNumber":1.0,"PostalCode":1.0},"MatchType":"interpolated","Location":{"LocationId":"NT_jBcKoCKq-j-vULHlEX.cBB_yQD","LocationType":"point","DisplayPosition":{"Latitude":50.87108,"Longitude":8.02483},"MapView":{"TopLeft":{"Latitude":50.8722042,"Longitude":8.0230486},"BottomRight":{"Latitude":50.8699558,"Longitude":8.0266114}},"Address":{"Label":"Frankfurter Straße 24, 57074 Siegen, Deutschland","Country":"DEU","State":"Nordrhein-Westfalen","County":"Siegen-Wittgenstein","City":"Siegen","District":"Siegen","Street":"Frankfurter Straße","HouseNumber":"24","PostalCode":"57074","AdditionalData":[{"value":"Deutschland","key":"CountryName"},{"value":"Nordrhein-Westfalen","key":"StateName"},{"value":"Siegen-Wittgenstein","key":"CountyName"}]},"MapReference":{"ReferenceId":"1211659398","Spot":0.53,"SideOfStreet":"left","CountryId":"20147700","StateId":"20157369","CountyId":"20160652","CityId":"20160750","DistrictId":"20160752","AddressId":"194015024","RoadLinkId":"526957899"}}},{"Relevance":1.0,"Distance":91.7,"MatchLevel":"street","MatchQuality":{"Country":1.0,"State":1.0,"County":1.0,"City":1.0,"District":1.0,"PostalCode":1.0},"Location":{"LocationId":"NT_GMaARdB7I5f8NkT0blovhD_l_1211659395_R","LocationType":"point","DisplayPosition":{"Latitude":50.87166,"Longitude":8.02488},"MapView":{"TopLeft":{"Latitude":50.87169,"Longitude":8.02488},"BottomRight":{"Latitude":50.87166,"Longitude":8.02541}},"Address":{"Label":"57074 Siegen, Deutschland","Country":"DEU","State":"Nordrhein-Westfalen","County":"Siegen-Wittgenstein","City":"Siegen","District":"Siegen","PostalCode":"57074","AdditionalData":[{"value":"Deutschland","key":"CountryName"},{"value":"Nordrhein-Westfalen","key":"StateName"},{"value":"Siegen-Wittgenstein","key":"CountyName"}]},"MapReference":{"ReferenceId":"1211659395","Spot":0.0,"SideOfStreet":"right","CountryId":"20147700","StateId":"20157369","CountyId":"20160652","CityId":"20160750","DistrictId":"20160752"}}}]}]}}