{"Response":{"MetaInfo":{"Timestamp":"2020-03-28T10:13:24.287+0000","NextPageInformation":"2"},"View":[{"_type":"SearchResultsViewType","ViewId":0,"Result":[{"Relevance":1.0,"Distance":0.0,"Direction":0.0,"MatchLevel":"district","MatchQuality":{"Country":1.0,"State":1.0,"County":1.0,"City":1.0,"District":1.0,"PostalCode":1.0},"Location":{"LocationId":"NT_5g7OMeLRiDeMzeA.P-D0SA","LocationType":"point","DisplayPosition":{"Latitude":50.8648972,"Longitude":16.3107559},"MapView":{"TopLeft":{"Latitude":50.88352,"Longitude":16.28005},"BottomRight":{"Latitude":50.84724,"Longitude":16.38137}},"Address":{"Label":"Świebodzice, Woj. Dolnośląskie, Polska","Country":"POL","State":"Woj. Dolnośląskie","County":"Powiat Świdnicki","City":"Świebodzice","District":"Świebodzice","PostalCode":"58-160","AdditionalData":[{"value":"Polska","key":"CountryName"},{"value":"Woj. Dolnośląskie","key":"StateName"},{"value":"Powiat Świdnicki","key":"CountyName"}]},"MapReference":{"ReferenceId":"1113289455","SideOfStreet":"neither","CountryId":"20624059","StateId":"20625002","CountyId":"20625263","CityId":"20625276","DistrictId":"20680908"}}},{"Relevance":1.0,"Distance":3.7,"MatchLevel":"houseNumber","MatchQuality":{"Country":1.0,"State":1.0,"County":1.0,"City":1.0,"District":1.0,"Street":[1.0],"HouseNumber":1.0,"PostalCode":1.0},"MatchType":"interpolated","Location":{"LocationId":"NT_FTo3bUe09QPWZUdlPlnlPB_xgD","LocationType":"point","DisplayPosition":{"Latitude":50.86496,"Longitude":16.31069},"MapView":{"TopLeft":{"Latitude":50.8660842,"Longitude":16.3089089},"BottomRight":{"Latitude":50.8638358,"Longitude":16.3124711}},"Address":{"Label":"ulica Henryka Probusa 18, 58-160 Świebodzice, Polska","Country":"POL","State":"Woj. Dolnośląskie","County":"Powiat Świdnicki","City":"Świebodzice","District":"Świebodzice","Street":"ulica Henryka Probusa","HouseNumber":"18","PostalCode":"58-160","AdditionalData":[{"value":"Polska","key":"CountryName"},{"value":"Woj. Dolnośląskie","key":"StateName"},{"value":"Powiat Świdnicki","key":"CountyName"}]},"MapReference":{"ReferenceId":"1232069242","Spot":0.71,"SideOfStreet":"right","CountryId":"20624059","StateId":"20625002","CountyId":"20625263","CityId":"20625276","DistrictId":"20680908","AddressId":"582479786","RoadLinkId":"551905336"}}},{"Relevance":1.0,"Distance":35.9,"MatchLevel":"street","MatchQuality":{"Country":1.0,"State":1.0,"County":1.0,"City":1.0,"District":1.0,"Street":[1.0],"PostalCode":1.0},"Location":{"LocationId":"NT_FTo3bUe09QPWZUdlPlnlPB_l_1232069243_R","LocationType":"point","DisplayPosition":{"Latitude":50.86517,"Longitude":16.31103},"MapView":{"TopLeft":{"Latitude":50.86527,"Longitude":16.31103},"BottomRight":{"Latitude":50.86517,"Longitude":16.31119}},"Address":{"Label":"ulica Henryka Probusa, 58-160 Świebodzice, Polska","Country":"POL","State":"Woj. Dolnośląskie","County":"Powiat Świdnicki","City":"Świebodzice","District":"Świebodzice","Street":"ulica Henryka Probusa","PostalCode":"58-160","AdditionalData":[{"value":"Polska","key":"CountryName"},{"value":"Woj. Dolnośląskie","key":"StateName"},{"value":"Powiat Świdnicki","key":"CountyName"}]},"MapReference":{"ReferenceId":"1232069243","Spot":0.0,"SideOfStreet":"right","CountryId":"20624059","StateId":"20625002","CountyId":"20625263","CityId":"20625276","DistrictId":"20680908"}}},{"Relevance":1.0,"Distance":38.2,"MatchLevel":"street","MatchQuality":{"Country":1.0,"State":1.0,"County":1.0,"City":1.0,"District":1.0,"PostalCode":1.0},"Location":{"LocationId":"NT_7xhGpBXCtz8RxP8FTL28MA_l_1232069244_L","LocationType":"point","DisplayPosition":{"Latitude":50.8652169,"Longitude":16.3109546},"MapView":{"TopLeft":{"Latitude":50.8654,"Longitude":16.31066},"BottomRight":{"Latitude":50.86517,"Longitude":16.31103}},"Address":{"Label":"58-160 Świebodzice, Polska","Country":"POL","State":"Woj. Dolnośląskie","County":"Powiat Świdnicki","City":"Świebodzice","District":"Świebodzice","PostalCode":"58-160","AdditionalData":[{"value":"Polska","key":"CountryName"},{"value":"Woj. Dolnośląskie","key":"StateName"},{"value":"Powiat Świdnicki","key":"CountyName"}]},"MapReference":{"ReferenceId":"1232069244","Spot":0.2,"SideOfStreet":"left","CountryId":"20624059","StateId":"20625002","CountyId":"20625263","CityId":"20625276","DistrictId":"20680908"}}},{"Relevance":1.0,"Distance":40.9,"MatchLevel":"houseNumber","MatchQuality":{"Country":1.0,"State":1.0,"County":1.0,"City":1.0,"District":1.0,"Street":[1.0],"HouseNumber":1.0,"PostalCode":1.0},"MatchType":"interpolated","Location":{"LocationId":"NT_.-MTyqn3g47X6wY8kNwzlA_5EE","LocationType":"point","DisplayPosition":{"Latitude":50.86446,"Longitude":16.31125},"MapView":{"TopLeft":{"Latitude":50.8655842,"Longitude":16.3094689},"BottomRight":{"Latitude":50.8633358,"Longitude":16.3130311}},"Address":{"Label":"ulica Henryka Pobożnego 9A, 58-160 Świebodzice, Polska","Country":"POL","State":"Woj. Dolnośląskie","County":"Powiat Świdnicki","City":"Świebodzice","District":"Świebodzice","Street":"ulica Henryka Pobożnego","HouseNumber":"9A","PostalCode":"58-160","AdditionalData":[{"value":"Polska","key":"CountryName"},{"value":"Woj. Dolnośląskie","key":"StateName"},{"value":"Powiat Świdnicki","key":"CountyName"}]},"MapReference":{"ReferenceId":"1232045184","Spot":0.59,"SideOfStreet":"left","CountryId":"20624059","StateId":"20625002","CountyId":"20625263","CityId":"20625276","DistrictId":"20680908","AddressId":"582464771","RoadLinkId":"551853585"}}},{"Relevance":1.0,"Distance":46.1,"MatchLevel":"houseNumber","MatchQuality":{"Country":1.0,"State":1.0,"County":1.0,"City":1.0,"District":1.0,"Street":[1.0],"HouseNumber":1.0,"PostalCode":1.0},"MatchType":"interpolated","Location":{"LocationId":"NT_b-nUz72N.taKIEv36O3FQA_ycTQ","LocationType":"point","DisplayPosition":{"Latitude":50.86504,"Longitude":16.31149},"MapView":{"TopLeft":{"Latitude":50.8661642,"Longitude":16.3097089},"BottomRight":{"Latitude":50.8639158,"Longitude":16.3132711}},"Address":{"Label":"ulica Mieszka Starego 27A, 58-160 Świebodzice, Polska","Country":"POL","State":"Woj. Dolnośląskie","County":"Powiat Świdnicki","City":"Świebodzice","District":"Świebodzice","Street":"ulica Mieszka Starego","HouseNumber":"27A","PostalCode":"58-160","AdditionalData":[{"value":"Polska","key":"CountryName"},{"value":"Woj. Dolnośląskie","key":"StateName"},{"value":"Powiat Świdnicki","key":"CountyName"}]},"MapReference":{"ReferenceId":"1232069256","Spot":0.26,"SideOfStreet":"left","CountryId":"20624059","StateId":"20625002","CountyId":"20625263","CityId":"20625276","DistrictId":"20680908","AddressId":"582398454","RoadLinkId":"551905350"}}},{"Relevance":1.0,"Distance":50.9,"MatchLevel":"houseNumber","MatchQuality":{"Country":1.0,"State":1.0,"County":1.0,"City":1.0,"District":1.0,"Street":[1.0],"HouseNumber":1.0,"PostalCode":1.0},"MatchType":"interpolated","Location":{"LocationId":"NT_.-MTyqn3g47X6wY8kNwzlA_yMD","LocationType":"point","DisplayPosition":{"Latitude":50.86478,"Longitude":16.31167},"MapView":{"TopLeft":{"Latitude":50.8659042,"Longitude":16.3098889},"BottomRight":{"Latitude":50.8636558,"Longitude":16.3134511}},"Address":{"Label":"ulica Henryka Pobożnego 23, 58-160 Świebodzice, Polska","Country":"POL","State":"Woj. Dolnośląskie","County":"Powiat Świdnicki","City":"Świebodzice","District":"Świebodzice","Street":"ulica Henryka Pobożnego","HouseNumber":"23","PostalCode":"58-160","AdditionalData":[{"value":"Polska","key":"CountryName"},{"value":"Woj. Dolnośląskie","key":"StateName"},{"value":"Powiat Świdnicki","key":"CountyName"}]},"MapReference":{"ReferenceId":"1232045185","Spot":0.33,"SideOfStreet":"left","CountryId":"20624059","StateId":"20625002","CountyId":"20625263","CityId":"20625276","DistrictId":"20680908","AddressId":"582464774","RoadLinkId":"551853586"}}},{"Relevance":1.0,"Distance":59.6,"MatchLevel":"street","MatchQuality":{"Country":1.0,"State":1.0,"County":1.0,"City":1.0,"District":1.0,"Street":[1.0],"PostalCode":1.0},"Location":{"LocationId":"NT_b-nUz72N.taKIEv36O3FQA_l_1232069255_L","LocationType":"point","DisplayPosition":{"Latitude":50.86496,"Longitude":16.3116},"MapView":{"TopLeft":{"Latitude":50.86496,"Longitude":16.3116},"BottomRight":{"Latitude":50.86486,"Longitude":16.31177}},"Address":{"Label":"ulica Mieszka Starego, 58-160 Świebodzice, Polska","Country":"POL","State":"Woj. Dolnośląskie","County":"Powiat Świdnicki","City":"Świebodzice","District":"Świebodzice","Street":"ulica Mieszka Starego","PostalCode":"58-160","AdditionalData":[{"value":"Polska","key":"CountryName"},{"value":"Woj. Dolnośląskie","key":"StateName"},{"value":"Powiat Świdnicki","key":"CountyName"}]},"MapReference":{"ReferenceId":"1232069255","Spot":1.0,"SideOfStreet":"left","CountryId":"20624059","StateId":"20625002","CountyId":"20625263","CityId":"20625276","DistrictId":"20680908"}}},{"Relevance":1.0,"Distance":63.2,"MatchLevel":"houseNumber","MatchQuality":{"Country":1.0,"State":1.0,"County":1.0,"City":1.0,"District":1.0,"Street":[1.0],"HouseNumber":1.0,"PostalCode":1.0},"MatchType":"interpolated","Location":{"LocationId":"NT_vvkBcXba4aD90wcyQJ9amA_0gD","LocationType":"point","DisplayPosition":{"Latitude":50.86425,"Longitude":16.31028},"MapView":{"TopLeft":{"Latitude":50.8653742,"Longitude":16.3084989},"BottomRight":{"Latitude":50.8631258,"Longitude":16.3120611}},"Address":{"Label":"ulica Piasta 48, 58-160 Świebodzice, Polska","Country":"POL","State":"Woj. Dolnośląskie","County":"Powiat Świdnicki","City":"Świebodzice","District":"Świebodzice","Street":"ulica Piasta","HouseNumber":"48","PostalCode":"58-160","AdditionalData":[{"value":"Polska","key":"CountryName"},{"value":"Woj. Dolnośląskie","key":"StateName"},{"value":"Powiat Świdnicki","key":"CountyName"}]},"MapReference":{"ReferenceId":"594233810","Spot":0.51,"SideOfStreet":"right","CountryId":"20624059","StateId":"20625002","CountyId":"20625263","CityId":"20625276","DistrictId":"20680908","AddressId":"766280981","RoadLinkId":"96046292"}}},{"Relevance":1.0,"Distance":71.3,"MatchLevel":"street","MatchQuality":{"Country":1.0,"State":1.0,"County":1.0,"City":1.0,"District":1.0,"Street":[1.0],"PostalCode":1.0},"Location":{"LocationId":"NT_b-nUz72N.taKIEv36O3FQA_l_1232045180_L","LocationType":"point","DisplayPosition":{"Latitude":50.86486,"Longitude":16.31177},"MapView":{"TopLeft":{"Latitude":50.86486,"Longitude":16.31177},"BottomRight":{"Latitude":50.86479,"Longitude":16.3119}},"Address":{"Label":"ulica Mieszka Starego, 58-160 Świebodzice, Polska","Country":"POL","State":"Woj. Dolnośląskie","County":"Powiat Świdnicki","City":"Świebodzice","District":"Świebodzice","Street":"ulica Mieszka Starego","PostalCode":"58-160","AdditionalData":[{"value":"Polska","key":"CountryName"},{"value":"Woj. Dolnośląskie","key":"StateName"},{"value":"Powiat Świdnicki","key":"CountyName"}]},"MapReference":{"ReferenceId":"1232045180","Spot":1.0,"SideOfStreet":"left","CountryId":"20624059","StateId":"20625002","CountyId":"20625263","CityId":"20625276","DistrictId":"20680908"}}}]}]}}