{"Response":{"MetaInfo":{"Timestamp":"2020-03-28T10:46:28.913+0000","NextPageInformation":"2"},"View":[{"_type":"SearchResultsViewType","ViewId":0,"Result":[{"Relevance":1.0,"Distance":0.0,"Direction":0.0,"MatchLevel":"district","MatchQuality":{"Country":1.0,"State":1.0,"County":1.0,"City":1.0,"District":1.0,"PostalCode":1.0},"Location":{"LocationId":"NT_pn4LmwrtNbgeDzFCkQ-DQC","LocationType":"point","DisplayPosition":{"Latitude":50.8552688,"Longitude":17.4606921},"MapView":{"TopLeft":{"Latitude":50.87502,"Longitude":17.42697},"BottomRight":{"Latitude":50.83884,"Longitude":17.50693}},"Address":{"Label":"Brzeg, Woj. Opolskie, Polska","Country":"POL","State":"Woj. Opolskie","County":"Powiat Brzeski","City":"Brzeg","District":"Brzeg","PostalCode":"49-300","AdditionalData":[{"value":"Polska","key":"CountryName"},{"value":"Woj. Opolskie","key":"StateName"},{"value":"Powiat Brzeski","key":"CountyName"}]},"MapReference":{"ReferenceId":"594241902","SideOfStreet":"neither","CountryId":"20624059","StateId":"20627925","CountyId":"20627929","CityId":"20627930","DistrictId":"20689913"}}},{"Relevance":1.0,"Distance":12.0,"MatchLevel":"houseNumber","MatchQuality":{"Country":1.0,"State":1.0,"County":1.0,"City":1.0,"District":1.0,"Street":[1.0],"HouseNumber":1.0,"PostalCode":1.0},"MatchType":"interpolated","Location":{"LocationId":"NT_gpTRYzaqQA7xL3d.-5GwtA_yME","LocationType":"point","DisplayPosition":{"Latitude":50.85498,"Longitude":17.46114},"MapView":{"TopLeft":{"Latitude":50.8561042,"Longitude":17.4593593},"BottomRight":{"Latitude":50.8538558,"Longitude":17.4629207}},"Address":{"Label":"ulica Chocimska 2C, 49-304 Brzeg, Polska","Country":"POL","State":"Woj. Opolskie","County":"Powiat Brzeski","City":"Brzeg","District":"Brzeg","Street":"ulica Chocimska","HouseNumber":"2C","PostalCode":"49-304","AdditionalData":[{"value":"Polska","key":"CountryName"},{"value":"Woj. Opolskie","key":"StateName"},{"value":"Powiat Brzeski","key":"CountyName"}]},"MapReference":{"ReferenceId":"902128104","Spot":0.24,"SideOfStreet":"left","CountryId":"20624059","StateId":"20627925","CountyId":"20627929","CityId":"20627930","DistrictId":"20689913","AddressId":"701886791","RoadLinkId":"263664349"}}},{"Relevance":1.0,"Distance":40.6,"MatchLevel":"houseNumber","MatchQuality":{"Country":1.0,"State":1.0,"County":1.0,"City":1.0,"District":1.0,"Street":[1.0],"HouseNumber":1.0,"PostalCode":1.0},"MatchType":"interpolated","Location":{"LocationId":"NT_gpTRYzaqQA7xL3d.-5GwtA_yQE","LocationType":"point","DisplayPosition":{"Latitude":50.85475,"Longitude":17.46087},"MapView":{"TopLeft":{"Latitude":50.8558742,"Longitude":17.4590893},"BottomRight":{"Latitude":50.8536258,"Longitude":17.4626507}},"Address":{"Label":"ulica Chocimska 2D, 49-304 Brzeg, Polska","Country":"POL","State":"Woj. Opolskie","County":"Powiat Brzeski","City":"Brzeg","District":"Brzeg","Street":"ulica Chocimska","HouseNumber":"2D","PostalCode":"49-304","AdditionalData":[{"value":"Polska","key":"CountryName"},{"value":"Woj. Opolskie","key":"StateName"},{"value":"Powiat Brzeski","key":"CountyName"}]},"MapReference":{"ReferenceId":"902128103","Spot":0.37,"SideOfStreet":"left","CountryId":"20624059","StateId":"20627925","CountyId":"20627929","CityId":"20627930","DistrictId":"20689913","AddressId":"701886789","RoadLinkId":"263664348"}}},{"Relevance":1.0,"Distance":63.8,"MatchLevel":"street","MatchQuality":{"Country":1.0,"State":1.0,"County":1.0,"City":1.0,"District":1.0,"PostalCode":1.0},"Location":{"LocationId":"NT_hMbP-rTTqnx5bIlcraW-dA_l_957049808_R","LocationType":"point","DisplayPosition":{"Latitude":50.8547,"Longitude":17.46081},"MapView":{"TopLeft":{"Latitude":50.8547,"Longitude":17.46081},"BottomRight":{"Latitude":50.85453,"Longitude":17.46111}},"Address":{"Label":"49-304 Brzeg, Polska","Country":"POL","State":"Woj. Opolskie","County":"Powiat Brzeski","City":"Brzeg","District":"Brzeg","PostalCode":"49-304","AdditionalData":[{"value":"Polska","key":"CountryName"},{"value":"Woj. Opolskie","key":"StateName"},{"value":"Powiat Brzeski","key":"CountyName"}]},"MapReference":{"ReferenceId":"957049808","Spot":1.0,"SideOfStreet":"right","CountryId":"20624059","StateId":"20627925","CountyId":"20627929","CityId":"20627930","DistrictId":"20689913"}}},{"Relevance":1.0,"Distance":70.2,"MatchLevel":"houseNumber","MatchQuality":{"Country":1.0,"State":1.0,"County":1.0,"City":1.0,"District":1.0,"Street":[1.0],"HouseNumber":1.0,"PostalCode":1.0},"MatchType":"interpolated","Location":{"LocationId":"NT_gpTRYzaqQA7xL3d.-5GwtA_0A","LocationType":"point","DisplayPosition":{"Latitude":50.85456,"Longitude":17.46064},"MapView":{"TopLeft":{"Latitude":50.8556842,"Longitude":17.4588593},"BottomRight":{"Latitude":50.8534358,"Longitude":17.4624207}},"Address":{"Label":"ulica Chocimska 4, 49-304 Brzeg, Polska","Country":"POL","State":"Woj. Opolskie","County":"Powiat Brzeski","City":"Brzeg","District":"Brzeg","Street":"ulica Chocimska","HouseNumber":"4","PostalCode":"49-304","AdditionalData":[{"value":"Polska","key":"CountryName"},{"value":"Woj. Opolskie","key":"StateName"},{"value":"Powiat Brzeski","key":"CountyName"}]},"MapReference":{"ReferenceId":"956898741","Spot":0.71,"SideOfStreet":"left","CountryId":"20624059","StateId":"20627925","CountyId":"20627929","CityId":"20627930","DistrictId":"20689913","AddressId":"209887804","RoadLinkId":"299837337"}}},{"Relevance":1.0,"Distance":71.4,"MatchLevel":"street","MatchQuality":{"Country":1.0,"State":1.0,"County":1.0,"City":1.0,"District":1.0,"Street":[1.0],"PostalCode":1.0},"Location":{"LocationId":"NT_WzFAN2rVUSEVNpvft-6NzB_l_801281115_L","LocationType":"point","DisplayPosition":{"Latitude":50.85542,"Longitude":17.46168},"MapView":{"TopLeft":{"Latitude":50.85556,"Longitude":17.46168},"BottomRight":{"Latitude":50.85542,"Longitude":17.46184}},"Address":{"Label":"ulica Chocimska, 49-304 Brzeg, Polska","Country":"POL","State":"Woj. Opolskie","County":"Powiat Brzeski","City":"Brzeg","District":"Brzeg","Street":"ulica Chocimska","PostalCode":"49-304","AdditionalData":[{"value":"Polska","key":"CountryName"},{"value":"Woj. Opolskie","key":"StateName"},{"value":"Powiat Brzeski","key":"CountyName"}]},"MapReference":{"ReferenceId":"801281115","Spot":0.0,"SideOfStreet":"left","CountryId":"20624059","StateId":"20627925","CountyId":"20627929","CityId":"20627930","DistrictId":"20689913"}}},{"Relevance":1.0,"Distance":86.8,"MatchLevel":"street","MatchQuality":{"Country":1.0,"State":1.0,"County":1.0,"City":1.0,"District":1.0,"Street":[1.0],"PostalCode":1.0},"Location":{"LocationId":"NT_WzFAN2rVUSEVNpvft-6NzB_l_801281116_L","LocationType":"point","DisplayPosition":{"Latitude":50.85556,"Longitude":17.46184},"MapView":{"TopLeft":{"Latitude":50.8557,"Longitude":17.46184},"BottomRight":{"Latitude":50.85556,"Longitude":17.46203}},"Address":{"Label":"ulica Chocimska, 49-304 Brzeg, Polska","Country":"POL","State":"Woj. Opolskie","County":"Powiat Brzeski","City":"Brzeg","District":"Brzeg","Street":"ulica Chocimska","PostalCode":"49-304","AdditionalData":[{"value":"Polska","key":"CountryName"},{"value":"Woj. Opolskie","key":"StateName"},{"value":"Powiat Brzeski","key":"CountyName"}]},"MapReference":{"ReferenceId":"801281116","Spot":0.0,"SideOfStreet":"left","CountryId":"20624059","StateId":"20627925","CountyId":"20627929","CityId":"20627930","DistrictId":"20689913"}}},{"Relevance":1.0,"Distance":87.2,"MatchLevel":"street","MatchQuality":{"Country":1.0,"State":1.0,"County":1.0,"City":1.0,"District":1.0,"PostalCode":1.0},"Location":{"LocationId":"NT_hMbP-rTTqnx5bIlcraW-dA_l_957049809_L","LocationType":"point","DisplayPosition":{"Latitude":50.85453,"Longitude":17.46111},"MapView":{"TopLeft":{"Latitude":50.85485,"Longitude":17.46111},"BottomRight":{"Latitude":50.85453,"Longitude":17.46167}},"Address":{"Label":"49-304 Brzeg, Polska","Country":"POL","State":"Woj. Opolskie","County":"Powiat Brzeski","City":"Brzeg","District":"Brzeg","PostalCode":"49-304","AdditionalData":[{"value":"Polska","key":"CountryName"},{"value":"Woj. Opolskie","key":"StateName"},{"value":"Powiat Brzeski","key":"CountyName"}]},"MapReference":{"ReferenceId":"957049809","Spot":0.0,"SideOfStreet":"left","CountryId":"20624059","StateId":"20627925","CountyId":"20627929","CityId":"20627930","DistrictId":"20689913"}}},{"Relevance":1.0,"Distance":87.2,"MatchLevel":"street","MatchQuality":{"Country":1.0,"State":1.0,"County":1.0,"City":1.0,"District":1.0,"PostalCode":1.0},"Location":{"LocationId":"NT_hMbP-rTTqnx5bIlcraW-dA_l_957049807_R","LocationType":"point","DisplayPosition":{"Latitude":50.85453,"Longitude":17.46111},"MapView":{"TopLeft":{"Latitude":50.85453,"Longitude":17.46111},"BottomRight":{"Latitude":50.85412,"Longitude":17.46207}},"Address":{"Label":"49-304 Brzeg, Polska","Country":"POL","State":"Woj. Opolskie","County":"Powiat Brzeski","City":"Brzeg","District":"Brzeg","PostalCode":"49-304","AdditionalData":[{"value":"Polska","key":"CountryName"},{"value":"Woj. Opolskie","key":"StateName"},{"value":"Powiat Brzeski","key":"CountyName"}]},"MapReference":{"ReferenceId":"957049807","Spot":1.0,"SideOfStreet":"right","CountryId":"20624059","StateId":"20627925","CountyId":"20627929","CityId":"20627930","DistrictId":"20689913"}}},{"Relevance":1.0,"Distance":117.8,"MatchLevel":"street","MatchQuality":{"Country":1.0,"State":1.0,"County":1.0,"City":1.0,"District":1.0,"PostalCode":1.0},"Location":{"LocationId":"NT_hMbP-rTTqnx5bIlcraW-dA_l_957013018_R","LocationType":"point","DisplayPosition":{"Latitude":50.85428,"Longitude":17.46009},"MapView":{"TopLeft":{"Latitude":50.85463,"Longitude":17.45932},"BottomRight":{"Latitude":50.85428,"Longitude":17.46009}},"Address":{"Label":"49-304 Brzeg, Polska","Country":"POL","State":"Woj. Opolskie","County":"Powiat Brzeski","City":"Brzeg","District":"Brzeg","PostalCode":"49-304","AdditionalData":[{"value":"Polska","key":"CountryName"},{"value":"Woj. Opolskie","key":"StateName"},{"value":"Powiat Brzeski","key":"CountyName"}]},"MapReference":{"ReferenceId":"957013018","Spot":0.0,"SideOfStreet":"right","CountryId":"20624059","StateId":"20627925","CountyId":"20627929","CityId":"20627930","DistrictId":"20689913"}}}]}]}}