{"Response":{"MetaInfo":{"Timestamp":"2020-03-28T09:34:55.165+0000","NextPageInformation":"2"},"View":[{"_type":"SearchResultsViewType","ViewId":0,"Result":[{"Relevance":1.0,"Distance":0.0,"Direction":0.0,"MatchLevel":"district","MatchQuality":{"Country":1.0,"State":1.0,"County":1.0,"City":1.0,"District":1.0,"PostalCode":1.0},"Location":{"LocationId":"NT_-UQzb7XfTLd.1mXrqC9OwD","LocationType":"point","DisplayPosition":{"Latitude":50.8807496,"Longitude":8.0274565},"MapView":{"TopLeft":{"Latitude":50.92809,"Longitude":7.95524},"BottomRight":{"Latitude":50.82279,"Longitude":8.08161}},"Address":{"Label":"Siegen, Nordrhein-Westfalen, Deutschland","Country":"DEU","State":"Nordrhein-Westfalen","County":"Siegen-Wittgenstein","City":"Siegen","District":"Siegen","PostalCode":"57072","AdditionalData":[{"value":"Deutschland","key":"CountryName"},{"value":"Nordrhein-Westfalen","key":"StateName"},{"value":"Siegen-Wittgenstein","key":"CountyName"}]},"MapReference":{"ReferenceId":"51565866","SideOfStreet":"neither","CountryId":"20147700","StateId":"20157369","CountyId":"20160652","CityId":"20160750","DistrictId":"20160752"}}},{"Relevance":1.0,"Distance":9.0,"MatchLevel":"houseNumber","MatchQuality":{"Country":1.0,"State":1.0,"County":1.0,"City":1.0,"District":1.0,"Street":[1.0],"HouseNumber":1.0,"PostalCode":1.0},"MatchType":"interpolated","Location":{"LocationId":"NT_P7dduH4Z4CscouOTaCbrhB_xMDO","LocationType":"point","DisplayPosition":{"Latitude":50.88079,"Longitude":8.02725},"MapView":{"TopLeft":{"Latitude":50.8819142,"Longitude":8.0254683},"BottomRight":{"Latitude":50.8796658,"Longitude":8.0290317}},"Address":{"Label":"Sandstraße 138, 57072 Siegen, Deutschland","Country":"DEU","State":"Nordrhein-Westfalen","County":"Siegen-Wittgenstein","City":"Siegen","District":"Siegen","Street":"Sandstraße","HouseNumber":"138","PostalCode":"57072","AdditionalData":[{"value":"Deutschland","key":"CountryName"},{"value":"Nordrhein-Westfalen","key":"StateName"},{"value":"Siegen-Wittgenstein","key":"CountyName"}]},"MapReference":{"ReferenceId":"51565140","Spot":0.8,"SideOfStreet":"right","CountryId":"20147700","StateId":"20157369","CountyId":"20160652","CityId":"20160750","DistrictId":"20160752","AddressId":"194443466","RoadLinkId":"35034734"}}},{"Relevance":1.0,"Distance":24.3,"MatchLevel":"houseNumber","MatchQuality":{"Country":1.0,"State":1.0,"County":1.0,"City":1.0,"District":1.0,"Street":[1.0],"HouseNumber":1.0,"PostalCode":1.0},"MatchType":"interpolated","Location":{"LocationId":"NT_2V2I6RtsUZ6Q3.GVhhinnD_xA","LocationType":"point","DisplayPosition":{"Latitude":50.88095,"Longitude":8.02732},"MapView":{"TopLeft":{"Latitude":50.8820742,"Longitude":8.0255383},"BottomRight":{"Latitude":50.8798258,"Longitude":8.0291017}},"Address":{"Label":"Sieghütter Hauptweg 1, 57072 Siegen, Deutschland","Country":"DEU","State":"Nordrhein-Westfalen","County":"Siegen-Wittgenstein","City":"Siegen","District":"Siegen","Street":"Sieghütter Hauptweg","HouseNumber":"1","PostalCode":"57072","AdditionalData":[{"value":"Deutschland","key":"CountryName"},{"value":"Nordrhein-Westfalen","key":"StateName"},{"value":"Siegen-Wittgenstein","key":"CountyName"}]},"MapReference":{"ReferenceId":"51565127","Spot":0.19,"SideOfStreet":"left","CountryId":"20147700","StateId":"20157369","CountyId":"20160652","CityId":"20160750","DistrictId":"20160752","AddressId":"195076495","RoadLinkId":"35476111"}}},{"Relevance":1.0,"Distance":25.5,"MatchLevel":"houseNumber","MatchQuality":{"Country":1.0,"State":1.0,"County":1.0,"City":1.0,"District":1.0,"Street":[1.0],"HouseNumber":1.0,"PostalCode":1.0},"MatchType":"interpolated","Location":{"LocationId":"NT_P7dduH4Z4CscouOTaCbrhB_xQDM","LocationType":"point","DisplayPosition":{"Latitude":50.88096,"Longitude":8.0276},"MapView":{"TopLeft":{"Latitude":50.8820842,"Longitude":8.0258183},"BottomRight":{"Latitude":50.8798358,"Longitude":8.0293817}},"Address":{"Label":"Sandstraße 140, 57072 Siegen, Deutschland","Country":"DEU","State":"Nordrhein-Westfalen","County":"Siegen-Wittgenstein","City":"Siegen","District":"Siegen","Street":"Sandstraße","HouseNumber":"140","PostalCode":"57072","AdditionalData":[{"value":"Deutschland","key":"CountryName"},{"value":"Nordrhein-Westfalen","key":"StateName"},{"value":"Siegen-Wittgenstein","key":"CountyName"}]},"MapReference":{"ReferenceId":"1201674206","Spot":0.89,"SideOfStreet":"right","CountryId":"20147700","StateId":"20157369","CountyId":"20160652","CityId":"20160750","DistrictId":"20160752","AddressId":"746151835","RoadLinkId":"514294909"}}},{"Relevance":1.0,"Distance":38.2,"MatchLevel":"houseNumber","MatchQuality":{"Country":1.0,"State":1.0,"County":1.0,"City":1.0,"District":1.0,"Street":[1.0],"HouseNumber":1.0,"PostalCode":1.0},"MatchType":"interpolated","Location":{"LocationId":"NT_HWhADx.ZmK9zTyi2GGe9YC_xA","LocationType":"point","DisplayPosition":{"Latitude":50.88041,"Longitude":8.02712},"MapView":{"TopLeft":{"Latitude":50.8815342,"Longitude":8.0253383},"BottomRight":{"Latitude":50.8792858,"Longitude":8.0289017}},"Address":{"Label":"Nordstraße 1, 57072 Siegen, Deutschland","Country":"DEU","State":"Nordrhein-Westfalen","County":"Siegen-Wittgenstein","City":"Siegen","District":"Siegen","Street":"Nordstraße","HouseNumber":"1","PostalCode":"57072","AdditionalData":[{"value":"Deutschland","key":"CountryName"},{"value":"Nordrhein-Westfalen","key":"StateName"},{"value":"Siegen-Wittgenstein","key":"CountyName"}]},"MapReference":{"ReferenceId":"51565171","Spot":0.49,"SideOfStreet":"right","CountryId":"20147700","StateId":"20157369","CountyId":"20160652","CityId":"20160750","DistrictId":"20160752","AddressId":"194949969","RoadLinkId":"35027597"}}},{"Relevance":1.0,"Distance":41.7,"MatchLevel":"houseNumber","MatchQuality":{"Country":1.0,"State":1.0,"County":1.0,"City":1.0,"District":1.0,"Street":[1.0],"HouseNumber":1.0,"PostalCode":1.0},"MatchType":"interpolated","Location":{"LocationId":"NT_P7dduH4Z4CscouOTaCbrhB_xQjM","LocationType":"point","DisplayPosition":{"Latitude":50.88106,"Longitude":8.02779},"MapView":{"TopLeft":{"Latitude":50.8821842,"Longitude":8.0260083},"BottomRight":{"Latitude":50.8799358,"Longitude":8.0295717}},"Address":{"Label":"Sandstraße 142, 57072 Siegen, Deutschland","Country":"DEU","State":"Nordrhein-Westfalen","County":"Siegen-Wittgenstein","City":"Siegen","District":"Siegen","Street":"Sandstraße","HouseNumber":"142","PostalCode":"57072","AdditionalData":[{"value":"Deutschland","key":"CountryName"},{"value":"Nordrhein-Westfalen","key":"StateName"},{"value":"Siegen-Wittgenstein","key":"CountyName"}]},"MapReference":{"ReferenceId":"1201674473","Spot":0.62,"SideOfStreet":"right","CountryId":"20147700","StateId":"20157369","CountyId":"20160652","CityId":"20160750","DistrictId":"20160752","AddressId":"746151685","RoadLinkId":"514295182"}}},{"Relevance":1.0,"Distance":48.4,"MatchLevel":"houseNumber","MatchQuality":{"Country":1.0,"State":1.0,"County":1.0,"City":1.0,"District":1.0,"Street":[1.0],"HouseNumber":1.0,"PostalCode":1.0},"MatchType":"interpolated","Location":{"LocationId":"NT_g4LWTh9C6zxD83r2kMgIpC_xA","LocationType":"point","DisplayPosition":{"Latitude":50.88025,"Longitude":8.0276},"MapView":{"TopLeft":{"Latitude":50.8813742,"Longitude":8.0258183},"BottomRight":{"Latitude":50.8791258,"Longitude":8.0293817}},"Address":{"Label":"Albertus-Magnus-Straße 1, 57072 Siegen, Deutschland","Country":"DEU","State":"Nordrhein-Westfalen","County":"Siegen-Wittgenstein","City":"Siegen","District":"Siegen","Street":"Albertus-Magnus-Straße","HouseNumber":"1","PostalCode":"57072","AdditionalData":[{"value":"Deutschland","key":"CountryName"},{"value":"Nordrhein-Westfalen","key":"StateName"},{"value":"Siegen-Wittgenstein","key":"CountyName"}]},"MapReference":{"ReferenceId":"51565170","Spot":0.22,"SideOfStreet":"left","CountryId":"20147700","StateId":"20157369","CountyId":"20160652","CityId":"20160750","DistrictId":"20160752","AddressId":"193381698","RoadLinkId":"35413318"}}},{"Relevance":1.0,"Distance":52.8,"MatchLevel":"houseNumber","MatchQuality":{"Country":1.0,"State":1.0,"County":1.0,"City":1.0,"District":1.0,"Street":[1.0],"HouseNumber":1.0,"PostalCode":1.0},"MatchType":"interpolated","Location":{"LocationId":"NT_P7dduH4Z4CscouOTaCbrhB_xIjN","LocationType":"point","DisplayPosition":{"Latitude":50.88054,"Longitude":8.02677},"MapView":{"TopLeft":{"Latitude":50.8816642,"Longitude":8.0249883},"BottomRight":{"Latitude":50.8794158,"Longitude":8.0285517}},"Address":{"Label":"Sandstraße 126, 57072 Siegen, Deutschland","Country":"DEU","State":"Nordrhein-Westfalen","County":"Siegen-Wittgenstein","City":"Siegen","District":"Siegen","Street":"Sandstraße","HouseNumber":"126","PostalCode":"57072","AdditionalData":[{"value":"Deutschland","key":"CountryName"},{"value":"Nordrhein-Westfalen","key":"StateName"},{"value":"Siegen-Wittgenstein","key":"CountyName"}]},"MapReference":{"ReferenceId":"51565151","Spot":0.43,"SideOfStreet":"right","CountryId":"20147700","StateId":"20157369","CountyId":"20160652","CityId":"20160750","DistrictId":"20160752","AddressId":"192693078","RoadLinkId":"35672354"}}},{"Relevance":1.0,"Distance":56.8,"MatchLevel":"houseNumber","MatchQuality":{"Country":1.0,"State":1.0,"County":1.0,"City":1.0,"District":1.0,"Street":[1.0],"HouseNumber":1.0,"PostalCode":1.0},"MatchType":"interpolated","Location":{"LocationId":"NT_P7dduH4Z4CscouOTaCbrhB_xQDN","LocationType":"point","DisplayPosition":{"Latitude":50.88115,"Longitude":8.02796},"MapView":{"TopLeft":{"Latitude":50.8822742,"Longitude":8.0261783},"BottomRight":{"Latitude":50.8800258,"Longitude":8.0297417}},"Address":{"Label":"Sandstraße 144, 57072 Siegen, Deutschland","Country":"DEU","State":"Nordrhein-Westfalen","County":"Siegen-Wittgenstein","City":"Siegen","District":"Siegen","Street":"Sandstraße","HouseNumber":"144","PostalCode":"57072","AdditionalData":[{"value":"Deutschland","key":"CountryName"},{"value":"Nordrhein-Westfalen","key":"StateName"},{"value":"Siegen-Wittgenstein","key":"CountyName"}]},"MapReference":{"ReferenceId":"1201675584","Spot":0.21,"SideOfStreet":"right","CountryId":"20147700","StateId":"20157369","CountyId":"20160652","CityId":"20160750","DistrictId":"20160752","AddressId":"746151877","RoadLinkId":"514296925"}}},{"Relevance":1.0,"Distance":65.2,"MatchLevel":"street","MatchQuality":{"Country":1.0,"State":1.0,"County":1.0,"City":1.0,"District":1.0,"Street":[1.0],"PostalCode":1.0},"Location":{"LocationId":"NT_WWyPGTZxJVDVIPMMKAeNWA_l_51565152_R","LocationType":"point","DisplayPosition":{"Latitude":50.88047,"Longitude":8.02664},"MapView":{"TopLeft":{"Latitude":50.88055,"Longitude":8.02654},"BottomRight":{"Latitude":50.88047,"Longitude":8.02664}},"Address":{"Label":"Dilnhenrichweg, 57072 Siegen, Deutschland","Country":"DEU","State":"Nordrhein-Westfalen","County":"Siegen-Wittgenstein","City":"Siegen","District":"Siegen","Street":"Dilnhenrichweg","PostalCode":"57072","AdditionalData":[{"value":"Deutschland","key":"CountryName"},{"value":"Nordrhein-Westfalen","key":"StateName"},{"value":"Siegen-Wittgenstein","key":"CountyName"}]},"MapReference":{"ReferenceId":"51565152","Spot":0.0,"SideOfStreet":"right","CountryId":"20147700","StateId":"20157369","CountyId":"20160652","CityId":"20160750","DistrictId":"20160752"}}}]}]}}