{"Response":{"MetaInfo":{"Timestamp":"2020-03-28T11:19:10.810+0000","NextPageInformation":"2"},"View":[{"_type":"SearchResultsViewType","ViewId":0,"Result":[{"Relevance":1.0,"Distance":0.0,"Direction":0.0,"MatchLevel":"postalCode","MatchQuality":{"Country":1.0,"State":1.0,"County":1.0,"PostalCode":1.0},"Location":{"LocationId":"NT_IBS0mvpblzLbehAjAMG7.C","LocationType":"point","DisplayPosition":{"Latitude":50.8683025,"Longitude":-0.9554529},"MapView":{"TopLeft":{"Latitude":51.38394,"Longitude":-1.9573},"BottomRight":{"Latitude":50.70596,"Longitude":-0.72934}},"Address":{"Label":"PO9 5, England, United Kingdom","Country":"GBR","State":"England","County":"Hampshire","PostalCode":"PO9 5","AdditionalData":[{"value":"United Kingdom","key":"CountryName"},{"value":"England","key":"StateName"},{"value":"Hampshire","key":"CountyName"}]},"MapReference":{"ReferenceId":"1020270683","SideOfStreet":"neither","StateId":"20248595","CountyId":"20335863"}}},{"Relevance":1.0,"Distance":47.1,"MatchLevel":"street","MatchQuality":{"Country":1.0,"State":1.0,"County":1.0,"City":1.0,"District":1.0,"PostalCode":1.0},"Location":{"LocationId":"NT_y-CUtCrr9w8IDVPfTYOSOB_l_25576901_L","LocationType":"point","DisplayPosition":{"Latitude":50.86813,"Longitude":-0.95484},"MapView":{"TopLeft":{"Latitude":50.86894,"Longitude":-0.95498},"BottomRight":{"Latitude":50.86813,"Longitude":-0.95468}},"Address":{"Label":"Havant, PO9 5, United Kingdom","Country":"GBR","State":"England","County":"Hampshire","City":"Havant","District":"Havant","PostalCode":"PO9 5","AdditionalData":[{"value":"United Kingdom","key":"CountryName"},{"value":"England","key":"StateName"},{"value":"Hampshire","key":"CountyName"}]},"MapReference":{"ReferenceId":"25576901","Spot":0.0,"SideOfStreet":"left","StateId":"20248595","CountyId":"20335863","CityId":"20336110","DistrictId":"20336111"}}},{"Relevance":1.0,"Distance":54.9,"MatchLevel":"street","MatchQuality":{"Country":1.0,"State":1.0,"County":1.0,"City":1.0,"District":1.0,"PostalCode":1.0},"Location":{"LocationId":"NT_y-CUtCrr9w8IDVPfTYOSOB_l_25577014_L","LocationType":"point","DisplayPosition":{"Latitude":50.867811,"Longitude":-0.9553859},"MapView":{"TopLeft":{"Latitude":50.86813,"Longitude":-0.95612},"BottomRight":{"Latitude":50.86735,"Longitude":-0.95484}},"Address":{"Label":"Havant, PO9 5, United Kingdom","Country":"GBR","State":"England","County":"Hampshire","City":"Havant","District":"Havant","PostalCode":"PO9 5","AdditionalData":[{"value":"United Kingdom","key":"CountryName"},{"value":"England","key":"StateName"},{"value":"Hampshire","key":"CountyName"}]},"MapReference":{"ReferenceId":"25577014","Spot":0.62,"SideOfStreet":"left","StateId":"20248595","CountyId":"20335863","CityId":"20336110","DistrictId":"20336111"}}},{"Relevance":1.0,"Distance":63.2,"MatchLevel":"postalCode","MatchQuality":{"PostalCode":1.0},"Location":{"LocationId":"NT_y-CUtCrr9w8IDVPfTYOSOB_l_25576901_L","LocationType":"point","DisplayPosition":{"Latitude":50.8687,"Longitude":-0.95481},"MapView":{"TopLeft":{"Latitude":50.8776932,"Longitude":-0.9690601},"BottomRight":{"Latitude":50.8597068,"Longitude":-0.9405599}},"Address":{"Label":"PO9 5NP, Havant, England, United Kingdom","Country":"GBR","State":"England","County":"Hampshire","City":"Havant","PostalCode":"PO9 5NP","AdditionalData":[{"value":"United Kingdom","key":"CountryName"},{"value":"England","key":"StateName"},{"value":"Hampshire","key":"CountyName"}]},"MapReference":{"ReferenceId":"25576901","Spot":0.0,"SideOfStreet":"neither","StateId":"20248595","CountyId":"20335863","CityId":"20336110"}}},{"Relevance":1.0,"Distance":86.0,"MatchLevel":"street","MatchQuality":{"Country":1.0,"State":1.0,"County":1.0,"City":1.0,"District":1.0,"Street":[1.0],"PostalCode":1.0},"Location":{"LocationId":"NT_DiL6dXBiCiDfHCD5PB4hRB_l_1208301529_L","LocationType":"point","DisplayPosition":{"Latitude":50.86757,"Longitude":-0.95506},"MapView":{"TopLeft":{"Latitude":50.86765,"Longitude":-0.95506},"BottomRight":{"Latitude":50.86757,"Longitude":-0.95461}},"Address":{"Label":"Bartons Road, Havant, PO9 5, United Kingdom","Country":"GBR","State":"England","County":"Hampshire","City":"Havant","District":"Havant","Street":"Bartons Road","PostalCode":"PO9 5","AdditionalData":[{"value":"United Kingdom","key":"CountryName"},{"value":"England","key":"StateName"},{"value":"Hampshire","key":"CountyName"}]},"MapReference":{"ReferenceId":"1208301529","Spot":0.0,"SideOfStreet":"left","StateId":"20248595","CountyId":"20335863","CityId":"20336110","DistrictId":"20336111"}}},{"Relevance":1.0,"Distance":86.0,"MatchLevel":"street","MatchQuality":{"Country":1.0,"State":1.0,"County":1.0,"City":1.0,"District":1.0,"Street":[1.0],"PostalCode":1.0},"Location":{"LocationId":"NT_XK00v.Nqf-8yGgQhQhZdXB_l_25577552_L","LocationType":"point","DisplayPosition":{"Latitude":50.86757,"Longitude":-0.95506},"MapView":{"TopLeft":{"Latitude":50.86757,"Longitude":-0.95759},"BottomRight":{"Latitude":50.86177,"Longitude":-0.95479}},"Address":{"Label":"Eastleigh Road, Havant, PO9 2, United Kingdom","Country":"GBR","State":"England","County":"Hampshire","City":"Havant","District":"Havant","Street":"Eastleigh Road","PostalCode":"PO9 2","AdditionalData":[{"value":"United Kingdom","key":"CountryName"},{"value":"England","key":"StateName"},{"value":"Hampshire","key":"CountyName"}]},"MapReference":{"ReferenceId":"25577552","Spot":1.0,"SideOfStreet":"left","StateId":"20248595","CountyId":"20335863","CityId":"20336110","DistrictId":"20336111"}}},{"Relevance":1.0,"Distance":87.5,"MatchLevel":"street","MatchQuality":{"Country":1.0,"State":1.0,"County":1.0,"City":1.0,"District":1.0,"Street":[1.0],"PostalCode":1.0},"Location":{"LocationId":"NT_DiL6dXBiCiDfHCD5PB4hRB_l_1225127617_L","LocationType":"point","DisplayPosition":{"Latitude":50.867522,"Longitude":-0.9552903},"MapView":{"TopLeft":{"Latitude":50.86757,"Longitude":-0.95565},"BottomRight":{"Latitude":50.86744,"Longitude":-0.95506}},"Address":{"Label":"Bartons Road, Havant, PO9 5, United Kingdom","Country":"GBR","State":"England","County":"Hampshire","City":"Havant","District":"Havant","Street":"Bartons Road","PostalCode":"PO9 5","AdditionalData":[{"value":"United Kingdom","key":"CountryName"},{"value":"England","key":"StateName"},{"value":"Hampshire","key":"CountyName"}]},"MapReference":{"ReferenceId":"1225127617","Spot":0.61,"SideOfStreet":"left","StateId":"20248595","CountyId":"20335863","CityId":"20336110","DistrictId":"20336111"}}},{"Relevance":1.0,"Distance":93.6,"MatchLevel":"street","MatchQuality":{"Country":1.0,"State":1.0,"County":1.0,"City":1.0,"District":1.0,"Street":[1.0],"PostalCode":1.0},"Location":{"LocationId":"NT_DiL6dXBiCiDfHCD5PB4hRB_l_1225127599_L","LocationType":"point","DisplayPosition":{"Latitude":50.86765,"Longitude":-0.95461},"MapView":{"TopLeft":{"Latitude":50.86771,"Longitude":-0.95461},"BottomRight":{"Latitude":50.86765,"Longitude":-0.95418}},"Address":{"Label":"Bartons Road, Havant, PO9 5, United Kingdom","Country":"GBR","State":"England","County":"Hampshire","City":"Havant","District":"Havant","Street":"Bartons Road","PostalCode":"PO9 5","AdditionalData":[{"value":"United Kingdom","key":"CountryName"},{"value":"England","key":"StateName"},{"value":"Hampshire","key":"CountyName"}]},"MapReference":{"ReferenceId":"1225127599","Spot":0.0,"SideOfStreet":"left","StateId":"20248595","CountyId":"20335863","CityId":"20336110","DistrictId":"20336111"}}},{"Relevance":1.0,"Distance":96.9,"MatchLevel":"street","MatchQuality":{"Country":1.0,"State":1.0,"County":1.0,"City":1.0,"District":1.0,"Street":[1.0],"PostalCode":1.0},"Location":{"LocationId":"NT_DiL6dXBiCiDfHCD5PB4hRB_l_1225127616_L","LocationType":"point","DisplayPosition":{"Latitude":50.86744,"Longitude":-0.95565},"MapView":{"TopLeft":{"Latitude":50.86744,"Longitude":-0.956},"BottomRight":{"Latitude":50.86735,"Longitude":-0.95565}},"Address":{"Label":"Bartons Road, Havant, PO9 5, United Kingdom","Country":"GBR","State":"England","County":"Hampshire","City":"Havant","District":"Havant","Street":"Bartons Road","PostalCode":"PO9 5","AdditionalData":[{"value":"United Kingdom","key":"CountryName"},{"value":"England","key":"StateName"},{"value":"Hampshire","key":"CountyName"}]},"MapReference":{"ReferenceId":"1225127616","Spot":1.0,"SideOfStreet":"left","StateId":"20248595","CountyId":"20335863","CityId":"20336110","DistrictId":"20336111"}}},{"Relevance":1.0,"Distance":111.0,"MatchLevel":"street","MatchQuality":{"Country":1.0,"State":1.0,"County":1.0,"City":1.0,"District":1.0,"Street":[1.0],"PostalCode":1.0},"Location":{"LocationId":"NT_DiL6dXBiCiDfHCD5PB4hRB_l_1225127600_L","LocationType":"point","DisplayPosition":{"Latitude":50.86771,"Longitude":-0.95418},"MapView":{"TopLeft":{"Latitude":50.86773,"Longitude":-0.95418},"BottomRight":{"Latitude":50.86771,"Longitude":-0.95377}},"Address":{"Label":"Bartons Road, Havant, PO9 5, United Kingdom","Country":"GBR","State":"England","County":"Hampshire","City":"Havant","District":"Havant","Street":"Bartons Road","PostalCode":"PO9 5","AdditionalData":[{"value":"United Kingdom","key":"CountryName"},{"value":"England","key":"StateName"},{"value":"Hampshire","key":"CountyName"}]},"MapReference":{"ReferenceId":"1225127600","Spot":0.0,"SideOfStreet":"left","StateId":"20248595","CountyId":"20335863","CityId":"20336110","DistrictId":"20336111"}}}]}]}}