{"Response":{"MetaInfo":{"Timestamp":"2020-03-28T10:15:56.573+0000","NextPageInformation":"2"},"View":[{"_type":"SearchResultsViewType","ViewId":0,"Result":[{"Relevance":1.0,"Distance":0.0,"Direction":0.0,"MatchLevel":"district","MatchQuality":{"Country":1.0,"State":1.0,"County":1.0,"City":1.0,"District":1.0,"PostalCode":1.0},"Location":{"LocationId":"NT_kg9xH9yxK.C2L8cR-7h5rD","LocationType":"point","DisplayPosition":{"Latitude":50.8054585,"Longitude":4.6494266},"MapView":{"TopLeft":{"Latitude":50.81458,"Longitude":4.64501},"BottomRight":{"Latitude":50.79656,"Longitude":4.65829}},"Address":{"Label":"Sint-Joris-Weert, Oud-Heverlee, Vlaanderen, België","Country":"BEL","State":"Vlaanderen","County":"Vlaams Brabant","City":"Oud-Heverlee","District":"Sint-Joris-Weert","PostalCode":"3051","AdditionalData":[{"value":"België","key":"CountryName"},{"value":"Vlaanderen","key":"StateName"},{"value":"Vlaams Brabant","key":"CountyName"}]},"MapReference":{"ReferenceId":"1206009383","SideOfStreet":"neither","CountryId":"20128886","StateId":"20204377","CountyId":"20207856","CityId":"20208156","DistrictId":"20208161"}}},{"Relevance":1.0,"Distance":11.6,"MatchLevel":"houseNumber","MatchQuality":{"Country":1.0,"State":1.0,"County":1.0,"City":1.0,"District":1.0,"Street":[1.0],"HouseNumber":1.0,"PostalCode":1.0},"MatchType":"interpolated","Location":{"LocationId":"NT_JzwohZSbfk1GBV2XtJvmrB_xQD","LocationType":"point","DisplayPosition":{"Latitude":50.80529,"Longitude":4.64928},"MapView":{"TopLeft":{"Latitude":50.8064142,"Longitude":4.6475012},"BottomRight":{"Latitude":50.8041658,"Longitude":4.6510588}},"Address":{"Label":"Overwegstraat 14, 3051 Oud-Heverlee, België","Country":"BEL","State":"Vlaanderen","County":"Vlaams Brabant","City":"Oud-Heverlee","District":"Sint-Joris-Weert","Street":"Overwegstraat","HouseNumber":"14","PostalCode":"3051","AdditionalData":[{"value":"België","key":"CountryName"},{"value":"Vlaanderen","key":"StateName"},{"value":"Vlaams Brabant","key":"CountyName"}]},"MapReference":{"ReferenceId":"59736343","Spot":0.15,"SideOfStreet":"left","CountryId":"20128886","StateId":"20204377","CountyId":"20207856","CityId":"20208156","DistrictId":"20208161","AddressId":"401165762","RoadLinkId":"30361511"}}},{"Relevance":1.0,"Distance":18.3,"MatchLevel":"houseNumber","MatchQuality":{"Country":1.0,"State":1.0,"County":1.0,"City":1.0,"District":1.0,"Street":[1.0],"HouseNumber":1.0,"PostalCode":1.0},"MatchType":"interpolated","Location":{"LocationId":"NT_m.KgE8nxohXNjOiNa865gB_xgD","LocationType":"point","DisplayPosition":{"Latitude":50.80555,"Longitude":4.64887},"MapView":{"TopLeft":{"Latitude":50.8066742,"Longitude":4.6470911},"BottomRight":{"Latitude":50.8044258,"Longitude":4.6506489}},"Address":{"Label":"Pastoor Tilemansstraat 18, 3051 Oud-Heverlee, België","Country":"BEL","State":"Vlaanderen","County":"Vlaams Brabant","City":"Oud-Heverlee","District":"Sint-Joris-Weert","Street":"Pastoor Tilemansstraat","HouseNumber":"18","PostalCode":"3051","AdditionalData":[{"value":"België","key":"CountryName"},{"value":"Vlaanderen","key":"StateName"},{"value":"Vlaams Brabant","key":"CountyName"}]},"MapReference":{"ReferenceId":"59736346","Spot":0.11,"SideOfStreet":"right","CountryId":"20128886","StateId":"20204377","CountyId":"20207856","CityId":"20208156","DistrictId":"20208161","AddressId":"401269378","RoadLinkId":"30790738"}}},{"Relevance":1.0,"Distance":57.7,"MatchLevel":"houseNumber","MatchQuality":{"Country":1.0,"State":1.0,"County":1.0,"City":1.0,"District":1.0,"Street":[1.0],"HouseNumber":1.0,"PostalCode":1.0},"MatchType":"interpolated","Location":{"LocationId":"NT_m.KgE8nxohXNjOiNa865gB_xQD","LocationType":"point","DisplayPosition":{"Latitude":50.80494,"Longitude":4.64886},"MapView":{"TopLeft":{"Latitude":50.8060642,"Longitude":4.6470812},"BottomRight":{"Latitude":50.8038158,"Longitude":4.6506388}},"Address":{"Label":"Pastoor Tilemansstraat 14, 3051 Oud-Heverlee, België","Country":"BEL","State":"Vlaanderen","County":"Vlaams Brabant","City":"Oud-Heverlee","District":"Sint-Joris-Weert","Street":"Pastoor Tilemansstraat","HouseNumber":"14","PostalCode":"3051","AdditionalData":[{"value":"België","key":"CountryName"},{"value":"Vlaanderen","key":"StateName"},{"value":"Vlaams Brabant","key":"CountyName"}]},"MapReference":{"ReferenceId":"1215786681","Spot":0.7,"SideOfStreet":"right","CountryId":"20128886","StateId":"20204377","CountyId":"20207856","CityId":"20208156","DistrictId":"20208161","AddressId":"401386985","RoadLinkId":"531994880"}}},{"Relevance":1.0,"Distance":113.6,"MatchLevel":"houseNumber","MatchQuality":{"Country":1.0,"State":1.0,"County":1.0,"City":1.0,"District":1.0,"Street":[1.0],"HouseNumber":1.0,"PostalCode":1.0},"MatchType":"interpolated","Location":{"LocationId":"NT_JiysHfAv85A6XnKDVleDaC_yMD","LocationType":"point","DisplayPosition":{"Latitude":50.8057,"Longitude":4.65128},"MapView":{"TopLeft":{"Latitude":50.8068242,"Longitude":4.6495011},"BottomRight":{"Latitude":50.8045758,"Longitude":4.6530589}},"Address":{"Label":"IJzerenwegstraat 23, 3051 Oud-Heverlee, België","Country":"BEL","State":"Vlaanderen","County":"Vlaams Brabant","City":"Oud-Heverlee","District":"Sint-Joris-Weert","Street":"IJzerenwegstraat","HouseNumber":"23","PostalCode":"3051","AdditionalData":[{"value":"België","key":"CountryName"},{"value":"Vlaanderen","key":"StateName"},{"value":"Vlaams Brabant","key":"CountyName"}]},"MapReference":{"ReferenceId":"59735440","Spot":0.68,"SideOfStreet":"left","CountryId":"20128886","StateId":"20204377","CountyId":"20207856","CityId":"20208156","DistrictId":"20208161","AddressId":"401058302","RoadLinkId":"30563401"}}},{"Relevance":1.0,"Distance":142.3,"MatchLevel":"houseNumber","MatchQuality":{"Country":1.0,"State":1.0,"County":1.0,"City":1.0,"District":1.0,"Street":[1.0],"HouseNumber":1.0,"PostalCode":1.0},"MatchType":"interpolated","Location":{"LocationId":"NT_JiysHfAv85A6XnKDVleDaC_xcD","LocationType":"point","DisplayPosition":{"Latitude":50.80524,"Longitude":4.65161},"MapView":{"TopLeft":{"Latitude":50.8063642,"Longitude":4.6498312},"BottomRight":{"Latitude":50.8041158,"Longitude":4.6533888}},"Address":{"Label":"IJzerenwegstraat 17, 3051 Oud-Heverlee, België","Country":"BEL","State":"Vlaanderen","County":"Vlaams Brabant","City":"Oud-Heverlee","District":"Sint-Joris-Weert","Street":"IJzerenwegstraat","HouseNumber":"17","PostalCode":"3051","AdditionalData":[{"value":"België","key":"CountryName"},{"value":"Vlaanderen","key":"StateName"},{"value":"Vlaams Brabant","key":"CountyName"}]},"MapReference":{"ReferenceId":"59735059","Spot":0.96,"SideOfStreet":"left","CountryId":"20128886","StateId":"20204377","CountyId":"20207856","CityId":"20208156","DistrictId":"20208161","AddressId":"400397726","RoadLinkId":"30615451"}}},{"Relevance":1.0,"Distance":181.5,"MatchLevel":"houseNumber","MatchQuality":{"Country":1.0,"State":1.0,"County":1.0,"City":1.0,"District":1.0,"Street":[1.0],"HouseNumber":1.0,"PostalCode":1.0},"MatchType":"interpolated","Location":{"LocationId":"NT_Ams9bk3Q2ts7rKJYXuSTOC_ycD","LocationType":"point","DisplayPosition":{"Latitude":50.80636,"Longitude":4.65175},"MapView":{"TopLeft":{"Latitude":50.8074842,"Longitude":4.6499711},"BottomRight":{"Latitude":50.8052358,"Longitude":4.6535289}},"Address":{"Label":"Leuvensestraat 27, 3051 Oud-Heverlee, België","Country":"BEL","State":"Vlaanderen","County":"Vlaams Brabant","City":"Oud-Heverlee","District":"Sint-Joris-Weert","Street":"Leuvensestraat","HouseNumber":"27","PostalCode":"3051","AdditionalData":[{"value":"België","key":"CountryName"},{"value":"Vlaanderen","key":"StateName"},{"value":"Vlaams Brabant","key":"CountyName"}]},"MapReference":{"ReferenceId":"59735843","Spot":0.36,"SideOfStreet":"left","CountryId":"20128886","StateId":"20204377","CountyId":"20207856","CityId":"20208156","DistrictId":"20208161","AddressId":"399715343","RoadLinkId":"30544837"}}},{"Relevance":1.0,"Distance":207.2,"MatchLevel":"houseNumber","MatchQuality":{"Country":1.0,"State":1.0,"County":1.0,"City":1.0,"District":1.0,"Street":[1.0],"HouseNumber":1.0,"PostalCode":1.0},"MatchType":"interpolated","Location":{"LocationId":"NT_Ams9bk3Q2ts7rKJYXuSTOC_xcD","LocationType":"point","DisplayPosition":{"Latitude":50.80536,"Longitude":4.65256},"MapView":{"TopLeft":{"Latitude":50.8064842,"Longitude":4.6507812},"BottomRight":{"Latitude":50.8042358,"Longitude":4.6543388}},"Address":{"Label":"Leuvensestraat 17, 3051 Oud-Heverlee, België","Country":"BEL","State":"Vlaanderen","County":"Vlaams Brabant","City":"Oud-Heverlee","District":"Sint-Joris-Weert","Street":"Leuvensestraat","HouseNumber":"17","PostalCode":"3051","AdditionalData":[{"value":"België","key":"CountryName"},{"value":"Vlaanderen","key":"StateName"},{"value":"Vlaams Brabant","key":"CountyName"}]},"MapReference":{"ReferenceId":"1206009379","Spot":0.9,"SideOfStreet":"left","CountryId":"20128886","StateId":"20204377","CountyId":"20207856","CityId":"20208156","DistrictId":"20208161","AddressId":"400881089","RoadLinkId":"519828888"}}},{"Relevance":1.0,"Distance":213.1,"MatchLevel":"houseNumber","MatchQuality":{"Country":1.0,"State":1.0,"County":1.0,"City":1.0,"District":1.0,"Street":[1.0],"HouseNumber":1.0,"PostalCode":1.0},"MatchType":"interpolated","Location":{"LocationId":"NT_m.KgE8nxohXNjOiNa865gB_0A","LocationType":"point","DisplayPosition":{"Latitude":50.80355,"Longitude":4.64884},"MapView":{"TopLeft":{"Latitude":50.8046742,"Longitude":4.6470612},"BottomRight":{"Latitude":50.8024258,"Longitude":4.6506188}},"Address":{"Label":"Pastoor Tilemansstraat 4, 3051 Oud-Heverlee, België","Country":"BEL","State":"Vlaanderen","County":"Vlaams Brabant","City":"Oud-Heverlee","District":"Sint-Joris-Weert","Street":"Pastoor Tilemansstraat","HouseNumber":"4","PostalCode":"3051","AdditionalData":[{"value":"België","key":"CountryName"},{"value":"Vlaanderen","key":"StateName"},{"value":"Vlaams Brabant","key":"CountyName"}]},"MapReference":{"ReferenceId":"1215786680","Spot":0.41,"SideOfStreet":"right","CountryId":"20128886","StateId":"20204377","CountyId":"20207856","CityId":"20208156","DistrictId":"20208161","AddressId":"401386988","RoadLinkId":"531994879"}}},{"Relevance":1.0,"Distance":233.8,"MatchLevel":"houseNumber","MatchQuality":{"Country":1.0,"State":1.0,"County":1.0,"City":1.0,"District":1.0,"Street":[1.0],"HouseNumber":1.0,"PostalCode":1.0},"MatchType":"interpolated","Location":{"LocationId":"NT_qYObmrHQ9pum1tqqYKXhqD_ykD","LocationType":"point","DisplayPosition":{"Latitude":50.80455,"Longitude":4.6527},"MapView":{"TopLeft":{"Latitude":50.8056742,"Longitude":4.6509212},"BottomRight":{"Latitude":50.8034258,"Longitude":4.6544788}},"Address":{"Label":"Sint-Jorisplein 29, 3051 Oud-Heverlee, België","Country":"BEL","State":"Vlaanderen","County":"Vlaams Brabant","City":"Oud-Heverlee","District":"Sint-Joris-Weert","Street":"Sint-Jorisplein","HouseNumber":"29","PostalCode":"3051","AdditionalData":[{"value":"België","key":"CountryName"},{"value":"Vlaanderen","key":"StateName"},{"value":"Vlaams Brabant","key":"CountyName"}]},"MapReference":{"ReferenceId":"580431985","Spot":0.97,"SideOfStreet":"left","CountryId":"20128886","StateId":"20204377","CountyId":"20207856","CityId":"20208156","DistrictId":"20208161","AddressId":"401771949","RoadLinkId":"30504976"}}}]}]}}