{"Response":{"MetaInfo":{"Timestamp":"2020-03-28T10:35:10.768+0000","NextPageInformation":"2"},"View":[{"_type":"SearchResultsViewType","ViewId":0,"Result":[{"Relevance":1.0,"Distance":0.0,"Direction":0.0,"MatchLevel":"district","MatchQuality":{"Country":1.0,"State":1.0,"County":1.0,"City":1.0,"District":1.0,"PostalCode":1.0},"Location":{"LocationId":"NT_5FilAzJ18j1ESRGZ5JDbED","LocationType":"point","DisplayPosition":{"Latitude":50.9189778,"Longitude":-1.3449652},"MapView":{"TopLeft":{"Latitude":50.96054,"Longitude":-1.47446},"BottomRight":{"Latitude":50.88303,"Longitude":-1.3195}},"Address":{"Label":"Southampton, England, United Kingdom","Country":"GBR","State":"England","County":"Hampshire","City":"Southampton","District":"Southampton","PostalCode":"SO15 2","AdditionalData":[{"value":"United Kingdom","key":"CountryName"},{"value":"England","key":"StateName"},{"value":"Hampshire","key":"CountyName"}]},"MapReference":{"ReferenceId":"1020270683","SideOfStreet":"neither","StateId":"20248595","CountyId":"20335863","CityId":"20336269","DistrictId":"20336270"}}},{"Relevance":1.0,"Distance":10.6,"MatchLevel":"houseNumber","MatchQuality":{"Country":1.0,"State":1.0,"County":1.0,"City":1.0,"District":1.0,"Street":[1.0],"HouseNumber":1.0,"PostalCode":1.0},"MatchType":"interpolated","Location":{"LocationId":"NT_rJKrnuP.oIA1Gm4mlloCbC_l_25725292_L_1cD","LocationType":"point","DisplayPosition":{"Latitude":50.9187767,"Longitude":-1.3451358},"MapView":{"TopLeft":{"Latitude":50.9199009,"Longitude":-1.346919},"BottomRight":{"Latitude":50.9176525,"Longitude":-1.3433526}},"Address":{"Label":"57 Somerton Avenue, Southampton, SO18 5BZ, United Kingdom","Country":"GBR","State":"England","County":"Hampshire","City":"Southampton","District":"Southampton","Street":"Somerton Avenue","HouseNumber":"57","PostalCode":"SO18 5BZ","AdditionalData":[{"value":"United Kingdom","key":"CountryName"},{"value":"England","key":"StateName"},{"value":"Hampshire","key":"CountyName"}]},"MapReference":{"ReferenceId":"25725292","Spot":0.94,"SideOfStreet":"left","StateId":"20248595","CountyId":"20335863","CityId":"20336269","DistrictId":"20336270"}}},{"Relevance":1.0,"Distance":20.7,"MatchLevel":"houseNumber","MatchQuality":{"Country":1.0,"State":1.0,"County":1.0,"City":1.0,"District":1.0,"Street":[1.0],"HouseNumber":1.0,"PostalCode":1.0},"MatchType":"interpolated","Location":{"LocationId":"NT_EuFBMjajX2IfPBRvRISH.B_l_25725202_L_yMD","LocationType":"point","DisplayPosition":{"Latitude":50.9187341,"Longitude":-1.3446569},"MapView":{"TopLeft":{"Latitude":50.9198582,"Longitude":-1.3464401},"BottomRight":{"Latitude":50.9176099,"Longitude":-1.3428737}},"Address":{"Label":"23 Exford Avenue, Southampton, SO18 5, United Kingdom","Country":"GBR","State":"England","County":"Hampshire","City":"Southampton","District":"Southampton","Street":"Exford Avenue","HouseNumber":"23","PostalCode":"SO18 5","AdditionalData":[{"value":"United Kingdom","key":"CountryName"},{"value":"England","key":"StateName"},{"value":"Hampshire","key":"CountyName"}]},"MapReference":{"ReferenceId":"25725202","Spot":0.24,"SideOfStreet":"left","StateId":"20248595","CountyId":"20335863","CityId":"20336269","DistrictId":"20336270"}}},{"Relevance":1.0,"Distance":33.0,"MatchLevel":"postalCode","MatchQuality":{"PostalCode":1.0},"MatchType":"interpolated","Location":{"LocationId":"NT_EuFBMjajX2IfPBRvRISH.B_l_25725202_L_yMD","LocationType":"point","DisplayPosition":{"Latitude":50.91888,"Longitude":-1.34452},"MapView":{"TopLeft":{"Latitude":50.9278732,"Longitude":-1.3587854},"BottomRight":{"Latitude":50.9098868,"Longitude":-1.3302546}},"Address":{"Label":"SO18 5JL, Southampton, England, United Kingdom","Country":"GBR","State":"England","County":"Hampshire","City":"Southampton","PostalCode":"SO18 5JL","AdditionalData":[{"value":"United Kingdom","key":"CountryName"},{"value":"England","key":"StateName"},{"value":"Hampshire","key":"CountyName"}]},"MapReference":{"ReferenceId":"25725202","Spot":0.24,"SideOfStreet":"neither","StateId":"20248595","CountyId":"20335863","CityId":"20336269"}}},{"Relevance":1.0,"Distance":41.6,"MatchLevel":"street","MatchQuality":{"Country":1.0,"State":1.0,"County":1.0,"City":1.0,"District":1.0,"Street":[1.0],"PostalCode":1.0},"Location":{"LocationId":"NT_EuFBMjajX2IfPBRvRISH.B_l_25725269_L","LocationType":"point","DisplayPosition":{"Latitude":50.91861,"Longitude":-1.34486},"MapView":{"TopLeft":{"Latitude":50.91861,"Longitude":-1.34489},"BottomRight":{"Latitude":50.91828,"Longitude":-1.34486}},"Address":{"Label":"Exford Avenue, Southampton, SO18 5, United Kingdom","Country":"GBR","State":"England","County":"Hampshire","City":"Southampton","District":"Southampton","Street":"Exford Avenue","PostalCode":"SO18 5","AdditionalData":[{"value":"United Kingdom","key":"CountryName"},{"value":"England","key":"StateName"},{"value":"Hampshire","key":"CountyName"}]},"MapReference":{"ReferenceId":"25725269","Spot":1.0,"SideOfStreet":"left","StateId":"20248595","CountyId":"20335863","CityId":"20336269","DistrictId":"20336270"}}},{"Relevance":1.0,"Distance":54.8,"MatchLevel":"houseNumber","MatchQuality":{"Country":1.0,"State":1.0,"County":1.0,"City":1.0,"District":1.0,"Street":[1.0],"HouseNumber":1.0,"PostalCode":1.0},"MatchType":"interpolated","Location":{"LocationId":"NT_v4wwxgtLBg0KTugNqjUluC_l_765105034_L_xUD","LocationType":"point","DisplayPosition":{"Latitude":50.9194233,"Longitude":-1.34429},"MapView":{"TopLeft":{"Latitude":50.9205475,"Longitude":-1.3460732},"BottomRight":{"Latitude":50.9182992,"Longitude":-1.3425068}},"Address":{"Label":"15 Selborne Avenue, Southampton, SO18 5DZ, United Kingdom","Country":"GBR","State":"England","County":"Hampshire","City":"Southampton","District":"Southampton","Street":"Selborne Avenue","HouseNumber":"15","PostalCode":"SO18 5DZ","AdditionalData":[{"value":"United Kingdom","key":"CountryName"},{"value":"England","key":"StateName"},{"value":"Hampshire","key":"CountyName"}]},"MapReference":{"ReferenceId":"765105034","Spot":0.64,"SideOfStreet":"left","StateId":"20248595","CountyId":"20335863","CityId":"20336269","DistrictId":"20336270"}}},{"Relevance":1.0,"Distance":62.1,"MatchLevel":"houseNumber","MatchQuality":{"Country":1.0,"State":1.0,"County":1.0,"City":1.0,"District":1.0,"Street":[1.0],"HouseNumber":1.0,"PostalCode":1.0},"MatchType":"interpolated","Location":{"LocationId":"NT_v4wwxgtLBg0KTugNqjUluC_l_765105035_L_xcD","LocationType":"point","DisplayPosition":{"Latitude":50.91964,"Longitude":-1.3446401},"MapView":{"TopLeft":{"Latitude":50.9207642,"Longitude":-1.3464233},"BottomRight":{"Latitude":50.9185159,"Longitude":-1.3428569}},"Address":{"Label":"17 Selborne Avenue, Southampton, SO18 5DZ, United Kingdom","Country":"GBR","State":"England","County":"Hampshire","City":"Southampton","District":"Southampton","Street":"Selborne Avenue","HouseNumber":"17","PostalCode":"SO18 5DZ","AdditionalData":[{"value":"United Kingdom","key":"CountryName"},{"value":"England","key":"StateName"},{"value":"Hampshire","key":"CountyName"}]},"MapReference":{"ReferenceId":"765105035","Spot":0.15,"SideOfStreet":"left","StateId":"20248595","CountyId":"20335863","CityId":"20336269","DistrictId":"20336270"}}},{"Relevance":1.0,"Distance":67.3,"MatchLevel":"street","MatchQuality":{"Country":1.0,"State":1.0,"County":1.0,"City":1.0,"District":1.0,"Street":[1.0],"PostalCode":1.0},"Location":{"LocationId":"NT_EuFBMjajX2IfPBRvRISH.B_l_25725075_L","LocationType":"point","DisplayPosition":{"Latitude":50.91914,"Longitude":-1.34404},"MapView":{"TopLeft":{"Latitude":50.9192,"Longitude":-1.34404},"BottomRight":{"Latitude":50.91914,"Longitude":-1.34394}},"Address":{"Label":"Exford Avenue, Southampton, SO18 5, United Kingdom","Country":"GBR","State":"England","County":"Hampshire","City":"Southampton","District":"Southampton","Street":"Exford Avenue","PostalCode":"SO18 5","AdditionalData":[{"value":"United Kingdom","key":"CountryName"},{"value":"England","key":"StateName"},{"value":"Hampshire","key":"CountyName"}]},"MapReference":{"ReferenceId":"25725075","Spot":0.0,"SideOfStreet":"left","StateId":"20248595","CountyId":"20335863","CityId":"20336269","DistrictId":"20336270"}}},{"Relevance":1.0,"Distance":67.9,"MatchLevel":"houseNumber","MatchQuality":{"Country":1.0,"State":1.0,"County":1.0,"City":1.0,"District":1.0,"Street":[1.0],"HouseNumber":1.0,"PostalCode":1.0},"MatchType":"interpolated","Location":{"LocationId":"NT_UBIn4CTtRYJfeCkzPCR4rA_l_25725432_L_0MD","LocationType":"point","DisplayPosition":{"Latitude":50.918265,"Longitude":-1.3452749},"MapView":{"TopLeft":{"Latitude":50.9193892,"Longitude":-1.347058},"BottomRight":{"Latitude":50.9171409,"Longitude":-1.3434917}},"Address":{"Label":"43 Wellington Avenue, Southampton, SO18 5DB, United Kingdom","Country":"GBR","State":"England","County":"Hampshire","City":"Southampton","District":"Southampton","Street":"Wellington Avenue","HouseNumber":"43","PostalCode":"SO18 5DB","AdditionalData":[{"value":"United Kingdom","key":"CountryName"},{"value":"England","key":"StateName"},{"value":"Hampshire","key":"CountyName"}]},"MapReference":{"ReferenceId":"25725432","Spot":0.9,"SideOfStreet":"left","StateId":"20248595","CountyId":"20335863","CityId":"20336269","DistrictId":"20336270"}}},{"Relevance":1.0,"Distance":71.8,"MatchLevel":"houseNumber","MatchQuality":{"Country":1.0,"State":1.0,"County":1.0,"City":1.0,"District":1.0,"Street":[1.0],"HouseNumber":1.0,"PostalCode":1.0},"MatchType":"interpolated","Location":{"LocationId":"NT_ug9N6GlXHhK78u8IEaLMKD_l_565999236_L_3A","LocationType":"point","DisplayPosition":{"Latitude":50.9190322,"Longitude":-1.3438678},"MapView":{"TopLeft":{"Latitude":50.9201564,"Longitude":-1.345651},"BottomRight":{"Latitude":50.9179081,"Longitude":-1.3420846}},"Address":{"Label":"7 Exford Drive, Southampton, SO18 5, United Kingdom","Country":"GBR","State":"England","County":"Hampshire","City":"Southampton","District":"Southampton","Street":"Exford Drive","HouseNumber":"7","PostalCode":"SO18 5","AdditionalData":[{"value":"United Kingdom","key":"CountryName"},{"value":"England","key":"StateName"},{"value":"Hampshire","key":"CountyName"}]},"MapReference":{"ReferenceId":"565999236","Spot":0.59,"SideOfStreet":"left","StateId":"20248595","CountyId":"20335863","CityId":"20336269","DistrictId":"20336270"}}}]}]}}