{"Response":{"MetaInfo":{"Timestamp":"2020-03-28T11:58:13.369+0000","NextPageInformation":"2"},"View":[{"_type":"SearchResultsViewType","ViewId":0,"Result":[{"Relevance":1.0,"Distance":0.0,"Direction":0.0,"MatchLevel":"district","MatchQuality":{"Country":1.0,"State":1.0,"County":1.0,"City":1.0,"District":1.0,"PostalCode":1.0},"Location":{"LocationId":"NT_iu5GqzEfc7aU77EcGddOhA","LocationType":"point","DisplayPosition":{"Latitude":50.9716737,"Longitude":0.0968782},"MapView":{"TopLeft":{"Latitude":50.98956,"Longitude":0.07964},"BottomRight":{"Latitude":50.95416,"Longitude":0.1141}},"Address":{"Label":"Uckfield, England, United Kingdom","Country":"GBR","State":"England","County":"East Sussex","City":"Uckfield","District":"Uckfield","PostalCode":"TN22 1","AdditionalData":[{"value":"United Kingdom","key":"CountryName"},{"value":"England","key":"StateName"},{"value":"East Sussex","key":"CountyName"}]},"MapReference":{"ReferenceId":"1022054352","SideOfStreet":"neither","StateId":"20248595","CountyId":"20335121","CityId":"20335336","DistrictId":"20335337"}}},{"Relevance":1.0,"Distance":10.0,"MatchLevel":"houseNumber","MatchQuality":{"Country":1.0,"State":1.0,"County":1.0,"City":1.0,"District":1.0,"Street":[1.0],"HouseNumber":1.0,"PostalCode":1.0},"MatchType":"interpolated","Location":{"LocationId":"NT_7VWQs.uG1ndFd2o-GeB-3B_l_1022054352_R_xUDO","LocationType":"point","DisplayPosition":{"Latitude":50.9718301,"Longitude":0.09667},"MapView":{"TopLeft":{"Latitude":50.9729542,"Longitude":0.0948848},"BottomRight":{"Latitude":50.9707059,"Longitude":0.0984552}},"Address":{"Label":"158 High Street, Uckfield, TN22 1AT, United Kingdom","Country":"GBR","State":"England","County":"East Sussex","City":"Uckfield","District":"Uckfield","Street":"High Street","HouseNumber":"158","PostalCode":"TN22 1AT","AdditionalData":[{"value":"United Kingdom","key":"CountryName"},{"value":"England","key":"StateName"},{"value":"East Sussex","key":"CountyName"}]},"MapReference":{"ReferenceId":"1022054352","Spot":0.24,"SideOfStreet":"right","StateId":"20248595","CountyId":"20335121","CityId":"20335336","DistrictId":"20335337"}}},{"Relevance":1.0,"Distance":15.2,"MatchLevel":"postalCode","MatchQuality":{"PostalCode":1.0},"MatchType":"interpolated","Location":{"LocationId":"NT_7VWQs.uG1ndFd2o-GeB-3B_l_1022054352_R_xUDO","LocationType":"point","DisplayPosition":{"Latitude":50.97176,"Longitude":0.09671},"MapView":{"TopLeft":{"Latitude":50.9807532,"Longitude":0.0824283},"BottomRight":{"Latitude":50.9627668,"Longitude":0.1109917}},"Address":{"Label":"TN22 1AT, Uckfield, England, United Kingdom","Country":"GBR","State":"England","County":"East Sussex","City":"Uckfield","PostalCode":"TN22 1AT","AdditionalData":[{"value":"United Kingdom","key":"CountryName"},{"value":"England","key":"StateName"},{"value":"East Sussex","key":"CountyName"}]},"MapReference":{"ReferenceId":"1022054352","Spot":0.24,"SideOfStreet":"neither","StateId":"20248595","CountyId":"20335121","CityId":"20335336"}}},{"Relevance":1.0,"Distance":20.1,"MatchLevel":"street","MatchQuality":{"Country":1.0,"State":1.0,"County":1.0,"City":1.0,"District":1.0,"Street":[1.0],"PostalCode":1.0},"Location":{"LocationId":"NT_Tiaq.ivx8-f3Z93NwfOIuC_l_565986794_L","LocationType":"point","DisplayPosition":{"Latitude":50.97171,"Longitude":0.09716},"MapView":{"TopLeft":{"Latitude":50.97171,"Longitude":0.09716},"BottomRight":{"Latitude":50.97147,"Longitude":0.09793}},"Address":{"Label":"Molesey Court, Uckfield, TN22 1, United Kingdom","Country":"GBR","State":"England","County":"East Sussex","City":"Uckfield","District":"Uckfield","Street":"Molesey Court","PostalCode":"TN22 1","AdditionalData":[{"value":"United Kingdom","key":"CountryName"},{"value":"England","key":"StateName"},{"value":"East Sussex","key":"CountyName"}]},"MapReference":{"ReferenceId":"565986794","Spot":1.0,"SideOfStreet":"left","StateId":"20248595","CountyId":"20335121","CityId":"20335336","DistrictId":"20335337"}}},{"Relevance":1.0,"Distance":25.2,"MatchLevel":"houseNumber","MatchQuality":{"Country":1.0,"State":1.0,"County":1.0,"City":1.0,"District":1.0,"Street":[1.0],"HouseNumber":1.0,"PostalCode":1.0},"MatchType":"interpolated","Location":{"LocationId":"NT_7VWQs.uG1ndFd2o-GeB-3B_l_1022054351_R_xUjN","LocationType":"point","DisplayPosition":{"Latitude":50.9715517,"Longitude":0.096575},"MapView":{"TopLeft":{"Latitude":50.9726758,"Longitude":0.0947898},"BottomRight":{"Latitude":50.9704275,"Longitude":0.0983602}},"Address":{"Label":"156 High Street, Uckfield, TN22 1AT, United Kingdom","Country":"GBR","State":"England","County":"East Sussex","City":"Uckfield","District":"Uckfield","Street":"High Street","HouseNumber":"156","PostalCode":"TN22 1AT","AdditionalData":[{"value":"United Kingdom","key":"CountryName"},{"value":"England","key":"StateName"},{"value":"East Sussex","key":"CountyName"}]},"MapReference":{"ReferenceId":"1022054351","Spot":0.54,"SideOfStreet":"right","StateId":"20248595","CountyId":"20335121","CityId":"20335336","DistrictId":"20335337"}}},{"Relevance":1.0,"Distance":38.0,"MatchLevel":"street","MatchQuality":{"Country":1.0,"State":1.0,"County":1.0,"City":1.0,"District":1.0,"Street":[1.0],"PostalCode":1.0},"Location":{"LocationId":"NT_QGiHioSHTx04lHm00AKwmC_l_25597592_R","LocationType":"point","DisplayPosition":{"Latitude":50.9713332,"Longitude":0.0968281},"MapView":{"TopLeft":{"Latitude":50.97138,"Longitude":0.09651},"BottomRight":{"Latitude":50.97099,"Longitude":0.09784}},"Address":{"Label":"Grange Road, Uckfield, TN22 1, United Kingdom","Country":"GBR","State":"England","County":"East Sussex","City":"Uckfield","District":"Uckfield","Street":"Grange Road","PostalCode":"TN22 1","AdditionalData":[{"value":"United Kingdom","key":"CountryName"},{"value":"England","key":"StateName"},{"value":"East Sussex","key":"CountyName"}]},"MapReference":{"ReferenceId":"25597592","Spot":0.77,"SideOfStreet":"right","StateId":"20248595","CountyId":"20335121","CityId":"20335336","DistrictId":"20335337"}}},{"Relevance":1.0,"Distance":39.4,"MatchLevel":"postalCode","MatchQuality":{"PostalCode":1.0},"MatchType":"interpolated","Location":{"LocationId":"NT_7VWQs.uG1ndFd2o-GeB-3B_l_1022054351_R_xUjN","LocationType":"point","DisplayPosition":{"Latitude":50.97143,"Longitude":0.09647},"MapView":{"TopLeft":{"Latitude":50.9804232,"Longitude":0.0821884},"BottomRight":{"Latitude":50.9624368,"Longitude":0.1107516}},"Address":{"Label":"TN22 1AP, Uckfield, England, United Kingdom","Country":"GBR","State":"England","County":"East Sussex","City":"Uckfield","PostalCode":"TN22 1AP","AdditionalData":[{"value":"United Kingdom","key":"CountryName"},{"value":"England","key":"StateName"},{"value":"East Sussex","key":"CountyName"}]},"MapReference":{"ReferenceId":"1022054351","Spot":0.54,"SideOfStreet":"neither","StateId":"20248595","CountyId":"20335121","CityId":"20335336"}}},{"Relevance":1.0,"Distance":54.1,"MatchLevel":"postalCode","MatchQuality":{"PostalCode":1.0},"Location":{"LocationId":"NT_Tiaq.ivx8-f3Z93NwfOIuC_l_565986794_L","LocationType":"point","DisplayPosition":{"Latitude":50.97165,"Longitude":0.09765},"MapView":{"TopLeft":{"Latitude":50.9806432,"Longitude":0.0833684},"BottomRight":{"Latitude":50.9626568,"Longitude":0.1119316}},"Address":{"Label":"TN22 1QX, Uckfield, England, United Kingdom","Country":"GBR","State":"England","County":"East Sussex","City":"Uckfield","PostalCode":"TN22 1QX","AdditionalData":[{"value":"United Kingdom","key":"CountryName"},{"value":"England","key":"StateName"},{"value":"East Sussex","key":"CountyName"}]},"MapReference":{"ReferenceId":"565986794","Spot":1.0,"SideOfStreet":"neither","StateId":"20248595","CountyId":"20335121","CityId":"20335336"}}},{"Relevance":1.0,"Distance":58.5,"MatchLevel":"houseNumber","MatchQuality":{"Country":1.0,"State":1.0,"County":1.0,"City":1.0,"District":1.0,"Street":[1.0],"HouseNumber":1.0,"PostalCode":1.0},"MatchType":"interpolated","Location":{"LocationId":"NT_7VWQs.uG1ndFd2o-GeB-3B_l_25597602_R_xQDN","LocationType":"point","DisplayPosition":{"Latitude":50.9712214,"Longitude":0.0964514},"MapView":{"TopLeft":{"Latitude":50.9723456,"Longitude":0.0946662},"BottomRight":{"Latitude":50.9700973,"Longitude":0.0982366}},"Address":{"Label":"144 High Street, Uckfield, TN22 1QR, United Kingdom","Country":"GBR","State":"England","County":"East Sussex","City":"Uckfield","District":"Uckfield","Street":"High Street","HouseNumber":"144","PostalCode":"TN22 1QR","AdditionalData":[{"value":"United Kingdom","key":"CountryName"},{"value":"England","key":"StateName"},{"value":"East Sussex","key":"CountyName"}]},"MapReference":{"ReferenceId":"25597602","Spot":0.6,"SideOfStreet":"right","StateId":"20248595","CountyId":"20335121","CityId":"20335336","DistrictId":"20335337"}}},{"Relevance":1.0,"Distance":63.2,"MatchLevel":"street","MatchQuality":{"Country":1.0,"State":1.0,"County":1.0,"City":1.0,"District":1.0,"Street":[1.0],"PostalCode":1.0},"Location":{"LocationId":"NT_9kfQwdYUkHN8aOzKzJwGGA_l_25597492_L","LocationType":"point","DisplayPosition":{"Latitude":50.97224,"Longitude":0.09681},"MapView":{"TopLeft":{"Latitude":50.97236,"Longitude":0.09571},"BottomRight":{"Latitude":50.97224,"Longitude":0.09681}},"Address":{"Label":"Library Way, Uckfield, TN22 1, United Kingdom","Country":"GBR","State":"England","County":"East Sussex","City":"Uckfield","District":"Uckfield","Street":"Library Way","PostalCode":"TN22 1","AdditionalData":[{"value":"United Kingdom","key":"CountryName"},{"value":"England","key":"StateName"},{"value":"East Sussex","key":"CountyName"}]},"MapReference":{"ReferenceId":"25597492","Spot":0.0,"SideOfStreet":"left","StateId":"20248595","CountyId":"20335121","CityId":"20335336","DistrictId":"20335337"}}}]}]}}