{"Response":{"MetaInfo":{"Timestamp":"2020-03-28T11:16:37.779+0000","NextPageInformation":"2"},"View":[{"_type":"SearchResultsViewType","ViewId":0,"Result":[{"Relevance":1.0,"Distance":0.0,"Direction":0.0,"MatchLevel":"district","MatchQuality":{"Country":1.0,"State":1.0,"County":1.0,"City":1.0,"District":1.0,"PostalCode":1.0},"Location":{"LocationId":"NT_TiLr4h8Nino7wtI2NMHetB","LocationType":"point","DisplayPosition":{"Latitude":50.9283808,"Longitude":-1.7928661},"MapView":{"TopLeft":{"Latitude":50.94194,"Longitude":-1.8017},"BottomRight":{"Latitude":50.92157,"Longitude":-1.78388}},"Address":{"Label":"Fordingbridge, England, United Kingdom","Country":"GBR","State":"England","County":"Hampshire","City":"Fordingbridge","District":"Fordingbridge","PostalCode":"SP6 1","AdditionalData":[{"value":"United Kingdom","key":"CountryName"},{"value":"England","key":"StateName"},{"value":"Hampshire","key":"CountyName"}]},"MapReference":{"ReferenceId":"833296219","SideOfStreet":"neither","StateId":"20248595","CountyId":"20335863","CityId":"20336075","DistrictId":"20336076"}}},{"Relevance":1.0,"Distance":13.8,"MatchLevel":"street","MatchQuality":{"Country":1.0,"State":1.0,"County":1.0,"City":1.0,"District":1.0,"PostalCode":1.0},"Location":{"LocationId":"NT_wrOgxZtLIN-2Eo4-9raqND_l_1208834460_R","LocationType":"point","DisplayPosition":{"Latitude":50.9282591,"Longitude":-1.792905},"MapView":{"TopLeft":{"Latitude":50.92843,"Longitude":-1.79344},"BottomRight":{"Latitude":50.9282,"Longitude":-1.79256}},"Address":{"Label":"Fordingbridge, SP6 1, United Kingdom","Country":"GBR","State":"England","County":"Hampshire","City":"Fordingbridge","District":"Fordingbridge","PostalCode":"SP6 1","AdditionalData":[{"value":"United Kingdom","key":"CountryName"},{"value":"England","key":"StateName"},{"value":"Hampshire","key":"CountyName"}]},"MapReference":{"ReferenceId":"1208834460","Spot":0.39,"SideOfStreet":"right","StateId":"20248595","CountyId":"20335863","CityId":"20336075","DistrictId":"20336076"}}},{"Relevance":1.0,"Distance":22.6,"MatchLevel":"postalCode","MatchQuality":{"PostalCode":1.0},"Location":{"LocationId":"NT_wrOgxZtLIN-2Eo4-9raqND_l_1208834460_R","LocationType":"point","DisplayPosition":{"Latitude":50.92818,"Longitude":-1.79282},"MapView":{"TopLeft":{"Latitude":50.9371732,"Longitude":-1.8070883},"BottomRight":{"Latitude":50.9191868,"Longitude":-1.7785517}},"Address":{"Label":"SP6 1FH, Fordingbridge, England, United Kingdom","Country":"GBR","State":"England","County":"Hampshire","City":"Fordingbridge","PostalCode":"SP6 1FH","AdditionalData":[{"value":"United Kingdom","key":"CountryName"},{"value":"England","key":"StateName"},{"value":"Hampshire","key":"CountyName"}]},"MapReference":{"ReferenceId":"1208834460","Spot":0.39,"SideOfStreet":"neither","StateId":"20248595","CountyId":"20335863","CityId":"20336075"}}},{"Relevance":1.0,"Distance":25.9,"MatchLevel":"street","MatchQuality":{"Country":1.0,"State":1.0,"County":1.0,"City":1.0,"District":1.0,"PostalCode":1.0},"Location":{"LocationId":"NT_wrOgxZtLIN-2Eo4-9raqND_l_1208834666_L","LocationType":"point","DisplayPosition":{"Latitude":50.92825,"Longitude":-1.79256},"MapView":{"TopLeft":{"Latitude":50.92847,"Longitude":-1.79256},"BottomRight":{"Latitude":50.92825,"Longitude":-1.7923}},"Address":{"Label":"Fordingbridge, SP6 1, United Kingdom","Country":"GBR","State":"England","County":"Hampshire","City":"Fordingbridge","District":"Fordingbridge","PostalCode":"SP6 1","AdditionalData":[{"value":"United Kingdom","key":"CountryName"},{"value":"England","key":"StateName"},{"value":"Hampshire","key":"CountyName"}]},"MapReference":{"ReferenceId":"1208834666","Spot":0.0,"SideOfStreet":"left","StateId":"20248595","CountyId":"20335863","CityId":"20336075","DistrictId":"20336076"}}},{"Relevance":1.0,"Distance":25.9,"MatchLevel":"street","MatchQuality":{"Country":1.0,"State":1.0,"County":1.0,"City":1.0,"District":1.0,"PostalCode":1.0},"Location":{"LocationId":"NT_wrOgxZtLIN-2Eo4-9raqND_l_1208834469_R","LocationType":"point","DisplayPosition":{"Latitude":50.92825,"Longitude":-1.79256},"MapView":{"TopLeft":{"Latitude":50.92825,"Longitude":-1.79256},"BottomRight":{"Latitude":50.92819,"Longitude":-1.79241}},"Address":{"Label":"Fordingbridge, SP6 1, United Kingdom","Country":"GBR","State":"England","County":"Hampshire","City":"Fordingbridge","District":"Fordingbridge","PostalCode":"SP6 1","AdditionalData":[{"value":"United Kingdom","key":"CountryName"},{"value":"England","key":"StateName"},{"value":"Hampshire","key":"CountyName"}]},"MapReference":{"ReferenceId":"1208834469","Spot":1.0,"SideOfStreet":"right","StateId":"20248595","CountyId":"20335863","CityId":"20336075","DistrictId":"20336076"}}},{"Relevance":1.0,"Distance":38.4,"MatchLevel":"street","MatchQuality":{"Country":1.0,"State":1.0,"County":1.0,"City":1.0,"District":1.0,"PostalCode":1.0},"Location":{"LocationId":"NT_wrOgxZtLIN-2Eo4-9raqND_l_1208834671_L","LocationType":"point","DisplayPosition":{"Latitude":50.92819,"Longitude":-1.79241},"MapView":{"TopLeft":{"Latitude":50.92847,"Longitude":-1.79241},"BottomRight":{"Latitude":50.92819,"Longitude":-1.79222}},"Address":{"Label":"Fordingbridge, SP6 1, United Kingdom","Country":"GBR","State":"England","County":"Hampshire","City":"Fordingbridge","District":"Fordingbridge","PostalCode":"SP6 1","AdditionalData":[{"value":"United Kingdom","key":"CountryName"},{"value":"England","key":"StateName"},{"value":"Hampshire","key":"CountyName"}]},"MapReference":{"ReferenceId":"1208834671","Spot":0.0,"SideOfStreet":"left","StateId":"20248595","CountyId":"20335863","CityId":"20336075","DistrictId":"20336076"}}},{"Relevance":1.0,"Distance":42.1,"MatchLevel":"street","MatchQuality":{"Country":1.0,"State":1.0,"County":1.0,"City":1.0,"District":1.0,"PostalCode":1.0},"Location":{"LocationId":"NT_wrOgxZtLIN-2Eo4-9raqND_l_1208834479_L","LocationType":"point","DisplayPosition":{"Latitude":50.9280826,"Longitude":-1.7924966},"MapView":{"TopLeft":{"Latitude":50.92819,"Longitude":-1.79368},"BottomRight":{"Latitude":50.92762,"Longitude":-1.79241}},"Address":{"Label":"Fordingbridge, SP6 1, United Kingdom","Country":"GBR","State":"England","County":"Hampshire","City":"Fordingbridge","District":"Fordingbridge","PostalCode":"SP6 1","AdditionalData":[{"value":"United Kingdom","key":"CountryName"},{"value":"England","key":"StateName"},{"value":"Hampshire","key":"CountyName"}]},"MapReference":{"ReferenceId":"1208834479","Spot":0.91,"SideOfStreet":"left","StateId":"20248595","CountyId":"20335863","CityId":"20336075","DistrictId":"20336076"}}},{"Relevance":1.0,"Distance":51.1,"MatchLevel":"street","MatchQuality":{"Country":1.0,"State":1.0,"County":1.0,"City":1.0,"District":1.0,"PostalCode":1.0},"Location":{"LocationId":"NT_wrOgxZtLIN-2Eo4-9raqND_l_1065497656_L","LocationType":"point","DisplayPosition":{"Latitude":50.9280191,"Longitude":-1.792416},"MapView":{"TopLeft":{"Latitude":50.9284,"Longitude":-1.79277},"BottomRight":{"Latitude":50.92755,"Longitude":-1.79211}},"Address":{"Label":"Fordingbridge, SP6 1, United Kingdom","Country":"GBR","State":"England","County":"Hampshire","City":"Fordingbridge","District":"Fordingbridge","PostalCode":"SP6 1","AdditionalData":[{"value":"United Kingdom","key":"CountryName"},{"value":"England","key":"StateName"},{"value":"Hampshire","key":"CountyName"}]},"MapReference":{"ReferenceId":"1065497656","Spot":0.55,"SideOfStreet":"left","StateId":"20248595","CountyId":"20335863","CityId":"20336075","DistrictId":"20336076"}}},{"Relevance":1.0,"Distance":53.0,"MatchLevel":"street","MatchQuality":{"Country":1.0,"State":1.0,"County":1.0,"City":1.0,"District":1.0,"PostalCode":1.0},"Location":{"LocationId":"NT_wrOgxZtLIN-2Eo4-9raqND_l_1065497660_L","LocationType":"point","DisplayPosition":{"Latitude":50.9284,"Longitude":-1.79211},"MapView":{"TopLeft":{"Latitude":50.9284,"Longitude":-1.79211},"BottomRight":{"Latitude":50.9282,"Longitude":-1.79161}},"Address":{"Label":"Fordingbridge, SP6 1, United Kingdom","Country":"GBR","State":"England","County":"Hampshire","City":"Fordingbridge","District":"Fordingbridge","PostalCode":"SP6 1","AdditionalData":[{"value":"United Kingdom","key":"CountryName"},{"value":"England","key":"StateName"},{"value":"Hampshire","key":"CountyName"}]},"MapReference":{"ReferenceId":"1065497660","Spot":1.0,"SideOfStreet":"left","StateId":"20248595","CountyId":"20335863","CityId":"20336075","DistrictId":"20336076"}}},{"Relevance":1.0,"Distance":53.0,"MatchLevel":"street","MatchQuality":{"Country":1.0,"State":1.0,"County":1.0,"City":1.0,"District":1.0,"PostalCode":1.0},"Location":{"LocationId":"NT_wrOgxZtLIN-2Eo4-9raqND_l_1065497657_L","LocationType":"point","DisplayPosition":{"Latitude":50.9284,"Longitude":-1.79211},"MapView":{"TopLeft":{"Latitude":50.92901,"Longitude":-1.79211},"BottomRight":{"Latitude":50.9284,"Longitude":-1.79159}},"Address":{"Label":"Fordingbridge, SP6 1, United Kingdom","Country":"GBR","State":"England","County":"Hampshire","City":"Fordingbridge","District":"Fordingbridge","PostalCode":"SP6 1","AdditionalData":[{"value":"United Kingdom","key":"CountryName"},{"value":"England","key":"StateName"},{"value":"Hampshire","key":"CountyName"}]},"MapReference":{"ReferenceId":"1065497657","Spot":0.0,"SideOfStreet":"left","StateId":"20248595","CountyId":"20335863","CityId":"20336075","DistrictId":"20336076"}}}]}]}}