{"Response":{"MetaInfo":{"Timestamp":"2020-03-28T10:09:15.864+0000","NextPageInformation":"2"},"View":[{"_type":"SearchResultsViewType","ViewId":0,"Result":[{"Relevance":1.0,"Distance":0.0,"Direction":0.0,"MatchLevel":"district","MatchQuality":{"Country":1.0,"State":1.0,"County":1.0,"City":1.0,"District":1.0,"PostalCode":1.0},"Location":{"LocationId":"NT_bJ09JEgSpyJKlcbdTG0rsC","LocationType":"point","DisplayPosition":{"Latitude":50.992357,"Longitude":-1.3896556},"MapView":{"TopLeft":{"Latitude":51.00439,"Longitude":-1.41349},"BottomRight":{"Latitude":50.96253,"Longitude":-1.35741}},"Address":{"Label":"Chandlers Ford, Eastleigh, England, United Kingdom","Country":"GBR","State":"England","County":"Hampshire","City":"Eastleigh","District":"Chandlers Ford","PostalCode":"SO53 2","AdditionalData":[{"value":"United Kingdom","key":"CountryName"},{"value":"England","key":"StateName"},{"value":"Hampshire","key":"CountyName"}]},"MapReference":{"ReferenceId":"1033264901","SideOfStreet":"neither","StateId":"20248595","CountyId":"20335863","CityId":"20336038","DistrictId":"20336041"}}},{"Relevance":1.0,"Distance":7.2,"MatchLevel":"houseNumber","MatchQuality":{"Country":1.0,"State":1.0,"County":1.0,"City":1.0,"District":1.0,"Street":[1.0],"HouseNumber":1.0,"PostalCode":1.0},"MatchType":"interpolated","Location":{"LocationId":"NT_OSFUH6rdqXjbo0v4aKnctB_l_25715509_R_xUTO","LocationType":"point","DisplayPosition":{"Latitude":50.9923329,"Longitude":-1.3897772},"MapView":{"TopLeft":{"Latitude":50.993457,"Longitude":-1.3915632},"BottomRight":{"Latitude":50.9912087,"Longitude":-1.3879912}},"Address":{"Label":"159 Hursley Road, Eastleigh, SO53 1, United Kingdom","Country":"GBR","State":"England","County":"Hampshire","City":"Eastleigh","District":"Chandlers Ford","Street":"Hursley Road","HouseNumber":"159","PostalCode":"SO53 1","AdditionalData":[{"value":"United Kingdom","key":"CountryName"},{"value":"England","key":"StateName"},{"value":"Hampshire","key":"CountyName"}]},"MapReference":{"ReferenceId":"25715509","Spot":0.55,"SideOfStreet":"right","StateId":"20248595","CountyId":"20335863","CityId":"20336038","DistrictId":"20336041"}}},{"Relevance":1.0,"Distance":26.4,"MatchLevel":"houseNumber","MatchQuality":{"Country":1.0,"State":1.0,"County":1.0,"City":1.0,"District":1.0,"Street":[1.0],"HouseNumber":1.0,"PostalCode":1.0},"MatchType":"interpolated","Location":{"LocationId":"NT_OSFUH6rdqXjbo0v4aKnctB_l_25715532_L_xIjM","LocationType":"point","DisplayPosition":{"Latitude":50.9921845,"Longitude":-1.3899139},"MapView":{"TopLeft":{"Latitude":50.9933086,"Longitude":-1.3916999},"BottomRight":{"Latitude":50.9910603,"Longitude":-1.3881279}},"Address":{"Label":"122 Hursley Road, Eastleigh, SO53 1JB, United Kingdom","Country":"GBR","State":"England","County":"Hampshire","City":"Eastleigh","District":"Chandlers Ford","Street":"Hursley Road","HouseNumber":"122","PostalCode":"SO53 1JB","AdditionalData":[{"value":"United Kingdom","key":"CountryName"},{"value":"England","key":"StateName"},{"value":"Hampshire","key":"CountyName"}]},"MapReference":{"ReferenceId":"25715532","Spot":0.49,"SideOfStreet":"left","StateId":"20248595","CountyId":"20335863","CityId":"20336038","DistrictId":"20336041"}}},{"Relevance":1.0,"Distance":41.6,"MatchLevel":"houseNumber","MatchQuality":{"Country":1.0,"State":1.0,"County":1.0,"City":1.0,"District":1.0,"Street":[1.0],"HouseNumber":1.0,"PostalCode":1.0},"MatchType":"interpolated","Location":{"LocationId":"NT_1CRholouGgvhClxpKMwrCD_l_25715474_L_3A","LocationType":"point","DisplayPosition":{"Latitude":50.9926455,"Longitude":-1.388997},"MapView":{"TopLeft":{"Latitude":50.9937696,"Longitude":-1.390783},"BottomRight":{"Latitude":50.9915213,"Longitude":-1.387211}},"Address":{"Label":"7 Nickson Close, Eastleigh, SO53 1, United Kingdom","Country":"GBR","State":"England","County":"Hampshire","City":"Eastleigh","District":"Chandlers Ford","Street":"Nickson Close","HouseNumber":"7","PostalCode":"SO53 1","AdditionalData":[{"value":"United Kingdom","key":"CountryName"},{"value":"England","key":"StateName"},{"value":"Hampshire","key":"CountyName"}]},"MapReference":{"ReferenceId":"25715474","Spot":0.62,"SideOfStreet":"left","StateId":"20248595","CountyId":"20335863","CityId":"20336038","DistrictId":"20336041"}}},{"Relevance":1.0,"Distance":44.6,"MatchLevel":"postalCode","MatchQuality":{"PostalCode":1.0},"MatchType":"interpolated","Location":{"LocationId":"NT_OSFUH6rdqXjbo0v4aKnctB_l_25715532_L_xIjM","LocationType":"point","DisplayPosition":{"Latitude":50.99261,"Longitude":-1.39015},"MapView":{"TopLeft":{"Latitude":51.0016032,"Longitude":-1.4044381},"BottomRight":{"Latitude":50.9836168,"Longitude":-1.3758619}},"Address":{"Label":"SO53 1YF, Eastleigh, England, United Kingdom","Country":"GBR","State":"England","County":"Hampshire","City":"Eastleigh","PostalCode":"SO53 1YF","AdditionalData":[{"value":"United Kingdom","key":"CountryName"},{"value":"England","key":"StateName"},{"value":"Hampshire","key":"CountyName"}]},"MapReference":{"ReferenceId":"25715532","Spot":0.49,"SideOfStreet":"neither","StateId":"20248595","CountyId":"20335863","CityId":"20336038"}}},{"Relevance":1.0,"Distance":46.4,"MatchLevel":"houseNumber","MatchQuality":{"Country":1.0,"State":1.0,"County":1.0,"City":1.0,"District":1.0,"Street":[1.0],"HouseNumber":1.0,"PostalCode":1.0},"MatchType":"interpolated","Location":{"LocationId":"NT_7DyiQBC.l7lK-akvrwcYTD_l_25715508_L_3kD","LocationType":"point","DisplayPosition":{"Latitude":50.9919634,"Longitude":-1.3890987},"MapView":{"TopLeft":{"Latitude":50.9930876,"Longitude":-1.3908847},"BottomRight":{"Latitude":50.9908393,"Longitude":-1.3873127}},"Address":{"Label":"79 Common Road, Eastleigh, SO53 1HE, United Kingdom","Country":"GBR","State":"England","County":"Hampshire","City":"Eastleigh","District":"Chandlers Ford","Street":"Common Road","HouseNumber":"79","PostalCode":"SO53 1HE","AdditionalData":[{"value":"United Kingdom","key":"CountryName"},{"value":"England","key":"StateName"},{"value":"Hampshire","key":"CountyName"}]},"MapReference":{"ReferenceId":"25715508","Spot":0.52,"SideOfStreet":"left","StateId":"20248595","CountyId":"20335863","CityId":"20336038","DistrictId":"20336041"}}},{"Relevance":1.0,"Distance":63.8,"MatchLevel":"houseNumber","MatchQuality":{"Country":1.0,"State":1.0,"County":1.0,"City":1.0,"District":1.0,"Street":[1.0],"HouseNumber":1.0,"PostalCode":1.0},"MatchType":"interpolated","Location":{"LocationId":"NT_OSFUH6rdqXjbo0v4aKnctB_l_25715388_R_xYTN","LocationType":"point","DisplayPosition":{"Latitude":50.9928801,"Longitude":-1.39003},"MapView":{"TopLeft":{"Latitude":50.9940043,"Longitude":-1.3918161},"BottomRight":{"Latitude":50.991756,"Longitude":-1.388244}},"Address":{"Label":"165 Hursley Road, Eastleigh, SO53 1JH, United Kingdom","Country":"GBR","State":"England","County":"Hampshire","City":"Eastleigh","District":"Chandlers Ford","Street":"Hursley Road","HouseNumber":"165","PostalCode":"SO53 1JH","AdditionalData":[{"value":"United Kingdom","key":"CountryName"},{"value":"England","key":"StateName"},{"value":"Hampshire","key":"CountyName"}]},"MapReference":{"ReferenceId":"25715388","Spot":0.11,"SideOfStreet":"right","StateId":"20248595","CountyId":"20335863","CityId":"20336038","DistrictId":"20336041"}}},{"Relevance":1.0,"Distance":65.3,"MatchLevel":"houseNumber","MatchQuality":{"Country":1.0,"State":1.0,"County":1.0,"City":1.0,"District":1.0,"Street":[1.0],"HouseNumber":1.0,"PostalCode":1.0},"MatchType":"interpolated","Location":{"LocationId":"NT_iq8maiN-U0pSViJMk7FtTD_l_25715528_R_xQTO","LocationType":"point","DisplayPosition":{"Latitude":50.99173,"Longitude":-1.389495},"MapView":{"TopLeft":{"Latitude":50.9928542,"Longitude":-1.391281},"BottomRight":{"Latitude":50.9906059,"Longitude":-1.387709}},"Address":{"Label":"149 Hursley Road, Eastleigh, SO53 1JE, United Kingdom","Country":"GBR","State":"England","County":"Hampshire","City":"Eastleigh","District":"Chandlers Ford","Street":"Hursley Road","HouseNumber":"149","PostalCode":"SO53 1JE","AdditionalData":[{"value":"United Kingdom","key":"CountryName"},{"value":"England","key":"StateName"},{"value":"Hampshire","key":"CountyName"}]},"MapReference":{"ReferenceId":"25715528","Spot":0.5,"SideOfStreet":"right","StateId":"20248595","CountyId":"20335863","CityId":"20336038","DistrictId":"20336041"}}},{"Relevance":1.0,"Distance":72.4,"MatchLevel":"postalCode","MatchQuality":{"PostalCode":1.0},"MatchType":"interpolated","Location":{"LocationId":"NT_1CRholouGgvhClxpKMwrCD_l_25715474_L_3A","LocationType":"point","DisplayPosition":{"Latitude":50.99275,"Longitude":-1.38883},"MapView":{"TopLeft":{"Latitude":51.0017432,"Longitude":-1.4031181},"BottomRight":{"Latitude":50.9837568,"Longitude":-1.3745419}},"Address":{"Label":"SO53 1HD, Eastleigh, England, United Kingdom","Country":"GBR","State":"England","County":"Hampshire","City":"Eastleigh","PostalCode":"SO53 1HD","AdditionalData":[{"value":"United Kingdom","key":"CountryName"},{"value":"England","key":"StateName"},{"value":"Hampshire","key":"CountyName"}]},"MapReference":{"ReferenceId":"25715474","Spot":0.62,"SideOfStreet":"neither","StateId":"20248595","CountyId":"20335863","CityId":"20336038"}}},{"Relevance":1.0,"Distance":79.6,"MatchLevel":"houseNumber","MatchQuality":{"Country":1.0,"State":1.0,"County":1.0,"City":1.0,"District":1.0,"Street":[1.0],"HouseNumber":1.0,"PostalCode":1.0},"MatchType":"interpolated","Location":{"LocationId":"NT_7DyiQBC.l7lK-akvrwcYTD_l_25715473_L_3cD","LocationType":"point","DisplayPosition":{"Latitude":50.99215,"Longitude":-1.38849},"MapView":{"TopLeft":{"Latitude":50.9932742,"Longitude":-1.390276},"BottomRight":{"Latitude":50.9910259,"Longitude":-1.386704}},"Address":{"Label":"77 Common Road, Eastleigh, SO53 1, United Kingdom","Country":"GBR","State":"England","County":"Hampshire","City":"Eastleigh","District":"Chandlers Ford","Street":"Common Road","HouseNumber":"77","PostalCode":"SO53 1","AdditionalData":[{"value":"United Kingdom","key":"CountryName"},{"value":"England","key":"StateName"},{"value":"Hampshire","key":"CountyName"}]},"MapReference":{"ReferenceId":"25715473","Spot":0.2,"SideOfStreet":"left","StateId":"20248595","CountyId":"20335863","CityId":"20336038","DistrictId":"20336041"}}}]}]}}