{"Response":{"MetaInfo":{"Timestamp":"2020-03-28T10:52:19.929+0000","NextPageInformation":"2"},"View":[{"_type":"SearchResultsViewType","ViewId":0,"Result":[{"Relevance":1.0,"Distance":-1.3,"MatchLevel":"landmark","MatchQuality":{"Country":1.0,"State":1.0,"County":1.0,"City":1.0,"Street":[1.0],"PostalCode":1.0,"Name":1.0},"Location":{"LocationId":"NT_2z7XseFEcF4HCTsIPfDACC_p_YbNBOIp1K5kDL7vbiPReYA","LocationType":"hospital","Name":"Sint-Vincentiusziekenhuis","DisplayPosition":{"Latitude":50.98596,"Longitude":3.52809},"MapView":{"TopLeft":{"Latitude":50.98745,"Longitude":3.52635},"BottomRight":{"Latitude":50.98553,"Longitude":3.52913}},"Address":{"Label":"Schutterijstraat, 9800 Deinze, België","Country":"BEL","State":"Vlaanderen","County":"Oost-Vlaanderen","City":"Deinze","Street":"Schutterijstraat","PostalCode":"9800","AdditionalData":[{"value":"België","key":"CountryName"},{"value":"Vlaanderen","key":"StateName"},{"value":"Oost-Vlaanderen","key":"CountyName"}]},"MapReference":{"CountryId":"20128886","StateId":"20204377","CountyId":"20205081","CityId":"20205270","PlaceId":"50736033"}}},{"Relevance":1.0,"Distance":0.0,"Direction":0.0,"MatchLevel":"city","MatchQuality":{"Country":1.0,"State":1.0,"County":1.0,"City":1.0,"PostalCode":1.0},"Location":{"LocationId":"NT_PxgDH3hqHUjJccfGZXPNCB","LocationType":"point","DisplayPosition":{"Latitude":50.985681,"Longitude":3.52805},"MapView":{"TopLeft":{"Latitude":51.10119,"Longitude":3.41349},"BottomRight":{"Latitude":50.94719,"Longitude":3.61326}},"Address":{"Label":"Deinze, Vlaanderen, België","Country":"BEL","State":"Vlaanderen","County":"Oost-Vlaanderen","City":"Deinze","PostalCode":"9800","AdditionalData":[{"value":"België","key":"CountryName"},{"value":"Vlaanderen","key":"StateName"},{"value":"Oost-Vlaanderen","key":"CountyName"}]},"MapReference":{"ReferenceId":"762989725","SideOfStreet":"neither","CountryId":"20128886","StateId":"20204377","CountyId":"20205081","CityId":"20205270"}}},{"Relevance":1.0,"Distance":1.4,"MatchLevel":"street","MatchQuality":{"Country":1.0,"State":1.0,"County":1.0,"City":1.0,"Street":[1.0],"PostalCode":1.0},"Location":{"LocationId":"NT_X9VLBNMg.oIT.HadewQ2nC_l_580430417_L","LocationType":"point","DisplayPosition":{"Latitude":50.9856749,"Longitude":3.5280683},"MapView":{"TopLeft":{"Latitude":50.98568,"Longitude":3.52806},"BottomRight":{"Latitude":50.98565,"Longitude":3.52807}},"Address":{"Label":"Schutterijstraat, 9800 Deinze, België","Country":"BEL","State":"Vlaanderen","County":"Oost-Vlaanderen","City":"Deinze","Street":"Schutterijstraat","PostalCode":"9800","AdditionalData":[{"value":"België","key":"CountryName"},{"value":"Vlaanderen","key":"StateName"},{"value":"Oost-Vlaanderen","key":"CountyName"}]},"MapReference":{"ReferenceId":"580430417","Spot":0.83,"SideOfStreet":"neither","CountryId":"20128886","StateId":"20204377","CountyId":"20205081","CityId":"20205270"}}},{"Relevance":1.0,"Distance":11.7,"MatchLevel":"houseNumber","MatchQuality":{"Country":1.0,"State":1.0,"County":1.0,"City":1.0,"Street":[1.0],"HouseNumber":1.0,"PostalCode":1.0},"MatchType":"interpolated","Location":{"LocationId":"NT_X9VLBNMg.oIT.HadewQ2nC_xkD","LocationType":"point","DisplayPosition":{"Latitude":50.98577,"Longitude":3.52814},"MapView":{"TopLeft":{"Latitude":50.9868942,"Longitude":3.5263543},"BottomRight":{"Latitude":50.9846458,"Longitude":3.5299257}},"Address":{"Label":"Schutterijstraat 19, 9800 Deinze, België","Country":"BEL","State":"Vlaanderen","County":"Oost-Vlaanderen","City":"Deinze","Street":"Schutterijstraat","HouseNumber":"19","PostalCode":"9800","AdditionalData":[{"value":"België","key":"CountryName"},{"value":"Vlaanderen","key":"StateName"},{"value":"Oost-Vlaanderen","key":"CountyName"}]},"MapReference":{"ReferenceId":"580430419","Spot":0.25,"SideOfStreet":"right","CountryId":"20128886","StateId":"20204377","CountyId":"20205081","CityId":"20205270","AddressId":"401171312","RoadLinkId":"31011378"}}},{"Relevance":1.0,"Distance":12.4,"MatchLevel":"houseNumber","MatchQuality":{"Country":1.0,"State":1.0,"County":1.0,"City":1.0,"Street":[1.0],"HouseNumber":1.0,"PostalCode":1.0},"MatchType":"interpolated","Location":{"LocationId":"NT_X9VLBNMg.oIT.HadewQ2nC_xcD","LocationType":"point","DisplayPosition":{"Latitude":50.98557,"Longitude":3.52806},"MapView":{"TopLeft":{"Latitude":50.9866942,"Longitude":3.5262743},"BottomRight":{"Latitude":50.9844458,"Longitude":3.5298457}},"Address":{"Label":"Schutterijstraat 17, 9800 Deinze, België","Country":"BEL","State":"Vlaanderen","County":"Oost-Vlaanderen","City":"Deinze","Street":"Schutterijstraat","HouseNumber":"17","PostalCode":"9800","AdditionalData":[{"value":"België","key":"CountryName"},{"value":"Vlaanderen","key":"StateName"},{"value":"Oost-Vlaanderen","key":"CountyName"}]},"MapReference":{"ReferenceId":"54053377","Spot":0.92,"SideOfStreet":"right","CountryId":"20128886","StateId":"20204377","CountyId":"20205081","CityId":"20205270","AddressId":"401615961","RoadLinkId":"30558834"}}},{"Relevance":1.0,"Distance":12.5,"MatchLevel":"houseNumber","MatchQuality":{"Country":1.0,"State":1.0,"County":1.0,"City":1.0,"Street":[1.0],"HouseNumber":1.0,"PostalCode":1.0},"MatchType":"interpolated","Location":{"LocationId":"NT_fvZJ91JwUIyHct.UN8zqVB_ycD","LocationType":"point","DisplayPosition":{"Latitude":50.98562,"Longitude":3.5279},"MapView":{"TopLeft":{"Latitude":50.9867442,"Longitude":3.5261143},"BottomRight":{"Latitude":50.9844958,"Longitude":3.5296857}},"Address":{"Label":"Ramstraat 27, 9800 Deinze, België","Country":"BEL","State":"Vlaanderen","County":"Oost-Vlaanderen","City":"Deinze","Street":"Ramstraat","HouseNumber":"27","PostalCode":"9800","AdditionalData":[{"value":"België","key":"CountryName"},{"value":"Vlaanderen","key":"StateName"},{"value":"Oost-Vlaanderen","key":"CountyName"}]},"MapReference":{"ReferenceId":"60864846","Spot":0.82,"SideOfStreet":"right","CountryId":"20128886","StateId":"20204377","CountyId":"20205081","CityId":"20205270","AddressId":"400764739","RoadLinkId":"30311004"}}},{"Relevance":1.0,"Distance":30.0,"MatchLevel":"houseNumber","MatchQuality":{"Country":1.0,"State":1.0,"County":1.0,"City":1.0,"Street":[1.0],"HouseNumber":1.0,"PostalCode":1.0},"MatchType":"interpolated","Location":{"LocationId":"NT_X9VLBNMg.oIT.HadewQ2nC_zQD","LocationType":"point","DisplayPosition":{"Latitude":50.98595,"Longitude":3.52809},"MapView":{"TopLeft":{"Latitude":50.9870742,"Longitude":3.5263042},"BottomRight":{"Latitude":50.9848258,"Longitude":3.5298758}},"Address":{"Label":"Schutterijstraat 34, 9800 Deinze, België","Country":"BEL","State":"Vlaanderen","County":"Oost-Vlaanderen","City":"Deinze","Street":"Schutterijstraat","HouseNumber":"34","PostalCode":"9800","AdditionalData":[{"value":"België","key":"CountryName"},{"value":"Vlaanderen","key":"StateName"},{"value":"Oost-Vlaanderen","key":"CountyName"}]},"MapReference":{"ReferenceId":"580430418","Spot":0.7,"SideOfStreet":"left","CountryId":"20128886","StateId":"20204377","CountyId":"20205081","CityId":"20205270","AddressId":"806763286","RoadLinkId":"30415279"}}},{"Relevance":1.0,"Distance":46.1,"MatchLevel":"street","MatchQuality":{"Country":1.0,"State":1.0,"County":1.0,"City":1.0,"Street":[1.0],"PostalCode":1.0},"Location":{"LocationId":"NT_X9VLBNMg.oIT.HadewQ2nC_l_580430420_L","LocationType":"point","DisplayPosition":{"Latitude":50.98605,"Longitude":3.52835},"MapView":{"TopLeft":{"Latitude":50.98665,"Longitude":3.52835},"BottomRight":{"Latitude":50.98605,"Longitude":3.52879}},"Address":{"Label":"Schutterijstraat, 9800 Deinze, België","Country":"BEL","State":"Vlaanderen","County":"Oost-Vlaanderen","City":"Deinze","Street":"Schutterijstraat","PostalCode":"9800","AdditionalData":[{"value":"België","key":"CountryName"},{"value":"Vlaanderen","key":"StateName"},{"value":"Oost-Vlaanderen","key":"CountyName"}]},"MapReference":{"ReferenceId":"580430420","Spot":0.0,"SideOfStreet":"left","CountryId":"20128886","StateId":"20204377","CountyId":"20205081","CityId":"20205270"}}},{"Relevance":1.0,"Distance":47.6,"MatchLevel":"street","MatchQuality":{"Country":1.0,"State":1.0,"County":1.0,"City":1.0,"PostalCode":1.0},"Location":{"LocationId":"NT_.uAQl3WiDsROSGPN87r0cC_l_1203010099_L","LocationType":"point","DisplayPosition":{"Latitude":50.9861,"Longitude":3.52819},"MapView":{"TopLeft":{"Latitude":50.9861,"Longitude":3.52819},"BottomRight":{"Latitude":50.98605,"Longitude":3.52835}},"Address":{"Label":"9800 Deinze, België","Country":"BEL","State":"Vlaanderen","County":"Oost-Vlaanderen","City":"Deinze","PostalCode":"9800","AdditionalData":[{"value":"België","key":"CountryName"},{"value":"Vlaanderen","key":"StateName"},{"value":"Oost-Vlaanderen","key":"CountyName"}]},"MapReference":{"ReferenceId":"1203010099","Spot":1.0,"SideOfStreet":"left","CountryId":"20128886","StateId":"20204377","CountyId":"20205081","CityId":"20205270"}}},{"Relevance":1.0,"Distance":47.6,"MatchLevel":"street","MatchQuality":{"Country":1.0,"State":1.0,"County":1.0,"City":1.0,"PostalCode":1.0},"Location":{"LocationId":"NT_.uAQl3WiDsROSGPN87r0cC_l_580430423_R","LocationType":"point","DisplayPosition":{"Latitude":50.9861,"Longitude":3.52819},"MapView":{"TopLeft":{"Latitude":50.98667,"Longitude":3.52819},"BottomRight":{"Latitude":50.9861,"Longitude":3.5286}},"Address":{"Label":"9800 Deinze, België","Country":"BEL","State":"Vlaanderen","County":"Oost-Vlaanderen","City":"Deinze","PostalCode":"9800","AdditionalData":[{"value":"België","key":"CountryName"},{"value":"Vlaanderen","key":"StateName"},{"value":"Oost-Vlaanderen","key":"CountyName"}]},"MapReference":{"ReferenceId":"580430423","Spot":0.0,"SideOfStreet":"right","CountryId":"20128886","StateId":"20204377","CountyId":"20205081","CityId":"20205270"}}}]}]}}