{"Response":{"MetaInfo":{"Timestamp":"2020-03-28T11:59:34.219+0000","NextPageInformation":"2"},"View":[{"_type":"SearchResultsViewType","ViewId":0,"Result":[{"Relevance":1.0,"Distance":0.0,"Direction":0.0,"MatchLevel":"district","MatchQuality":{"Country":1.0,"State":1.0,"County":1.0,"City":1.0,"District":1.0,"PostalCode":1.0},"Location":{"LocationId":"NT_fmevKKKqK5MAX4O.Ij2hPD","LocationType":"point","DisplayPosition":{"Latitude":50.9266153,"Longitude":-2.9110012},"MapView":{"TopLeft":{"Latitude":50.93477,"Longitude":-2.93814},"BottomRight":{"Latitude":50.91901,"Longitude":-2.89389}},"Address":{"Label":"Ilminster, England, United Kingdom","Country":"GBR","State":"England","County":"Somerset","City":"Ilminster","District":"Ilminster","PostalCode":"TA19 9","AdditionalData":[{"value":"United Kingdom","key":"CountryName"},{"value":"England","key":"StateName"},{"value":"Somerset","key":"CountyName"}]},"MapReference":{"ReferenceId":"577346247","SideOfStreet":"neither","StateId":"20248595","CountyId":"20357053","CityId":"20357298","DistrictId":"20357299"}}},{"Relevance":1.0,"Distance":6.4,"MatchLevel":"houseNumber","MatchQuality":{"Country":1.0,"State":1.0,"County":1.0,"City":1.0,"District":1.0,"Street":[1.0],"HouseNumber":1.0,"PostalCode":1.0},"MatchType":"interpolated","Location":{"LocationId":"NT_YVLEfRmueA3Vt7wy-PMPhB_l_766678887_L_xUD","LocationType":"point","DisplayPosition":{"Latitude":50.9266712,"Longitude":-2.9109776},"MapView":{"TopLeft":{"Latitude":50.9277954,"Longitude":-2.9127611},"BottomRight":{"Latitude":50.925547,"Longitude":-2.9091942}},"Address":{"Label":"15 Silver Street, Ilminster, TA19 0DH, United Kingdom","Country":"GBR","State":"England","County":"Somerset","City":"Ilminster","District":"Ilminster","Street":"Silver Street","HouseNumber":"15","PostalCode":"TA19 0DH","AdditionalData":[{"value":"United Kingdom","key":"CountryName"},{"value":"England","key":"StateName"},{"value":"Somerset","key":"CountyName"}]},"MapReference":{"ReferenceId":"766678887","Spot":0.65,"SideOfStreet":"left","StateId":"20248595","CountyId":"20357053","CityId":"20357298","DistrictId":"20357299"}}},{"Relevance":1.0,"Distance":6.4,"MatchLevel":"postalCode","MatchQuality":{"PostalCode":1.0},"MatchType":"interpolated","Location":{"LocationId":"NT_YVLEfRmueA3Vt7wy-PMPhB_l_766678887_L_xUD","LocationType":"point","DisplayPosition":{"Latitude":50.92663,"Longitude":-2.91109},"MapView":{"TopLeft":{"Latitude":50.9356232,"Longitude":-2.9253578},"BottomRight":{"Latitude":50.9176368,"Longitude":-2.8968222}},"Address":{"Label":"TA19 0DH, Ilminster, England, United Kingdom","Country":"GBR","State":"England","County":"Somerset","City":"Ilminster","PostalCode":"TA19 0DH","AdditionalData":[{"value":"United Kingdom","key":"CountryName"},{"value":"England","key":"StateName"},{"value":"Somerset","key":"CountyName"}]},"MapReference":{"ReferenceId":"766678887","Spot":0.65,"SideOfStreet":"neither","StateId":"20248595","CountyId":"20357053","CityId":"20357298"}}},{"Relevance":1.0,"Distance":29.4,"MatchLevel":"street","MatchQuality":{"Country":1.0,"State":1.0,"County":1.0,"City":1.0,"District":1.0,"Street":[1.0],"PostalCode":1.0},"Location":{"LocationId":"NT_ek1CWFHlPBnBJHBRuoklrA_l_766678893_R","LocationType":"point","DisplayPosition":{"Latitude":50.9267043,"Longitude":-2.9113968},"MapView":{"TopLeft":{"Latitude":50.92709,"Longitude":-2.9114},"BottomRight":{"Latitude":50.92669,"Longitude":-2.91131}},"Address":{"Label":"Church Walk, Ilminster, TA19 0, United Kingdom","Country":"GBR","State":"England","County":"Somerset","City":"Ilminster","District":"Ilminster","Street":"Church Walk","PostalCode":"TA19 0","AdditionalData":[{"value":"United Kingdom","key":"CountryName"},{"value":"England","key":"StateName"},{"value":"Somerset","key":"CountyName"}]},"MapReference":{"ReferenceId":"766678893","Spot":0.04,"SideOfStreet":"right","StateId":"20248595","CountyId":"20357053","CityId":"20357298","DistrictId":"20357299"}}},{"Relevance":1.0,"Distance":41.7,"MatchLevel":"houseNumber","MatchQuality":{"Country":1.0,"State":1.0,"County":1.0,"City":1.0,"District":1.0,"Street":[1.0],"HouseNumber":1.0,"PostalCode":1.0},"MatchType":"interpolated","Location":{"LocationId":"NT_2ymZH77KBmuikagTGQWB-A_l_766678889_L_xID","LocationType":"point","DisplayPosition":{"Latitude":50.92689,"Longitude":-2.91033},"MapView":{"TopLeft":{"Latitude":50.9280142,"Longitude":-2.9121135},"BottomRight":{"Latitude":50.9257659,"Longitude":-2.9085465}},"Address":{"Label":"12 North Street, Ilminster, TA19 0, United Kingdom","Country":"GBR","State":"England","County":"Somerset","City":"Ilminster","District":"Ilminster","Street":"North Street","HouseNumber":"12","PostalCode":"TA19 0","AdditionalData":[{"value":"United Kingdom","key":"CountryName"},{"value":"England","key":"StateName"},{"value":"Somerset","key":"CountyName"}]},"MapReference":{"ReferenceId":"766678889","Spot":0.0,"SideOfStreet":"left","StateId":"20248595","CountyId":"20357053","CityId":"20357298","DistrictId":"20357299"}}},{"Relevance":1.0,"Distance":41.9,"MatchLevel":"houseNumber","MatchQuality":{"Country":1.0,"State":1.0,"County":1.0,"City":1.0,"District":1.0,"Street":[1.0],"HouseNumber":1.0,"PostalCode":1.0},"MatchType":"interpolated","Location":{"LocationId":"NT_YVLEfRmueA3Vt7wy-PMPhB_l_577346256_L_xED","LocationType":"point","DisplayPosition":{"Latitude":50.9268471,"Longitude":-2.9102993},"MapView":{"TopLeft":{"Latitude":50.9279712,"Longitude":-2.9120828},"BottomRight":{"Latitude":50.9257229,"Longitude":-2.9085158}},"Address":{"Label":"11 North Street, Ilminster, TA19 0, United Kingdom","Country":"GBR","State":"England","County":"Somerset","City":"Ilminster","District":"Ilminster","Street":"North Street","HouseNumber":"11","PostalCode":"TA19 0","AdditionalData":[{"value":"United Kingdom","key":"CountryName"},{"value":"England","key":"StateName"},{"value":"Somerset","key":"CountyName"}]},"MapReference":{"ReferenceId":"577346256","Spot":0.79,"SideOfStreet":"left","StateId":"20248595","CountyId":"20357053","CityId":"20357298","DistrictId":"20357299"}}},{"Relevance":1.0,"Distance":43.7,"MatchLevel":"houseNumber","MatchQuality":{"Country":1.0,"State":1.0,"County":1.0,"City":1.0,"District":1.0,"Street":[1.0],"HouseNumber":1.0,"PostalCode":1.0},"MatchType":"interpolated","Location":{"LocationId":"NT_9NlYvwnfoG4bqJqb6tHQaD_l_766939545_L_yAD","LocationType":"point","DisplayPosition":{"Latitude":50.9267,"Longitude":-2.9116101},"MapView":{"TopLeft":{"Latitude":50.9278242,"Longitude":-2.9133936},"BottomRight":{"Latitude":50.9255759,"Longitude":-2.9098267}},"Address":{"Label":"20 Silver Street, Ilminster, TA19 0, United Kingdom","Country":"GBR","State":"England","County":"Somerset","City":"Ilminster","District":"Ilminster","Street":"Silver Street","HouseNumber":"20","PostalCode":"TA19 0","AdditionalData":[{"value":"United Kingdom","key":"CountryName"},{"value":"England","key":"StateName"},{"value":"Somerset","key":"CountyName"}]},"MapReference":{"ReferenceId":"766939545","Spot":0.34,"SideOfStreet":"left","StateId":"20248595","CountyId":"20357053","CityId":"20357298","DistrictId":"20357299"}}},{"Relevance":1.0,"Distance":53.6,"MatchLevel":"street","MatchQuality":{"Country":1.0,"State":1.0,"County":1.0,"City":1.0,"District":1.0,"Street":[1.0],"PostalCode":1.0},"Location":{"LocationId":"NT_ek1CWFHlPBnBJHBRuoklrA_l_766678894_L","LocationType":"point","DisplayPosition":{"Latitude":50.9270971,"Longitude":-2.9110127},"MapView":{"TopLeft":{"Latitude":50.9271,"Longitude":-2.91131},"BottomRight":{"Latitude":50.92705,"Longitude":-2.91043}},"Address":{"Label":"Church Walk, Ilminster, TA19 0, United Kingdom","Country":"GBR","State":"England","County":"Somerset","City":"Ilminster","District":"Ilminster","Street":"Church Walk","PostalCode":"TA19 0","AdditionalData":[{"value":"United Kingdom","key":"CountryName"},{"value":"England","key":"StateName"},{"value":"Somerset","key":"CountyName"}]},"MapReference":{"ReferenceId":"766678894","Spot":0.66,"SideOfStreet":"left","StateId":"20248595","CountyId":"20357053","CityId":"20357298","DistrictId":"20357299"}}},{"Relevance":1.0,"Distance":56.5,"MatchLevel":"houseNumber","MatchQuality":{"Country":1.0,"State":1.0,"County":1.0,"City":1.0,"District":1.0,"Street":[1.0],"HouseNumber":1.0,"PostalCode":1.0},"MatchType":"interpolated","Location":{"LocationId":"NT_g7HVcRtiofkBl3jSdM.NjB_l_26554828_L_xID","LocationType":"point","DisplayPosition":{"Latitude":50.92667,"Longitude":-2.9102},"MapView":{"TopLeft":{"Latitude":50.9277942,"Longitude":-2.9119834},"BottomRight":{"Latitude":50.9255459,"Longitude":-2.9084165}},"Address":{"Label":"12 East Street, Ilminster, TA19 0, United Kingdom","Country":"GBR","State":"England","County":"Somerset","City":"Ilminster","District":"Ilminster","Street":"East Street","HouseNumber":"12","PostalCode":"TA19 0","AdditionalData":[{"value":"United Kingdom","key":"CountryName"},{"value":"England","key":"StateName"},{"value":"Somerset","key":"CountyName"}]},"MapReference":{"ReferenceId":"26554828","Spot":0.0,"SideOfStreet":"left","StateId":"20248595","CountyId":"20357053","CityId":"20357298","DistrictId":"20357299"}}},{"Relevance":1.0,"Distance":57.0,"MatchLevel":"street","MatchQuality":{"Country":1.0,"State":1.0,"County":1.0,"City":1.0,"District":1.0,"Street":[1.0],"PostalCode":1.0},"Location":{"LocationId":"NT_ek1CWFHlPBnBJHBRuoklrA_l_766678895_R","LocationType":"point","DisplayPosition":{"Latitude":50.92709,"Longitude":-2.91131},"MapView":{"TopLeft":{"Latitude":50.92733,"Longitude":-2.91202},"BottomRight":{"Latitude":50.92709,"Longitude":-2.91131}},"Address":{"Label":"Church Walk, Ilminster, TA19 0, United Kingdom","Country":"GBR","State":"England","County":"Somerset","City":"Ilminster","District":"Ilminster","Street":"Church Walk","PostalCode":"TA19 0","AdditionalData":[{"value":"United Kingdom","key":"CountryName"},{"value":"England","key":"StateName"},{"value":"Somerset","key":"CountyName"}]},"MapReference":{"ReferenceId":"766678895","Spot":0.0,"SideOfStreet":"right","StateId":"20248595","CountyId":"20357053","CityId":"20357298","DistrictId":"20357299"}}}]}]}}