{"Response":{"MetaInfo":{"Timestamp":"2020-03-28T10:11:06.670+0000","NextPageInformation":"2"},"View":[{"_type":"SearchResultsViewType","ViewId":0,"Result":[{"Relevance":1.0,"Distance":0.0,"Direction":0.0,"MatchLevel":"district","MatchQuality":{"Country":1.0,"State":1.0,"County":1.0,"City":1.0,"District":1.0,"PostalCode":1.0},"Location":{"LocationId":"NT_5FilAzJ18j1ESRGZ5JDbED","LocationType":"point","DisplayPosition":{"Latitude":50.9253434,"Longitude":-1.3950075},"MapView":{"TopLeft":{"Latitude":50.96054,"Longitude":-1.47446},"BottomRight":{"Latitude":50.88303,"Longitude":-1.3195}},"Address":{"Label":"Southampton, England, United Kingdom","Country":"GBR","State":"England","County":"Hampshire","City":"Southampton","District":"Southampton","PostalCode":"SO15 2","AdditionalData":[{"value":"United Kingdom","key":"CountryName"},{"value":"England","key":"StateName"},{"value":"Hampshire","key":"CountyName"}]},"MapReference":{"ReferenceId":"1020270683","SideOfStreet":"neither","StateId":"20248595","CountyId":"20335863","CityId":"20336269","DistrictId":"20336270"}}},{"Relevance":1.0,"Distance":7.9,"MatchLevel":"houseNumber","MatchQuality":{"Country":1.0,"State":1.0,"County":1.0,"City":1.0,"District":1.0,"Street":[1.0],"HouseNumber":1.0,"PostalCode":1.0},"MatchType":"interpolated","Location":{"LocationId":"NT_KNmfZvswJ-JNoqZLKF0TlA_4A","LocationType":"point","DisplayPosition":{"Latitude":50.9251,"Longitude":-1.39536},"MapView":{"TopLeft":{"Latitude":50.9262242,"Longitude":-1.3971434},"BottomRight":{"Latitude":50.9239758,"Longitude":-1.3935766}},"Address":{"Label":"8 Brookvale Road, Southampton, SO17 1QL, United Kingdom","Country":"GBR","State":"England","County":"Hampshire","City":"Southampton","District":"Southampton","Street":"Brookvale Road","HouseNumber":"8","PostalCode":"SO17 1QL","AdditionalData":[{"value":"United Kingdom","key":"CountryName"},{"value":"England","key":"StateName"},{"value":"Hampshire","key":"CountyName"}]},"MapReference":{"ReferenceId":"833135589","Spot":0.66,"SideOfStreet":"right","StateId":"20248595","CountyId":"20335863","CityId":"20336269","DistrictId":"20336270","AddressId":"768452619","RoadLinkId":"216405707"}}},{"Relevance":1.0,"Distance":29.7,"MatchLevel":"postalCode","MatchQuality":{"PostalCode":1.0},"MatchType":"interpolated","Location":{"LocationId":"NT_KNmfZvswJ-JNoqZLKF0TlA_4A","LocationType":"point","DisplayPosition":{"Latitude":50.92509,"Longitude":-1.39514},"MapView":{"TopLeft":{"Latitude":50.9340832,"Longitude":-1.4094073},"BottomRight":{"Latitude":50.9160968,"Longitude":-1.3808727}},"Address":{"Label":"SO17 1QL, Southampton, England, United Kingdom","Country":"GBR","State":"England","County":"Hampshire","City":"Southampton","PostalCode":"SO17 1QL","AdditionalData":[{"value":"United Kingdom","key":"CountryName"},{"value":"England","key":"StateName"},{"value":"Hampshire","key":"CountyName"}]},"MapReference":{"ReferenceId":"833135589","Spot":0.66,"SideOfStreet":"neither","StateId":"20248595","CountyId":"20335863","CityId":"20336269"}}},{"Relevance":1.0,"Distance":47.0,"MatchLevel":"houseNumber","MatchQuality":{"Country":1.0,"State":1.0,"County":1.0,"City":1.0,"District":1.0,"Street":[1.0],"HouseNumber":1.0,"PostalCode":1.0},"MatchType":"interpolated","Location":{"LocationId":"NT_KNmfZvswJ-JNoqZLKF0TlA_xAD","LocationType":"point","DisplayPosition":{"Latitude":50.92526,"Longitude":-1.39587},"MapView":{"TopLeft":{"Latitude":50.9263842,"Longitude":-1.3976534},"BottomRight":{"Latitude":50.9241358,"Longitude":-1.3940866}},"Address":{"Label":"10 Brookvale Road, Southampton, SO17 1, United Kingdom","Country":"GBR","State":"England","County":"Hampshire","City":"Southampton","District":"Southampton","Street":"Brookvale Road","HouseNumber":"10","PostalCode":"SO17 1","AdditionalData":[{"value":"United Kingdom","key":"CountryName"},{"value":"England","key":"StateName"},{"value":"Hampshire","key":"CountyName"}]},"MapReference":{"ReferenceId":"25723549","Spot":0.45,"SideOfStreet":"right","StateId":"20248595","CountyId":"20335863","CityId":"20336269","DistrictId":"20336270","AddressId":"768452622","RoadLinkId":"82979250"}}},{"Relevance":1.0,"Distance":49.5,"MatchLevel":"street","MatchQuality":{"Country":1.0,"State":1.0,"County":1.0,"City":1.0,"District":1.0,"PostalCode":1.0},"Location":{"LocationId":"NT_v0Ml1Pb.3aGDgXbOHyJyqB_l_1201126459_L","LocationType":"point","DisplayPosition":{"Latitude":50.92492,"Longitude":-1.39479},"MapView":{"TopLeft":{"Latitude":50.92492,"Longitude":-1.39507},"BottomRight":{"Latitude":50.92457,"Longitude":-1.39479}},"Address":{"Label":"Southampton, SO17 1, United Kingdom","Country":"GBR","State":"England","County":"Hampshire","City":"Southampton","District":"Southampton","PostalCode":"SO17 1","AdditionalData":[{"value":"United Kingdom","key":"CountryName"},{"value":"England","key":"StateName"},{"value":"Hampshire","key":"CountyName"}]},"MapReference":{"ReferenceId":"1201126459","Spot":1.0,"SideOfStreet":"left","StateId":"20248595","CountyId":"20335863","CityId":"20336269","DistrictId":"20336270"}}},{"Relevance":1.0,"Distance":51.9,"MatchLevel":"houseNumber","MatchQuality":{"Country":1.0,"State":1.0,"County":1.0,"City":1.0,"District":1.0,"Street":[1.0],"HouseNumber":1.0,"PostalCode":1.0},"MatchType":"interpolated","Location":{"LocationId":"NT_yW02CX9V1KZ9LPN.rE52lB_xA","LocationType":"point","DisplayPosition":{"Latitude":50.92581,"Longitude":-1.39504},"MapView":{"TopLeft":{"Latitude":50.9269342,"Longitude":-1.3968234},"BottomRight":{"Latitude":50.9246858,"Longitude":-1.3932566}},"Address":{"Label":"1 Russell Place, Southampton, SO17 1NU, United Kingdom","Country":"GBR","State":"England","County":"Hampshire","City":"Southampton","District":"Southampton","Street":"Russell Place","HouseNumber":"1","PostalCode":"SO17 1NU","AdditionalData":[{"value":"United Kingdom","key":"CountryName"},{"value":"England","key":"StateName"},{"value":"Hampshire","key":"CountyName"}]},"MapReference":{"ReferenceId":"25723548","Spot":0.4,"SideOfStreet":"right","StateId":"20248595","CountyId":"20335863","CityId":"20336269","DistrictId":"20336270","AddressId":"768452611","RoadLinkId":"82508039"}}},{"Relevance":1.0,"Distance":54.4,"MatchLevel":"houseNumber","MatchQuality":{"Country":1.0,"State":1.0,"County":1.0,"City":1.0,"District":1.0,"Street":[1.0],"HouseNumber":1.0,"PostalCode":1.0},"MatchType":"interpolated","Location":{"LocationId":"NT_R2CEtAt3fvsi2oHpNwVaYB_l_844967753_R_0A","LocationType":"point","DisplayPosition":{"Latitude":50.9248445,"Longitude":-1.394555},"MapView":{"TopLeft":{"Latitude":50.9259686,"Longitude":-1.3963384},"BottomRight":{"Latitude":50.9237203,"Longitude":-1.3927716}},"Address":{"Label":"4 Brookvale Road, Southampton, SO17 1QL, United Kingdom","Country":"GBR","State":"England","County":"Hampshire","City":"Southampton","District":"Southampton","Street":"Brookvale Road","HouseNumber":"4","PostalCode":"SO17 1QL","AdditionalData":[{"value":"United Kingdom","key":"CountryName"},{"value":"England","key":"StateName"},{"value":"Hampshire","key":"CountyName"}]},"MapReference":{"ReferenceId":"844967753","Spot":0.51,"SideOfStreet":"right","StateId":"20248595","CountyId":"20335863","CityId":"20336269","DistrictId":"20336270"}}},{"Relevance":1.0,"Distance":54.7,"MatchLevel":"postalCode","MatchQuality":{"PostalCode":1.0},"MatchType":"interpolated","Location":{"LocationId":"NT_R2CEtAt3fvsi2oHpNwVaYB_l_844967753_R_0A","LocationType":"point","DisplayPosition":{"Latitude":50.92492,"Longitude":-1.39461},"MapView":{"TopLeft":{"Latitude":50.9339132,"Longitude":-1.4088773},"BottomRight":{"Latitude":50.9159268,"Longitude":-1.3803427}},"Address":{"Label":"SO17 1AP, Southampton, England, United Kingdom","Country":"GBR","State":"England","County":"Hampshire","City":"Southampton","PostalCode":"SO17 1AP","AdditionalData":[{"value":"United Kingdom","key":"CountryName"},{"value":"England","key":"StateName"},{"value":"Hampshire","key":"CountyName"}]},"MapReference":{"ReferenceId":"844967753","Spot":0.51,"SideOfStreet":"neither","StateId":"20248595","CountyId":"20335863","CityId":"20336269"}}},{"Relevance":1.0,"Distance":82.2,"MatchLevel":"houseNumber","MatchQuality":{"Country":1.0,"State":1.0,"County":1.0,"City":1.0,"District":1.0,"Street":[1.0],"HouseNumber":1.0,"PostalCode":1.0},"MatchType":"interpolated","Location":{"LocationId":"NT_KNmfZvswJ-JNoqZLKF0TlA_xQD","LocationType":"point","DisplayPosition":{"Latitude":50.9254,"Longitude":-1.39629},"MapView":{"TopLeft":{"Latitude":50.9265242,"Longitude":-1.3980734},"BottomRight":{"Latitude":50.9242758,"Longitude":-1.3945066}},"Address":{"Label":"14 Brookvale Road, Southampton, SO17 1, United Kingdom","Country":"GBR","State":"England","County":"Hampshire","City":"Southampton","District":"Southampton","Street":"Brookvale Road","HouseNumber":"14","PostalCode":"SO17 1","AdditionalData":[{"value":"United Kingdom","key":"CountryName"},{"value":"England","key":"StateName"},{"value":"Hampshire","key":"CountyName"}]},"MapReference":{"ReferenceId":"25723489","Spot":0.09,"SideOfStreet":"right","StateId":"20248595","CountyId":"20335863","CityId":"20336269","DistrictId":"20336270","AddressId":"768452812","RoadLinkId":"82655482"}}},{"Relevance":1.0,"Distance":82.8,"MatchLevel":"houseNumber","MatchQuality":{"Country":1.0,"State":1.0,"County":1.0,"City":1.0,"District":1.0,"Street":[1.0],"HouseNumber":1.0,"PostalCode":1.0},"MatchType":"interpolated","Location":{"LocationId":"NT_mbwSF7MpeDVj68FbRXmSrC_l_844967752_R_yA","LocationType":"point","DisplayPosition":{"Latitude":50.9247232,"Longitude":-1.3941557},"MapView":{"TopLeft":{"Latitude":50.9258474,"Longitude":-1.3959391},"BottomRight":{"Latitude":50.9235991,"Longitude":-1.3923723}},"Address":{"Label":"2 Brookvale Road, Southampton, SO17 1AP, United Kingdom","Country":"GBR","State":"England","County":"Hampshire","City":"Southampton","District":"Southampton","Street":"Brookvale Road","HouseNumber":"2","PostalCode":"SO17 1AP","AdditionalData":[{"value":"United Kingdom","key":"CountryName"},{"value":"England","key":"StateName"},{"value":"Hampshire","key":"CountyName"}]},"MapReference":{"ReferenceId":"844967752","Spot":0.53,"SideOfStreet":"right","StateId":"20248595","CountyId":"20335863","CityId":"20336269","DistrictId":"20336270"}}}]}]}}