{"Response":{"MetaInfo":{"Timestamp":"2020-03-28T09:58:07.271+0000","NextPageInformation":"2"},"View":[{"_type":"SearchResultsViewType","ViewId":0,"Result":[{"Relevance":1.0,"Distance":0.0,"Direction":0.0,"MatchLevel":"district","MatchQuality":{"Country":1.0,"State":1.0,"County":1.0,"City":1.0,"District":1.0,"PostalCode":1.0},"Location":{"LocationId":"NT_-M8mm-tgXIQXvWfyMjF.tC","LocationType":"point","DisplayPosition":{"Latitude":50.9455657,"Longitude":17.3031891},"MapView":{"TopLeft":{"Latitude":50.96078,"Longitude":17.2511},"BottomRight":{"Latitude":50.91808,"Longitude":17.3369}},"Address":{"Label":"Oława, Woj. Dolnośląskie, Polska","Country":"POL","State":"Woj. Dolnośląskie","County":"Powiat Oławski","City":"Oława","District":"Oława","PostalCode":"55-200","AdditionalData":[{"value":"Polska","key":"CountryName"},{"value":"Woj. Dolnośląskie","key":"StateName"},{"value":"Powiat Oławski","key":"CountyName"}]},"MapReference":{"ReferenceId":"1104869876","SideOfStreet":"neither","CountryId":"20624059","StateId":"20625002","CountyId":"20625196","CityId":"20680650","DistrictId":"20680651"}}},{"Relevance":1.0,"Distance":16.2,"MatchLevel":"houseNumber","MatchQuality":{"Country":1.0,"State":1.0,"County":1.0,"City":1.0,"District":1.0,"Street":[1.0],"HouseNumber":1.0,"PostalCode":1.0},"MatchType":"interpolated","Location":{"LocationId":"NT_wG0nw9j7R9.FozyFi7LCiC_2QTQ","LocationType":"point","DisplayPosition":{"Latitude":50.94558,"Longitude":17.30353},"MapView":{"TopLeft":{"Latitude":50.9467042,"Longitude":17.3017458},"BottomRight":{"Latitude":50.9444558,"Longitude":17.3053142}},"Address":{"Label":"ulica Bolesława Chrobrego 64A, 55-200 Oława, Polska","Country":"POL","State":"Woj. Dolnośląskie","County":"Powiat Oławski","City":"Oława","District":"Oława","Street":"ulica Bolesława Chrobrego","HouseNumber":"64A","PostalCode":"55-200","AdditionalData":[{"value":"Polska","key":"CountryName"},{"value":"Woj. Dolnośląskie","key":"StateName"},{"value":"Powiat Oławski","key":"CountyName"}]},"MapReference":{"ReferenceId":"779101505","Spot":0.66,"SideOfStreet":"left","CountryId":"20624059","StateId":"20625002","CountyId":"20625196","CityId":"20680650","DistrictId":"20680651","AddressId":"701639544","RoadLinkId":"172604613"}}},{"Relevance":1.0,"Distance":35.5,"MatchLevel":"houseNumber","MatchQuality":{"Country":1.0,"State":1.0,"County":1.0,"City":1.0,"District":1.0,"Street":[1.0],"HouseNumber":1.0,"PostalCode":1.0},"MatchType":"interpolated","Location":{"LocationId":"NT_wG0nw9j7R9.FozyFi7LCiC_5AD","LocationType":"point","DisplayPosition":{"Latitude":50.94593,"Longitude":17.30281},"MapView":{"TopLeft":{"Latitude":50.9470542,"Longitude":17.3010258},"BottomRight":{"Latitude":50.9448058,"Longitude":17.3045942}},"Address":{"Label":"ulica Bolesława Chrobrego 90, 55-200 Oława, Polska","Country":"POL","State":"Woj. Dolnośląskie","County":"Powiat Oławski","City":"Oława","District":"Oława","Street":"ulica Bolesława Chrobrego","HouseNumber":"90","PostalCode":"55-200","AdditionalData":[{"value":"Polska","key":"CountryName"},{"value":"Woj. Dolnośląskie","key":"StateName"},{"value":"Powiat Oławski","key":"CountyName"}]},"MapReference":{"ReferenceId":"594225656","Spot":0.74,"SideOfStreet":"right","CountryId":"20624059","StateId":"20625002","CountyId":"20625196","CityId":"20680650","DistrictId":"20680651","AddressId":"211112649","RoadLinkId":"96225687"}}},{"Relevance":1.0,"Distance":75.9,"MatchLevel":"houseNumber","MatchQuality":{"Country":1.0,"State":1.0,"County":1.0,"City":1.0,"District":1.0,"Street":[1.0],"HouseNumber":1.0,"PostalCode":1.0},"MatchType":"interpolated","Location":{"LocationId":"NT_gwaWuWpaTbFFpKQqKpy19D_xYD","LocationType":"point","DisplayPosition":{"Latitude":50.94647,"Longitude":17.30195},"MapView":{"TopLeft":{"Latitude":50.9475942,"Longitude":17.3001658},"BottomRight":{"Latitude":50.9453458,"Longitude":17.3037342}},"Address":{"Label":"ulica Sportowa 16, 55-200 Oława, Polska","Country":"POL","State":"Woj. Dolnośląskie","County":"Powiat Oławski","City":"Oława","District":"Oława","Street":"ulica Sportowa","HouseNumber":"16","PostalCode":"55-200","AdditionalData":[{"value":"Polska","key":"CountryName"},{"value":"Woj. Dolnośląskie","key":"StateName"},{"value":"Powiat Oławski","key":"CountyName"}]},"MapReference":{"ReferenceId":"1005073595","Spot":0.0,"SideOfStreet":"right","CountryId":"20624059","StateId":"20625002","CountyId":"20625196","CityId":"20680650","DistrictId":"20680651","AddressId":"403523361","RoadLinkId":"330963718"}}},{"Relevance":1.0,"Distance":84.3,"MatchLevel":"houseNumber","MatchQuality":{"Country":1.0,"State":1.0,"County":1.0,"City":1.0,"District":1.0,"Street":[1.0],"HouseNumber":1.0,"PostalCode":1.0},"MatchType":"interpolated","Location":{"LocationId":"NT_wG0nw9j7R9.FozyFi7LCiC_zED","LocationType":"point","DisplayPosition":{"Latitude":50.94492,"Longitude":17.30382},"MapView":{"TopLeft":{"Latitude":50.9460442,"Longitude":17.3020358},"BottomRight":{"Latitude":50.9437958,"Longitude":17.3056042}},"Address":{"Label":"ulica Bolesława Chrobrego 31, 55-200 Oława, Polska","Country":"POL","State":"Woj. Dolnośląskie","County":"Powiat Oławski","City":"Oława","District":"Oława","Street":"ulica Bolesława Chrobrego","HouseNumber":"31","PostalCode":"55-200","AdditionalData":[{"value":"Polska","key":"CountryName"},{"value":"Woj. Dolnośląskie","key":"StateName"},{"value":"Powiat Oławski","key":"CountyName"}]},"MapReference":{"ReferenceId":"1105004447","Spot":0.74,"SideOfStreet":"right","CountryId":"20624059","StateId":"20625002","CountyId":"20625196","CityId":"20680650","DistrictId":"20680651","AddressId":"210599205","RoadLinkId":"416819628"}}},{"Relevance":1.0,"Distance":89.2,"MatchLevel":"street","MatchQuality":{"Country":1.0,"State":1.0,"County":1.0,"City":1.0,"District":1.0,"Street":[1.0],"PostalCode":1.0},"Location":{"LocationId":"NT_wG0nw9j7R9.FozyFi7LCiC_l_1105004448_L","LocationType":"point","DisplayPosition":{"Latitude":50.94521,"Longitude":17.30433},"MapView":{"TopLeft":{"Latitude":50.94545,"Longitude":17.30433},"BottomRight":{"Latitude":50.94521,"Longitude":17.30475}},"Address":{"Label":"ulica Bolesława Chrobrego, 55-200 Oława, Polska","Country":"POL","State":"Woj. Dolnośląskie","County":"Powiat Oławski","City":"Oława","District":"Oława","Street":"ulica Bolesława Chrobrego","PostalCode":"55-200","AdditionalData":[{"value":"Polska","key":"CountryName"},{"value":"Woj. Dolnośląskie","key":"StateName"},{"value":"Powiat Oławski","key":"CountyName"}]},"MapReference":{"ReferenceId":"1105004448","Spot":0.0,"SideOfStreet":"left","CountryId":"20624059","StateId":"20625002","CountyId":"20625196","CityId":"20680650","DistrictId":"20680651"}}},{"Relevance":1.0,"Distance":100.8,"MatchLevel":"houseNumber","MatchQuality":{"Country":1.0,"State":1.0,"County":1.0,"City":1.0,"District":1.0,"Street":[1.0],"HouseNumber":1.0,"PostalCode":1.0},"MatchType":"interpolated","Location":{"LocationId":"NT_wG0nw9j7R9.FozyFi7LCiC_2QD","LocationType":"point","DisplayPosition":{"Latitude":50.94476,"Longitude":17.30253},"MapView":{"TopLeft":{"Latitude":50.9458842,"Longitude":17.3007458},"BottomRight":{"Latitude":50.9436358,"Longitude":17.3043142}},"Address":{"Label":"ulica Bolesława Chrobrego 64, 55-200 Oława, Polska","Country":"POL","State":"Woj. Dolnośląskie","County":"Powiat Oławski","City":"Oława","District":"Oława","Street":"ulica Bolesława Chrobrego","HouseNumber":"64","PostalCode":"55-200","AdditionalData":[{"value":"Polska","key":"CountryName"},{"value":"Woj. Dolnośląskie","key":"StateName"},{"value":"Powiat Oławski","key":"CountyName"}]},"MapReference":{"ReferenceId":"594225767","Spot":0.71,"SideOfStreet":"left","CountryId":"20624059","StateId":"20625002","CountyId":"20625196","CityId":"20680650","DistrictId":"20680651","AddressId":"210856627","RoadLinkId":"96194938"}}},{"Relevance":1.0,"Distance":101.5,"MatchLevel":"houseNumber","MatchQuality":{"Country":1.0,"State":1.0,"County":1.0,"City":1.0,"District":1.0,"Street":[1.0],"HouseNumber":1.0,"PostalCode":1.0},"MatchType":"interpolated","Location":{"LocationId":"NT_wG0nw9j7R9.FozyFi7LCiC_xAjM","LocationType":"point","DisplayPosition":{"Latitude":50.94648,"Longitude":17.30378},"MapView":{"TopLeft":{"Latitude":50.9476042,"Longitude":17.3019958},"BottomRight":{"Latitude":50.9453558,"Longitude":17.3055642}},"Address":{"Label":"ulica Bolesława Chrobrego 102, 55-200 Oława, Polska","Country":"POL","State":"Woj. Dolnośląskie","County":"Powiat Oławski","City":"Oława","District":"Oława","Street":"ulica Bolesława Chrobrego","HouseNumber":"102","PostalCode":"55-200","AdditionalData":[{"value":"Polska","key":"CountryName"},{"value":"Woj. Dolnośląskie","key":"StateName"},{"value":"Powiat Oławski","key":"CountyName"}]},"MapReference":{"ReferenceId":"1005075149","Spot":0.22,"SideOfStreet":"right","CountryId":"20624059","StateId":"20625002","CountyId":"20625196","CityId":"20680650","DistrictId":"20680651","AddressId":"701646888","RoadLinkId":"330965034"}}},{"Relevance":1.0,"Distance":101.8,"MatchLevel":"street","MatchQuality":{"Country":1.0,"State":1.0,"County":1.0,"City":1.0,"District":1.0,"Street":[1.0],"PostalCode":1.0},"Location":{"LocationId":"NT_gwaWuWpaTbFFpKQqKpy19D_l_986171809_L","LocationType":"point","DisplayPosition":{"Latitude":50.94643,"Longitude":17.30367},"MapView":{"TopLeft":{"Latitude":50.94699,"Longitude":17.30289},"BottomRight":{"Latitude":50.94643,"Longitude":17.30367}},"Address":{"Label":"ulica Sportowa, 55-200 Oława, Polska","Country":"POL","State":"Woj. Dolnośląskie","County":"Powiat Oławski","City":"Oława","District":"Oława","Street":"ulica Sportowa","PostalCode":"55-200","AdditionalData":[{"value":"Polska","key":"CountryName"},{"value":"Woj. Dolnośląskie","key":"StateName"},{"value":"Powiat Oławski","key":"CountyName"}]},"MapReference":{"ReferenceId":"986171809","Spot":0.0,"SideOfStreet":"left","CountryId":"20624059","StateId":"20625002","CountyId":"20625196","CityId":"20680650","DistrictId":"20680651"}}},{"Relevance":1.0,"Distance":110.1,"MatchLevel":"street","MatchQuality":{"Country":1.0,"State":1.0,"County":1.0,"City":1.0,"District":1.0,"Street":[1.0],"PostalCode":1.0},"Location":{"LocationId":"NT_Rc6MTxN47FqwH2zScQ5wXD_l_779101504_L","LocationType":"point","DisplayPosition":{"Latitude":50.94545,"Longitude":17.30475},"MapView":{"TopLeft":{"Latitude":50.94555,"Longitude":17.30475},"BottomRight":{"Latitude":50.94545,"Longitude":17.30492}},"Address":{"Label":"ulica Bolesława Chrobrego, 55-200 Oława, Polska","Country":"POL","State":"Woj. Dolnośląskie","County":"Powiat Oławski","City":"Oława","District":"Oława","Street":"ulica Bolesława Chrobrego","PostalCode":"55-200","AdditionalData":[{"value":"Polska","key":"CountryName"},{"value":"Woj. Dolnośląskie","key":"StateName"},{"value":"Powiat Oławski","key":"CountyName"}]},"MapReference":{"ReferenceId":"779101504","Spot":0.0,"SideOfStreet":"left","CountryId":"20624059","StateId":"20625002","CountyId":"20625196","CityId":"20680650","DistrictId":"20680651"}}}]}]}}