{"Response":{"MetaInfo":{"Timestamp":"2020-03-28T11:38:01.728+0000","NextPageInformation":"2"},"View":[{"_type":"SearchResultsViewType","ViewId":0,"Result":[{"Relevance":1.0,"Distance":0.0,"Direction":0.0,"MatchLevel":"city","MatchQuality":{"Country":1.0,"State":1.0,"County":1.0,"City":1.0,"PostalCode":1.0},"Location":{"LocationId":"NT_LJTP3XTN5hISIucILmCCYB","LocationType":"point","DisplayPosition":{"Latitude":50.9504982,"Longitude":3.1347963},"MapView":{"TopLeft":{"Latitude":50.99404,"Longitude":3.06145},"BottomRight":{"Latitude":50.88705,"Longitude":3.18498}},"Address":{"Label":"Roeselare, Vlaanderen, België","Country":"BEL","State":"Vlaanderen","County":"West-Vlaanderen","City":"Roeselare","PostalCode":"8800","AdditionalData":[{"value":"België","key":"CountryName"},{"value":"Vlaanderen","key":"StateName"},{"value":"West-Vlaanderen","key":"CountyName"}]},"MapReference":{"ReferenceId":"60843949","SideOfStreet":"neither","CountryId":"20128886","StateId":"20204377","CountyId":"20204694","CityId":"20204992"}}},{"Relevance":1.0,"Distance":7.1,"MatchLevel":"houseNumber","MatchQuality":{"Country":1.0,"State":1.0,"County":1.0,"City":1.0,"Street":[1.0],"HouseNumber":1.0,"PostalCode":1.0},"MatchType":"interpolated","Location":{"LocationId":"NT_bRvi4zR6xmWfC-RyaujCeA_xAjNBB","LocationType":"point","DisplayPosition":{"Latitude":50.95056,"Longitude":3.13477},"MapView":{"TopLeft":{"Latitude":50.9516842,"Longitude":3.1329856},"BottomRight":{"Latitude":50.9494358,"Longitude":3.1365544}},"Address":{"Label":"Ardooisesteenweg 106A, 8800 Roeselare, België","Country":"BEL","State":"Vlaanderen","County":"West-Vlaanderen","City":"Roeselare","Street":"Ardooisesteenweg","HouseNumber":"106A","PostalCode":"8800","AdditionalData":[{"value":"België","key":"CountryName"},{"value":"Vlaanderen","key":"StateName"},{"value":"West-Vlaanderen","key":"CountyName"}]},"MapReference":{"ReferenceId":"1037858588","Spot":0.48,"SideOfStreet":"right","CountryId":"20128886","StateId":"20204377","CountyId":"20204694","CityId":"20204992","AddressId":"401528100","RoadLinkId":"359833280"}}},{"Relevance":1.0,"Distance":35.8,"MatchLevel":"houseNumber","MatchQuality":{"Country":1.0,"State":1.0,"County":1.0,"City":1.0,"Street":[1.0],"HouseNumber":1.0,"PostalCode":1.0},"MatchType":"interpolated","Location":{"LocationId":"NT_bRvi4zR6xmWfC-RyaujCeA_5YD","LocationType":"point","DisplayPosition":{"Latitude":50.95039,"Longitude":3.13433},"MapView":{"TopLeft":{"Latitude":50.9515142,"Longitude":3.1325456},"BottomRight":{"Latitude":50.9492658,"Longitude":3.1361144}},"Address":{"Label":"Ardooisesteenweg 96, 8800 Roeselare, België","Country":"BEL","State":"Vlaanderen","County":"West-Vlaanderen","City":"Roeselare","Street":"Ardooisesteenweg","HouseNumber":"96","PostalCode":"8800","AdditionalData":[{"value":"België","key":"CountryName"},{"value":"Vlaanderen","key":"StateName"},{"value":"West-Vlaanderen","key":"CountyName"}]},"MapReference":{"ReferenceId":"972465596","Spot":0.72,"SideOfStreet":"right","CountryId":"20128886","StateId":"20204377","CountyId":"20204694","CityId":"20204992","AddressId":"399738476","RoadLinkId":"308890435"}}},{"Relevance":1.0,"Distance":57.2,"MatchLevel":"houseNumber","MatchQuality":{"Country":1.0,"State":1.0,"County":1.0,"City":1.0,"Street":[1.0],"HouseNumber":1.0,"PostalCode":1.0},"MatchType":"interpolated","Location":{"LocationId":"NT_bRvi4zR6xmWfC-RyaujCeA_xEDM","LocationType":"point","DisplayPosition":{"Latitude":50.95077,"Longitude":3.13549},"MapView":{"TopLeft":{"Latitude":50.9518942,"Longitude":3.1337056},"BottomRight":{"Latitude":50.9496458,"Longitude":3.1372744}},"Address":{"Label":"Ardooisesteenweg 110, 8800 Roeselare, België","Country":"BEL","State":"Vlaanderen","County":"West-Vlaanderen","City":"Roeselare","Street":"Ardooisesteenweg","HouseNumber":"110","PostalCode":"8800","AdditionalData":[{"value":"België","key":"CountryName"},{"value":"Vlaanderen","key":"StateName"},{"value":"West-Vlaanderen","key":"CountyName"}]},"MapReference":{"ReferenceId":"1037858589","Spot":0.35,"SideOfStreet":"right","CountryId":"20128886","StateId":"20204377","CountyId":"20204694","CityId":"20204992","AddressId":"401528098","RoadLinkId":"359833281"}}},{"Relevance":1.0,"Distance":58.0,"MatchLevel":"houseNumber","MatchQuality":{"Country":1.0,"State":1.0,"County":1.0,"City":1.0,"Street":[1.0],"HouseNumber":1.0,"PostalCode":1.0},"MatchType":"interpolated","Location":{"LocationId":"NT_bRvi4zR6xmWfC-RyaujCeA_xETNBB","LocationType":"point","DisplayPosition":{"Latitude":50.95109,"Longitude":3.13498},"MapView":{"TopLeft":{"Latitude":50.9522142,"Longitude":3.1331956},"BottomRight":{"Latitude":50.9499658,"Longitude":3.1367644}},"Address":{"Label":"Ardooisesteenweg 115A, 8800 Roeselare, België","Country":"BEL","State":"Vlaanderen","County":"West-Vlaanderen","City":"Roeselare","Street":"Ardooisesteenweg","HouseNumber":"115A","PostalCode":"8800","AdditionalData":[{"value":"België","key":"CountryName"},{"value":"Vlaanderen","key":"StateName"},{"value":"West-Vlaanderen","key":"CountyName"}]},"MapReference":{"ReferenceId":"1037858590","Spot":0.25,"SideOfStreet":"left","CountryId":"20128886","StateId":"20204377","CountyId":"20204694","CityId":"20204992","AddressId":"401752601","RoadLinkId":"359833284"}}},{"Relevance":1.0,"Distance":59.6,"MatchLevel":"houseNumber","MatchQuality":{"Country":1.0,"State":1.0,"County":1.0,"City":1.0,"Street":[1.0],"HouseNumber":1.0,"PostalCode":1.0},"MatchType":"interpolated","Location":{"LocationId":"NT_bRvi4zR6xmWfC-RyaujCeA_4YD","LocationType":"point","DisplayPosition":{"Latitude":50.95026,"Longitude":3.13403},"MapView":{"TopLeft":{"Latitude":50.9513842,"Longitude":3.1322456},"BottomRight":{"Latitude":50.9491358,"Longitude":3.1358144}},"Address":{"Label":"Ardooisesteenweg 86, 8800 Roeselare, België","Country":"BEL","State":"Vlaanderen","County":"West-Vlaanderen","City":"Roeselare","Street":"Ardooisesteenweg","HouseNumber":"86","PostalCode":"8800","AdditionalData":[{"value":"België","key":"CountryName"},{"value":"Vlaanderen","key":"StateName"},{"value":"West-Vlaanderen","key":"CountyName"}]},"MapReference":{"ReferenceId":"845032864","Spot":1.0,"SideOfStreet":"right","CountryId":"20128886","StateId":"20204377","CountyId":"20204694","CityId":"20204992","AddressId":"400025994","RoadLinkId":"226446684"}}},{"Relevance":1.0,"Distance":67.3,"MatchLevel":"houseNumber","MatchQuality":{"Country":1.0,"State":1.0,"County":1.0,"City":1.0,"Street":[1.0],"HouseNumber":1.0,"PostalCode":1.0},"MatchType":"interpolated","Location":{"LocationId":"NT_m1524grSt0NkSjDepfbeMA_xYD","LocationType":"point","DisplayPosition":{"Latitude":50.95056,"Longitude":3.13343},"MapView":{"TopLeft":{"Latitude":50.9516842,"Longitude":3.1316456},"BottomRight":{"Latitude":50.9494358,"Longitude":3.1352144}},"Address":{"Label":"Sint-Jorisstraat 16, 8800 Roeselare, België","Country":"BEL","State":"Vlaanderen","County":"West-Vlaanderen","City":"Roeselare","Street":"Sint-Jorisstraat","HouseNumber":"16","PostalCode":"8800","AdditionalData":[{"value":"België","key":"CountryName"},{"value":"Vlaanderen","key":"StateName"},{"value":"West-Vlaanderen","key":"CountyName"}]},"MapReference":{"ReferenceId":"53974557","Spot":0.39,"SideOfStreet":"right","CountryId":"20128886","StateId":"20204377","CountyId":"20204694","CityId":"20204992","AddressId":"401699520","RoadLinkId":"31033510"}}},{"Relevance":1.0,"Distance":75.9,"MatchLevel":"houseNumber","MatchQuality":{"Country":1.0,"State":1.0,"County":1.0,"City":1.0,"Street":[1.0],"HouseNumber":1.0,"PostalCode":1.0},"MatchType":"interpolated","Location":{"LocationId":"NT_b2M1z2cMLfbvV.txG-V26C_1A","LocationType":"point","DisplayPosition":{"Latitude":50.94984,"Longitude":3.13401},"MapView":{"TopLeft":{"Latitude":50.9509642,"Longitude":3.1322256},"BottomRight":{"Latitude":50.9487158,"Longitude":3.1357944}},"Address":{"Label":"Spinnersstraat 5, 8800 Roeselare, België","Country":"BEL","State":"Vlaanderen","County":"West-Vlaanderen","City":"Roeselare","Street":"Spinnersstraat","HouseNumber":"5","PostalCode":"8800","AdditionalData":[{"value":"België","key":"CountryName"},{"value":"Vlaanderen","key":"StateName"},{"value":"West-Vlaanderen","key":"CountyName"}]},"MapReference":{"ReferenceId":"53713973","Spot":0.84,"SideOfStreet":"right","CountryId":"20128886","StateId":"20204377","CountyId":"20204694","CityId":"20204992","AddressId":"401285303","RoadLinkId":"30297498"}}},{"Relevance":1.0,"Distance":89.8,"MatchLevel":"houseNumber","MatchQuality":{"Country":1.0,"State":1.0,"County":1.0,"City":1.0,"Street":[1.0],"HouseNumber":1.0,"PostalCode":1.0},"MatchType":"interpolated","Location":{"LocationId":"NT_bRvi4zR6xmWfC-RyaujCeA_4AD","LocationType":"point","DisplayPosition":{"Latitude":50.9501,"Longitude":3.13367},"MapView":{"TopLeft":{"Latitude":50.9512242,"Longitude":3.1318856},"BottomRight":{"Latitude":50.9489758,"Longitude":3.1354544}},"Address":{"Label":"Ardooisesteenweg 80, 8800 Roeselare, België","Country":"BEL","State":"Vlaanderen","County":"West-Vlaanderen","City":"Roeselare","Street":"Ardooisesteenweg","HouseNumber":"80","PostalCode":"8800","AdditionalData":[{"value":"België","key":"CountryName"},{"value":"Vlaanderen","key":"StateName"},{"value":"West-Vlaanderen","key":"CountyName"}]},"MapReference":{"ReferenceId":"845032863","Spot":0.67,"SideOfStreet":"right","CountryId":"20128886","StateId":"20204377","CountyId":"20204694","CityId":"20204992","AddressId":"400938970","RoadLinkId":"226446682"}}},{"Relevance":1.0,"Distance":103.4,"MatchLevel":"houseNumber","MatchQuality":{"Country":1.0,"State":1.0,"County":1.0,"City":1.0,"Street":[1.0],"HouseNumber":1.0,"PostalCode":1.0},"MatchType":"interpolated","Location":{"LocationId":"NT_bRvi4zR6xmWfC-RyaujCeA_xEjN","LocationType":"point","DisplayPosition":{"Latitude":50.95089,"Longitude":3.13621},"MapView":{"TopLeft":{"Latitude":50.9520142,"Longitude":3.1344256},"BottomRight":{"Latitude":50.9497658,"Longitude":3.1379944}},"Address":{"Label":"Ardooisesteenweg 116, 8800 Roeselare, België","Country":"BEL","State":"Vlaanderen","County":"West-Vlaanderen","City":"Roeselare","Street":"Ardooisesteenweg","HouseNumber":"116","PostalCode":"8800","AdditionalData":[{"value":"België","key":"CountryName"},{"value":"Vlaanderen","key":"StateName"},{"value":"West-Vlaanderen","key":"CountyName"}]},"MapReference":{"ReferenceId":"845032866","Spot":0.05,"SideOfStreet":"right","CountryId":"20128886","StateId":"20204377","CountyId":"20204694","CityId":"20204992","AddressId":"400008364","RoadLinkId":"226446688"}}}]}]}}