{"Response":{"MetaInfo":{"Timestamp":"2020-03-28T09:58:10.289+0000","NextPageInformation":"2"},"View":[{"_type":"SearchResultsViewType","ViewId":0,"Result":[{"Relevance":1.0,"Distance":0.0,"Direction":0.0,"MatchLevel":"district","MatchQuality":{"Country":1.0,"State":1.0,"County":1.0,"City":1.0,"District":1.0,"PostalCode":1.0},"Location":{"LocationId":"NT_-M8mm-tgXIQXvWfyMjF.tC","LocationType":"point","DisplayPosition":{"Latitude":50.9406611,"Longitude":17.2960033},"MapView":{"TopLeft":{"Latitude":50.96078,"Longitude":17.2511},"BottomRight":{"Latitude":50.91808,"Longitude":17.3369}},"Address":{"Label":"Oława, Woj. Dolnośląskie, Polska","Country":"POL","State":"Woj. Dolnośląskie","County":"Powiat Oławski","City":"Oława","District":"Oława","PostalCode":"55-200","AdditionalData":[{"value":"Polska","key":"CountryName"},{"value":"Woj. Dolnośląskie","key":"StateName"},{"value":"Powiat Oławski","key":"CountyName"}]},"MapReference":{"ReferenceId":"1104869876","SideOfStreet":"neither","CountryId":"20624059","StateId":"20625002","CountyId":"20625196","CityId":"20680650","DistrictId":"20680651"}}},{"Relevance":1.0,"Distance":17.9,"MatchLevel":"houseNumber","MatchQuality":{"Country":1.0,"State":1.0,"County":1.0,"City":1.0,"District":1.0,"Street":[1.0],"HouseNumber":1.0,"PostalCode":1.0},"MatchType":"interpolated","Location":{"LocationId":"NT_jX4LlB1mj-bVYsWvLG4ImD_xQD","LocationType":"point","DisplayPosition":{"Latitude":50.94017,"Longitude":17.29548},"MapView":{"TopLeft":{"Latitude":50.9412942,"Longitude":17.293696},"BottomRight":{"Latitude":50.9390458,"Longitude":17.297264}},"Address":{"Label":"ulica 11 Listopada 14, 55-200 Oława, Polska","Country":"POL","State":"Woj. Dolnośląskie","County":"Powiat Oławski","City":"Oława","District":"Oława","Street":"ulica 11 Listopada","HouseNumber":"14","PostalCode":"55-200","AdditionalData":[{"value":"Polska","key":"CountryName"},{"value":"Woj. Dolnośląskie","key":"StateName"},{"value":"Powiat Oławski","key":"CountyName"}]},"MapReference":{"ReferenceId":"920860686","Spot":0.54,"SideOfStreet":"right","CountryId":"20624059","StateId":"20625002","CountyId":"20625196","CityId":"20680650","DistrictId":"20680651","AddressId":"701640666","RoadLinkId":"277820971"}}},{"Relevance":1.0,"Distance":29.3,"MatchLevel":"houseNumber","MatchQuality":{"Country":1.0,"State":1.0,"County":1.0,"City":1.0,"District":1.0,"Street":[1.0],"HouseNumber":1.0,"PostalCode":1.0},"MatchType":"interpolated","Location":{"LocationId":"NT_GegyVApQmNJXs5B1Wz8YIA_zETQ","LocationType":"point","DisplayPosition":{"Latitude":50.94101,"Longitude":17.29649},"MapView":{"TopLeft":{"Latitude":50.9421342,"Longitude":17.294706},"BottomRight":{"Latitude":50.9398858,"Longitude":17.298274}},"Address":{"Label":"ulica Brzeska 31A, 55-200 Oława, Polska","Country":"POL","State":"Woj. Dolnośląskie","County":"Powiat Oławski","City":"Oława","District":"Oława","Street":"ulica Brzeska","HouseNumber":"31A","PostalCode":"55-200","AdditionalData":[{"value":"Polska","key":"CountryName"},{"value":"Woj. Dolnośląskie","key":"StateName"},{"value":"Powiat Oławski","key":"CountyName"}]},"MapReference":{"ReferenceId":"594226396","Spot":0.54,"SideOfStreet":"left","CountryId":"20624059","StateId":"20625002","CountyId":"20625196","CityId":"20680650","DistrictId":"20680651","AddressId":"732091342","RoadLinkId":"96246716"}}},{"Relevance":1.0,"Distance":34.1,"MatchLevel":"street","MatchQuality":{"Country":1.0,"State":1.0,"County":1.0,"City":1.0,"District":1.0,"Street":[1.0],"PostalCode":1.0},"Location":{"LocationId":"NT_Mk-POALFwCsgG9TWGV7.FC_l_594226530_L","LocationType":"point","DisplayPosition":{"Latitude":50.9403701,"Longitude":17.2961551},"MapView":{"TopLeft":{"Latitude":50.94043,"Longitude":17.29581},"BottomRight":{"Latitude":50.94019,"Longitude":17.29627}},"Address":{"Label":"ulica Czesława Miłosza, 55-200 Oława, Polska","Country":"POL","State":"Woj. Dolnośląskie","County":"Powiat Oławski","City":"Oława","District":"Oława","Street":"ulica Czesława Miłosza","PostalCode":"55-200","AdditionalData":[{"value":"Polska","key":"CountryName"},{"value":"Woj. Dolnośląskie","key":"StateName"},{"value":"Powiat Oławski","key":"CountyName"}]},"MapReference":{"ReferenceId":"594226530","Spot":0.75,"SideOfStreet":"left","CountryId":"20624059","StateId":"20625002","CountyId":"20625196","CityId":"20680650","DistrictId":"20680651"}}},{"Relevance":1.0,"Distance":34.1,"MatchLevel":"houseNumber","MatchQuality":{"Country":1.0,"State":1.0,"County":1.0,"City":1.0,"District":1.0,"Street":[1.0],"HouseNumber":1.0,"PostalCode":1.0},"MatchType":"interpolated","Location":{"LocationId":"NT_RSfy1tdHG1ehmCUok3b8RB_xEE","LocationType":"point","DisplayPosition":{"Latitude":50.94054,"Longitude":17.29645},"MapView":{"TopLeft":{"Latitude":50.9416642,"Longitude":17.294666},"BottomRight":{"Latitude":50.9394158,"Longitude":17.298234}},"Address":{"Label":"ulica 1 Maja 1A, 55-200 Oława, Polska","Country":"POL","State":"Woj. Dolnośląskie","County":"Powiat Oławski","City":"Oława","District":"Oława","Street":"ulica 1 Maja","HouseNumber":"1A","PostalCode":"55-200","AdditionalData":[{"value":"Polska","key":"CountryName"},{"value":"Woj. Dolnośląskie","key":"StateName"},{"value":"Powiat Oławski","key":"CountyName"}]},"MapReference":{"ReferenceId":"594226460","Spot":0.4,"SideOfStreet":"right","CountryId":"20624059","StateId":"20625002","CountyId":"20625196","CityId":"20680650","DistrictId":"20680651","AddressId":"731987900","RoadLinkId":"276945953"}}},{"Relevance":1.0,"Distance":51.1,"MatchLevel":"houseNumber","MatchQuality":{"Country":1.0,"State":1.0,"County":1.0,"City":1.0,"District":1.0,"Street":[1.0],"HouseNumber":1.0,"PostalCode":1.0},"MatchType":"interpolated","Location":{"LocationId":"NT_WixoXG7F86sQZhzLoWYCUD_zA","LocationType":"point","DisplayPosition":{"Latitude":50.94121,"Longitude":17.2957},"MapView":{"TopLeft":{"Latitude":50.9423342,"Longitude":17.293916},"BottomRight":{"Latitude":50.9400858,"Longitude":17.297484}},"Address":{"Label":"ulica Karola Miarki 3, 55-200 Oława, Polska","Country":"POL","State":"Woj. Dolnośląskie","County":"Powiat Oławski","City":"Oława","District":"Oława","Street":"ulica Karola Miarki","HouseNumber":"3","PostalCode":"55-200","AdditionalData":[{"value":"Polska","key":"CountryName"},{"value":"Woj. Dolnośląskie","key":"StateName"},{"value":"Powiat Oławski","key":"CountyName"}]},"MapReference":{"ReferenceId":"594226275","Spot":0.56,"SideOfStreet":"right","CountryId":"20624059","StateId":"20625002","CountyId":"20625196","CityId":"20680650","DistrictId":"20680651","AddressId":"210606898","RoadLinkId":"96532339"}}},{"Relevance":1.0,"Distance":54.0,"MatchLevel":"houseNumber","MatchQuality":{"Country":1.0,"State":1.0,"County":1.0,"City":1.0,"District":1.0,"Street":[1.0],"HouseNumber":1.0,"PostalCode":1.0},"MatchType":"interpolated","Location":{"LocationId":"NT_RSfy1tdHG1ehmCUok3b8RB_xA","LocationType":"point","DisplayPosition":{"Latitude":50.94059,"Longitude":17.29691},"MapView":{"TopLeft":{"Latitude":50.9417142,"Longitude":17.295126},"BottomRight":{"Latitude":50.9394658,"Longitude":17.298694}},"Address":{"Label":"ulica 1 Maja 1, 55-200 Oława, Polska","Country":"POL","State":"Woj. Dolnośląskie","County":"Powiat Oławski","City":"Oława","District":"Oława","Street":"ulica 1 Maja","HouseNumber":"1","PostalCode":"55-200","AdditionalData":[{"value":"Polska","key":"CountryName"},{"value":"Woj. Dolnośląskie","key":"StateName"},{"value":"Powiat Oławski","key":"CountyName"}]},"MapReference":{"ReferenceId":"1006242695","Spot":0.77,"SideOfStreet":"left","CountryId":"20624059","StateId":"20625002","CountyId":"20625196","CityId":"20680650","DistrictId":"20680651","AddressId":"210987452","RoadLinkId":"331506520"}}},{"Relevance":1.0,"Distance":66.3,"MatchLevel":"houseNumber","MatchQuality":{"Country":1.0,"State":1.0,"County":1.0,"City":1.0,"District":1.0,"Street":[1.0],"HouseNumber":1.0,"PostalCode":1.0},"MatchType":"interpolated","Location":{"LocationId":"NT_jX4LlB1mj-bVYsWvLG4ImD_ycD","LocationType":"point","DisplayPosition":{"Latitude":50.94039,"Longitude":17.29516},"MapView":{"TopLeft":{"Latitude":50.9415142,"Longitude":17.293376},"BottomRight":{"Latitude":50.9392658,"Longitude":17.296944}},"Address":{"Label":"ulica 11 Listopada 27, 55-200 Oława, Polska","Country":"POL","State":"Woj. Dolnośląskie","County":"Powiat Oławski","City":"Oława","District":"Oława","Street":"ulica 11 Listopada","HouseNumber":"27","PostalCode":"55-200","AdditionalData":[{"value":"Polska","key":"CountryName"},{"value":"Woj. Dolnośląskie","key":"StateName"},{"value":"Powiat Oławski","key":"CountyName"}]},"MapReference":{"ReferenceId":"920871853","Spot":0.6,"SideOfStreet":"left","CountryId":"20624059","StateId":"20625002","CountyId":"20625196","CityId":"20680650","DistrictId":"20680651","AddressId":"701640642","RoadLinkId":"277832936"}}},{"Relevance":1.0,"Distance":70.5,"MatchLevel":"houseNumber","MatchQuality":{"Country":1.0,"State":1.0,"County":1.0,"City":1.0,"District":1.0,"Street":[1.0],"HouseNumber":1.0,"PostalCode":1.0},"MatchType":"interpolated","Location":{"LocationId":"NT_Mk-POALFwCsgG9TWGV7.FC_zA","LocationType":"point","DisplayPosition":{"Latitude":50.94023,"Longitude":17.29672},"MapView":{"TopLeft":{"Latitude":50.9413542,"Longitude":17.294936},"BottomRight":{"Latitude":50.9391058,"Longitude":17.298504}},"Address":{"Label":"ulica Czesława Miłosza 3, 55-200 Oława, Polska","Country":"POL","State":"Woj. Dolnośląskie","County":"Powiat Oławski","City":"Oława","District":"Oława","Street":"ulica Czesława Miłosza","HouseNumber":"3","PostalCode":"55-200","AdditionalData":[{"value":"Polska","key":"CountryName"},{"value":"Woj. Dolnośląskie","key":"StateName"},{"value":"Powiat Oławski","key":"CountyName"}]},"MapReference":{"ReferenceId":"1006242693","Spot":0.54,"SideOfStreet":"left","CountryId":"20624059","StateId":"20625002","CountyId":"20625196","CityId":"20680650","DistrictId":"20680651","AddressId":"731812987","RoadLinkId":"331506518"}}},{"Relevance":1.0,"Distance":70.8,"MatchLevel":"street","MatchQuality":{"Country":1.0,"State":1.0,"County":1.0,"City":1.0,"District":1.0,"Street":[1.0],"PostalCode":1.0},"Location":{"LocationId":"NT_GegyVApQmNJXs5B1Wz8YIA_l_594226238_R","LocationType":"point","DisplayPosition":{"Latitude":50.94127,"Longitude":17.2963},"MapView":{"TopLeft":{"Latitude":50.94139,"Longitude":17.2963},"BottomRight":{"Latitude":50.94127,"Longitude":17.29642}},"Address":{"Label":"ulica Brzeska, 55-200 Oława, Polska","Country":"POL","State":"Woj. Dolnośląskie","County":"Powiat Oławski","City":"Oława","District":"Oława","Street":"ulica Brzeska","PostalCode":"55-200","AdditionalData":[{"value":"Polska","key":"CountryName"},{"value":"Woj. Dolnośląskie","key":"StateName"},{"value":"Powiat Oławski","key":"CountyName"}]},"MapReference":{"ReferenceId":"594226238","Spot":0.0,"SideOfStreet":"right","CountryId":"20624059","StateId":"20625002","CountyId":"20625196","CityId":"20680650","DistrictId":"20680651"}}}]}]}}