{"Response":{"MetaInfo":{"Timestamp":"2020-03-28T10:23:24.909+0000","NextPageInformation":"2"},"View":[{"_type":"SearchResultsViewType","ViewId":0,"Result":[{"Relevance":1.0,"Distance":0.0,"Direction":0.0,"MatchLevel":"district","MatchQuality":{"Country":1.0,"State":1.0,"County":1.0,"City":1.0,"District":1.0,"PostalCode":1.0},"Location":{"LocationId":"NT_GRQZciFPZ5RPJJcbDuve2A","LocationType":"point","DisplayPosition":{"Latitude":50.9115428,"Longitude":9.2424776},"MapView":{"TopLeft":{"Latitude":50.92983,"Longitude":9.21861},"BottomRight":{"Latitude":50.90001,"Longitude":9.24918}},"Address":{"Label":"Ziegenhain, Schwalmstadt, Hessen, Deutschland","Country":"DEU","State":"Hessen","County":"Schwalm-Eder-Kreis","City":"Schwalmstadt","District":"Ziegenhain","PostalCode":"34613","AdditionalData":[{"value":"Deutschland","key":"CountryName"},{"value":"Hessen","key":"StateName"},{"value":"Schwalm-Eder-Kreis","key":"CountyName"}]},"MapReference":{"ReferenceId":"78680912","SideOfStreet":"neither","CountryId":"20147700","StateId":"20160993","CountyId":"20163458","CityId":"20163634","DistrictId":"20163646"}}},{"Relevance":1.0,"Distance":4.8,"MatchLevel":"houseNumber","MatchQuality":{"Country":1.0,"State":1.0,"County":1.0,"City":1.0,"District":1.0,"Street":[1.0],"HouseNumber":1.0,"PostalCode":1.0},"MatchType":"interpolated","Location":{"LocationId":"NT_5FxCSDJ1oDFrzAEb0Apu9C_zA","LocationType":"point","DisplayPosition":{"Latitude":50.9115,"Longitude":9.24247},"MapView":{"TopLeft":{"Latitude":50.9126242,"Longitude":9.2406871},"BottomRight":{"Latitude":50.9103758,"Longitude":9.2442529}},"Address":{"Label":"Badeweg 3, 34613 Schwalmstadt, Deutschland","Country":"DEU","State":"Hessen","County":"Schwalm-Eder-Kreis","City":"Schwalmstadt","District":"Ziegenhain","Street":"Badeweg","HouseNumber":"3","PostalCode":"34613","AdditionalData":[{"value":"Deutschland","key":"CountryName"},{"value":"Hessen","key":"StateName"},{"value":"Schwalm-Eder-Kreis","key":"CountyName"}]},"MapReference":{"ReferenceId":"78680906","Spot":0.1,"SideOfStreet":"right","CountryId":"20147700","StateId":"20160993","CountyId":"20163458","CityId":"20163634","DistrictId":"20163646","AddressId":"187265040","RoadLinkId":"34497093"}}},{"Relevance":1.0,"Distance":5.5,"MatchLevel":"street","MatchQuality":{"Country":1.0,"State":1.0,"County":1.0,"City":1.0,"District":1.0,"PostalCode":1.0},"Location":{"LocationId":"NT_SxKrq4K1tjU4yYdrTrIYmC_l_78680907_L","LocationType":"point","DisplayPosition":{"Latitude":50.9115493,"Longitude":9.2425551},"MapView":{"TopLeft":{"Latitude":50.91204,"Longitude":9.24244},"BottomRight":{"Latitude":50.91149,"Longitude":9.24256}},"Address":{"Label":"34613 Schwalmstadt, Deutschland","Country":"DEU","State":"Hessen","County":"Schwalm-Eder-Kreis","City":"Schwalmstadt","District":"Ziegenhain","PostalCode":"34613","AdditionalData":[{"value":"Deutschland","key":"CountryName"},{"value":"Hessen","key":"StateName"},{"value":"Schwalm-Eder-Kreis","key":"CountyName"}]},"MapReference":{"ReferenceId":"78680907","Spot":0.1,"SideOfStreet":"left","CountryId":"20147700","StateId":"20160993","CountyId":"20163458","CityId":"20163634","DistrictId":"20163646"}}},{"Relevance":1.0,"Distance":8.2,"MatchLevel":"street","MatchQuality":{"Country":1.0,"State":1.0,"County":1.0,"City":1.0,"District":1.0,"Street":[1.0],"PostalCode":1.0},"Location":{"LocationId":"NT_5FxCSDJ1oDFrzAEb0Apu9C_l_78680905_R","LocationType":"point","DisplayPosition":{"Latitude":50.91149,"Longitude":9.24256},"MapView":{"TopLeft":{"Latitude":50.91149,"Longitude":9.24256},"BottomRight":{"Latitude":50.91142,"Longitude":9.24299}},"Address":{"Label":"Badeweg, 34613 Schwalmstadt, Deutschland","Country":"DEU","State":"Hessen","County":"Schwalm-Eder-Kreis","City":"Schwalmstadt","District":"Ziegenhain","Street":"Badeweg","PostalCode":"34613","AdditionalData":[{"value":"Deutschland","key":"CountryName"},{"value":"Hessen","key":"StateName"},{"value":"Schwalm-Eder-Kreis","key":"CountyName"}]},"MapReference":{"ReferenceId":"78680905","Spot":1.0,"SideOfStreet":"right","CountryId":"20147700","StateId":"20160993","CountyId":"20163458","CityId":"20163634","DistrictId":"20163646"}}},{"Relevance":1.0,"Distance":28.0,"MatchLevel":"houseNumber","MatchQuality":{"Country":1.0,"State":1.0,"County":1.0,"City":1.0,"District":1.0,"Street":[1.0],"HouseNumber":1.0,"PostalCode":1.0},"MatchType":"interpolated","Location":{"LocationId":"NT_uCBCSugfK1D5mZCWHe69xC_xED","LocationType":"point","DisplayPosition":{"Latitude":50.91129,"Longitude":9.24296},"MapView":{"TopLeft":{"Latitude":50.9124142,"Longitude":9.2411771},"BottomRight":{"Latitude":50.9101658,"Longitude":9.2447429}},"Address":{"Label":"Ernst-Ihle-Straße 11, 34613 Schwalmstadt, Deutschland","Country":"DEU","State":"Hessen","County":"Schwalm-Eder-Kreis","City":"Schwalmstadt","District":"Ziegenhain","Street":"Ernst-Ihle-Straße","HouseNumber":"11","PostalCode":"34613","AdditionalData":[{"value":"Deutschland","key":"CountryName"},{"value":"Hessen","key":"StateName"},{"value":"Schwalm-Eder-Kreis","key":"CountyName"}]},"MapReference":{"ReferenceId":"61904157","Spot":0.82,"SideOfStreet":"left","CountryId":"20147700","StateId":"20160993","CountyId":"20163458","CityId":"20163634","DistrictId":"20163646","AddressId":"187449248","RoadLinkId":"34683973"}}},{"Relevance":1.0,"Distance":38.4,"MatchLevel":"street","MatchQuality":{"Country":1.0,"State":1.0,"County":1.0,"City":1.0,"District":1.0,"Street":[1.0],"PostalCode":1.0},"Location":{"LocationId":"NT_5FxCSDJ1oDFrzAEb0Apu9C_l_61904153_L","LocationType":"point","DisplayPosition":{"Latitude":50.91142,"Longitude":9.24299},"MapView":{"TopLeft":{"Latitude":50.91142,"Longitude":9.24299},"BottomRight":{"Latitude":50.91135,"Longitude":9.2432}},"Address":{"Label":"Badeweg, 34613 Schwalmstadt, Deutschland","Country":"DEU","State":"Hessen","County":"Schwalm-Eder-Kreis","City":"Schwalmstadt","District":"Ziegenhain","Street":"Badeweg","PostalCode":"34613","AdditionalData":[{"value":"Deutschland","key":"CountryName"},{"value":"Hessen","key":"StateName"},{"value":"Schwalm-Eder-Kreis","key":"CountyName"}]},"MapReference":{"ReferenceId":"61904153","Spot":1.0,"SideOfStreet":"left","CountryId":"20147700","StateId":"20160993","CountyId":"20163458","CityId":"20163634","DistrictId":"20163646"}}},{"Relevance":1.0,"Distance":43.0,"MatchLevel":"houseNumber","MatchQuality":{"Country":1.0,"State":1.0,"County":1.0,"City":1.0,"District":1.0,"Street":[1.0],"HouseNumber":1.0,"PostalCode":1.0},"MatchType":"interpolated","Location":{"LocationId":"NT_siJm9Bt97a8vt7PoaLUMPC_0A","LocationType":"point","DisplayPosition":{"Latitude":50.91203,"Longitude":9.24232},"MapView":{"TopLeft":{"Latitude":50.9131542,"Longitude":9.2405371},"BottomRight":{"Latitude":50.9109058,"Longitude":9.2441029}},"Address":{"Label":"Wiederholdstraße 4, 34613 Schwalmstadt, Deutschland","Country":"DEU","State":"Hessen","County":"Schwalm-Eder-Kreis","City":"Schwalmstadt","District":"Ziegenhain","Street":"Wiederholdstraße","HouseNumber":"4","PostalCode":"34613","AdditionalData":[{"value":"Deutschland","key":"CountryName"},{"value":"Hessen","key":"StateName"},{"value":"Schwalm-Eder-Kreis","key":"CountyName"}]},"MapReference":{"ReferenceId":"78681013","Spot":0.48,"SideOfStreet":"right","CountryId":"20147700","StateId":"20160993","CountyId":"20163458","CityId":"20163634","DistrictId":"20163646","AddressId":"187465581","RoadLinkId":"34646742"}}},{"Relevance":1.0,"Distance":45.7,"MatchLevel":"houseNumber","MatchQuality":{"Country":1.0,"State":1.0,"County":1.0,"City":1.0,"District":1.0,"Street":[1.0],"HouseNumber":1.0,"PostalCode":1.0},"MatchType":"interpolated","Location":{"LocationId":"NT_siJm9Bt97a8vt7PoaLUMPC_0EE","LocationType":"point","DisplayPosition":{"Latitude":50.91205,"Longitude":9.24253},"MapView":{"TopLeft":{"Latitude":50.9131742,"Longitude":9.2407471},"BottomRight":{"Latitude":50.9109258,"Longitude":9.2443129}},"Address":{"Label":"Wiederholdstraße 4A, 34613 Schwalmstadt, Deutschland","Country":"DEU","State":"Hessen","County":"Schwalm-Eder-Kreis","City":"Schwalmstadt","District":"Ziegenhain","Street":"Wiederholdstraße","HouseNumber":"4A","PostalCode":"34613","AdditionalData":[{"value":"Deutschland","key":"CountryName"},{"value":"Hessen","key":"StateName"},{"value":"Schwalm-Eder-Kreis","key":"CountyName"}]},"MapReference":{"ReferenceId":"916641457","Spot":0.04,"SideOfStreet":"right","CountryId":"20147700","StateId":"20160993","CountyId":"20163458","CityId":"20163634","DistrictId":"20163646","AddressId":"187390731","RoadLinkId":"274094888"}}},{"Relevance":1.0,"Distance":46.5,"MatchLevel":"houseNumber","MatchQuality":{"Country":1.0,"State":1.0,"County":1.0,"City":1.0,"District":1.0,"Street":[1.0],"HouseNumber":1.0,"PostalCode":1.0},"MatchType":"interpolated","Location":{"LocationId":"NT_siJm9Bt97a8vt7PoaLUMPC_yA","LocationType":"point","DisplayPosition":{"Latitude":50.91201,"Longitude":9.24212},"MapView":{"TopLeft":{"Latitude":50.9131342,"Longitude":9.2403371},"BottomRight":{"Latitude":50.9108858,"Longitude":9.2439029}},"Address":{"Label":"Wiederholdstraße 2, 34613 Schwalmstadt, Deutschland","Country":"DEU","State":"Hessen","County":"Schwalm-Eder-Kreis","City":"Schwalmstadt","District":"Ziegenhain","Street":"Wiederholdstraße","HouseNumber":"2","PostalCode":"34613","AdditionalData":[{"value":"Deutschland","key":"CountryName"},{"value":"Hessen","key":"StateName"},{"value":"Schwalm-Eder-Kreis","key":"CountyName"}]},"MapReference":{"ReferenceId":"61904141","Spot":0.7,"SideOfStreet":"right","CountryId":"20147700","StateId":"20160993","CountyId":"20163458","CityId":"20163634","DistrictId":"20163646","AddressId":"186974109","RoadLinkId":"34826791"}}},{"Relevance":1.0,"Distance":62.0,"MatchLevel":"street","MatchQuality":{"Country":1.0,"State":1.0,"County":1.0,"City":1.0,"District":1.0,"Street":[1.0],"PostalCode":1.0},"Location":{"LocationId":"NT_.meHjnA.EXQh31bKDnUNhD_l_1227507251_R","LocationType":"point","DisplayPosition":{"Latitude":50.91197,"Longitude":9.24191},"MapView":{"TopLeft":{"Latitude":50.91214,"Longitude":9.2417},"BottomRight":{"Latitude":50.91197,"Longitude":9.24191}},"Address":{"Label":"Hessenallee, 34613 Schwalmstadt, Deutschland","Country":"DEU","State":"Hessen","County":"Schwalm-Eder-Kreis","City":"Schwalmstadt","District":"Ziegenhain","Street":"Hessenallee","PostalCode":"34613","AdditionalData":[{"value":"Deutschland","key":"CountryName"},{"value":"Hessen","key":"StateName"},{"value":"Schwalm-Eder-Kreis","key":"CountyName"}]},"MapReference":{"ReferenceId":"1227507251","Spot":0.0,"SideOfStreet":"right","CountryId":"20147700","StateId":"20160993","CountyId":"20163458","CityId":"20163634","DistrictId":"20163646"}}}]}]}}