{"Response":{"MetaInfo":{"Timestamp":"2020-03-28T10:22:24.245+0000","NextPageInformation":"2"},"View":[{"_type":"SearchResultsViewType","ViewId":0,"Result":[{"Relevance":1.0,"Distance":0.0,"Direction":0.0,"MatchLevel":"district","MatchQuality":{"Country":1.0,"State":1.0,"County":1.0,"City":1.0,"District":1.0,"PostalCode":1.0},"Location":{"LocationId":"NT_LbKc.3srV7ltg.luveu-KB","LocationType":"point","DisplayPosition":{"Latitude":50.9011574,"Longitude":14.802448},"MapView":{"TopLeft":{"Latitude":50.91246,"Longitude":14.76111},"BottomRight":{"Latitude":50.86929,"Longitude":14.84925}},"Address":{"Label":"Zittau, Sachsen, Deutschland","Country":"DEU","State":"Sachsen","County":"Görlitz","City":"Zittau","District":"Zittau","PostalCode":"02763","AdditionalData":[{"value":"Deutschland","key":"CountryName"},{"value":"Sachsen","key":"StateName"},{"value":"Görlitz","key":"CountyName"}]},"MapReference":{"ReferenceId":"1206417722","SideOfStreet":"neither","CountryId":"20147700","StateId":"20191185","CountyId":"20191443","CityId":"20193372","DistrictId":"20193374"}}},{"Relevance":1.0,"Distance":16.0,"MatchLevel":"houseNumber","MatchQuality":{"Country":1.0,"State":1.0,"County":1.0,"City":1.0,"District":1.0,"Street":[1.0],"HouseNumber":1.0,"PostalCode":1.0},"MatchType":"interpolated","Location":{"LocationId":"NT_z6JGWxan5ahN.6MffrHUJC_1A","LocationType":"point","DisplayPosition":{"Latitude":50.90108,"Longitude":14.80275},"MapView":{"TopLeft":{"Latitude":50.9022042,"Longitude":14.8009675},"BottomRight":{"Latitude":50.8999558,"Longitude":14.8045325}},"Address":{"Label":"Marschnerstraße 5, 02763 Zittau, Deutschland","Country":"DEU","State":"Sachsen","County":"Görlitz","City":"Zittau","District":"Zittau","Street":"Marschnerstraße","HouseNumber":"5","PostalCode":"02763","AdditionalData":[{"value":"Deutschland","key":"CountryName"},{"value":"Sachsen","key":"StateName"},{"value":"Görlitz","key":"CountyName"}]},"MapReference":{"ReferenceId":"540725872","Spot":0.12,"SideOfStreet":"left","CountryId":"20147700","StateId":"20191185","CountyId":"20191443","CityId":"20193372","DistrictId":"20193374","AddressId":"189773828","RoadLinkId":"40055238"}}},{"Relevance":1.0,"Distance":27.5,"MatchLevel":"houseNumber","MatchQuality":{"Country":1.0,"State":1.0,"County":1.0,"City":1.0,"District":1.0,"Street":[1.0],"HouseNumber":1.0,"PostalCode":1.0},"MatchType":"interpolated","Location":{"LocationId":"NT_4MeD-EBAzBfWwnyszmZ-GD_yA","LocationType":"point","DisplayPosition":{"Latitude":50.90099,"Longitude":14.80205},"MapView":{"TopLeft":{"Latitude":50.9021142,"Longitude":14.8002675},"BottomRight":{"Latitude":50.8998658,"Longitude":14.8038325}},"Address":{"Label":"Max-Lange-Straße 2, 02763 Zittau, Deutschland","Country":"DEU","State":"Sachsen","County":"Görlitz","City":"Zittau","District":"Zittau","Street":"Max-Lange-Straße","HouseNumber":"2","PostalCode":"02763","AdditionalData":[{"value":"Deutschland","key":"CountryName"},{"value":"Sachsen","key":"StateName"},{"value":"Görlitz","key":"CountyName"}]},"MapReference":{"ReferenceId":"540725878","Spot":0.46,"SideOfStreet":"right","CountryId":"20147700","StateId":"20191185","CountyId":"20191443","CityId":"20193372","DistrictId":"20193374","AddressId":"190293613","RoadLinkId":"40101408"}}},{"Relevance":1.0,"Distance":54.1,"MatchLevel":"houseNumber","MatchQuality":{"Country":1.0,"State":1.0,"County":1.0,"City":1.0,"District":1.0,"Street":[1.0],"HouseNumber":1.0,"PostalCode":1.0},"MatchType":"interpolated","Location":{"LocationId":"NT_z6JGWxan5ahN.6MffrHUJC_zIE","LocationType":"point","DisplayPosition":{"Latitude":50.90067,"Longitude":14.80271},"MapView":{"TopLeft":{"Latitude":50.9017942,"Longitude":14.8009275},"BottomRight":{"Latitude":50.8995458,"Longitude":14.8044925}},"Address":{"Label":"Marschnerstraße 3B, 02763 Zittau, Deutschland","Country":"DEU","State":"Sachsen","County":"Görlitz","City":"Zittau","District":"Zittau","Street":"Marschnerstraße","HouseNumber":"3B","PostalCode":"02763","AdditionalData":[{"value":"Deutschland","key":"CountryName"},{"value":"Sachsen","key":"StateName"},{"value":"Görlitz","key":"CountyName"}]},"MapReference":{"ReferenceId":"540725841","Spot":0.71,"SideOfStreet":"left","CountryId":"20147700","StateId":"20191185","CountyId":"20191443","CityId":"20193372","DistrictId":"20193374","AddressId":"190289611","RoadLinkId":"40133344"}}},{"Relevance":1.0,"Distance":77.8,"MatchLevel":"houseNumber","MatchQuality":{"Country":1.0,"State":1.0,"County":1.0,"City":1.0,"District":1.0,"Street":[1.0],"HouseNumber":1.0,"PostalCode":1.0},"MatchType":"interpolated","Location":{"LocationId":"NT_OF.sNSYS3Ie2AhrisCLCMB_xAD","LocationType":"point","DisplayPosition":{"Latitude":50.9012,"Longitude":14.80125},"MapView":{"TopLeft":{"Latitude":50.9023242,"Longitude":14.7994675},"BottomRight":{"Latitude":50.9000758,"Longitude":14.8030325}},"Address":{"Label":"Von-Ossietzky-Straße 10, 02763 Zittau, Deutschland","Country":"DEU","State":"Sachsen","County":"Görlitz","City":"Zittau","District":"Zittau","Street":"Von-Ossietzky-Straße","HouseNumber":"10","PostalCode":"02763","AdditionalData":[{"value":"Deutschland","key":"CountryName"},{"value":"Sachsen","key":"StateName"},{"value":"Görlitz","key":"CountyName"}]},"MapReference":{"ReferenceId":"540725889","Spot":0.17,"SideOfStreet":"right","CountryId":"20147700","StateId":"20191185","CountyId":"20191443","CityId":"20193372","DistrictId":"20193374","AddressId":"189767333","RoadLinkId":"39707533"}}},{"Relevance":1.0,"Distance":83.6,"MatchLevel":"houseNumber","MatchQuality":{"Country":1.0,"State":1.0,"County":1.0,"City":1.0,"District":1.0,"Street":[1.0],"HouseNumber":1.0,"PostalCode":1.0},"MatchType":"interpolated","Location":{"LocationId":"NT_ZyQ2qQtmdqt2vYUiCu5fjB_zA","LocationType":"point","DisplayPosition":{"Latitude":50.902,"Longitude":14.80226},"MapView":{"TopLeft":{"Latitude":50.9031242,"Longitude":14.8004775},"BottomRight":{"Latitude":50.9008758,"Longitude":14.8040425}},"Address":{"Label":"Schichtstraße 3, 02763 Zittau, Deutschland","Country":"DEU","State":"Sachsen","County":"Görlitz","City":"Zittau","District":"Zittau","Street":"Schichtstraße","HouseNumber":"3","PostalCode":"02763","AdditionalData":[{"value":"Deutschland","key":"CountryName"},{"value":"Sachsen","key":"StateName"},{"value":"Görlitz","key":"CountyName"}]},"MapReference":{"ReferenceId":"540725849","Spot":0.4,"SideOfStreet":"left","CountryId":"20147700","StateId":"20191185","CountyId":"20191443","CityId":"20193372","DistrictId":"20193374","AddressId":"190215867","RoadLinkId":"39814663"}}},{"Relevance":1.0,"Distance":102.2,"MatchLevel":"houseNumber","MatchQuality":{"Country":1.0,"State":1.0,"County":1.0,"City":1.0,"District":1.0,"Street":[1.0],"HouseNumber":1.0,"PostalCode":1.0},"MatchType":"interpolated","Location":{"LocationId":"NT_4MeD-EBAzBfWwnyszmZ-GD_2A","LocationType":"point","DisplayPosition":{"Latitude":50.90109,"Longitude":14.80092},"MapView":{"TopLeft":{"Latitude":50.9022142,"Longitude":14.7991375},"BottomRight":{"Latitude":50.8999658,"Longitude":14.8027025}},"Address":{"Label":"Max-Lange-Straße 6, 02763 Zittau, Deutschland","Country":"DEU","State":"Sachsen","County":"Görlitz","City":"Zittau","District":"Zittau","Street":"Max-Lange-Straße","HouseNumber":"6","PostalCode":"02763","AdditionalData":[{"value":"Deutschland","key":"CountryName"},{"value":"Sachsen","key":"StateName"},{"value":"Görlitz","key":"CountyName"}]},"MapReference":{"ReferenceId":"540725894","Spot":0.31,"SideOfStreet":"right","CountryId":"20147700","StateId":"20191185","CountyId":"20191443","CityId":"20193372","DistrictId":"20193374","AddressId":"190250213","RoadLinkId":"39722637"}}},{"Relevance":1.0,"Distance":107.4,"MatchLevel":"houseNumber","MatchQuality":{"Country":1.0,"State":1.0,"County":1.0,"City":1.0,"District":1.0,"Street":[1.0],"HouseNumber":1.0,"PostalCode":1.0},"MatchType":"interpolated","Location":{"LocationId":"NT_OF.sNSYS3Ie2AhrisCLCMB_4A","LocationType":"point","DisplayPosition":{"Latitude":50.90058,"Longitude":14.80118},"MapView":{"TopLeft":{"Latitude":50.9017042,"Longitude":14.7993975},"BottomRight":{"Latitude":50.8994558,"Longitude":14.8029625}},"Address":{"Label":"Von-Ossietzky-Straße 8, 02763 Zittau, Deutschland","Country":"DEU","State":"Sachsen","County":"Görlitz","City":"Zittau","District":"Zittau","Street":"Von-Ossietzky-Straße","HouseNumber":"8","PostalCode":"02763","AdditionalData":[{"value":"Deutschland","key":"CountryName"},{"value":"Sachsen","key":"StateName"},{"value":"Görlitz","key":"CountyName"}]},"MapReference":{"ReferenceId":"540725885","Spot":0.8,"SideOfStreet":"right","CountryId":"20147700","StateId":"20191185","CountyId":"20191443","CityId":"20193372","DistrictId":"20193374","AddressId":"189725248","RoadLinkId":"39622416"}}},{"Relevance":1.0,"Distance":118.7,"MatchLevel":"houseNumber","MatchQuality":{"Country":1.0,"State":1.0,"County":1.0,"City":1.0,"District":1.0,"Street":[1.0],"HouseNumber":1.0,"PostalCode":1.0},"MatchType":"interpolated","Location":{"LocationId":"NT_z6JGWxan5ahN.6MffrHUJC_xUD","LocationType":"point","DisplayPosition":{"Latitude":50.90219,"Longitude":14.8029},"MapView":{"TopLeft":{"Latitude":50.9033142,"Longitude":14.8011175},"BottomRight":{"Latitude":50.9010658,"Longitude":14.8046825}},"Address":{"Label":"Marschnerstraße 15, 02763 Zittau, Deutschland","Country":"DEU","State":"Sachsen","County":"Görlitz","City":"Zittau","District":"Zittau","Street":"Marschnerstraße","HouseNumber":"15","PostalCode":"02763","AdditionalData":[{"value":"Deutschland","key":"CountryName"},{"value":"Sachsen","key":"StateName"},{"value":"Görlitz","key":"CountyName"}]},"MapReference":{"ReferenceId":"540725843","Spot":0.12,"SideOfStreet":"left","CountryId":"20147700","StateId":"20191185","CountyId":"20191443","CityId":"20193372","DistrictId":"20193374","AddressId":"189868194","RoadLinkId":"40102570"}}},{"Relevance":1.0,"Distance":127.0,"MatchLevel":"houseNumber","MatchQuality":{"Country":1.0,"State":1.0,"County":1.0,"City":1.0,"District":1.0,"Street":[1.0],"HouseNumber":1.0,"PostalCode":1.0},"MatchType":"interpolated","Location":{"LocationId":"NT_iIpYccbwUyFxVyzceWNQ1C_yYD","LocationType":"point","DisplayPosition":{"Latitude":50.90003,"Longitude":14.80328},"MapView":{"TopLeft":{"Latitude":50.9011542,"Longitude":14.8014975},"BottomRight":{"Latitude":50.8989058,"Longitude":14.8050625}},"Address":{"Label":"Morawekstraße 26, 02763 Zittau, Deutschland","Country":"DEU","State":"Sachsen","County":"Görlitz","City":"Zittau","District":"Zittau","Street":"Morawekstraße","HouseNumber":"26","PostalCode":"02763","AdditionalData":[{"value":"Deutschland","key":"CountryName"},{"value":"Sachsen","key":"StateName"},{"value":"Görlitz","key":"CountyName"}]},"MapReference":{"ReferenceId":"540725192","Spot":0.72,"SideOfStreet":"right","CountryId":"20147700","StateId":"20191185","CountyId":"20191443","CityId":"20193372","DistrictId":"20193374","AddressId":"189834767","RoadLinkId":"40077993"}}}]}]}}