{"Response":{"MetaInfo":{"Timestamp":"2020-03-28T10:09:09.321+0000","NextPageInformation":"2"},"View":[{"_type":"SearchResultsViewType","ViewId":0,"Result":[{"Relevance":1.0,"Distance":0.0,"Direction":0.0,"MatchLevel":"district","MatchQuality":{"Country":1.0,"State":1.0,"County":1.0,"City":1.0,"District":1.0,"PostalCode":1.0},"Location":{"LocationId":"NT_g-LA-BqUeaLGHa1MyaTspD","LocationType":"point","DisplayPosition":{"Latitude":50.9802343,"Longitude":-3.2253189},"MapView":{"TopLeft":{"Latitude":50.9917,"Longitude":-3.24831},"BottomRight":{"Latitude":50.96789,"Longitude":-3.21233}},"Address":{"Label":"Wellington, England, United Kingdom","Country":"GBR","State":"England","County":"Somerset","City":"Wellington","District":"Wellington","PostalCode":"TA21 8","AdditionalData":[{"value":"United Kingdom","key":"CountryName"},{"value":"England","key":"StateName"},{"value":"Somerset","key":"CountyName"}]},"MapReference":{"ReferenceId":"1070763554","SideOfStreet":"neither","StateId":"20248595","CountyId":"20357053","CityId":"20357623","DistrictId":"20357624"}}},{"Relevance":1.0,"Distance":7.0,"MatchLevel":"postalCode","MatchQuality":{"PostalCode":1.0},"MatchType":"interpolated","Location":{"LocationId":"NT_fCzMs8RHrsTO1JURrhqy0D_l_26711184_L_2UD","LocationType":"point","DisplayPosition":{"Latitude":50.98019,"Longitude":-3.22539},"MapView":{"TopLeft":{"Latitude":50.9891832,"Longitude":-3.2396743},"BottomRight":{"Latitude":50.9711968,"Longitude":-3.2111057}},"Address":{"Label":"TA21 8QZ, Wellington, England, United Kingdom","Country":"GBR","State":"England","County":"Somerset","City":"Wellington","PostalCode":"TA21 8QZ","AdditionalData":[{"value":"United Kingdom","key":"CountryName"},{"value":"England","key":"StateName"},{"value":"Somerset","key":"CountyName"}]},"MapReference":{"ReferenceId":"26711184","Spot":0.78,"SideOfStreet":"neither","StateId":"20248595","CountyId":"20357053","CityId":"20357623"}}},{"Relevance":1.0,"Distance":7.8,"MatchLevel":"houseNumber","MatchQuality":{"Country":1.0,"State":1.0,"County":1.0,"City":1.0,"District":1.0,"Street":[1.0],"HouseNumber":1.0,"PostalCode":1.0},"MatchType":"interpolated","Location":{"LocationId":"NT_fCzMs8RHrsTO1JURrhqy0D_l_26711184_L_2UD","LocationType":"point","DisplayPosition":{"Latitude":50.9801644,"Longitude":-3.2253211},"MapView":{"TopLeft":{"Latitude":50.9812886,"Longitude":-3.2271067},"BottomRight":{"Latitude":50.9790403,"Longitude":-3.2235356}},"Address":{"Label":"65 High Street, Wellington, TA21 8, United Kingdom","Country":"GBR","State":"England","County":"Somerset","City":"Wellington","District":"Wellington","Street":"High Street","HouseNumber":"65","PostalCode":"TA21 8","AdditionalData":[{"value":"United Kingdom","key":"CountryName"},{"value":"England","key":"StateName"},{"value":"Somerset","key":"CountyName"}]},"MapReference":{"ReferenceId":"26711184","Spot":0.78,"SideOfStreet":"left","StateId":"20248595","CountyId":"20357053","CityId":"20357623","DistrictId":"20357624"}}},{"Relevance":1.0,"Distance":24.8,"MatchLevel":"houseNumber","MatchQuality":{"Country":1.0,"State":1.0,"County":1.0,"City":1.0,"District":1.0,"Street":[1.0],"HouseNumber":1.0,"PostalCode":1.0},"MatchType":"interpolated","Location":{"LocationId":"NT_2hHNASwqlexKcDcYo5fdcD_l_1145417950_L_2cD","LocationType":"point","DisplayPosition":{"Latitude":50.9803498,"Longitude":-3.225016},"MapView":{"TopLeft":{"Latitude":50.981474,"Longitude":-3.2268015},"BottomRight":{"Latitude":50.9792257,"Longitude":-3.2232304}},"Address":{"Label":"67 High Street, Wellington, TA21 8QY, United Kingdom","Country":"GBR","State":"England","County":"Somerset","City":"Wellington","District":"Wellington","Street":"High Street","HouseNumber":"67","PostalCode":"TA21 8QY","AdditionalData":[{"value":"United Kingdom","key":"CountryName"},{"value":"England","key":"StateName"},{"value":"Somerset","key":"CountyName"}]},"MapReference":{"ReferenceId":"1145417950","Spot":0.53,"SideOfStreet":"left","StateId":"20248595","CountyId":"20357053","CityId":"20357623","DistrictId":"20357624"}}},{"Relevance":1.0,"Distance":27.2,"MatchLevel":"houseNumber","MatchQuality":{"Country":1.0,"State":1.0,"County":1.0,"City":1.0,"District":1.0,"Street":[1.0],"HouseNumber":1.0,"PostalCode":1.0},"MatchType":"interpolated","Location":{"LocationId":"NT_Os47JpFHN5yM8epZRsokqD_l_1145417949_L_xA","LocationType":"point","DisplayPosition":{"Latitude":50.9801726,"Longitude":-3.224943},"MapView":{"TopLeft":{"Latitude":50.9812968,"Longitude":-3.2267285},"BottomRight":{"Latitude":50.9790485,"Longitude":-3.2231575}},"Address":{"Label":"1 Buckwell, Wellington, TA21 8TA, United Kingdom","Country":"GBR","State":"England","County":"Somerset","City":"Wellington","District":"Wellington","Street":"Buckwell","HouseNumber":"1","PostalCode":"TA21 8TA","AdditionalData":[{"value":"United Kingdom","key":"CountryName"},{"value":"England","key":"StateName"},{"value":"Somerset","key":"CountyName"}]},"MapReference":{"ReferenceId":"1145417949","Spot":0.87,"SideOfStreet":"left","StateId":"20248595","CountyId":"20357053","CityId":"20357623","DistrictId":"20357624"}}},{"Relevance":1.0,"Distance":39.5,"MatchLevel":"houseNumber","MatchQuality":{"Country":1.0,"State":1.0,"County":1.0,"City":1.0,"District":1.0,"Street":[1.0],"HouseNumber":1.0,"PostalCode":1.0},"MatchType":"interpolated","Location":{"LocationId":"NT_2hHNASwqlexKcDcYo5fdcD_l_1199663835_R_2YD","LocationType":"point","DisplayPosition":{"Latitude":50.9804547,"Longitude":-3.2248742},"MapView":{"TopLeft":{"Latitude":50.9815788,"Longitude":-3.2266597},"BottomRight":{"Latitude":50.9793305,"Longitude":-3.2230886}},"Address":{"Label":"66 High Street, Wellington, TA21 8RF, United Kingdom","Country":"GBR","State":"England","County":"Somerset","City":"Wellington","District":"Wellington","Street":"High Street","HouseNumber":"66","PostalCode":"TA21 8RF","AdditionalData":[{"value":"United Kingdom","key":"CountryName"},{"value":"England","key":"StateName"},{"value":"Somerset","key":"CountyName"}]},"MapReference":{"ReferenceId":"1199663835","Spot":0.56,"SideOfStreet":"right","StateId":"20248595","CountyId":"20357053","CityId":"20357623","DistrictId":"20357624"}}},{"Relevance":1.0,"Distance":48.8,"MatchLevel":"street","MatchQuality":{"Country":1.0,"State":1.0,"County":1.0,"City":1.0,"District":1.0,"PostalCode":1.0},"Location":{"LocationId":"NT_kiKPhXPG0XdW16mA28jCaA_l_1199861985_L","LocationType":"point","DisplayPosition":{"Latitude":50.9806352,"Longitude":-3.2250348},"MapView":{"TopLeft":{"Latitude":50.98212,"Longitude":-3.22713},"BottomRight":{"Latitude":50.98049,"Longitude":-3.22483}},"Address":{"Label":"Wellington, TA21 8, United Kingdom","Country":"GBR","State":"England","County":"Somerset","City":"Wellington","District":"Wellington","PostalCode":"TA21 8","AdditionalData":[{"value":"United Kingdom","key":"CountryName"},{"value":"England","key":"StateName"},{"value":"Somerset","key":"CountyName"}]},"MapReference":{"ReferenceId":"1199861985","Spot":0.09,"SideOfStreet":"left","StateId":"20248595","CountyId":"20357053","CityId":"20357623","DistrictId":"20357624"}}},{"Relevance":1.0,"Distance":55.7,"MatchLevel":"postalCode","MatchQuality":{"PostalCode":1.0},"MatchType":"interpolated","Location":{"LocationId":"NT_2hHNASwqlexKcDcYo5fdcD_l_1199663835_R_2YD","LocationType":"point","DisplayPosition":{"Latitude":50.98002,"Longitude":-3.2246},"MapView":{"TopLeft":{"Latitude":50.9890132,"Longitude":-3.2388842},"BottomRight":{"Latitude":50.9710268,"Longitude":-3.2103158}},"Address":{"Label":"TA21 8RG, Wellington, England, United Kingdom","Country":"GBR","State":"England","County":"Somerset","City":"Wellington","PostalCode":"TA21 8RG","AdditionalData":[{"value":"United Kingdom","key":"CountryName"},{"value":"England","key":"StateName"},{"value":"Somerset","key":"CountyName"}]},"MapReference":{"ReferenceId":"1199663835","Spot":0.56,"SideOfStreet":"neither","StateId":"20248595","CountyId":"20357053","CityId":"20357623"}}},{"Relevance":1.0,"Distance":57.4,"MatchLevel":"postalCode","MatchQuality":{"PostalCode":1.0},"MatchType":"interpolated","Location":{"LocationId":"NT_2hHNASwqlexKcDcYo5fdcD_l_1199663836_L_2kD","LocationType":"point","DisplayPosition":{"Latitude":50.98055,"Longitude":-3.22467},"MapView":{"TopLeft":{"Latitude":50.9895432,"Longitude":-3.2389544},"BottomRight":{"Latitude":50.9715568,"Longitude":-3.2103856}},"Address":{"Label":"TA21 8RF, Wellington, England, United Kingdom","Country":"GBR","State":"England","County":"Somerset","City":"Wellington","PostalCode":"TA21 8RF","AdditionalData":[{"value":"United Kingdom","key":"CountryName"},{"value":"England","key":"StateName"},{"value":"Somerset","key":"CountyName"}]},"MapReference":{"ReferenceId":"1199663836","Spot":0.51,"SideOfStreet":"neither","StateId":"20248595","CountyId":"20357053","CityId":"20357623"}}},{"Relevance":1.0,"Distance":74.6,"MatchLevel":"street","MatchQuality":{"Country":1.0,"State":1.0,"County":1.0,"City":1.0,"District":1.0,"Street":[1.0],"PostalCode":1.0},"Location":{"LocationId":"NT_pady24qmxkRQxRf.avmthC_l_26711169_R","LocationType":"point","DisplayPosition":{"Latitude":50.98076,"Longitude":-3.22598},"MapView":{"TopLeft":{"Latitude":50.98187,"Longitude":-3.22756},"BottomRight":{"Latitude":50.98033,"Longitude":-3.22595}},"Address":{"Label":"Church Fields, Wellington, TA21 8, United Kingdom","Country":"GBR","State":"England","County":"Somerset","City":"Wellington","District":"Wellington","Street":"Church Fields","PostalCode":"TA21 8","AdditionalData":[{"value":"United Kingdom","key":"CountryName"},{"value":"England","key":"StateName"},{"value":"Somerset","key":"CountyName"}]},"MapReference":{"ReferenceId":"26711169","Spot":0.32,"SideOfStreet":"right","StateId":"20248595","CountyId":"20357053","CityId":"20357623","DistrictId":"20357624"}}}]}]}}