{"Response":{"MetaInfo":{"Timestamp":"2020-03-28T12:05:39.567+0000","NextPageInformation":"2"},"View":[{"_type":"SearchResultsViewType","ViewId":0,"Result":[{"Relevance":1.0,"Distance":0.0,"Direction":0.0,"MatchLevel":"district","MatchQuality":{"Country":1.0,"State":1.0,"County":1.0,"City":1.0,"District":1.0,"PostalCode":1.0},"Location":{"LocationId":"NT_A8h7McUrjy7NVwx3yxStbD","LocationType":"point","DisplayPosition":{"Latitude":50.9473123,"Longitude":21.4089839},"MapView":{"TopLeft":{"Latitude":50.994,"Longitude":21.33663},"BottomRight":{"Latitude":50.90619,"Longitude":21.47585}},"Address":{"Label":"Ostrowiec Świętokrzyski, Woj. Świętokrzyskie, Polska","Country":"POL","State":"Woj. Świętokrzyskie","County":"Powiat Ostrowiecki","City":"Ostrowiec Świętokrzyski","District":"Ostrowiec Świętokrzyski","PostalCode":"27-400","AdditionalData":[{"value":"Polska","key":"CountryName"},{"value":"Woj. Świętokrzyskie","key":"StateName"},{"value":"Powiat Ostrowiecki","key":"CountyName"}]},"MapReference":{"ReferenceId":"980121028","SideOfStreet":"neither","CountryId":"20624059","StateId":"20629406","CountyId":"20629542","CityId":"20629551","DistrictId":"20646787"}}},{"Relevance":1.0,"Distance":9.7,"MatchLevel":"houseNumber","MatchQuality":{"Country":1.0,"State":1.0,"County":1.0,"City":1.0,"District":1.0,"Street":[1.0],"HouseNumber":1.0,"PostalCode":1.0},"MatchType":"interpolated","Location":{"LocationId":"NT_Znyp6Xq.PKeikJw81iW.AD_3A","LocationType":"point","DisplayPosition":{"Latitude":50.94708,"Longitude":21.40926},"MapView":{"TopLeft":{"Latitude":50.9482042,"Longitude":21.4074757},"BottomRight":{"Latitude":50.9459558,"Longitude":21.4110443}},"Address":{"Label":"ulica 11 Listopada 7, 27-400 Ostrowiec Świętokrzyski, Polska","Country":"POL","State":"Woj. Świętokrzyskie","County":"Powiat Ostrowiecki","City":"Ostrowiec Świętokrzyski","District":"Ostrowiec Świętokrzyski","Street":"ulica 11 Listopada","HouseNumber":"7","PostalCode":"27-400","AdditionalData":[{"value":"Polska","key":"CountryName"},{"value":"Woj. Świętokrzyskie","key":"StateName"},{"value":"Powiat Ostrowiecki","key":"CountyName"}]},"MapReference":{"ReferenceId":"888285280","Spot":0.03,"SideOfStreet":"left","CountryId":"20624059","StateId":"20629406","CountyId":"20629542","CityId":"20629551","DistrictId":"20646787","AddressId":"209927668","RoadLinkId":"254418523"}}},{"Relevance":1.0,"Distance":11.4,"MatchLevel":"houseNumber","MatchQuality":{"Country":1.0,"State":1.0,"County":1.0,"City":1.0,"District":1.0,"Street":[1.0],"HouseNumber":1.0,"PostalCode":1.0},"MatchType":"interpolated","Location":{"LocationId":"NT_Znyp6Xq.PKeikJw81iW.AD_1A","LocationType":"point","DisplayPosition":{"Latitude":50.94702,"Longitude":21.40896},"MapView":{"TopLeft":{"Latitude":50.9481442,"Longitude":21.4071757},"BottomRight":{"Latitude":50.9458958,"Longitude":21.4107443}},"Address":{"Label":"ulica 11 Listopada 5, 27-400 Ostrowiec Świętokrzyski, Polska","Country":"POL","State":"Woj. Świętokrzyskie","County":"Powiat Ostrowiecki","City":"Ostrowiec Świętokrzyski","District":"Ostrowiec Świętokrzyski","Street":"ulica 11 Listopada","HouseNumber":"5","PostalCode":"27-400","AdditionalData":[{"value":"Polska","key":"CountryName"},{"value":"Woj. Świętokrzyskie","key":"StateName"},{"value":"Powiat Ostrowiecki","key":"CountyName"}]},"MapReference":{"ReferenceId":"783920274","Spot":0.89,"SideOfStreet":"left","CountryId":"20624059","StateId":"20629406","CountyId":"20629542","CityId":"20629551","DistrictId":"20646787","AddressId":"210804850","RoadLinkId":"176792867"}}},{"Relevance":1.0,"Distance":30.9,"MatchLevel":"street","MatchQuality":{"Country":1.0,"State":1.0,"County":1.0,"City":1.0,"District":1.0,"Street":[1.0],"PostalCode":1.0},"Location":{"LocationId":"NT_MymSIZSFMEsZCjF0I7EcZB_l_778997899_R","LocationType":"point","DisplayPosition":{"Latitude":50.94704,"Longitude":21.40907},"MapView":{"TopLeft":{"Latitude":50.94704,"Longitude":21.40907},"BottomRight":{"Latitude":50.9468,"Longitude":21.40917}},"Address":{"Label":"osiedle Rosochy, 27-400 Ostrowiec Świętokrzyski, Polska","Country":"POL","State":"Woj. Świętokrzyskie","County":"Powiat Ostrowiecki","City":"Ostrowiec Świętokrzyski","District":"Ostrowiec Świętokrzyski","Street":"osiedle Rosochy","PostalCode":"27-400","AdditionalData":[{"value":"Polska","key":"CountryName"},{"value":"Woj. Świętokrzyskie","key":"StateName"},{"value":"Powiat Ostrowiecki","key":"CountyName"}]},"MapReference":{"ReferenceId":"778997899","Spot":1.0,"SideOfStreet":"right","CountryId":"20624059","StateId":"20629406","CountyId":"20629542","CityId":"20629551","DistrictId":"20646787"}}},{"Relevance":1.0,"Distance":30.9,"MatchLevel":"street","MatchQuality":{"Country":1.0,"State":1.0,"County":1.0,"City":1.0,"District":1.0,"Street":[1.0],"PostalCode":1.0},"Location":{"LocationId":"NT_Znyp6Xq.PKeikJw81iW.AD_l_884068113_L","LocationType":"point","DisplayPosition":{"Latitude":50.94704,"Longitude":21.40907},"MapView":{"TopLeft":{"Latitude":50.94708,"Longitude":21.40907},"BottomRight":{"Latitude":50.94704,"Longitude":21.40925}},"Address":{"Label":"ulica 11 Listopada, 27-400 Ostrowiec Świętokrzyski, Polska","Country":"POL","State":"Woj. Świętokrzyskie","County":"Powiat Ostrowiecki","City":"Ostrowiec Świętokrzyski","District":"Ostrowiec Świętokrzyski","Street":"ulica 11 Listopada","PostalCode":"27-400","AdditionalData":[{"value":"Polska","key":"CountryName"},{"value":"Woj. Świętokrzyskie","key":"StateName"},{"value":"Powiat Ostrowiecki","key":"CountyName"}]},"MapReference":{"ReferenceId":"884068113","Spot":0.0,"SideOfStreet":"left","CountryId":"20624059","StateId":"20629406","CountyId":"20629542","CityId":"20629551","DistrictId":"20646787"}}},{"Relevance":1.0,"Distance":39.2,"MatchLevel":"houseNumber","MatchQuality":{"Country":1.0,"State":1.0,"County":1.0,"City":1.0,"District":1.0,"Street":[1.0],"HouseNumber":1.0,"PostalCode":1.0},"MatchType":"interpolated","Location":{"LocationId":"NT_Znyp6Xq.PKeikJw81iW.AD_5A","LocationType":"point","DisplayPosition":{"Latitude":50.94718,"Longitude":21.40965},"MapView":{"TopLeft":{"Latitude":50.9483042,"Longitude":21.4078657},"BottomRight":{"Latitude":50.9460558,"Longitude":21.4114343}},"Address":{"Label":"ulica 11 Listopada 9, 27-400 Ostrowiec Świętokrzyski, Polska","Country":"POL","State":"Woj. Świętokrzyskie","County":"Powiat Ostrowiecki","City":"Ostrowiec Świętokrzyski","District":"Ostrowiec Świętokrzyski","Street":"ulica 11 Listopada","HouseNumber":"9","PostalCode":"27-400","AdditionalData":[{"value":"Polska","key":"CountryName"},{"value":"Woj. Świętokrzyskie","key":"StateName"},{"value":"Powiat Ostrowiecki","key":"CountyName"}]},"MapReference":{"ReferenceId":"595794229","Spot":0.58,"SideOfStreet":"left","CountryId":"20624059","StateId":"20629406","CountyId":"20629542","CityId":"20629551","DistrictId":"20646787","AddressId":"211290139","RoadLinkId":"95627882"}}},{"Relevance":1.0,"Distance":40.2,"MatchLevel":"houseNumber","MatchQuality":{"Country":1.0,"State":1.0,"County":1.0,"City":1.0,"District":1.0,"Street":[1.0],"HouseNumber":1.0,"PostalCode":1.0},"MatchType":"interpolated","Location":{"LocationId":"NT_Z7X5ANM.ZbMlSEd8YMKikD_xUD","LocationType":"point","DisplayPosition":{"Latitude":50.94765,"Longitude":21.40919},"MapView":{"TopLeft":{"Latitude":50.9487742,"Longitude":21.4074057},"BottomRight":{"Latitude":50.9465258,"Longitude":21.4109743}},"Address":{"Label":"ulica Słoneczna 15, 27-400 Ostrowiec Świętokrzyski, Polska","Country":"POL","State":"Woj. Świętokrzyskie","County":"Powiat Ostrowiecki","City":"Ostrowiec Świętokrzyski","District":"Ostrowiec Świętokrzyski","Street":"ulica Słoneczna","HouseNumber":"15","PostalCode":"27-400","AdditionalData":[{"value":"Polska","key":"CountryName"},{"value":"Woj. Świętokrzyskie","key":"StateName"},{"value":"Powiat Ostrowiecki","key":"CountyName"}]},"MapReference":{"ReferenceId":"595794230","Spot":0.33,"SideOfStreet":"right","CountryId":"20624059","StateId":"20629406","CountyId":"20629542","CityId":"20629551","DistrictId":"20646787","AddressId":"209836709","RoadLinkId":"95863515"}}},{"Relevance":1.0,"Distance":56.1,"MatchLevel":"houseNumber","MatchQuality":{"Country":1.0,"State":1.0,"County":1.0,"City":1.0,"District":1.0,"Street":[1.0],"HouseNumber":1.0,"PostalCode":1.0},"MatchType":"interpolated","Location":{"LocationId":"NT_Znyp6Xq.PKeikJw81iW.AD_xED","LocationType":"point","DisplayPosition":{"Latitude":50.94723,"Longitude":21.40988},"MapView":{"TopLeft":{"Latitude":50.9483542,"Longitude":21.4080957},"BottomRight":{"Latitude":50.9461058,"Longitude":21.4116643}},"Address":{"Label":"ulica 11 Listopada 11, 27-400 Ostrowiec Świętokrzyski, Polska","Country":"POL","State":"Woj. Świętokrzyskie","County":"Powiat Ostrowiecki","City":"Ostrowiec Świętokrzyski","District":"Ostrowiec Świętokrzyski","Street":"ulica 11 Listopada","HouseNumber":"11","PostalCode":"27-400","AdditionalData":[{"value":"Polska","key":"CountryName"},{"value":"Woj. Świętokrzyskie","key":"StateName"},{"value":"Powiat Ostrowiecki","key":"CountyName"}]},"MapReference":{"ReferenceId":"888321602","Spot":1.0,"SideOfStreet":"left","CountryId":"20624059","StateId":"20629406","CountyId":"20629542","CityId":"20629551","DistrictId":"20646787","AddressId":"209874235","RoadLinkId":"254449959"}}},{"Relevance":1.0,"Distance":59.2,"MatchLevel":"street","MatchQuality":{"Country":1.0,"State":1.0,"County":1.0,"City":1.0,"District":1.0,"Street":[1.0],"PostalCode":1.0},"Location":{"LocationId":"NT_MymSIZSFMEsZCjF0I7EcZB_l_778997900_L","LocationType":"point","DisplayPosition":{"Latitude":50.9467858,"Longitude":21.4091115},"MapView":{"TopLeft":{"Latitude":50.9468,"Longitude":21.40851},"BottomRight":{"Latitude":50.94664,"Longitude":21.40917}},"Address":{"Label":"osiedle Rosochy, 27-400 Ostrowiec Świętokrzyski, Polska","Country":"POL","State":"Woj. Świętokrzyskie","County":"Powiat Ostrowiecki","City":"Ostrowiec Świętokrzyski","District":"Ostrowiec Świętokrzyski","Street":"osiedle Rosochy","PostalCode":"27-400","AdditionalData":[{"value":"Polska","key":"CountryName"},{"value":"Woj. Świętokrzyskie","key":"StateName"},{"value":"Powiat Ostrowiecki","key":"CountyName"}]},"MapReference":{"ReferenceId":"778997900","Spot":0.91,"SideOfStreet":"left","CountryId":"20624059","StateId":"20629406","CountyId":"20629542","CityId":"20629551","DistrictId":"20646787"}}},{"Relevance":1.0,"Distance":81.8,"MatchLevel":"street","MatchQuality":{"Country":1.0,"State":1.0,"County":1.0,"City":1.0,"District":1.0,"Street":[1.0],"PostalCode":1.0},"Location":{"LocationId":"NT_MymSIZSFMEsZCjF0I7EcZB_l_778997901_R","LocationType":"point","DisplayPosition":{"Latitude":50.94664,"Longitude":21.40851},"MapView":{"TopLeft":{"Latitude":50.94664,"Longitude":21.40851},"BottomRight":{"Latitude":50.94635,"Longitude":21.40872}},"Address":{"Label":"osiedle Rosochy, 27-400 Ostrowiec Świętokrzyski, Polska","Country":"POL","State":"Woj. Świętokrzyskie","County":"Powiat Ostrowiecki","City":"Ostrowiec Świętokrzyski","District":"Ostrowiec Świętokrzyski","Street":"osiedle Rosochy","PostalCode":"27-400","AdditionalData":[{"value":"Polska","key":"CountryName"},{"value":"Woj. Świętokrzyskie","key":"StateName"},{"value":"Powiat Ostrowiecki","key":"CountyName"}]},"MapReference":{"ReferenceId":"778997901","Spot":1.0,"SideOfStreet":"right","CountryId":"20624059","StateId":"20629406","CountyId":"20629542","CityId":"20629551","DistrictId":"20646787"}}}]}]}}