{"Response":{"MetaInfo":{"Timestamp":"2020-03-28T11:43:49.055+0000","NextPageInformation":"2"},"View":[{"_type":"SearchResultsViewType","ViewId":0,"Result":[{"Relevance":1.0,"Distance":0.0,"Direction":0.0,"MatchLevel":"district","MatchQuality":{"Country":1.0,"State":1.0,"County":1.0,"City":1.0,"District":1.0,"PostalCode":1.0},"Location":{"LocationId":"NT_m02pSl8ZXkuXVsGg4hBPcC","LocationType":"point","DisplayPosition":{"Latitude":50.9632122,"Longitude":6.1200284},"MapView":{"TopLeft":{"Latitude":50.97734,"Longitude":6.09859},"BottomRight":{"Latitude":50.95612,"Longitude":6.14038}},"Address":{"Label":"Geilenkirchen, Nordrhein-Westfalen, Deutschland","Country":"DEU","State":"Nordrhein-Westfalen","County":"Heinsberg","City":"Geilenkirchen","District":"Geilenkirchen","PostalCode":"52511","AdditionalData":[{"value":"Deutschland","key":"CountryName"},{"value":"Nordrhein-Westfalen","key":"StateName"},{"value":"Heinsberg","key":"CountyName"}]},"MapReference":{"ReferenceId":"537810019","SideOfStreet":"neither","CountryId":"20147700","StateId":"20157369","CountyId":"20158557","CityId":"20158585","DistrictId":"20158597"}}},{"Relevance":1.0,"Distance":3.6,"MatchLevel":"houseNumber","MatchQuality":{"Country":1.0,"State":1.0,"County":1.0,"City":1.0,"District":1.0,"Street":[1.0],"HouseNumber":1.0,"PostalCode":1.0},"MatchType":"interpolated","Location":{"LocationId":"NT_qjpTw68vvCEa3nAdwmjb4D_xUD","LocationType":"point","DisplayPosition":{"Latitude":50.96304,"Longitude":6.12009},"MapView":{"TopLeft":{"Latitude":50.9641642,"Longitude":6.1183051},"BottomRight":{"Latitude":50.9619158,"Longitude":6.1218749}},"Address":{"Label":"Herzog-Wilhelm-Straße 15, 52511 Geilenkirchen, Deutschland","Country":"DEU","State":"Nordrhein-Westfalen","County":"Heinsberg","City":"Geilenkirchen","District":"Geilenkirchen","Street":"Herzog-Wilhelm-Straße","HouseNumber":"15","PostalCode":"52511","AdditionalData":[{"value":"Deutschland","key":"CountryName"},{"value":"Nordrhein-Westfalen","key":"StateName"},{"value":"Heinsberg","key":"CountyName"}]},"MapReference":{"ReferenceId":"1205984544","Spot":0.65,"SideOfStreet":"left","CountryId":"20147700","StateId":"20157369","CountyId":"20158557","CityId":"20158585","DistrictId":"20158597","AddressId":"196324105","RoadLinkId":"519796624"}}},{"Relevance":1.0,"Distance":14.1,"MatchLevel":"houseNumber","MatchQuality":{"Country":1.0,"State":1.0,"County":1.0,"City":1.0,"District":1.0,"Street":[1.0],"HouseNumber":1.0,"PostalCode":1.0},"MatchType":"interpolated","Location":{"LocationId":"NT_qjpTw68vvCEa3nAdwmjb4D_xMD","LocationType":"point","DisplayPosition":{"Latitude":50.96309,"Longitude":6.1203},"MapView":{"TopLeft":{"Latitude":50.9642142,"Longitude":6.1185151},"BottomRight":{"Latitude":50.9619658,"Longitude":6.1220849}},"Address":{"Label":"Herzog-Wilhelm-Straße 13, 52511 Geilenkirchen, Deutschland","Country":"DEU","State":"Nordrhein-Westfalen","County":"Heinsberg","City":"Geilenkirchen","District":"Geilenkirchen","Street":"Herzog-Wilhelm-Straße","HouseNumber":"13","PostalCode":"52511","AdditionalData":[{"value":"Deutschland","key":"CountryName"},{"value":"Nordrhein-Westfalen","key":"StateName"},{"value":"Heinsberg","key":"CountyName"}]},"MapReference":{"ReferenceId":"1218019950","Spot":0.36,"SideOfStreet":"left","CountryId":"20147700","StateId":"20157369","CountyId":"20158557","CityId":"20158585","DistrictId":"20158597","AddressId":"194748686","RoadLinkId":"534579065"}}},{"Relevance":1.0,"Distance":31.6,"MatchLevel":"street","MatchQuality":{"Country":1.0,"State":1.0,"County":1.0,"City":1.0,"District":1.0,"Street":[1.0],"PostalCode":1.0},"Location":{"LocationId":"NT_qjpTw68vvCEa3nAdwmjb4D_l_1218019951_L","LocationType":"point","DisplayPosition":{"Latitude":50.96313,"Longitude":6.12046},"MapView":{"TopLeft":{"Latitude":50.96317,"Longitude":6.12046},"BottomRight":{"Latitude":50.96313,"Longitude":6.12062}},"Address":{"Label":"Herzog-Wilhelm-Straße, 52511 Geilenkirchen, Deutschland","Country":"DEU","State":"Nordrhein-Westfalen","County":"Heinsberg","City":"Geilenkirchen","District":"Geilenkirchen","Street":"Herzog-Wilhelm-Straße","PostalCode":"52511","AdditionalData":[{"value":"Deutschland","key":"CountryName"},{"value":"Nordrhein-Westfalen","key":"StateName"},{"value":"Heinsberg","key":"CountyName"}]},"MapReference":{"ReferenceId":"1218019951","Spot":0.0,"SideOfStreet":"left","CountryId":"20147700","StateId":"20157369","CountyId":"20158557","CityId":"20158585","DistrictId":"20158597"}}},{"Relevance":1.0,"Distance":34.7,"MatchLevel":"houseNumber","MatchQuality":{"Country":1.0,"State":1.0,"County":1.0,"City":1.0,"District":1.0,"Street":[1.0],"HouseNumber":1.0,"PostalCode":1.0},"MatchType":"interpolated","Location":{"LocationId":"NT_qjpTw68vvCEa3nAdwmjb4D_xcD","LocationType":"point","DisplayPosition":{"Latitude":50.96295,"Longitude":6.11976},"MapView":{"TopLeft":{"Latitude":50.9640742,"Longitude":6.1179751},"BottomRight":{"Latitude":50.9618258,"Longitude":6.1215449}},"Address":{"Label":"Herzog-Wilhelm-Straße 17, 52511 Geilenkirchen, Deutschland","Country":"DEU","State":"Nordrhein-Westfalen","County":"Heinsberg","City":"Geilenkirchen","District":"Geilenkirchen","Street":"Herzog-Wilhelm-Straße","HouseNumber":"17","PostalCode":"52511","AdditionalData":[{"value":"Deutschland","key":"CountryName"},{"value":"Nordrhein-Westfalen","key":"StateName"},{"value":"Heinsberg","key":"CountyName"}]},"MapReference":{"ReferenceId":"1205984543","Spot":0.69,"SideOfStreet":"left","CountryId":"20147700","StateId":"20157369","CountyId":"20158557","CityId":"20158585","DistrictId":"20158597","AddressId":"193804974","RoadLinkId":"519796623"}}},{"Relevance":1.0,"Distance":35.1,"MatchLevel":"street","MatchQuality":{"Country":1.0,"State":1.0,"County":1.0,"City":1.0,"District":1.0,"Street":[1.0],"PostalCode":1.0},"Location":{"LocationId":"NT_gWwJyEn6EbxkVGuk62lKjB_l_572279982_L","LocationType":"point","DisplayPosition":{"Latitude":50.96332,"Longitude":6.1205},"MapView":{"TopLeft":{"Latitude":50.96332,"Longitude":6.1205},"BottomRight":{"Latitude":50.96317,"Longitude":6.12062}},"Address":{"Label":"Synagogenplatz, 52511 Geilenkirchen, Deutschland","Country":"DEU","State":"Nordrhein-Westfalen","County":"Heinsberg","City":"Geilenkirchen","District":"Geilenkirchen","Street":"Synagogenplatz","PostalCode":"52511","AdditionalData":[{"value":"Deutschland","key":"CountryName"},{"value":"Nordrhein-Westfalen","key":"StateName"},{"value":"Heinsberg","key":"CountyName"}]},"MapReference":{"ReferenceId":"572279982","Spot":1.0,"SideOfStreet":"left","CountryId":"20147700","StateId":"20157369","CountyId":"20158557","CityId":"20158585","DistrictId":"20158597"}}},{"Relevance":1.0,"Distance":42.3,"MatchLevel":"houseNumber","MatchQuality":{"Country":1.0,"State":1.0,"County":1.0,"City":1.0,"District":1.0,"Street":[1.0],"HouseNumber":1.0,"PostalCode":1.0},"MatchType":"interpolated","Location":{"LocationId":"NT_qjpTw68vvCEa3nAdwmjb4D_5A","LocationType":"point","DisplayPosition":{"Latitude":50.96319,"Longitude":6.12069},"MapView":{"TopLeft":{"Latitude":50.9643142,"Longitude":6.1189051},"BottomRight":{"Latitude":50.9620658,"Longitude":6.1224749}},"Address":{"Label":"Herzog-Wilhelm-Straße 9, 52511 Geilenkirchen, Deutschland","Country":"DEU","State":"Nordrhein-Westfalen","County":"Heinsberg","City":"Geilenkirchen","District":"Geilenkirchen","Street":"Herzog-Wilhelm-Straße","HouseNumber":"9","PostalCode":"52511","AdditionalData":[{"value":"Deutschland","key":"CountryName"},{"value":"Nordrhein-Westfalen","key":"StateName"},{"value":"Heinsberg","key":"CountyName"}]},"MapReference":{"ReferenceId":"1206074986","Spot":0.18,"SideOfStreet":"left","CountryId":"20147700","StateId":"20157369","CountyId":"20158557","CityId":"20158585","DistrictId":"20158597","AddressId":"193166736","RoadLinkId":"519920332"}}},{"Relevance":1.0,"Distance":52.9,"MatchLevel":"houseNumber","MatchQuality":{"Country":1.0,"State":1.0,"County":1.0,"City":1.0,"District":1.0,"Street":[1.0],"HouseNumber":1.0,"PostalCode":1.0},"MatchType":"interpolated","Location":{"LocationId":"NT_qjpTw68vvCEa3nAdwmjb4D_ykD","LocationType":"point","DisplayPosition":{"Latitude":50.96286,"Longitude":6.11952},"MapView":{"TopLeft":{"Latitude":50.9639842,"Longitude":6.1177351},"BottomRight":{"Latitude":50.9617358,"Longitude":6.1213049}},"Address":{"Label":"Herzog-Wilhelm-Straße 29, 52511 Geilenkirchen, Deutschland","Country":"DEU","State":"Nordrhein-Westfalen","County":"Heinsberg","City":"Geilenkirchen","District":"Geilenkirchen","Street":"Herzog-Wilhelm-Straße","HouseNumber":"29","PostalCode":"52511","AdditionalData":[{"value":"Deutschland","key":"CountryName"},{"value":"Nordrhein-Westfalen","key":"StateName"},{"value":"Heinsberg","key":"CountyName"}]},"MapReference":{"ReferenceId":"1218017876","Spot":1.0,"SideOfStreet":"left","CountryId":"20147700","StateId":"20157369","CountyId":"20158557","CityId":"20158585","DistrictId":"20158597","AddressId":"194501345","RoadLinkId":"534576704"}}},{"Relevance":1.0,"Distance":54.9,"MatchLevel":"landmark","MatchQuality":{"Country":1.0,"State":1.0,"Name":1.0},"Location":{"LocationId":"NT_PQk0PBuday-4MjEbxhoK1C","LocationType":"river","Name":"Wurm","DisplayPosition":{"Latitude":50.95788,"Longitude":6.11917},"MapView":{"TopLeft":{"Latitude":51.09772,"Longitude":6.07515},"BottomRight":{"Latitude":50.80538,"Longitude":6.19132}},"Address":{"Label":"Deutschland","Country":"DEU","State":"Nordrhein-Westfalen","AdditionalData":[{"value":"Deutschland","key":"CountryName"},{"value":"Nordrhein-Westfalen","key":"StateName"}]},"MapReference":{"CountryId":"20147700","StateId":"20157369","PlaceId":"766584901"}}},{"Relevance":1.0,"Distance":62.9,"MatchLevel":"houseNumber","MatchQuality":{"Country":1.0,"State":1.0,"County":1.0,"City":1.0,"District":1.0,"Street":[1.0],"HouseNumber":1.0,"PostalCode":1.0},"MatchType":"interpolated","Location":{"LocationId":"NT_qjpTw68vvCEa3nAdwmjb4D_zA","LocationType":"point","DisplayPosition":{"Latitude":50.96328,"Longitude":6.121},"MapView":{"TopLeft":{"Latitude":50.9644042,"Longitude":6.1192151},"BottomRight":{"Latitude":50.9621558,"Longitude":6.1227849}},"Address":{"Label":"Herzog-Wilhelm-Straße 3, 52511 Geilenkirchen, Deutschland","Country":"DEU","State":"Nordrhein-Westfalen","County":"Heinsberg","City":"Geilenkirchen","District":"Geilenkirchen","Street":"Herzog-Wilhelm-Straße","HouseNumber":"3","PostalCode":"52511","AdditionalData":[{"value":"Deutschland","key":"CountryName"},{"value":"Nordrhein-Westfalen","key":"StateName"},{"value":"Heinsberg","key":"CountyName"}]},"MapReference":{"ReferenceId":"1206074987","Spot":0.0,"SideOfStreet":"left","CountryId":"20147700","StateId":"20157369","CountyId":"20158557","CityId":"20158585","DistrictId":"20158597","AddressId":"194848201","RoadLinkId":"519920333"}}}]}]}}