{"Response":{"MetaInfo":{"Timestamp":"2020-03-28T10:49:53.193+0000","NextPageInformation":"2"},"View":[{"_type":"SearchResultsViewType","ViewId":0,"Result":[{"Relevance":1.0,"Distance":0.0,"Direction":0.0,"MatchLevel":"district","MatchQuality":{"Country":1.0,"State":1.0,"County":1.0,"City":1.0,"District":1.0,"PostalCode":1.0},"Location":{"LocationId":"NT_P5ymrKW2hBV6ewjjtSXPPB","LocationType":"point","DisplayPosition":{"Latitude":50.9210551,"Longitude":18.8322951},"MapView":{"TopLeft":{"Latitude":50.93341,"Longitude":18.79206},"BottomRight":{"Latitude":50.90849,"Longitude":18.84964}},"Address":{"Label":"Złochowice, Opatów, Woj. Śląskie, Polska","Country":"POL","State":"Woj. Śląskie","County":"Powiat Kłobucki","City":"Opatów","District":"Złochowice","PostalCode":"42-151","AdditionalData":[{"value":"Polska","key":"CountryName"},{"value":"Woj. Śląskie","key":"StateName"},{"value":"Powiat Kłobucki","key":"CountyName"}]},"MapReference":{"ReferenceId":"1067699673","SideOfStreet":"neither","CountryId":"20624059","StateId":"20629003","CountyId":"20629171","CityId":"20629180","DistrictId":"20693625"}}},{"Relevance":1.0,"Distance":7.9,"MatchLevel":"houseNumber","MatchQuality":{"Country":1.0,"State":1.0,"County":1.0,"City":1.0,"District":1.0,"Street":[1.0],"HouseNumber":1.0,"PostalCode":1.0},"MatchType":"interpolated","Location":{"LocationId":"NT_a.jm2a7sCmAPsrymuXtzOD_yA","LocationType":"point","DisplayPosition":{"Latitude":50.92096,"Longitude":18.83199},"MapView":{"TopLeft":{"Latitude":50.9220842,"Longitude":18.8302067},"BottomRight":{"Latitude":50.9198358,"Longitude":18.8337733}},"Address":{"Label":"ulica Wesoła 2, 42-151 Złochowice, Polska","Country":"POL","State":"Woj. Śląskie","County":"Powiat Kłobucki","City":"Opatów","District":"Złochowice","Street":"ulica Wesoła","HouseNumber":"2","PostalCode":"42-151","AdditionalData":[{"value":"Polska","key":"CountryName"},{"value":"Woj. Śląskie","key":"StateName"},{"value":"Powiat Kłobucki","key":"CountyName"}]},"MapReference":{"ReferenceId":"1268662013","Spot":0.15,"SideOfStreet":"right","CountryId":"20624059","StateId":"20629003","CountyId":"20629171","CityId":"20629180","DistrictId":"20693625","AddressId":"353333378","RoadLinkId":"595792752"}}},{"Relevance":1.0,"Distance":12.9,"MatchLevel":"houseNumber","MatchQuality":{"Country":1.0,"State":1.0,"County":1.0,"City":1.0,"District":1.0,"Street":[1.0],"HouseNumber":1.0,"PostalCode":1.0},"MatchType":"interpolated","Location":{"LocationId":"NT_MvaFTIbnWobgzG3e0HyerB_xA","LocationType":"point","DisplayPosition":{"Latitude":50.92079,"Longitude":18.83251},"MapView":{"TopLeft":{"Latitude":50.9219142,"Longitude":18.8307267},"BottomRight":{"Latitude":50.9196658,"Longitude":18.8342933}},"Address":{"Label":"ulica Topolowa 1, 42-151 Złochowice, Polska","Country":"POL","State":"Woj. Śląskie","County":"Powiat Kłobucki","City":"Opatów","District":"Złochowice","Street":"ulica Topolowa","HouseNumber":"1","PostalCode":"42-151","AdditionalData":[{"value":"Polska","key":"CountryName"},{"value":"Woj. Śląskie","key":"StateName"},{"value":"Powiat Kłobucki","key":"CountyName"}]},"MapReference":{"ReferenceId":"1268662033","Spot":0.44,"SideOfStreet":"left","CountryId":"20624059","StateId":"20629003","CountyId":"20629171","CityId":"20629180","DistrictId":"20693625","AddressId":"772167600","RoadLinkId":"595792767"}}},{"Relevance":1.0,"Distance":53.7,"MatchLevel":"street","MatchQuality":{"Country":1.0,"State":1.0,"County":1.0,"City":1.0,"District":1.0,"Street":[1.0],"PostalCode":1.0},"Location":{"LocationId":"NT_MvaFTIbnWobgzG3e0HyerB_l_1268662034_L","LocationType":"point","DisplayPosition":{"Latitude":50.9209,"Longitude":18.83302},"MapView":{"TopLeft":{"Latitude":50.92093,"Longitude":18.83302},"BottomRight":{"Latitude":50.9209,"Longitude":18.83317}},"Address":{"Label":"ulica Topolowa, 42-151 Złochowice, Polska","Country":"POL","State":"Woj. Śląskie","County":"Powiat Kłobucki","City":"Opatów","District":"Złochowice","Street":"ulica Topolowa","PostalCode":"42-151","AdditionalData":[{"value":"Polska","key":"CountryName"},{"value":"Woj. Śląskie","key":"StateName"},{"value":"Powiat Kłobucki","key":"CountyName"}]},"MapReference":{"ReferenceId":"1268662034","Spot":0.0,"SideOfStreet":"left","CountryId":"20624059","StateId":"20629003","CountyId":"20629171","CityId":"20629180","DistrictId":"20693625"}}},{"Relevance":1.0,"Distance":58.9,"MatchLevel":"houseNumber","MatchQuality":{"Country":1.0,"State":1.0,"County":1.0,"City":1.0,"District":1.0,"Street":[1.0],"HouseNumber":1.0,"PostalCode":1.0},"MatchType":"interpolated","Location":{"LocationId":"NT_a.jm2a7sCmAPsrymuXtzOD_zA","LocationType":"point","DisplayPosition":{"Latitude":50.92053,"Longitude":18.83218},"MapView":{"TopLeft":{"Latitude":50.9216542,"Longitude":18.8303968},"BottomRight":{"Latitude":50.9194058,"Longitude":18.8339632}},"Address":{"Label":"ulica Wesoła 3, 42-151 Złochowice, Polska","Country":"POL","State":"Woj. Śląskie","County":"Powiat Kłobucki","City":"Opatów","District":"Złochowice","Street":"ulica Wesoła","HouseNumber":"3","PostalCode":"42-151","AdditionalData":[{"value":"Polska","key":"CountryName"},{"value":"Woj. Śląskie","key":"StateName"},{"value":"Powiat Kłobucki","key":"CountyName"}]},"MapReference":{"ReferenceId":"594237108","Spot":0.88,"SideOfStreet":"left","CountryId":"20624059","StateId":"20629003","CountyId":"20629171","CityId":"20629180","DistrictId":"20693625","AddressId":"353425659","RoadLinkId":"96305044"}}},{"Relevance":1.0,"Distance":91.6,"MatchLevel":"houseNumber","MatchQuality":{"Country":1.0,"State":1.0,"County":1.0,"City":1.0,"District":1.0,"Street":[1.0],"HouseNumber":1.0,"PostalCode":1.0},"MatchType":"interpolated","Location":{"LocationId":"NT_MvaFTIbnWobgzG3e0HyerB_xAD","LocationType":"point","DisplayPosition":{"Latitude":50.92102,"Longitude":18.8336},"MapView":{"TopLeft":{"Latitude":50.9221442,"Longitude":18.8318167},"BottomRight":{"Latitude":50.9198958,"Longitude":18.8353833}},"Address":{"Label":"ulica Topolowa 10, 42-151 Złochowice, Polska","Country":"POL","State":"Woj. Śląskie","County":"Powiat Kłobucki","City":"Opatów","District":"Złochowice","Street":"ulica Topolowa","HouseNumber":"10","PostalCode":"42-151","AdditionalData":[{"value":"Polska","key":"CountryName"},{"value":"Woj. Śląskie","key":"StateName"},{"value":"Powiat Kłobucki","key":"CountyName"}]},"MapReference":{"ReferenceId":"1067442594","Spot":1.0,"SideOfStreet":"right","CountryId":"20624059","StateId":"20629003","CountyId":"20629171","CityId":"20629180","DistrictId":"20693625","AddressId":"772247131","RoadLinkId":"389746618"}}},{"Relevance":1.0,"Distance":91.6,"MatchLevel":"street","MatchQuality":{"Country":1.0,"State":1.0,"County":1.0,"City":1.0,"District":1.0,"PostalCode":1.0},"Location":{"LocationId":"NT_xEhxD5Q19irCKfPQdA91ZC_l_1268662035_L","LocationType":"point","DisplayPosition":{"Latitude":50.92102,"Longitude":18.8336},"MapView":{"TopLeft":{"Latitude":50.9214,"Longitude":18.8336},"BottomRight":{"Latitude":50.92102,"Longitude":18.83533}},"Address":{"Label":"42-151 Złochowice, Polska","Country":"POL","State":"Woj. Śląskie","County":"Powiat Kłobucki","City":"Opatów","District":"Złochowice","PostalCode":"42-151","AdditionalData":[{"value":"Polska","key":"CountryName"},{"value":"Woj. Śląskie","key":"StateName"},{"value":"Powiat Kłobucki","key":"CountyName"}]},"MapReference":{"ReferenceId":"1268662035","Spot":0.0,"SideOfStreet":"left","CountryId":"20624059","StateId":"20629003","CountyId":"20629171","CityId":"20629180","DistrictId":"20693625"}}},{"Relevance":1.0,"Distance":141.7,"MatchLevel":"houseNumber","MatchQuality":{"Country":1.0,"State":1.0,"County":1.0,"City":1.0,"District":1.0,"Street":[1.0],"HouseNumber":1.0,"PostalCode":1.0},"MatchType":"interpolated","Location":{"LocationId":"NT_Q7NYYkvyjbo-BAC8VxgPmA_0A","LocationType":"point","DisplayPosition":{"Latitude":50.92039,"Longitude":18.83057},"MapView":{"TopLeft":{"Latitude":50.9215142,"Longitude":18.8287868},"BottomRight":{"Latitude":50.9192658,"Longitude":18.8323532}},"Address":{"Label":"ulica Leśna 4, 42-151 Złochowice, Polska","Country":"POL","State":"Woj. Śląskie","County":"Powiat Kłobucki","City":"Opatów","District":"Złochowice","Street":"ulica Leśna","HouseNumber":"4","PostalCode":"42-151","AdditionalData":[{"value":"Polska","key":"CountryName"},{"value":"Woj. Śląskie","key":"StateName"},{"value":"Powiat Kłobucki","key":"CountyName"}]},"MapReference":{"ReferenceId":"1268662015","Spot":0.34,"SideOfStreet":"left","CountryId":"20624059","StateId":"20629003","CountyId":"20629171","CityId":"20629180","DistrictId":"20693625","AddressId":"353158932","RoadLinkId":"595792754"}}},{"Relevance":1.0,"Distance":156.8,"MatchLevel":"street","MatchQuality":{"Country":1.0,"State":1.0,"County":1.0,"City":1.0,"District":1.0,"Street":[1.0],"PostalCode":1.0},"Location":{"LocationId":"NT_a.jm2a7sCmAPsrymuXtzOD_l_1268662011_R","LocationType":"point","DisplayPosition":{"Latitude":50.92235,"Longitude":18.83141},"MapView":{"TopLeft":{"Latitude":50.9227,"Longitude":18.83126},"BottomRight":{"Latitude":50.92235,"Longitude":18.83141}},"Address":{"Label":"ulica Wesoła, 42-151 Złochowice, Polska","Country":"POL","State":"Woj. Śląskie","County":"Powiat Kłobucki","City":"Opatów","District":"Złochowice","Street":"ulica Wesoła","PostalCode":"42-151","AdditionalData":[{"value":"Polska","key":"CountryName"},{"value":"Woj. Śląskie","key":"StateName"},{"value":"Powiat Kłobucki","key":"CountyName"}]},"MapReference":{"ReferenceId":"1268662011","Spot":0.0,"SideOfStreet":"right","CountryId":"20624059","StateId":"20629003","CountyId":"20629171","CityId":"20629180","DistrictId":"20693625"}}},{"Relevance":1.0,"Distance":212.6,"MatchLevel":"street","MatchQuality":{"Country":1.0,"State":1.0,"County":1.0,"City":1.0,"District":1.0,"Street":[1.0],"PostalCode":1.0},"Location":{"LocationId":"NT_a.jm2a7sCmAPsrymuXtzOD_l_1067443539_R","LocationType":"point","DisplayPosition":{"Latitude":50.91917,"Longitude":18.8328},"MapView":{"TopLeft":{"Latitude":50.91917,"Longitude":18.8328},"BottomRight":{"Latitude":50.91882,"Longitude":18.83296}},"Address":{"Label":"ulica Wesoła, 42-151 Złochowice, Polska","Country":"POL","State":"Woj. Śląskie","County":"Powiat Kłobucki","City":"Opatów","District":"Złochowice","Street":"ulica Wesoła","PostalCode":"42-151","AdditionalData":[{"value":"Polska","key":"CountryName"},{"value":"Woj. Śląskie","key":"StateName"},{"value":"Powiat Kłobucki","key":"CountyName"}]},"MapReference":{"ReferenceId":"1067443539","Spot":1.0,"SideOfStreet":"right","CountryId":"20624059","StateId":"20629003","CountyId":"20629171","CityId":"20629180","DistrictId":"20693625"}}}]}]}}