{"Response":{"MetaInfo":{"Timestamp":"2020-03-28T10:15:39.122+0000","NextPageInformation":"2"},"View":[{"_type":"SearchResultsViewType","ViewId":0,"Result":[{"Relevance":1.0,"Distance":0.0,"Direction":0.0,"MatchLevel":"district","MatchQuality":{"Country":1.0,"State":1.0,"County":1.0,"City":1.0,"District":1.0,"PostalCode":1.0},"Location":{"LocationId":"NT_nd2DyKpdAA7YkQs1vgmgMB","LocationType":"point","DisplayPosition":{"Latitude":50.9530275,"Longitude":2.8519021},"MapView":{"TopLeft":{"Latitude":50.95732,"Longitude":2.84763},"BottomRight":{"Latitude":50.9492,"Longitude":2.86785}},"Address":{"Label":"Merkem, Houthulst, Vlaanderen, België","Country":"BEL","State":"Vlaanderen","County":"West-Vlaanderen","City":"Houthulst","District":"Merkem","PostalCode":"8650","AdditionalData":[{"value":"België","key":"CountryName"},{"value":"Vlaanderen","key":"StateName"},{"value":"West-Vlaanderen","key":"CountyName"}]},"MapReference":{"ReferenceId":"53713426","SideOfStreet":"neither","CountryId":"20128886","StateId":"20204377","CountyId":"20204694","CityId":"20204775","DistrictId":"20204779"}}},{"Relevance":1.0,"Distance":11.1,"MatchLevel":"houseNumber","MatchQuality":{"Country":1.0,"State":1.0,"County":1.0,"City":1.0,"District":1.0,"Street":[1.0],"HouseNumber":1.0,"PostalCode":1.0},"MatchType":"interpolated","Location":{"LocationId":"NT_icSRGQwp7TLPXhhAv7L4bC_ycD","LocationType":"point","DisplayPosition":{"Latitude":50.95302,"Longitude":2.85206},"MapView":{"TopLeft":{"Latitude":50.9541442,"Longitude":2.8502755},"BottomRight":{"Latitude":50.9518958,"Longitude":2.8538445}},"Address":{"Label":"Kouterstraat 27, 8650 Houthulst, België","Country":"BEL","State":"Vlaanderen","County":"West-Vlaanderen","City":"Houthulst","District":"Merkem","Street":"Kouterstraat","HouseNumber":"27","PostalCode":"8650","AdditionalData":[{"value":"België","key":"CountryName"},{"value":"Vlaanderen","key":"StateName"},{"value":"West-Vlaanderen","key":"CountyName"}]},"MapReference":{"ReferenceId":"845439535","Spot":0.61,"SideOfStreet":"right","CountryId":"20128886","StateId":"20204377","CountyId":"20204694","CityId":"20204775","DistrictId":"20204779","AddressId":"399400872","RoadLinkId":"226785254"}}},{"Relevance":1.0,"Distance":12.7,"MatchLevel":"houseNumber","MatchQuality":{"Country":1.0,"State":1.0,"County":1.0,"City":1.0,"District":1.0,"Street":[1.0],"HouseNumber":1.0,"PostalCode":1.0},"MatchType":"interpolated","Location":{"LocationId":"NT_icSRGQwp7TLPXhhAv7L4bC_xgTQ","LocationType":"point","DisplayPosition":{"Latitude":50.95314,"Longitude":2.85187},"MapView":{"TopLeft":{"Latitude":50.9542642,"Longitude":2.8500855},"BottomRight":{"Latitude":50.9520158,"Longitude":2.8536545}},"Address":{"Label":"Kouterstraat 18A, 8650 Houthulst, België","Country":"BEL","State":"Vlaanderen","County":"West-Vlaanderen","City":"Houthulst","District":"Merkem","Street":"Kouterstraat","HouseNumber":"18A","PostalCode":"8650","AdditionalData":[{"value":"België","key":"CountryName"},{"value":"Vlaanderen","key":"StateName"},{"value":"West-Vlaanderen","key":"CountyName"}]},"MapReference":{"ReferenceId":"845439536","Spot":0.12,"SideOfStreet":"left","CountryId":"20128886","StateId":"20204377","CountyId":"20204694","CityId":"20204775","DistrictId":"20204779","AddressId":"737475514","RoadLinkId":"226785255"}}},{"Relevance":1.0,"Distance":13.0,"MatchLevel":"houseNumber","MatchQuality":{"Country":1.0,"State":1.0,"County":1.0,"City":1.0,"District":1.0,"Street":[1.0],"HouseNumber":1.0,"PostalCode":1.0},"MatchType":"interpolated","Location":{"LocationId":"NT_icSRGQwp7TLPXhhAv7L4bC_xgD","LocationType":"point","DisplayPosition":{"Latitude":50.95293,"Longitude":2.8518},"MapView":{"TopLeft":{"Latitude":50.9540542,"Longitude":2.8500155},"BottomRight":{"Latitude":50.9518058,"Longitude":2.8535845}},"Address":{"Label":"Kouterstraat 18, 8650 Houthulst, België","Country":"BEL","State":"Vlaanderen","County":"West-Vlaanderen","City":"Houthulst","District":"Merkem","Street":"Kouterstraat","HouseNumber":"18","PostalCode":"8650","AdditionalData":[{"value":"België","key":"CountryName"},{"value":"Vlaanderen","key":"StateName"},{"value":"West-Vlaanderen","key":"CountyName"}]},"MapReference":{"ReferenceId":"53934698","Spot":0.7,"SideOfStreet":"left","CountryId":"20128886","StateId":"20204377","CountyId":"20204694","CityId":"20204775","DistrictId":"20204779","AddressId":"400992430","RoadLinkId":"30749375"}}},{"Relevance":1.0,"Distance":18.5,"MatchLevel":"houseNumber","MatchQuality":{"Country":1.0,"State":1.0,"County":1.0,"City":1.0,"District":1.0,"Street":[1.0],"HouseNumber":1.0,"PostalCode":1.0},"MatchType":"interpolated","Location":{"LocationId":"NT_icSRGQwp7TLPXhhAv7L4bC_ykD","LocationType":"point","DisplayPosition":{"Latitude":50.95297,"Longitude":2.85215},"MapView":{"TopLeft":{"Latitude":50.9540942,"Longitude":2.8503655},"BottomRight":{"Latitude":50.9518458,"Longitude":2.8539345}},"Address":{"Label":"Kouterstraat 29, 8650 Houthulst, België","Country":"BEL","State":"Vlaanderen","County":"West-Vlaanderen","City":"Houthulst","District":"Merkem","Street":"Kouterstraat","HouseNumber":"29","PostalCode":"8650","AdditionalData":[{"value":"België","key":"CountryName"},{"value":"Vlaanderen","key":"StateName"},{"value":"West-Vlaanderen","key":"CountyName"}]},"MapReference":{"ReferenceId":"845439534","Spot":0.93,"SideOfStreet":"right","CountryId":"20128886","StateId":"20204377","CountyId":"20204694","CityId":"20204775","DistrictId":"20204779","AddressId":"399763023","RoadLinkId":"226785253"}}},{"Relevance":1.0,"Distance":32.9,"MatchLevel":"street","MatchQuality":{"Country":1.0,"State":1.0,"County":1.0,"City":1.0,"District":1.0,"Street":[1.0],"PostalCode":1.0},"Location":{"LocationId":"NT_icSRGQwp7TLPXhhAv7L4bC_l_845428394_L","LocationType":"point","DisplayPosition":{"Latitude":50.95288,"Longitude":2.85231},"MapView":{"TopLeft":{"Latitude":50.95288,"Longitude":2.85231},"BottomRight":{"Latitude":50.95279,"Longitude":2.85246}},"Address":{"Label":"Kouterstraat, 8650 Houthulst, België","Country":"BEL","State":"Vlaanderen","County":"West-Vlaanderen","City":"Houthulst","District":"Merkem","Street":"Kouterstraat","PostalCode":"8650","AdditionalData":[{"value":"België","key":"CountryName"},{"value":"Vlaanderen","key":"StateName"},{"value":"West-Vlaanderen","key":"CountyName"}]},"MapReference":{"ReferenceId":"845428394","Spot":1.0,"SideOfStreet":"left","CountryId":"20128886","StateId":"20204377","CountyId":"20204694","CityId":"20204775","DistrictId":"20204779"}}},{"Relevance":1.0,"Distance":40.9,"MatchLevel":"houseNumber","MatchQuality":{"Country":1.0,"State":1.0,"County":1.0,"City":1.0,"District":1.0,"Street":[1.0],"HouseNumber":1.0,"PostalCode":1.0},"MatchType":"interpolated","Location":{"LocationId":"NT_4XJzEPfYFEezzduS5InOOA_xA","LocationType":"point","DisplayPosition":{"Latitude":50.95284,"Longitude":2.85254},"MapView":{"TopLeft":{"Latitude":50.9539642,"Longitude":2.8507555},"BottomRight":{"Latitude":50.9517158,"Longitude":2.8543245}},"Address":{"Label":"Stationsstraat 1, 8650 Houthulst, België","Country":"BEL","State":"Vlaanderen","County":"West-Vlaanderen","City":"Houthulst","District":"Merkem","Street":"Stationsstraat","HouseNumber":"1","PostalCode":"8650","AdditionalData":[{"value":"België","key":"CountryName"},{"value":"Vlaanderen","key":"StateName"},{"value":"West-Vlaanderen","key":"CountyName"}]},"MapReference":{"ReferenceId":"845428398","Spot":0.68,"SideOfStreet":"left","CountryId":"20128886","StateId":"20204377","CountyId":"20204694","CityId":"20204775","DistrictId":"20204779","AddressId":"737503396","RoadLinkId":"226773100"}}},{"Relevance":1.0,"Distance":43.8,"MatchLevel":"houseNumber","MatchQuality":{"Country":1.0,"State":1.0,"County":1.0,"City":1.0,"District":1.0,"Street":[1.0],"HouseNumber":1.0,"PostalCode":1.0},"MatchType":"interpolated","Location":{"LocationId":"NT_4XJzEPfYFEezzduS5InOOA_xEE","LocationType":"point","DisplayPosition":{"Latitude":50.95289,"Longitude":2.85264},"MapView":{"TopLeft":{"Latitude":50.9540142,"Longitude":2.8508555},"BottomRight":{"Latitude":50.9517658,"Longitude":2.8544245}},"Address":{"Label":"Stationsstraat 1A, 8650 Houthulst, België","Country":"BEL","State":"Vlaanderen","County":"West-Vlaanderen","City":"Houthulst","District":"Merkem","Street":"Stationsstraat","HouseNumber":"1A","PostalCode":"8650","AdditionalData":[{"value":"België","key":"CountryName"},{"value":"Vlaanderen","key":"StateName"},{"value":"West-Vlaanderen","key":"CountyName"}]},"MapReference":{"ReferenceId":"846087655","Spot":0.15,"SideOfStreet":"left","CountryId":"20128886","StateId":"20204377","CountyId":"20204694","CityId":"20204775","DistrictId":"20204779","AddressId":"400511705","RoadLinkId":"227344996"}}},{"Relevance":1.0,"Distance":45.9,"MatchLevel":"houseNumber","MatchQuality":{"Country":1.0,"State":1.0,"County":1.0,"City":1.0,"District":1.0,"Street":[1.0],"HouseNumber":1.0,"PostalCode":1.0},"MatchType":"interpolated","Location":{"LocationId":"NT_icSRGQwp7TLPXhhAv7L4bC_l_53934694_R_zAD","LocationType":"point","DisplayPosition":{"Latitude":50.9526862,"Longitude":2.8522716},"MapView":{"TopLeft":{"Latitude":50.9538104,"Longitude":2.8504872},"BottomRight":{"Latitude":50.9515621,"Longitude":2.8540561}},"Address":{"Label":"Kouterstraat 30, 8650 Houthulst, België","Country":"BEL","State":"Vlaanderen","County":"West-Vlaanderen","City":"Houthulst","District":"Merkem","Street":"Kouterstraat","HouseNumber":"30","PostalCode":"8650","AdditionalData":[{"value":"België","key":"CountryName"},{"value":"Vlaanderen","key":"StateName"},{"value":"West-Vlaanderen","key":"CountyName"}]},"MapReference":{"ReferenceId":"53934694","Spot":0.49,"SideOfStreet":"right","CountryId":"20128886","StateId":"20204377","CountyId":"20204694","CityId":"20204775","DistrictId":"20204779"}}},{"Relevance":1.0,"Distance":47.2,"MatchLevel":"street","MatchQuality":{"Country":1.0,"State":1.0,"County":1.0,"City":1.0,"District":1.0,"Street":[1.0],"PostalCode":1.0},"Location":{"LocationId":"NT_icSRGQwp7TLPXhhAv7L4bC_l_845428397_L","LocationType":"point","DisplayPosition":{"Latitude":50.95279,"Longitude":2.85246},"MapView":{"TopLeft":{"Latitude":50.95279,"Longitude":2.85246},"BottomRight":{"Latitude":50.95272,"Longitude":2.85259}},"Address":{"Label":"Kouterstraat, 8650 Houthulst, België","Country":"BEL","State":"Vlaanderen","County":"West-Vlaanderen","City":"Houthulst","District":"Merkem","Street":"Kouterstraat","PostalCode":"8650","AdditionalData":[{"value":"België","key":"CountryName"},{"value":"Vlaanderen","key":"StateName"},{"value":"West-Vlaanderen","key":"CountyName"}]},"MapReference":{"ReferenceId":"845428397","Spot":1.0,"SideOfStreet":"left","CountryId":"20128886","StateId":"20204377","CountyId":"20204694","CityId":"20204775","DistrictId":"20204779"}}}]}]}}