{"Response":{"MetaInfo":{"Timestamp":"2020-03-28T10:05:14.794+0000","NextPageInformation":"2"},"View":[{"_type":"SearchResultsViewType","ViewId":0,"Result":[{"Relevance":1.0,"Distance":0.0,"Direction":0.0,"MatchLevel":"district","MatchQuality":{"Country":1.0,"State":1.0,"County":1.0,"City":1.0,"District":1.0,"PostalCode":1.0},"Location":{"LocationId":"NT_NfrSueVTgPduQnxjt9nKtC","LocationType":"point","DisplayPosition":{"Latitude":50.9742448,"Longitude":14.6067334},"MapView":{"TopLeft":{"Latitude":50.98937,"Longitude":14.59694},"BottomRight":{"Latitude":50.96505,"Longitude":14.62973}},"Address":{"Label":"Neugersdorf, Ebersbach-Neugersdorf, Sachsen, Deutschland","Country":"DEU","State":"Sachsen","County":"Görlitz","City":"Ebersbach-Neugersdorf","District":"Neugersdorf","PostalCode":"02727","AdditionalData":[{"value":"Deutschland","key":"CountryName"},{"value":"Sachsen","key":"StateName"},{"value":"Görlitz","key":"CountyName"}]},"MapReference":{"ReferenceId":"540789228","SideOfStreet":"neither","CountryId":"20147700","StateId":"20191185","CountyId":"20191443","CityId":"20193320","DistrictId":"20193395"}}},{"Relevance":1.0,"Distance":20.7,"MatchLevel":"houseNumber","MatchQuality":{"Country":1.0,"State":1.0,"County":1.0,"City":1.0,"District":1.0,"Street":[1.0],"HouseNumber":1.0,"PostalCode":1.0},"MatchType":"interpolated","Location":{"LocationId":"NT_Fq3kycpnkiRXpQCEdq2PYB_xYD","LocationType":"point","DisplayPosition":{"Latitude":50.97444,"Longitude":14.60647},"MapView":{"TopLeft":{"Latitude":50.9755642,"Longitude":14.6046847},"BottomRight":{"Latitude":50.9733158,"Longitude":14.6082553}},"Address":{"Label":"Martin-Luther-Straße 16, 02727 Ebersbach-Neugersdorf, Deutschland","Country":"DEU","State":"Sachsen","County":"Görlitz","City":"Ebersbach-Neugersdorf","District":"Neugersdorf","Street":"Martin-Luther-Straße","HouseNumber":"16","PostalCode":"02727","AdditionalData":[{"value":"Deutschland","key":"CountryName"},{"value":"Sachsen","key":"StateName"},{"value":"Görlitz","key":"CountyName"}]},"MapReference":{"ReferenceId":"543850691","Spot":0.71,"SideOfStreet":"right","CountryId":"20147700","StateId":"20191185","CountyId":"20191443","CityId":"20193320","DistrictId":"20193395","AddressId":"189854110","RoadLinkId":"39849087"}}},{"Relevance":1.0,"Distance":33.9,"MatchLevel":"houseNumber","MatchQuality":{"Country":1.0,"State":1.0,"County":1.0,"City":1.0,"District":1.0,"Street":[1.0],"HouseNumber":1.0,"PostalCode":1.0},"MatchType":"interpolated","Location":{"LocationId":"NT_Z186CZY0nebDCysC5FnCiB_1A","LocationType":"point","DisplayPosition":{"Latitude":50.97381,"Longitude":14.60693},"MapView":{"TopLeft":{"Latitude":50.9749342,"Longitude":14.6051447},"BottomRight":{"Latitude":50.9726858,"Longitude":14.6087153}},"Address":{"Label":"Geschwister-Scholl-Straße 5, 02727 Ebersbach-Neugersdorf, Deutschland","Country":"DEU","State":"Sachsen","County":"Görlitz","City":"Ebersbach-Neugersdorf","District":"Neugersdorf","Street":"Geschwister-Scholl-Straße","HouseNumber":"5","PostalCode":"02727","AdditionalData":[{"value":"Deutschland","key":"CountryName"},{"value":"Sachsen","key":"StateName"},{"value":"Görlitz","key":"CountyName"}]},"MapReference":{"ReferenceId":"543850679","Spot":0.91,"SideOfStreet":"right","CountryId":"20147700","StateId":"20191185","CountyId":"20191443","CityId":"20193320","DistrictId":"20193395","AddressId":"189797446","RoadLinkId":"40096178"}}},{"Relevance":1.0,"Distance":41.1,"MatchLevel":"houseNumber","MatchQuality":{"Country":1.0,"State":1.0,"County":1.0,"City":1.0,"District":1.0,"Street":[1.0],"HouseNumber":1.0,"PostalCode":1.0},"MatchType":"interpolated","Location":{"LocationId":"NT_Fq3kycpnkiRXpQCEdq2PYB_xgD","LocationType":"point","DisplayPosition":{"Latitude":50.97445,"Longitude":14.60739},"MapView":{"TopLeft":{"Latitude":50.9755742,"Longitude":14.6056047},"BottomRight":{"Latitude":50.9733258,"Longitude":14.6091753}},"Address":{"Label":"Martin-Luther-Straße 18, 02727 Ebersbach-Neugersdorf, Deutschland","Country":"DEU","State":"Sachsen","County":"Görlitz","City":"Ebersbach-Neugersdorf","District":"Neugersdorf","Street":"Martin-Luther-Straße","HouseNumber":"18","PostalCode":"02727","AdditionalData":[{"value":"Deutschland","key":"CountryName"},{"value":"Sachsen","key":"StateName"},{"value":"Görlitz","key":"CountyName"}]},"MapReference":{"ReferenceId":"543850686","Spot":0.26,"SideOfStreet":"left","CountryId":"20147700","StateId":"20191185","CountyId":"20191443","CityId":"20193320","DistrictId":"20193395","AddressId":"190000872","RoadLinkId":"40137845"}}},{"Relevance":1.0,"Distance":47.4,"MatchLevel":"houseNumber","MatchQuality":{"Country":1.0,"State":1.0,"County":1.0,"City":1.0,"District":1.0,"Street":[1.0],"HouseNumber":1.0,"PostalCode":1.0},"MatchType":"interpolated","Location":{"LocationId":"NT_Z186CZY0nebDCysC5FnCiB_zA","LocationType":"point","DisplayPosition":{"Latitude":50.97382,"Longitude":14.60667},"MapView":{"TopLeft":{"Latitude":50.9749442,"Longitude":14.6048847},"BottomRight":{"Latitude":50.9726958,"Longitude":14.6084553}},"Address":{"Label":"Geschwister-Scholl-Straße 3, 02727 Ebersbach-Neugersdorf, Deutschland","Country":"DEU","State":"Sachsen","County":"Görlitz","City":"Ebersbach-Neugersdorf","District":"Neugersdorf","Street":"Geschwister-Scholl-Straße","HouseNumber":"3","PostalCode":"02727","AdditionalData":[{"value":"Deutschland","key":"CountryName"},{"value":"Sachsen","key":"StateName"},{"value":"Görlitz","key":"CountyName"}]},"MapReference":{"ReferenceId":"543850659","Spot":0.14,"SideOfStreet":"right","CountryId":"20147700","StateId":"20191185","CountyId":"20191443","CityId":"20193320","DistrictId":"20193395","AddressId":"190255547","RoadLinkId":"40117740"}}},{"Relevance":1.0,"Distance":48.6,"MatchLevel":"houseNumber","MatchQuality":{"Country":1.0,"State":1.0,"County":1.0,"City":1.0,"District":1.0,"Street":[1.0],"HouseNumber":1.0,"PostalCode":1.0},"MatchType":"interpolated","Location":{"LocationId":"NT_pfL0Hm2vFhFg7DVg-X2TLB_xA","LocationType":"point","DisplayPosition":{"Latitude":50.97431,"Longitude":14.60582},"MapView":{"TopLeft":{"Latitude":50.9754342,"Longitude":14.6040347},"BottomRight":{"Latitude":50.9731858,"Longitude":14.6076053}},"Address":{"Label":"Waldstraße 1, 02727 Ebersbach-Neugersdorf, Deutschland","Country":"DEU","State":"Sachsen","County":"Görlitz","City":"Ebersbach-Neugersdorf","District":"Neugersdorf","Street":"Waldstraße","HouseNumber":"1","PostalCode":"02727","AdditionalData":[{"value":"Deutschland","key":"CountryName"},{"value":"Sachsen","key":"StateName"},{"value":"Görlitz","key":"CountyName"}]},"MapReference":{"ReferenceId":"543850680","Spot":0.67,"SideOfStreet":"right","CountryId":"20147700","StateId":"20191185","CountyId":"20191443","CityId":"20193320","DistrictId":"20193395","AddressId":"190130030","RoadLinkId":"39636084"}}},{"Relevance":1.0,"Distance":63.6,"MatchLevel":"street","MatchQuality":{"Country":1.0,"State":1.0,"County":1.0,"City":1.0,"District":1.0,"Street":[1.0],"PostalCode":1.0},"Location":{"LocationId":"NT_Fq3kycpnkiRXpQCEdq2PYB_l_548110635_L","LocationType":"point","DisplayPosition":{"Latitude":50.97437,"Longitude":14.60762},"MapView":{"TopLeft":{"Latitude":50.97477,"Longitude":14.60762},"BottomRight":{"Latitude":50.97437,"Longitude":14.60798}},"Address":{"Label":"Martin-Luther-Straße, 02727 Ebersbach-Neugersdorf, Deutschland","Country":"DEU","State":"Sachsen","County":"Görlitz","City":"Ebersbach-Neugersdorf","District":"Neugersdorf","Street":"Martin-Luther-Straße","PostalCode":"02727","AdditionalData":[{"value":"Deutschland","key":"CountryName"},{"value":"Sachsen","key":"StateName"},{"value":"Görlitz","key":"CountyName"}]},"MapReference":{"ReferenceId":"548110635","Spot":0.0,"SideOfStreet":"left","CountryId":"20147700","StateId":"20191185","CountyId":"20191443","CityId":"20193320","DistrictId":"20193395"}}},{"Relevance":1.0,"Distance":63.6,"MatchLevel":"street","MatchQuality":{"Country":1.0,"State":1.0,"County":1.0,"City":1.0,"District":1.0,"PostalCode":1.0},"Location":{"LocationId":"NT_bpzBK6f3c4BbzIH-lU83VA_l_543850671_L","LocationType":"point","DisplayPosition":{"Latitude":50.97437,"Longitude":14.60762},"MapView":{"TopLeft":{"Latitude":50.97437,"Longitude":14.60762},"BottomRight":{"Latitude":50.97374,"Longitude":14.60772}},"Address":{"Label":"02727 Ebersbach-Neugersdorf, Deutschland","Country":"DEU","State":"Sachsen","County":"Görlitz","City":"Ebersbach-Neugersdorf","District":"Neugersdorf","PostalCode":"02727","AdditionalData":[{"value":"Deutschland","key":"CountryName"},{"value":"Sachsen","key":"StateName"},{"value":"Görlitz","key":"CountyName"}]},"MapReference":{"ReferenceId":"543850671","Spot":1.0,"SideOfStreet":"left","CountryId":"20147700","StateId":"20191185","CountyId":"20191443","CityId":"20193320","DistrictId":"20193395"}}},{"Relevance":1.0,"Distance":74.0,"MatchLevel":"houseNumber","MatchQuality":{"Country":1.0,"State":1.0,"County":1.0,"City":1.0,"District":1.0,"Street":[1.0],"HouseNumber":1.0,"PostalCode":1.0},"MatchType":"interpolated","Location":{"LocationId":"NT_pfL0Hm2vFhFg7DVg-X2TLB_1A","LocationType":"point","DisplayPosition":{"Latitude":50.97394,"Longitude":14.60565},"MapView":{"TopLeft":{"Latitude":50.9750642,"Longitude":14.6038647},"BottomRight":{"Latitude":50.9728158,"Longitude":14.6074353}},"Address":{"Label":"Waldstraße 5, 02727 Ebersbach-Neugersdorf, Deutschland","Country":"DEU","State":"Sachsen","County":"Görlitz","City":"Ebersbach-Neugersdorf","District":"Neugersdorf","Street":"Waldstraße","HouseNumber":"5","PostalCode":"02727","AdditionalData":[{"value":"Deutschland","key":"CountryName"},{"value":"Sachsen","key":"StateName"},{"value":"Görlitz","key":"CountyName"}]},"MapReference":{"ReferenceId":"543850654","Spot":0.44,"SideOfStreet":"right","CountryId":"20147700","StateId":"20191185","CountyId":"20191443","CityId":"20193320","DistrictId":"20193395","AddressId":"190091962","RoadLinkId":"39762276"}}},{"Relevance":1.0,"Distance":75.2,"MatchLevel":"houseNumber","MatchQuality":{"Country":1.0,"State":1.0,"County":1.0,"City":1.0,"District":1.0,"Street":[1.0],"HouseNumber":1.0,"PostalCode":1.0},"MatchType":"interpolated","Location":{"LocationId":"NT_Fq3kycpnkiRXpQCEdq2PYB_xQD","LocationType":"point","DisplayPosition":{"Latitude":50.97442,"Longitude":14.60567},"MapView":{"TopLeft":{"Latitude":50.9755442,"Longitude":14.6038847},"BottomRight":{"Latitude":50.9732958,"Longitude":14.6074553}},"Address":{"Label":"Martin-Luther-Straße 14, 02727 Ebersbach-Neugersdorf, Deutschland","Country":"DEU","State":"Sachsen","County":"Görlitz","City":"Ebersbach-Neugersdorf","District":"Neugersdorf","Street":"Martin-Luther-Straße","HouseNumber":"14","PostalCode":"02727","AdditionalData":[{"value":"Deutschland","key":"CountryName"},{"value":"Sachsen","key":"StateName"},{"value":"Görlitz","key":"CountyName"}]},"MapReference":{"ReferenceId":"543850698","Spot":0.28,"SideOfStreet":"left","CountryId":"20147700","StateId":"20191185","CountyId":"20191443","CityId":"20193320","DistrictId":"20193395","AddressId":"190324918","RoadLinkId":"39619981"}}}]}]}}