{"Response":{"MetaInfo":{"Timestamp":"2020-03-28T09:35:09.805+0000","NextPageInformation":"2"},"View":[{"_type":"SearchResultsViewType","ViewId":0,"Result":[{"Relevance":1.0,"Distance":0.0,"Direction":0.0,"MatchLevel":"district","MatchQuality":{"Country":1.0,"State":1.0,"County":1.0,"City":1.0,"District":1.0,"PostalCode":1.0},"Location":{"LocationId":"NT_gcfMNhPI3czlzwUlbS0PZD","LocationType":"point","DisplayPosition":{"Latitude":50.9527156,"Longitude":13.7792605},"MapView":{"TopLeft":{"Latitude":50.9562,"Longitude":13.76853},"BottomRight":{"Latitude":50.94888,"Longitude":13.78119}},"Address":{"Label":"Gombsen, Kreischa, Sachsen, Deutschland","Country":"DEU","State":"Sachsen","County":"Sächsische Schweiz-Osterzgebirge","City":"Kreischa","District":"Gombsen","PostalCode":"01731","AdditionalData":[{"value":"Deutschland","key":"CountryName"},{"value":"Sachsen","key":"StateName"},{"value":"Sächsische Schweiz-Osterzgebirge","key":"CountyName"}]},"MapReference":{"ReferenceId":"64983512","SideOfStreet":"neither","CountryId":"20147700","StateId":"20191185","CountyId":"20193454","CityId":"20213226","DistrictId":"20247904"}}},{"Relevance":1.0,"Distance":24.9,"MatchLevel":"houseNumber","MatchQuality":{"Country":1.0,"State":1.0,"County":1.0,"City":1.0,"District":1.0,"Street":[1.0],"HouseNumber":1.0,"PostalCode":1.0},"MatchType":"interpolated","Location":{"LocationId":"NT_ndXuoVRaVMc.iFq0pR4JTD_zA","LocationType":"point","DisplayPosition":{"Latitude":50.95252,"Longitude":13.77978},"MapView":{"TopLeft":{"Latitude":50.9536442,"Longitude":13.7779955},"BottomRight":{"Latitude":50.9513958,"Longitude":13.7815645}},"Address":{"Label":"Teichweg 3, 01731 Kreischa, Deutschland","Country":"DEU","State":"Sachsen","County":"Sächsische Schweiz-Osterzgebirge","City":"Kreischa","District":"Gombsen","Street":"Teichweg","HouseNumber":"3","PostalCode":"01731","AdditionalData":[{"value":"Deutschland","key":"CountryName"},{"value":"Sachsen","key":"StateName"},{"value":"Sächsische Schweiz-Osterzgebirge","key":"CountyName"}]},"MapReference":{"ReferenceId":"64983506","Spot":1.0,"SideOfStreet":"left","CountryId":"20147700","StateId":"20191185","CountyId":"20193454","CityId":"20213226","DistrictId":"20247904","AddressId":"249710107","RoadLinkId":"39676286"}}},{"Relevance":1.0,"Distance":51.3,"MatchLevel":"houseNumber","MatchQuality":{"Country":1.0,"State":1.0,"County":1.0,"City":1.0,"District":1.0,"Street":[1.0],"HouseNumber":1.0,"PostalCode":1.0},"MatchType":"interpolated","Location":{"LocationId":"NT_Keltac502d1groSwCeFP8A_yA","LocationType":"point","DisplayPosition":{"Latitude":50.95328,"Longitude":13.77919},"MapView":{"TopLeft":{"Latitude":50.9544042,"Longitude":13.7774055},"BottomRight":{"Latitude":50.9521558,"Longitude":13.7809745}},"Address":{"Label":"Borthener Weg 2, 01731 Kreischa, Deutschland","Country":"DEU","State":"Sachsen","County":"Sächsische Schweiz-Osterzgebirge","City":"Kreischa","District":"Gombsen","Street":"Borthener Weg","HouseNumber":"2","PostalCode":"01731","AdditionalData":[{"value":"Deutschland","key":"CountryName"},{"value":"Sachsen","key":"StateName"},{"value":"Sächsische Schweiz-Osterzgebirge","key":"CountyName"}]},"MapReference":{"ReferenceId":"64983501","Spot":0.73,"SideOfStreet":"right","CountryId":"20147700","StateId":"20191185","CountyId":"20193454","CityId":"20213226","DistrictId":"20247904","AddressId":"190078308","RoadLinkId":"39754611"}}},{"Relevance":1.0,"Distance":84.3,"MatchLevel":"houseNumber","MatchQuality":{"Country":1.0,"State":1.0,"County":1.0,"City":1.0,"District":1.0,"Street":[1.0],"HouseNumber":1.0,"PostalCode":1.0},"MatchType":"interpolated","Location":{"LocationId":"NT_JrM.6nJ-izR57S2SLobMVD_yMD","LocationType":"point","DisplayPosition":{"Latitude":50.95263,"Longitude":13.77797},"MapView":{"TopLeft":{"Latitude":50.9537542,"Longitude":13.7761855},"BottomRight":{"Latitude":50.9515058,"Longitude":13.7797545}},"Address":{"Label":"Baumschulenstraße 23, 01731 Kreischa, Deutschland","Country":"DEU","State":"Sachsen","County":"Sächsische Schweiz-Osterzgebirge","City":"Kreischa","District":"Gombsen","Street":"Baumschulenstraße","HouseNumber":"23","PostalCode":"01731","AdditionalData":[{"value":"Deutschland","key":"CountryName"},{"value":"Sachsen","key":"StateName"},{"value":"Sächsische Schweiz-Osterzgebirge","key":"CountyName"}]},"MapReference":{"ReferenceId":"64983512","Spot":0.12,"SideOfStreet":"right","CountryId":"20147700","StateId":"20191185","CountyId":"20193454","CityId":"20213226","DistrictId":"20247904","AddressId":"189869801","RoadLinkId":"39665208"}}},{"Relevance":1.0,"Distance":86.0,"MatchLevel":"houseNumber","MatchQuality":{"Country":1.0,"State":1.0,"County":1.0,"City":1.0,"District":1.0,"Street":[1.0],"HouseNumber":1.0,"PostalCode":1.0},"MatchType":"interpolated","Location":{"LocationId":"NT_JrM.6nJ-izR57S2SLobMVD_ycD","LocationType":"point","DisplayPosition":{"Latitude":50.95202,"Longitude":13.7785},"MapView":{"TopLeft":{"Latitude":50.9531442,"Longitude":13.7767155},"BottomRight":{"Latitude":50.9508958,"Longitude":13.7802845}},"Address":{"Label":"Baumschulenstraße 27, 01731 Kreischa, Deutschland","Country":"DEU","State":"Sachsen","County":"Sächsische Schweiz-Osterzgebirge","City":"Kreischa","District":"Gombsen","Street":"Baumschulenstraße","HouseNumber":"27","PostalCode":"01731","AdditionalData":[{"value":"Deutschland","key":"CountryName"},{"value":"Sachsen","key":"StateName"},{"value":"Sächsische Schweiz-Osterzgebirge","key":"CountyName"}]},"MapReference":{"ReferenceId":"64983502","Spot":0.38,"SideOfStreet":"right","CountryId":"20147700","StateId":"20191185","CountyId":"20193454","CityId":"20213226","DistrictId":"20247904","AddressId":"189800189","RoadLinkId":"39651532"}}},{"Relevance":1.0,"Distance":98.5,"MatchLevel":"houseNumber","MatchQuality":{"Country":1.0,"State":1.0,"County":1.0,"City":1.0,"District":1.0,"Street":[1.0],"HouseNumber":1.0,"PostalCode":1.0},"MatchType":"interpolated","Location":{"LocationId":"NT_ThVKXpMwSnIQ1MuxWAXUkD_zA","LocationType":"point","DisplayPosition":{"Latitude":50.95171,"Longitude":13.77975},"MapView":{"TopLeft":{"Latitude":50.9528342,"Longitude":13.7779656},"BottomRight":{"Latitude":50.9505858,"Longitude":13.7815344}},"Address":{"Label":"Blaubergweg 3, 01731 Kreischa, Deutschland","Country":"DEU","State":"Sachsen","County":"Sächsische Schweiz-Osterzgebirge","City":"Kreischa","District":"Gombsen","Street":"Blaubergweg","HouseNumber":"3","PostalCode":"01731","AdditionalData":[{"value":"Deutschland","key":"CountryName"},{"value":"Sachsen","key":"StateName"},{"value":"Sächsische Schweiz-Osterzgebirge","key":"CountyName"}]},"MapReference":{"ReferenceId":"64983504","Spot":0.9,"SideOfStreet":"right","CountryId":"20147700","StateId":"20191185","CountyId":"20193454","CityId":"20213226","DistrictId":"20247904","AddressId":"189865493","RoadLinkId":"39696958"}}},{"Relevance":1.0,"Distance":106.8,"MatchLevel":"street","MatchQuality":{"Country":1.0,"State":1.0,"County":1.0,"City":1.0,"District":1.0,"Street":[1.0],"PostalCode":1.0},"Location":{"LocationId":"NT_ThVKXpMwSnIQ1MuxWAXUkD_l_64983505_L","LocationType":"point","DisplayPosition":{"Latitude":50.951757,"Longitude":13.779354},"MapView":{"TopLeft":{"Latitude":50.95178,"Longitude":13.77877},"BottomRight":{"Latitude":50.9517,"Longitude":13.77959}},"Address":{"Label":"Blaubergweg, 01731 Kreischa, Deutschland","Country":"DEU","State":"Sachsen","County":"Sächsische Schweiz-Osterzgebirge","City":"Kreischa","District":"Gombsen","Street":"Blaubergweg","PostalCode":"01731","AdditionalData":[{"value":"Deutschland","key":"CountryName"},{"value":"Sachsen","key":"StateName"},{"value":"Sächsische Schweiz-Osterzgebirge","key":"CountyName"}]},"MapReference":{"ReferenceId":"64983505","Spot":0.71,"SideOfStreet":"left","CountryId":"20147700","StateId":"20191185","CountyId":"20193454","CityId":"20213226","DistrictId":"20247904"}}},{"Relevance":1.0,"Distance":128.8,"MatchLevel":"houseNumber","MatchQuality":{"Country":1.0,"State":1.0,"County":1.0,"City":1.0,"District":1.0,"Street":[1.0],"HouseNumber":1.0,"PostalCode":1.0},"MatchType":"interpolated","Location":{"LocationId":"NT_JrM.6nJ-izR57S2SLobMVD_xkD","LocationType":"point","DisplayPosition":{"Latitude":50.95343,"Longitude":13.77741},"MapView":{"TopLeft":{"Latitude":50.9545542,"Longitude":13.7756255},"BottomRight":{"Latitude":50.9523058,"Longitude":13.7791945}},"Address":{"Label":"Baumschulenstraße 19, 01731 Kreischa, Deutschland","Country":"DEU","State":"Sachsen","County":"Sächsische Schweiz-Osterzgebirge","City":"Kreischa","District":"Gombsen","Street":"Baumschulenstraße","HouseNumber":"19","PostalCode":"01731","AdditionalData":[{"value":"Deutschland","key":"CountryName"},{"value":"Sachsen","key":"StateName"},{"value":"Sächsische Schweiz-Osterzgebirge","key":"CountyName"}]},"MapReference":{"ReferenceId":"64983511","Spot":0.32,"SideOfStreet":"right","CountryId":"20147700","StateId":"20191185","CountyId":"20193454","CityId":"20213226","DistrictId":"20247904","AddressId":"189955732","RoadLinkId":"39734127"}}},{"Relevance":1.0,"Distance":140.9,"MatchLevel":"houseNumber","MatchQuality":{"Country":1.0,"State":1.0,"County":1.0,"City":1.0,"District":1.0,"Street":[1.0],"HouseNumber":1.0,"PostalCode":1.0},"MatchType":"interpolated","Location":{"LocationId":"NT_ndXuoVRaVMc.iFq0pR4JTD_0A","LocationType":"point","DisplayPosition":{"Latitude":50.95146,"Longitude":13.77962},"MapView":{"TopLeft":{"Latitude":50.9525842,"Longitude":13.7778356},"BottomRight":{"Latitude":50.9503358,"Longitude":13.7814044}},"Address":{"Label":"Teichweg 4, 01731 Kreischa, Deutschland","Country":"DEU","State":"Sachsen","County":"Sächsische Schweiz-Osterzgebirge","City":"Kreischa","District":"Gombsen","Street":"Teichweg","HouseNumber":"4","PostalCode":"01731","AdditionalData":[{"value":"Deutschland","key":"CountryName"},{"value":"Sachsen","key":"StateName"},{"value":"Sächsische Schweiz-Osterzgebirge","key":"CountyName"}]},"MapReference":{"ReferenceId":"64983507","Spot":0.75,"SideOfStreet":"left","CountryId":"20147700","StateId":"20191185","CountyId":"20193454","CityId":"20213226","DistrictId":"20247904","AddressId":"190378494","RoadLinkId":"39926552"}}},{"Relevance":1.0,"Distance":149.4,"MatchLevel":"houseNumber","MatchQuality":{"Country":1.0,"State":1.0,"County":1.0,"City":1.0,"District":1.0,"Street":[1.0],"HouseNumber":1.0,"PostalCode":1.0},"MatchType":"interpolated","Location":{"LocationId":"NT_A.2siDc9WYwNGOg3bMqpnA_xA","LocationType":"point","DisplayPosition":{"Latitude":50.95312,"Longitude":13.77702},"MapView":{"TopLeft":{"Latitude":50.9542442,"Longitude":13.7752355},"BottomRight":{"Latitude":50.9519958,"Longitude":13.7788045}},"Address":{"Label":"Kreischaer Straße 1, 01731 Kreischa, Deutschland","Country":"DEU","State":"Sachsen","County":"Sächsische Schweiz-Osterzgebirge","City":"Kreischa","District":"Gombsen","Street":"Kreischaer Straße","HouseNumber":"1","PostalCode":"01731","AdditionalData":[{"value":"Deutschland","key":"CountryName"},{"value":"Sachsen","key":"StateName"},{"value":"Sächsische Schweiz-Osterzgebirge","key":"CountyName"}]},"MapReference":{"ReferenceId":"1144754351","Spot":0.78,"SideOfStreet":"right","CountryId":"20147700","StateId":"20191185","CountyId":"20193454","CityId":"20213226","DistrictId":"20247904","AddressId":"189945360","RoadLinkId":"449968697"}}}]}]}}