{"Response":{"MetaInfo":{"Timestamp":"2020-03-28T11:01:58.287+0000","NextPageInformation":"2"},"View":[{"_type":"SearchResultsViewType","ViewId":0,"Result":[{"Relevance":1.0,"Distance":0.0,"Direction":0.0,"MatchLevel":"district","MatchQuality":{"Country":1.0,"State":1.0,"County":1.0,"City":1.0,"District":1.0,"PostalCode":1.0},"Location":{"LocationId":"NT_zgXeOQi4I9ZjoSiuXzIdmD","LocationType":"point","DisplayPosition":{"Latitude":50.9672024,"Longitude":6.9444393},"MapView":{"TopLeft":{"Latitude":50.97287,"Longitude":6.94099},"BottomRight":{"Latitude":50.95383,"Longitude":6.96897}},"Address":{"Label":"Nippes, Köln, Nordrhein-Westfalen, Deutschland","Country":"DEU","State":"Nordrhein-Westfalen","County":"Köln","City":"Köln","District":"Nippes","PostalCode":"50733","AdditionalData":[{"value":"Deutschland","key":"CountryName"},{"value":"Nordrhein-Westfalen","key":"StateName"},{"value":"Köln","key":"CountyName"}]},"MapReference":{"ReferenceId":"51113417","SideOfStreet":"neither","CountryId":"20147700","StateId":"20157369","CountyId":"20158021","CityId":"20158022","DistrictId":"20158031"}}},{"Relevance":1.0,"Distance":8.7,"MatchLevel":"street","MatchQuality":{"Country":1.0,"State":1.0,"County":1.0,"City":1.0,"District":1.0,"PostalCode":1.0},"Location":{"LocationId":"NT_Qg1W-cFfEIitsJiI.C4Y4B_l_749263776_R","LocationType":"point","DisplayPosition":{"Latitude":50.96724,"Longitude":6.94433},"MapView":{"TopLeft":{"Latitude":50.96743,"Longitude":6.94414},"BottomRight":{"Latitude":50.96718,"Longitude":6.94434}},"Address":{"Label":"50733 Köln, Deutschland","Country":"DEU","State":"Nordrhein-Westfalen","County":"Köln","City":"Köln","District":"Nippes","PostalCode":"50733","AdditionalData":[{"value":"Deutschland","key":"CountryName"},{"value":"Nordrhein-Westfalen","key":"StateName"},{"value":"Köln","key":"CountyName"}]},"MapReference":{"ReferenceId":"749263776","Spot":0.23,"SideOfStreet":"right","CountryId":"20147700","StateId":"20157369","CountyId":"20158021","CityId":"20158022","DistrictId":"20158031"}}},{"Relevance":1.0,"Distance":11.7,"MatchLevel":"houseNumber","MatchQuality":{"Country":1.0,"State":1.0,"County":1.0,"City":1.0,"District":1.0,"Street":[1.0],"HouseNumber":1.0,"PostalCode":1.0},"MatchType":"interpolated","Location":{"LocationId":"NT_JA3UaTQbqtl1Ts7g89pRoA_4gD","LocationType":"point","DisplayPosition":{"Latitude":50.96711,"Longitude":6.94436},"MapView":{"TopLeft":{"Latitude":50.9682342,"Longitude":6.942575},"BottomRight":{"Latitude":50.9659858,"Longitude":6.946145}},"Address":{"Label":"Kempener Straße 88, 50733 Köln, Deutschland","Country":"DEU","State":"Nordrhein-Westfalen","County":"Köln","City":"Köln","District":"Nippes","Street":"Kempener Straße","HouseNumber":"88","PostalCode":"50733","AdditionalData":[{"value":"Deutschland","key":"CountryName"},{"value":"Nordrhein-Westfalen","key":"StateName"},{"value":"Köln","key":"CountyName"}]},"MapReference":{"ReferenceId":"837467686","Spot":0.34,"SideOfStreet":"right","CountryId":"20147700","StateId":"20157369","CountyId":"20158021","CityId":"20158022","DistrictId":"20158031","AddressId":"168029320","RoadLinkId":"220367125"}}},{"Relevance":1.0,"Distance":12.8,"MatchLevel":"street","MatchQuality":{"Country":1.0,"State":1.0,"County":1.0,"City":1.0,"District":1.0,"PostalCode":1.0},"Location":{"LocationId":"NT_Qg1W-cFfEIitsJiI.C4Y4B_l_749263771_L","LocationType":"point","DisplayPosition":{"Latitude":50.96718,"Longitude":6.94426},"MapView":{"TopLeft":{"Latitude":50.9672,"Longitude":6.94402},"BottomRight":{"Latitude":50.96716,"Longitude":6.94426}},"Address":{"Label":"50733 Köln, Deutschland","Country":"DEU","State":"Nordrhein-Westfalen","County":"Köln","City":"Köln","District":"Nippes","PostalCode":"50733","AdditionalData":[{"value":"Deutschland","key":"CountryName"},{"value":"Nordrhein-Westfalen","key":"StateName"},{"value":"Köln","key":"CountyName"}]},"MapReference":{"ReferenceId":"749263771","Spot":0.0,"SideOfStreet":"left","CountryId":"20147700","StateId":"20157369","CountyId":"20158021","CityId":"20158022","DistrictId":"20158031"}}},{"Relevance":1.0,"Distance":29.4,"MatchLevel":"street","MatchQuality":{"Country":1.0,"State":1.0,"County":1.0,"City":1.0,"District":1.0,"Street":[1.0],"PostalCode":1.0},"Location":{"LocationId":"NT_ObvdBv2kVLiHgWBm3ifxcC_l_749263774_R","LocationType":"point","DisplayPosition":{"Latitude":50.9672,"Longitude":6.94402},"MapView":{"TopLeft":{"Latitude":50.9672,"Longitude":6.94381},"BottomRight":{"Latitude":50.96709,"Longitude":6.94402}},"Address":{"Label":"Lokomotivstraße, 50733 Köln, Deutschland","Country":"DEU","State":"Nordrhein-Westfalen","County":"Köln","City":"Köln","District":"Nippes","Street":"Lokomotivstraße","PostalCode":"50733","AdditionalData":[{"value":"Deutschland","key":"CountryName"},{"value":"Nordrhein-Westfalen","key":"StateName"},{"value":"Köln","key":"CountyName"}]},"MapReference":{"ReferenceId":"749263774","Spot":1.0,"SideOfStreet":"right","CountryId":"20147700","StateId":"20157369","CountyId":"20158021","CityId":"20158022","DistrictId":"20158031"}}},{"Relevance":1.0,"Distance":29.4,"MatchLevel":"street","MatchQuality":{"Country":1.0,"State":1.0,"County":1.0,"City":1.0,"District":1.0,"PostalCode":1.0},"Location":{"LocationId":"NT_Qg1W-cFfEIitsJiI.C4Y4B_l_749263772_R","LocationType":"point","DisplayPosition":{"Latitude":50.9672,"Longitude":6.94402},"MapView":{"TopLeft":{"Latitude":50.96737,"Longitude":6.94396},"BottomRight":{"Latitude":50.9672,"Longitude":6.94402}},"Address":{"Label":"50733 Köln, Deutschland","Country":"DEU","State":"Nordrhein-Westfalen","County":"Köln","City":"Köln","District":"Nippes","PostalCode":"50733","AdditionalData":[{"value":"Deutschland","key":"CountryName"},{"value":"Nordrhein-Westfalen","key":"StateName"},{"value":"Köln","key":"CountyName"}]},"MapReference":{"ReferenceId":"749263772","Spot":0.0,"SideOfStreet":"right","CountryId":"20147700","StateId":"20157369","CountyId":"20158021","CityId":"20158022","DistrictId":"20158031"}}},{"Relevance":1.0,"Distance":31.3,"MatchLevel":"houseNumber","MatchQuality":{"Country":1.0,"State":1.0,"County":1.0,"City":1.0,"District":1.0,"Street":[1.0],"HouseNumber":1.0,"PostalCode":1.0},"MatchType":"interpolated","Location":{"LocationId":"NT_JA3UaTQbqtl1Ts7g89pRoA_4gjQ","LocationType":"point","DisplayPosition":{"Latitude":50.96694,"Longitude":6.9446},"MapView":{"TopLeft":{"Latitude":50.9680642,"Longitude":6.942815},"BottomRight":{"Latitude":50.9658158,"Longitude":6.946385}},"Address":{"Label":"Kempener Straße 88B, 50733 Köln, Deutschland","Country":"DEU","State":"Nordrhein-Westfalen","County":"Köln","City":"Köln","District":"Nippes","Street":"Kempener Straße","HouseNumber":"88B","PostalCode":"50733","AdditionalData":[{"value":"Deutschland","key":"CountryName"},{"value":"Nordrhein-Westfalen","key":"StateName"},{"value":"Köln","key":"CountyName"}]},"MapReference":{"ReferenceId":"1247553882","Spot":0.48,"SideOfStreet":"right","CountryId":"20147700","StateId":"20157369","CountyId":"20158021","CityId":"20158022","DistrictId":"20158031","AddressId":"168288415","RoadLinkId":"569363050"}}},{"Relevance":1.0,"Distance":32.9,"MatchLevel":"street","MatchQuality":{"Country":1.0,"State":1.0,"County":1.0,"City":1.0,"District":1.0,"Street":[1.0],"PostalCode":1.0},"Location":{"LocationId":"NT_JA3UaTQbqtl1Ts7g89pRoA_l_835804181_R","LocationType":"point","DisplayPosition":{"Latitude":50.96743,"Longitude":6.94414},"MapView":{"TopLeft":{"Latitude":50.9675,"Longitude":6.94408},"BottomRight":{"Latitude":50.96743,"Longitude":6.94414}},"Address":{"Label":"Kempener Straße, 50733 Köln, Deutschland","Country":"DEU","State":"Nordrhein-Westfalen","County":"Köln","City":"Köln","District":"Nippes","Street":"Kempener Straße","PostalCode":"50733","AdditionalData":[{"value":"Deutschland","key":"CountryName"},{"value":"Nordrhein-Westfalen","key":"StateName"},{"value":"Köln","key":"CountyName"}]},"MapReference":{"ReferenceId":"835804181","Spot":0.0,"SideOfStreet":"right","CountryId":"20147700","StateId":"20157369","CountyId":"20158021","CityId":"20158022","DistrictId":"20158031"}}},{"Relevance":1.0,"Distance":32.9,"MatchLevel":"street","MatchQuality":{"Country":1.0,"State":1.0,"County":1.0,"City":1.0,"District":1.0,"PostalCode":1.0},"Location":{"LocationId":"NT_Qg1W-cFfEIitsJiI.C4Y4B_l_749263777_R","LocationType":"point","DisplayPosition":{"Latitude":50.96743,"Longitude":6.94414},"MapView":{"TopLeft":{"Latitude":50.96743,"Longitude":6.94398},"BottomRight":{"Latitude":50.96737,"Longitude":6.94414}},"Address":{"Label":"50733 Köln, Deutschland","Country":"DEU","State":"Nordrhein-Westfalen","County":"Köln","City":"Köln","District":"Nippes","PostalCode":"50733","AdditionalData":[{"value":"Deutschland","key":"CountryName"},{"value":"Nordrhein-Westfalen","key":"StateName"},{"value":"Köln","key":"CountyName"}]},"MapReference":{"ReferenceId":"749263777","Spot":1.0,"SideOfStreet":"right","CountryId":"20147700","StateId":"20157369","CountyId":"20158021","CityId":"20158022","DistrictId":"20158031"}}},{"Relevance":1.0,"Distance":37.2,"MatchLevel":"street","MatchQuality":{"Country":1.0,"State":1.0,"County":1.0,"City":1.0,"District":1.0,"PostalCode":1.0},"Location":{"LocationId":"NT_Qg1W-cFfEIitsJiI.C4Y4B_l_821683984_R","LocationType":"point","DisplayPosition":{"Latitude":50.96737,"Longitude":6.94398},"MapView":{"TopLeft":{"Latitude":50.96747,"Longitude":6.94393},"BottomRight":{"Latitude":50.96737,"Longitude":6.94398}},"Address":{"Label":"50733 Köln, Deutschland","Country":"DEU","State":"Nordrhein-Westfalen","County":"Köln","City":"Köln","District":"Nippes","PostalCode":"50733","AdditionalData":[{"value":"Deutschland","key":"CountryName"},{"value":"Nordrhein-Westfalen","key":"StateName"},{"value":"Köln","key":"CountyName"}]},"MapReference":{"ReferenceId":"821683984","Spot":0.0,"SideOfStreet":"right","CountryId":"20147700","StateId":"20157369","CountyId":"20158021","CityId":"20158022","DistrictId":"20158031"}}}]}]}}