{"Response":{"MetaInfo":{"Timestamp":"2020-03-28T10:11:12.627+0000","NextPageInformation":"2"},"View":[{"_type":"SearchResultsViewType","ViewId":0,"Result":[{"Relevance":1.0,"Distance":0.0,"Direction":0.0,"MatchLevel":"district","MatchQuality":{"Country":1.0,"State":1.0,"County":1.0,"City":1.0,"District":1.0,"PostalCode":1.0},"Location":{"LocationId":"NT_iu5GqzEfc7aU77EcGddOhA","LocationType":"point","DisplayPosition":{"Latitude":50.9656461,"Longitude":0.0972341},"MapView":{"TopLeft":{"Latitude":50.98956,"Longitude":0.07964},"BottomRight":{"Latitude":50.95416,"Longitude":0.1141}},"Address":{"Label":"Uckfield, England, United Kingdom","Country":"GBR","State":"England","County":"East Sussex","City":"Uckfield","District":"Uckfield","PostalCode":"TN22 1","AdditionalData":[{"value":"United Kingdom","key":"CountryName"},{"value":"England","key":"StateName"},{"value":"East Sussex","key":"CountyName"}]},"MapReference":{"ReferenceId":"1022054352","SideOfStreet":"neither","StateId":"20248595","CountyId":"20335121","CityId":"20335336","DistrictId":"20335337"}}},{"Relevance":1.0,"Distance":20.1,"MatchLevel":"street","MatchQuality":{"Country":1.0,"State":1.0,"County":1.0,"City":1.0,"District":1.0,"Street":[1.0],"PostalCode":1.0},"Location":{"LocationId":"NT_1pFS0cNFXKxRqX3AOuc8BB_l_781738204_R","LocationType":"point","DisplayPosition":{"Latitude":50.96562,"Longitude":0.09695},"MapView":{"TopLeft":{"Latitude":50.96654,"Longitude":0.09661},"BottomRight":{"Latitude":50.96562,"Longitude":0.09695}},"Address":{"Label":"New Town, Uckfield, TN22 5, United Kingdom","Country":"GBR","State":"England","County":"East Sussex","City":"Uckfield","District":"Uckfield","Street":"New Town","PostalCode":"TN22 5","AdditionalData":[{"value":"United Kingdom","key":"CountryName"},{"value":"England","key":"StateName"},{"value":"East Sussex","key":"CountyName"}]},"MapReference":{"ReferenceId":"781738204","Spot":0.0,"SideOfStreet":"right","StateId":"20248595","CountyId":"20335121","CityId":"20335336","DistrictId":"20335337"}}},{"Relevance":1.0,"Distance":20.1,"MatchLevel":"street","MatchQuality":{"Country":1.0,"State":1.0,"County":1.0,"City":1.0,"District":1.0,"Street":[1.0],"PostalCode":1.0},"Location":{"LocationId":"NT_4yVeuEa2eOUQ5RgkzjicQC_l_1204984282_R","LocationType":"point","DisplayPosition":{"Latitude":50.96562,"Longitude":0.09695},"MapView":{"TopLeft":{"Latitude":50.96562,"Longitude":0.09604},"BottomRight":{"Latitude":50.96554,"Longitude":0.09695}},"Address":{"Label":"Old Timbers Lane, Uckfield, TN22 5, United Kingdom","Country":"GBR","State":"England","County":"East Sussex","City":"Uckfield","District":"Uckfield","Street":"Old Timbers Lane","PostalCode":"TN22 5","AdditionalData":[{"value":"United Kingdom","key":"CountryName"},{"value":"England","key":"StateName"},{"value":"East Sussex","key":"CountyName"}]},"MapReference":{"ReferenceId":"1204984282","Spot":1.0,"SideOfStreet":"right","StateId":"20248595","CountyId":"20335121","CityId":"20335336","DistrictId":"20335337"}}},{"Relevance":1.0,"Distance":21.2,"MatchLevel":"street","MatchQuality":{"Country":1.0,"State":1.0,"County":1.0,"City":1.0,"District":1.0,"Street":[1.0],"PostalCode":1.0},"Location":{"LocationId":"NT_1pFS0cNFXKxRqX3AOuc8BB_l_1022224943_R","LocationType":"point","DisplayPosition":{"Latitude":50.9655364,"Longitude":0.0969872},"MapView":{"TopLeft":{"Latitude":50.96562,"Longitude":0.09695},"BottomRight":{"Latitude":50.96544,"Longitude":0.09703}},"Address":{"Label":"New Town, Uckfield, TN22 5, United Kingdom","Country":"GBR","State":"England","County":"East Sussex","City":"Uckfield","District":"Uckfield","Street":"New Town","PostalCode":"TN22 5","AdditionalData":[{"value":"United Kingdom","key":"CountryName"},{"value":"England","key":"StateName"},{"value":"East Sussex","key":"CountyName"}]},"MapReference":{"ReferenceId":"1022224943","Spot":0.54,"SideOfStreet":"right","StateId":"20248595","CountyId":"20335121","CityId":"20335336","DistrictId":"20335337"}}},{"Relevance":1.0,"Distance":44.3,"MatchLevel":"postalCode","MatchQuality":{"PostalCode":1.0},"MatchType":"interpolated","Location":{"LocationId":"NT_1pFS0cNFXKxRqX3AOuc8BB_ygD","LocationType":"point","DisplayPosition":{"Latitude":50.96525,"Longitude":0.09717},"MapView":{"TopLeft":{"Latitude":50.9742432,"Longitude":0.0828903},"BottomRight":{"Latitude":50.9562568,"Longitude":0.1114497}},"Address":{"Label":"TN22 5DG, Uckfield, England, United Kingdom","Country":"GBR","State":"England","County":"East Sussex","City":"Uckfield","PostalCode":"TN22 5DG","AdditionalData":[{"value":"United Kingdom","key":"CountryName"},{"value":"England","key":"StateName"},{"value":"East Sussex","key":"CountyName"}]},"MapReference":{"ReferenceId":"1022224945","Spot":0.3,"SideOfStreet":"neither","StateId":"20248595","CountyId":"20335121","CityId":"20335336"}}},{"Relevance":1.0,"Distance":75.3,"MatchLevel":"houseNumber","MatchQuality":{"Country":1.0,"State":1.0,"County":1.0,"City":1.0,"District":1.0,"Street":[1.0],"HouseNumber":1.0,"PostalCode":1.0},"MatchType":"interpolated","Location":{"LocationId":"NT_5pzcUpxeHsVexCL7J.ei0D_l_25598111_L_xED","LocationType":"point","DisplayPosition":{"Latitude":50.965754,"Longitude":0.0985109},"MapView":{"TopLeft":{"Latitude":50.9668781,"Longitude":0.0967259},"BottomRight":{"Latitude":50.9646298,"Longitude":0.1002958}},"Address":{"Label":"11 Harcourt Close, Uckfield, TN22 5DT, United Kingdom","Country":"GBR","State":"England","County":"East Sussex","City":"Uckfield","District":"Uckfield","Street":"Harcourt Close","HouseNumber":"11","PostalCode":"TN22 5DT","AdditionalData":[{"value":"United Kingdom","key":"CountryName"},{"value":"England","key":"StateName"},{"value":"East Sussex","key":"CountyName"}]},"MapReference":{"ReferenceId":"25598111","Spot":0.59,"SideOfStreet":"left","StateId":"20248595","CountyId":"20335121","CityId":"20335336","DistrictId":"20335337"}}},{"Relevance":1.0,"Distance":80.0,"MatchLevel":"houseNumber","MatchQuality":{"Country":1.0,"State":1.0,"County":1.0,"City":1.0,"District":1.0,"Street":[1.0],"HouseNumber":1.0,"PostalCode":1.0},"MatchType":"interpolated","Location":{"LocationId":"NT_Z93juRHwixkT9EMI3PJvfB_l_25598063_L_4A","LocationType":"point","DisplayPosition":{"Latitude":50.9662701,"Longitude":0.0979},"MapView":{"TopLeft":{"Latitude":50.9673942,"Longitude":0.096115},"BottomRight":{"Latitude":50.9651459,"Longitude":0.099685}},"Address":{"Label":"8 Meadow Place, Uckfield, TN22 5BA, United Kingdom","Country":"GBR","State":"England","County":"East Sussex","City":"Uckfield","District":"Uckfield","Street":"Meadow Place","HouseNumber":"8","PostalCode":"TN22 5BA","AdditionalData":[{"value":"United Kingdom","key":"CountryName"},{"value":"England","key":"StateName"},{"value":"East Sussex","key":"CountyName"}]},"MapReference":{"ReferenceId":"25598063","Spot":0.15,"SideOfStreet":"left","StateId":"20248595","CountyId":"20335121","CityId":"20335336","DistrictId":"20335337"}}},{"Relevance":1.0,"Distance":84.3,"MatchLevel":"street","MatchQuality":{"Country":1.0,"State":1.0,"County":1.0,"City":1.0,"District":1.0,"Street":[1.0],"PostalCode":1.0},"Location":{"LocationId":"NT_4yVeuEa2eOUQ5RgkzjicQC_l_1204984283_R","LocationType":"point","DisplayPosition":{"Latitude":50.96555,"Longitude":0.09604},"MapView":{"TopLeft":{"Latitude":50.96566,"Longitude":0.0953},"BottomRight":{"Latitude":50.96555,"Longitude":0.09604}},"Address":{"Label":"Old Timbers Lane, Uckfield, TN22 5, United Kingdom","Country":"GBR","State":"England","County":"East Sussex","City":"Uckfield","District":"Uckfield","Street":"Old Timbers Lane","PostalCode":"TN22 5","AdditionalData":[{"value":"United Kingdom","key":"CountryName"},{"value":"England","key":"StateName"},{"value":"East Sussex","key":"CountyName"}]},"MapReference":{"ReferenceId":"1204984283","Spot":0.0,"SideOfStreet":"right","StateId":"20248595","CountyId":"20335121","CityId":"20335336","DistrictId":"20335337"}}},{"Relevance":1.0,"Distance":84.3,"MatchLevel":"street","MatchQuality":{"Country":1.0,"State":1.0,"County":1.0,"City":1.0,"District":1.0,"Street":[1.0],"PostalCode":1.0},"Location":{"LocationId":"NT_RUnNIDMNUZMlaUxZg8RnUC_l_1204984284_R","LocationType":"point","DisplayPosition":{"Latitude":50.96555,"Longitude":0.09604},"MapView":{"TopLeft":{"Latitude":50.96555,"Longitude":0.09585},"BottomRight":{"Latitude":50.96521,"Longitude":0.09604}},"Address":{"Label":"College Place, Uckfield, TN22 5, United Kingdom","Country":"GBR","State":"England","County":"East Sussex","City":"Uckfield","District":"Uckfield","Street":"College Place","PostalCode":"TN22 5","AdditionalData":[{"value":"United Kingdom","key":"CountryName"},{"value":"England","key":"StateName"},{"value":"East Sussex","key":"CountyName"}]},"MapReference":{"ReferenceId":"1204984284","Spot":1.0,"SideOfStreet":"right","StateId":"20248595","CountyId":"20335121","CityId":"20335336","DistrictId":"20335337"}}},{"Relevance":1.0,"Distance":95.4,"MatchLevel":"postalCode","MatchQuality":{"PostalCode":1.0},"MatchType":"interpolated","Location":{"LocationId":"NT_5pzcUpxeHsVexCL7J.ei0D_l_25598111_L_xED","LocationType":"point","DisplayPosition":{"Latitude":50.96589,"Longitude":0.09854},"MapView":{"TopLeft":{"Latitude":50.9748832,"Longitude":0.0842601},"BottomRight":{"Latitude":50.9568968,"Longitude":0.1128199}},"Address":{"Label":"TN22 5DT, Uckfield, England, United Kingdom","Country":"GBR","State":"England","County":"East Sussex","City":"Uckfield","PostalCode":"TN22 5DT","AdditionalData":[{"value":"United Kingdom","key":"CountryName"},{"value":"England","key":"StateName"},{"value":"East Sussex","key":"CountyName"}]},"MapReference":{"ReferenceId":"25598111","Spot":0.59,"SideOfStreet":"neither","StateId":"20248595","CountyId":"20335121","CityId":"20335336"}}}]}]}}