{"Response":{"MetaInfo":{"Timestamp":"2020-03-28T11:38:47.562+0000","NextPageInformation":"2"},"View":[{"_type":"SearchResultsViewType","ViewId":0,"Result":[{"Relevance":1.0,"Distance":0.0,"Direction":0.0,"MatchLevel":"city","MatchQuality":{"Country":1.0,"State":1.0,"County":1.0,"City":1.0,"PostalCode":1.0},"Location":{"LocationId":"NT_LJTP3XTN5hISIucILmCCYB","LocationType":"point","DisplayPosition":{"Latitude":50.9514719,"Longitude":3.1199125},"MapView":{"TopLeft":{"Latitude":50.99404,"Longitude":3.06145},"BottomRight":{"Latitude":50.88705,"Longitude":3.18498}},"Address":{"Label":"Roeselare, Vlaanderen, België","Country":"BEL","State":"Vlaanderen","County":"West-Vlaanderen","City":"Roeselare","PostalCode":"8800","AdditionalData":[{"value":"België","key":"CountryName"},{"value":"Vlaanderen","key":"StateName"},{"value":"West-Vlaanderen","key":"CountyName"}]},"MapReference":{"ReferenceId":"60843949","SideOfStreet":"neither","CountryId":"20128886","StateId":"20204377","CountyId":"20204694","CityId":"20204992"}}},{"Relevance":1.0,"Distance":6.9,"MatchLevel":"houseNumber","MatchQuality":{"Country":1.0,"State":1.0,"County":1.0,"City":1.0,"Street":[1.0],"HouseNumber":1.0,"PostalCode":1.0},"MatchType":"interpolated","Location":{"LocationId":"NT_84ufyWGIGBCwGRgxFHJOYC_xA","LocationType":"point","DisplayPosition":{"Latitude":50.95132,"Longitude":3.12012},"MapView":{"TopLeft":{"Latitude":50.9524442,"Longitude":3.1183356},"BottomRight":{"Latitude":50.9501958,"Longitude":3.1219044}},"Address":{"Label":"Brugsesteenweg 1, 8800 Roeselare, België","Country":"BEL","State":"Vlaanderen","County":"West-Vlaanderen","City":"Roeselare","Street":"Brugsesteenweg","HouseNumber":"1","PostalCode":"8800","AdditionalData":[{"value":"België","key":"CountryName"},{"value":"Vlaanderen","key":"StateName"},{"value":"West-Vlaanderen","key":"CountyName"}]},"MapReference":{"ReferenceId":"958275476","Spot":0.27,"SideOfStreet":"left","CountryId":"20128886","StateId":"20204377","CountyId":"20204694","CityId":"20204992","AddressId":"400939088","RoadLinkId":"301253797"}}},{"Relevance":1.0,"Distance":10.9,"MatchLevel":"houseNumber","MatchQuality":{"Country":1.0,"State":1.0,"County":1.0,"City":1.0,"Street":[1.0],"HouseNumber":1.0,"PostalCode":1.0},"MatchType":"interpolated","Location":{"LocationId":"NT_UR-XPO-wlwtp2eFwyzpCkC_yA","LocationType":"point","DisplayPosition":{"Latitude":50.9515,"Longitude":3.11962},"MapView":{"TopLeft":{"Latitude":50.9526242,"Longitude":3.1178356},"BottomRight":{"Latitude":50.9503758,"Longitude":3.1214044}},"Address":{"Label":"Hoogleedsesteenweg 2, 8800 Roeselare, België","Country":"BEL","State":"Vlaanderen","County":"West-Vlaanderen","City":"Roeselare","Street":"Hoogleedsesteenweg","HouseNumber":"2","PostalCode":"8800","AdditionalData":[{"value":"België","key":"CountryName"},{"value":"Vlaanderen","key":"StateName"},{"value":"West-Vlaanderen","key":"CountyName"}]},"MapReference":{"ReferenceId":"958275474","Spot":0.6,"SideOfStreet":"right","CountryId":"20128886","StateId":"20204377","CountyId":"20204694","CityId":"20204992","AddressId":"400466653","RoadLinkId":"301253793"}}},{"Relevance":1.0,"Distance":20.7,"MatchLevel":"houseNumber","MatchQuality":{"Country":1.0,"State":1.0,"County":1.0,"City":1.0,"Street":[1.0],"HouseNumber":1.0,"PostalCode":1.0},"MatchType":"interpolated","Location":{"LocationId":"NT_84ufyWGIGBCwGRgxFHJOYC_l_958275475_L_zA","LocationType":"point","DisplayPosition":{"Latitude":50.951165,"Longitude":3.119925},"MapView":{"TopLeft":{"Latitude":50.9522892,"Longitude":3.1181406},"BottomRight":{"Latitude":50.9500409,"Longitude":3.1217094}},"Address":{"Label":"Brugsesteenweg 3, 8800 Roeselare, België","Country":"BEL","State":"Vlaanderen","County":"West-Vlaanderen","City":"Roeselare","Street":"Brugsesteenweg","HouseNumber":"3","PostalCode":"8800","AdditionalData":[{"value":"België","key":"CountryName"},{"value":"Vlaanderen","key":"StateName"},{"value":"West-Vlaanderen","key":"CountyName"}]},"MapReference":{"ReferenceId":"958275475","Spot":0.5,"SideOfStreet":"left","CountryId":"20128886","StateId":"20204377","CountyId":"20204694","CityId":"20204992"}}},{"Relevance":1.0,"Distance":26.9,"MatchLevel":"houseNumber","MatchQuality":{"Country":1.0,"State":1.0,"County":1.0,"City":1.0,"Street":[1.0],"HouseNumber":1.0,"PostalCode":1.0},"MatchType":"interpolated","Location":{"LocationId":"NT_UR-XPO-wlwtp2eFwyzpCkC_zA","LocationType":"point","DisplayPosition":{"Latitude":50.95125,"Longitude":3.11976},"MapView":{"TopLeft":{"Latitude":50.9523742,"Longitude":3.1179756},"BottomRight":{"Latitude":50.9501258,"Longitude":3.1215444}},"Address":{"Label":"Hoogleedsesteenweg 3, 8800 Roeselare, België","Country":"BEL","State":"Vlaanderen","County":"West-Vlaanderen","City":"Roeselare","Street":"Hoogleedsesteenweg","HouseNumber":"3","PostalCode":"8800","AdditionalData":[{"value":"België","key":"CountryName"},{"value":"Vlaanderen","key":"StateName"},{"value":"West-Vlaanderen","key":"CountyName"}]},"MapReference":{"ReferenceId":"958275473","Spot":1.0,"SideOfStreet":"left","CountryId":"20128886","StateId":"20204377","CountyId":"20204694","CityId":"20204992","AddressId":"400560349","RoadLinkId":"301253792"}}},{"Relevance":1.0,"Distance":38.7,"MatchLevel":"houseNumber","MatchQuality":{"Country":1.0,"State":1.0,"County":1.0,"City":1.0,"Street":[1.0],"HouseNumber":1.0,"PostalCode":1.0},"MatchType":"interpolated","Location":{"LocationId":"NT_OMQ49hH9atbf7UOoKbbEpD_yA","LocationType":"point","DisplayPosition":{"Latitude":50.95181,"Longitude":3.11958},"MapView":{"TopLeft":{"Latitude":50.9529342,"Longitude":3.1177956},"BottomRight":{"Latitude":50.9506858,"Longitude":3.1213644}},"Address":{"Label":"Gitsestraat 2, 8800 Roeselare, België","Country":"BEL","State":"Vlaanderen","County":"West-Vlaanderen","City":"Roeselare","Street":"Gitsestraat","HouseNumber":"2","PostalCode":"8800","AdditionalData":[{"value":"België","key":"CountryName"},{"value":"Vlaanderen","key":"StateName"},{"value":"West-Vlaanderen","key":"CountyName"}]},"MapReference":{"ReferenceId":"53713705","Spot":0.05,"SideOfStreet":"right","CountryId":"20128886","StateId":"20204377","CountyId":"20204694","CityId":"20204992","AddressId":"401227143","RoadLinkId":"31014712"}}},{"Relevance":1.0,"Distance":43.3,"MatchLevel":"houseNumber","MatchQuality":{"Country":1.0,"State":1.0,"County":1.0,"City":1.0,"Street":[1.0],"HouseNumber":1.0,"PostalCode":1.0},"MatchType":"interpolated","Location":{"LocationId":"NT_84ufyWGIGBCwGRgxFHJOYC_yED","LocationType":"point","DisplayPosition":{"Latitude":50.9517,"Longitude":3.12049},"MapView":{"TopLeft":{"Latitude":50.9528242,"Longitude":3.1187056},"BottomRight":{"Latitude":50.9505758,"Longitude":3.1222744}},"Address":{"Label":"Brugsesteenweg 21, 8800 Roeselare, België","Country":"BEL","State":"Vlaanderen","County":"West-Vlaanderen","City":"Roeselare","Street":"Brugsesteenweg","HouseNumber":"21","PostalCode":"8800","AdditionalData":[{"value":"België","key":"CountryName"},{"value":"Vlaanderen","key":"StateName"},{"value":"West-Vlaanderen","key":"CountyName"}]},"MapReference":{"ReferenceId":"756020604","Spot":0.09,"SideOfStreet":"left","CountryId":"20128886","StateId":"20204377","CountyId":"20204694","CityId":"20204992","AddressId":"400058295","RoadLinkId":"151206965"}}},{"Relevance":1.0,"Distance":51.4,"MatchLevel":"houseNumber","MatchQuality":{"Country":1.0,"State":1.0,"County":1.0,"City":1.0,"Street":[1.0],"HouseNumber":1.0,"PostalCode":1.0},"MatchType":"interpolated","Location":{"LocationId":"NT_9y1rO9MMnEhjL6oiMVmHnB_yIDM","LocationType":"point","DisplayPosition":{"Latitude":50.95101,"Longitude":3.11989},"MapView":{"TopLeft":{"Latitude":50.9521342,"Longitude":3.1181056},"BottomRight":{"Latitude":50.9498858,"Longitude":3.1216744}},"Address":{"Label":"Noordstraat 220, 8800 Roeselare, België","Country":"BEL","State":"Vlaanderen","County":"West-Vlaanderen","City":"Roeselare","Street":"Noordstraat","HouseNumber":"220","PostalCode":"8800","AdditionalData":[{"value":"België","key":"CountryName"},{"value":"Vlaanderen","key":"StateName"},{"value":"West-Vlaanderen","key":"CountyName"}]},"MapReference":{"ReferenceId":"958271577","Spot":0.51,"SideOfStreet":"right","CountryId":"20128886","StateId":"20204377","CountyId":"20204694","CityId":"20204992","AddressId":"737398018","RoadLinkId":"301249811"}}},{"Relevance":1.0,"Distance":68.5,"MatchLevel":"houseNumber","MatchQuality":{"Country":1.0,"State":1.0,"County":1.0,"City":1.0,"Street":[1.0],"HouseNumber":1.0,"PostalCode":1.0},"MatchType":"interpolated","Location":{"LocationId":"NT_9y1rO9MMnEhjL6oiMVmHnB_yEjM","LocationType":"point","DisplayPosition":{"Latitude":50.95084,"Longitude":3.11996},"MapView":{"TopLeft":{"Latitude":50.9519642,"Longitude":3.1181756},"BottomRight":{"Latitude":50.9497158,"Longitude":3.1217444}},"Address":{"Label":"Noordstraat 212, 8800 Roeselare, België","Country":"BEL","State":"Vlaanderen","County":"West-Vlaanderen","City":"Roeselare","Street":"Noordstraat","HouseNumber":"212","PostalCode":"8800","AdditionalData":[{"value":"België","key":"CountryName"},{"value":"Vlaanderen","key":"StateName"},{"value":"West-Vlaanderen","key":"CountyName"}]},"MapReference":{"ReferenceId":"958271576","Spot":0.55,"SideOfStreet":"right","CountryId":"20128886","StateId":"20204377","CountyId":"20204694","CityId":"20204992","AddressId":"400082514","RoadLinkId":"301249810"}}},{"Relevance":1.0,"Distance":77.7,"MatchLevel":"houseNumber","MatchQuality":{"Country":1.0,"State":1.0,"County":1.0,"City":1.0,"Street":[1.0],"HouseNumber":1.0,"PostalCode":1.0},"MatchType":"interpolated","Location":{"LocationId":"NT_UR-XPO-wlwtp2eFwyzpCkC_4A","LocationType":"point","DisplayPosition":{"Latitude":50.95195,"Longitude":3.11915},"MapView":{"TopLeft":{"Latitude":50.9530742,"Longitude":3.1173656},"BottomRight":{"Latitude":50.9508258,"Longitude":3.1209344}},"Address":{"Label":"Hoogleedsesteenweg 10, 8800 Roeselare, België","Country":"BEL","State":"Vlaanderen","County":"West-Vlaanderen","City":"Roeselare","Street":"Hoogleedsesteenweg","HouseNumber":"10","PostalCode":"8800","AdditionalData":[{"value":"België","key":"CountryName"},{"value":"Vlaanderen","key":"StateName"},{"value":"West-Vlaanderen","key":"CountyName"}]},"MapReference":{"ReferenceId":"68203281","Spot":0.36,"SideOfStreet":"right","CountryId":"20128886","StateId":"20204377","CountyId":"20204694","CityId":"20204992","AddressId":"399961412","RoadLinkId":"30492755"}}}]}]}}