{"Response":{"MetaInfo":{"Timestamp":"2020-03-28T10:03:02.659+0000","NextPageInformation":"2"},"View":[{"_type":"SearchResultsViewType","ViewId":0,"Result":[{"Relevance":1.0,"Distance":-18.2,"MatchLevel":"landmark","MatchQuality":{"Country":1.0,"State":1.0,"County":1.0,"City":1.0,"District":1.0,"PostalCode":1.0,"Name":1.0},"Location":{"LocationId":"NT_Ey7eBbztGdK4rs.-NWmAXD","LocationType":"industrialComplex","Name":"Weißenhaus und Holthausen","DisplayPosition":{"Latitude":50.91987,"Longitude":6.13662},"MapView":{"TopLeft":{"Latitude":50.92729,"Longitude":6.12602},"BottomRight":{"Latitude":50.91245,"Longitude":6.1526}},"Address":{"Label":"52531 Übach-Palenberg, Deutschland","Country":"DEU","State":"Nordrhein-Westfalen","County":"Heinsberg","City":"Übach-Palenberg","District":"Übach","PostalCode":"52531","AdditionalData":[{"value":"Deutschland","key":"CountryName"},{"value":"Nordrhein-Westfalen","key":"StateName"},{"value":"Heinsberg","key":"CountyName"}]},"MapReference":{"CountryId":"20147700","StateId":"20157369","CountyId":"20158557","CityId":"20158634","DistrictId":"20158638","PlaceId":"1410389500"}}},{"Relevance":1.0,"Distance":0.0,"Direction":0.0,"MatchLevel":"district","MatchQuality":{"Country":1.0,"State":1.0,"County":1.0,"City":1.0,"District":1.0,"PostalCode":1.0},"Location":{"LocationId":"NT_yjxWyXNSDrtYe32stiPWRD","LocationType":"point","DisplayPosition":{"Latitude":50.9143667,"Longitude":6.1373136},"MapView":{"TopLeft":{"Latitude":50.92729,"Longitude":6.10705},"BottomRight":{"Latitude":50.89989,"Longitude":6.1526}},"Address":{"Label":"Übach, Übach-Palenberg, Nordrhein-Westfalen, Deutschland","Country":"DEU","State":"Nordrhein-Westfalen","County":"Heinsberg","City":"Übach-Palenberg","District":"Übach","PostalCode":"52531","AdditionalData":[{"value":"Deutschland","key":"CountryName"},{"value":"Nordrhein-Westfalen","key":"StateName"},{"value":"Heinsberg","key":"CountyName"}]},"MapReference":{"ReferenceId":"817293531","SideOfStreet":"neither","CountryId":"20147700","StateId":"20157369","CountyId":"20158557","CityId":"20158634","DistrictId":"20158638"}}},{"Relevance":1.0,"Distance":19.2,"MatchLevel":"houseNumber","MatchQuality":{"Country":1.0,"State":1.0,"County":1.0,"City":1.0,"District":1.0,"Street":[1.0],"HouseNumber":1.0,"PostalCode":1.0},"MatchType":"interpolated","Location":{"LocationId":"NT_2Q255Z1lkUTy7dlyMNr7PA_yMTQ","LocationType":"point","DisplayPosition":{"Latitude":50.91422,"Longitude":6.13706},"MapView":{"TopLeft":{"Latitude":50.9153442,"Longitude":6.135277},"BottomRight":{"Latitude":50.9130958,"Longitude":6.138843}},"Address":{"Label":"Roermonder Straße 23A, 52531 Übach-Palenberg, Deutschland","Country":"DEU","State":"Nordrhein-Westfalen","County":"Heinsberg","City":"Übach-Palenberg","District":"Übach","Street":"Roermonder Straße","HouseNumber":"23A","PostalCode":"52531","AdditionalData":[{"value":"Deutschland","key":"CountryName"},{"value":"Nordrhein-Westfalen","key":"StateName"},{"value":"Heinsberg","key":"CountyName"}]},"MapReference":{"ReferenceId":"536944423","Spot":0.23,"SideOfStreet":"right","CountryId":"20147700","StateId":"20157369","CountyId":"20158557","CityId":"20158634","DistrictId":"20158638","AddressId":"195061910","RoadLinkId":"39006519"}}},{"Relevance":1.0,"Distance":24.3,"MatchLevel":"houseNumber","MatchQuality":{"Country":1.0,"State":1.0,"County":1.0,"City":1.0,"District":1.0,"Street":[1.0],"HouseNumber":1.0,"PostalCode":1.0},"MatchType":"interpolated","Location":{"LocationId":"NT_ku.lVKNB2C1uiE7Tslk-WB_yA","LocationType":"point","DisplayPosition":{"Latitude":50.91461,"Longitude":6.13772},"MapView":{"TopLeft":{"Latitude":50.9157342,"Longitude":6.135937},"BottomRight":{"Latitude":50.9134858,"Longitude":6.139503}},"Address":{"Label":"Werkstraße 2, 52531 Übach-Palenberg, Deutschland","Country":"DEU","State":"Nordrhein-Westfalen","County":"Heinsberg","City":"Übach-Palenberg","District":"Übach","Street":"Werkstraße","HouseNumber":"2","PostalCode":"52531","AdditionalData":[{"value":"Deutschland","key":"CountryName"},{"value":"Nordrhein-Westfalen","key":"StateName"},{"value":"Heinsberg","key":"CountyName"}]},"MapReference":{"ReferenceId":"792798692","Spot":1.0,"SideOfStreet":"left","CountryId":"20147700","StateId":"20157369","CountyId":"20158557","CityId":"20158634","DistrictId":"20158638","AddressId":"249319193","RoadLinkId":"184970231"}}},{"Relevance":1.0,"Distance":34.2,"MatchLevel":"houseNumber","MatchQuality":{"Country":1.0,"State":1.0,"County":1.0,"City":1.0,"District":1.0,"Street":[1.0],"HouseNumber":1.0,"PostalCode":1.0},"MatchType":"interpolated","Location":{"LocationId":"NT_2Q255Z1lkUTy7dlyMNr7PA_yUTQ","LocationType":"point","DisplayPosition":{"Latitude":50.91403,"Longitude":6.13707},"MapView":{"TopLeft":{"Latitude":50.9151542,"Longitude":6.135287},"BottomRight":{"Latitude":50.9129058,"Longitude":6.138853}},"Address":{"Label":"Roermonder Straße 25A, 52531 Übach-Palenberg, Deutschland","Country":"DEU","State":"Nordrhein-Westfalen","County":"Heinsberg","City":"Übach-Palenberg","District":"Übach","Street":"Roermonder Straße","HouseNumber":"25A","PostalCode":"52531","AdditionalData":[{"value":"Deutschland","key":"CountryName"},{"value":"Nordrhein-Westfalen","key":"StateName"},{"value":"Heinsberg","key":"CountyName"}]},"MapReference":{"ReferenceId":"536944424","Spot":0.97,"SideOfStreet":"right","CountryId":"20147700","StateId":"20157369","CountyId":"20158557","CityId":"20158634","DistrictId":"20158638","AddressId":"249420840","RoadLinkId":"39306584"}}},{"Relevance":1.0,"Distance":35.5,"MatchLevel":"street","MatchQuality":{"Country":1.0,"State":1.0,"County":1.0,"City":1.0,"District":1.0,"Street":[1.0],"PostalCode":1.0},"Location":{"LocationId":"NT_ku.lVKNB2C1uiE7Tslk-WB_l_536941377_L","LocationType":"point","DisplayPosition":{"Latitude":50.9146834,"Longitude":6.1373824},"MapView":{"TopLeft":{"Latitude":50.91476,"Longitude":6.13703},"BottomRight":{"Latitude":50.91461,"Longitude":6.13772}},"Address":{"Label":"Werkstraße, 52531 Übach-Palenberg, Deutschland","Country":"DEU","State":"Nordrhein-Westfalen","County":"Heinsberg","City":"Übach-Palenberg","District":"Übach","Street":"Werkstraße","PostalCode":"52531","AdditionalData":[{"value":"Deutschland","key":"CountryName"},{"value":"Nordrhein-Westfalen","key":"StateName"},{"value":"Heinsberg","key":"CountyName"}]},"MapReference":{"ReferenceId":"536941377","Spot":0.49,"SideOfStreet":"left","CountryId":"20147700","StateId":"20157369","CountyId":"20158557","CityId":"20158634","DistrictId":"20158638"}}},{"Relevance":1.0,"Distance":38.6,"MatchLevel":"houseNumber","MatchQuality":{"Country":1.0,"State":1.0,"County":1.0,"City":1.0,"District":1.0,"Street":[1.0],"HouseNumber":1.0,"PostalCode":1.0},"MatchType":"interpolated","Location":{"LocationId":"NT_m-m4i9zc7ytxMOzI-s2vPC_yMD","LocationType":"point","DisplayPosition":{"Latitude":50.91406,"Longitude":6.13684},"MapView":{"TopLeft":{"Latitude":50.9151842,"Longitude":6.135057},"BottomRight":{"Latitude":50.9129358,"Longitude":6.138623}},"Address":{"Label":"Dürerstraße 23, 52531 Übach-Palenberg, Deutschland","Country":"DEU","State":"Nordrhein-Westfalen","County":"Heinsberg","City":"Übach-Palenberg","District":"Übach","Street":"Dürerstraße","HouseNumber":"23","PostalCode":"52531","AdditionalData":[{"value":"Deutschland","key":"CountryName"},{"value":"Nordrhein-Westfalen","key":"StateName"},{"value":"Heinsberg","key":"CountyName"}]},"MapReference":{"ReferenceId":"536944414","Spot":0.82,"SideOfStreet":"left","CountryId":"20147700","StateId":"20157369","CountyId":"20158557","CityId":"20158634","DistrictId":"20158638","AddressId":"196470302","RoadLinkId":"39467478"}}},{"Relevance":1.0,"Distance":48.0,"MatchLevel":"street","MatchQuality":{"Country":1.0,"State":1.0,"County":1.0,"City":1.0,"District":1.0,"Street":[1.0],"PostalCode":1.0},"Location":{"LocationId":"NT_JbU8W1AwBwhhwnG1k34VKC_l_536987023_R","LocationType":"point","DisplayPosition":{"Latitude":50.91476,"Longitude":6.13703},"MapView":{"TopLeft":{"Latitude":50.91498,"Longitude":6.13701},"BottomRight":{"Latitude":50.91476,"Longitude":6.13703}},"Address":{"Label":"Roermonder Straße, 52531 Übach-Palenberg, Deutschland","Country":"DEU","State":"Nordrhein-Westfalen","County":"Heinsberg","City":"Übach-Palenberg","District":"Übach","Street":"Roermonder Straße","PostalCode":"52531","AdditionalData":[{"value":"Deutschland","key":"CountryName"},{"value":"Nordrhein-Westfalen","key":"StateName"},{"value":"Heinsberg","key":"CountyName"}]},"MapReference":{"ReferenceId":"536987023","Spot":0.0,"SideOfStreet":"right","CountryId":"20147700","StateId":"20157369","CountyId":"20158557","CityId":"20158634","DistrictId":"20158638"}}},{"Relevance":1.0,"Distance":57.2,"MatchLevel":"houseNumber","MatchQuality":{"Country":1.0,"State":1.0,"County":1.0,"City":1.0,"District":1.0,"Street":[1.0],"HouseNumber":1.0,"PostalCode":1.0},"MatchType":"interpolated","Location":{"LocationId":"NT_ku.lVKNB2C1uiE7Tslk-WB_0A","LocationType":"point","DisplayPosition":{"Latitude":50.91452,"Longitude":6.13824},"MapView":{"TopLeft":{"Latitude":50.9156442,"Longitude":6.136457},"BottomRight":{"Latitude":50.9133958,"Longitude":6.140023}},"Address":{"Label":"Werkstraße 4, 52531 Übach-Palenberg, Deutschland","Country":"DEU","State":"Nordrhein-Westfalen","County":"Heinsberg","City":"Übach-Palenberg","District":"Übach","Street":"Werkstraße","HouseNumber":"4","PostalCode":"52531","AdditionalData":[{"value":"Deutschland","key":"CountryName"},{"value":"Nordrhein-Westfalen","key":"StateName"},{"value":"Heinsberg","key":"CountyName"}]},"MapReference":{"ReferenceId":"792798693","Spot":0.01,"SideOfStreet":"right","CountryId":"20147700","StateId":"20157369","CountyId":"20158557","CityId":"20158634","DistrictId":"20158638","AddressId":"193631120","RoadLinkId":"184970232"}}},{"Relevance":1.0,"Distance":60.3,"MatchLevel":"houseNumber","MatchQuality":{"Country":1.0,"State":1.0,"County":1.0,"City":1.0,"District":1.0,"Street":[1.0],"HouseNumber":1.0,"PostalCode":1.0},"MatchType":"interpolated","Location":{"LocationId":"NT_WV7cDtRuBTiQ7msSZZsKJA_xID","LocationType":"point","DisplayPosition":{"Latitude":50.91499,"Longitude":6.13747},"MapView":{"TopLeft":{"Latitude":50.9161142,"Longitude":6.135687},"BottomRight":{"Latitude":50.9138658,"Longitude":6.139253}},"Address":{"Label":"Hans-Böckler-Straße 12, 52531 Übach-Palenberg, Deutschland","Country":"DEU","State":"Nordrhein-Westfalen","County":"Heinsberg","City":"Übach-Palenberg","District":"Übach","Street":"Hans-Böckler-Straße","HouseNumber":"12","PostalCode":"52531","AdditionalData":[{"value":"Deutschland","key":"CountryName"},{"value":"Nordrhein-Westfalen","key":"StateName"},{"value":"Heinsberg","key":"CountyName"}]},"MapReference":{"ReferenceId":"536941361","Spot":0.69,"SideOfStreet":"right","CountryId":"20147700","StateId":"20157369","CountyId":"20158557","CityId":"20158634","DistrictId":"20158638","AddressId":"194171280","RoadLinkId":"39349482"}}}]}]}}