{"Response":{"MetaInfo":{"Timestamp":"2020-03-28T11:01:41.309+0000","NextPageInformation":"2"},"View":[{"_type":"SearchResultsViewType","ViewId":0,"Result":[{"Relevance":1.0,"Distance":0.0,"Direction":0.0,"MatchLevel":"district","MatchQuality":{"Country":1.0,"State":1.0,"County":1.0,"City":1.0,"District":1.0,"PostalCode":1.0},"Location":{"LocationId":"NT_M9Tta1HrCtDOvCu6OegucC","LocationType":"point","DisplayPosition":{"Latitude":50.9900829,"Longitude":10.3150554},"MapView":{"TopLeft":{"Latitude":50.99843,"Longitude":10.26552},"BottomRight":{"Latitude":50.9597,"Longitude":10.36595}},"Address":{"Label":"Eisenach, Thüringen, Deutschland","Country":"DEU","State":"Thüringen","County":"Eisenach","City":"Eisenach","District":"Eisenach","PostalCode":"99817","AdditionalData":[{"value":"Deutschland","key":"CountryName"},{"value":"Thüringen","key":"StateName"},{"value":"Eisenach","key":"CountyName"}]},"MapReference":{"ReferenceId":"543972197","SideOfStreet":"neither","CountryId":"20147700","StateId":"20196974","CountyId":"20242097","CityId":"20242098","DistrictId":"20242099"}}},{"Relevance":1.0,"Distance":16.4,"MatchLevel":"street","MatchQuality":{"Country":1.0,"State":1.0,"County":1.0,"City":1.0,"District":1.0,"Street":[1.0],"PostalCode":1.0},"Location":{"LocationId":"NT_08.TEQRxidkXpZ1ADhpycD_l_1186981397_R","LocationType":"point","DisplayPosition":{"Latitude":50.99014,"Longitude":10.31484},"MapView":{"TopLeft":{"Latitude":50.99026,"Longitude":10.31461},"BottomRight":{"Latitude":50.99014,"Longitude":10.31484}},"Address":{"Label":"Mühlhäuser Straße, 99817 Eisenach, Deutschland","Country":"DEU","State":"Thüringen","County":"Eisenach","City":"Eisenach","District":"Eisenach","Street":"Mühlhäuser Straße","PostalCode":"99817","AdditionalData":[{"value":"Deutschland","key":"CountryName"},{"value":"Thüringen","key":"StateName"},{"value":"Eisenach","key":"CountyName"}]},"MapReference":{"ReferenceId":"1186981397","Spot":0.0,"SideOfStreet":"right","CountryId":"20147700","StateId":"20196974","CountyId":"20242097","CityId":"20242098","DistrictId":"20242099"}}},{"Relevance":1.0,"Distance":17.2,"MatchLevel":"houseNumber","MatchQuality":{"Country":1.0,"State":1.0,"County":1.0,"City":1.0,"District":1.0,"Street":[1.0],"HouseNumber":1.0,"PostalCode":1.0},"MatchType":"interpolated","Location":{"LocationId":"NT_yJyqIIZX2Bc7k6VN9pHDWB_zA","LocationType":"point","DisplayPosition":{"Latitude":50.99007,"Longitude":10.3153},"MapView":{"TopLeft":{"Latitude":50.9911942,"Longitude":10.3135141},"BottomRight":{"Latitude":50.9889458,"Longitude":10.3170859}},"Address":{"Label":"Am Schäfersborn 3, 99817 Eisenach, Deutschland","Country":"DEU","State":"Thüringen","County":"Eisenach","City":"Eisenach","District":"Eisenach","Street":"Am Schäfersborn","HouseNumber":"3","PostalCode":"99817","AdditionalData":[{"value":"Deutschland","key":"CountryName"},{"value":"Thüringen","key":"StateName"},{"value":"Eisenach","key":"CountyName"}]},"MapReference":{"ReferenceId":"1186912064","Spot":0.85,"SideOfStreet":"right","CountryId":"20147700","StateId":"20196974","CountyId":"20242097","CityId":"20242098","DistrictId":"20242099","AddressId":"189512844","RoadLinkId":"495527752"}}},{"Relevance":1.0,"Distance":19.2,"MatchLevel":"houseNumber","MatchQuality":{"Country":1.0,"State":1.0,"County":1.0,"City":1.0,"District":1.0,"Street":[1.0],"HouseNumber":1.0,"PostalCode":1.0},"MatchType":"interpolated","Location":{"LocationId":"NT_yJyqIIZX2Bc7k6VN9pHDWB_xA","LocationType":"point","DisplayPosition":{"Latitude":50.99028,"Longitude":10.31507},"MapView":{"TopLeft":{"Latitude":50.9914042,"Longitude":10.3132841},"BottomRight":{"Latitude":50.9891558,"Longitude":10.3168559}},"Address":{"Label":"Am Schäfersborn 1, 99817 Eisenach, Deutschland","Country":"DEU","State":"Thüringen","County":"Eisenach","City":"Eisenach","District":"Eisenach","Street":"Am Schäfersborn","HouseNumber":"1","PostalCode":"99817","AdditionalData":[{"value":"Deutschland","key":"CountryName"},{"value":"Thüringen","key":"StateName"},{"value":"Eisenach","key":"CountyName"}]},"MapReference":{"ReferenceId":"1259226204","Spot":0.19,"SideOfStreet":"right","CountryId":"20147700","StateId":"20196974","CountyId":"20242097","CityId":"20242098","DistrictId":"20242099","AddressId":"189590996","RoadLinkId":"584386878"}}},{"Relevance":1.0,"Distance":20.5,"MatchLevel":"houseNumber","MatchQuality":{"Country":1.0,"State":1.0,"County":1.0,"City":1.0,"District":1.0,"Street":[1.0],"HouseNumber":1.0,"PostalCode":1.0},"MatchType":"interpolated","Location":{"LocationId":"NT_08.TEQRxidkXpZ1ADhpycD_5gD","LocationType":"point","DisplayPosition":{"Latitude":50.98994,"Longitude":10.31487},"MapView":{"TopLeft":{"Latitude":50.9910642,"Longitude":10.3130841},"BottomRight":{"Latitude":50.9888158,"Longitude":10.3166559}},"Address":{"Label":"Mühlhäuser Straße 98, 99817 Eisenach, Deutschland","Country":"DEU","State":"Thüringen","County":"Eisenach","City":"Eisenach","District":"Eisenach","Street":"Mühlhäuser Straße","HouseNumber":"98","PostalCode":"99817","AdditionalData":[{"value":"Deutschland","key":"CountryName"},{"value":"Thüringen","key":"StateName"},{"value":"Eisenach","key":"CountyName"}]},"MapReference":{"ReferenceId":"543972578","Spot":0.78,"SideOfStreet":"right","CountryId":"20147700","StateId":"20196974","CountyId":"20242097","CityId":"20242098","DistrictId":"20242099","AddressId":"189571299","RoadLinkId":"39702423"}}},{"Relevance":1.0,"Distance":52.3,"MatchLevel":"houseNumber","MatchQuality":{"Country":1.0,"State":1.0,"County":1.0,"City":1.0,"District":1.0,"Street":[1.0],"HouseNumber":1.0,"PostalCode":1.0},"MatchType":"interpolated","Location":{"LocationId":"NT_08.TEQRxidkXpZ1ADhpycD_5UzQ","LocationType":"point","DisplayPosition":{"Latitude":50.99032,"Longitude":10.31441},"MapView":{"TopLeft":{"Latitude":50.9914442,"Longitude":10.3126241},"BottomRight":{"Latitude":50.9891958,"Longitude":10.3161959}},"Address":{"Label":"Mühlhäuser Straße 95C, 99817 Eisenach, Deutschland","Country":"DEU","State":"Thüringen","County":"Eisenach","City":"Eisenach","District":"Eisenach","Street":"Mühlhäuser Straße","HouseNumber":"95C","PostalCode":"99817","AdditionalData":[{"value":"Deutschland","key":"CountryName"},{"value":"Thüringen","key":"StateName"},{"value":"Eisenach","key":"CountyName"}]},"MapReference":{"ReferenceId":"1186997343","Spot":0.61,"SideOfStreet":"left","CountryId":"20147700","StateId":"20196974","CountyId":"20242097","CityId":"20242098","DistrictId":"20242099","AddressId":"189388961","RoadLinkId":"495626960"}}},{"Relevance":1.0,"Distance":66.0,"MatchLevel":"houseNumber","MatchQuality":{"Country":1.0,"State":1.0,"County":1.0,"City":1.0,"District":1.0,"Street":[1.0],"HouseNumber":1.0,"PostalCode":1.0},"MatchType":"interpolated","Location":{"LocationId":"NT_08.TEQRxidkXpZ1ADhpycD_5UDR","LocationType":"point","DisplayPosition":{"Latitude":50.99037,"Longitude":10.31423},"MapView":{"TopLeft":{"Latitude":50.9914942,"Longitude":10.3124441},"BottomRight":{"Latitude":50.9892458,"Longitude":10.3160159}},"Address":{"Label":"Mühlhäuser Straße 95D, 99817 Eisenach, Deutschland","Country":"DEU","State":"Thüringen","County":"Eisenach","City":"Eisenach","District":"Eisenach","Street":"Mühlhäuser Straße","HouseNumber":"95D","PostalCode":"99817","AdditionalData":[{"value":"Deutschland","key":"CountryName"},{"value":"Thüringen","key":"StateName"},{"value":"Eisenach","key":"CountyName"}]},"MapReference":{"ReferenceId":"1186997344","Spot":0.17,"SideOfStreet":"left","CountryId":"20147700","StateId":"20196974","CountyId":"20242097","CityId":"20242098","DistrictId":"20242099","AddressId":"189665732","RoadLinkId":"495626961"}}},{"Relevance":1.0,"Distance":83.1,"MatchLevel":"houseNumber","MatchQuality":{"Country":1.0,"State":1.0,"County":1.0,"City":1.0,"District":1.0,"Street":[1.0],"HouseNumber":1.0,"PostalCode":1.0},"MatchType":"interpolated","Location":{"LocationId":"NT_08.TEQRxidkXpZ1ADhpycD_5UTR","LocationType":"point","DisplayPosition":{"Latitude":50.98984,"Longitude":10.3138},"MapView":{"TopLeft":{"Latitude":50.9909642,"Longitude":10.3120141},"BottomRight":{"Latitude":50.9887158,"Longitude":10.3155859}},"Address":{"Label":"Mühlhäuser Straße 95E, 99817 Eisenach, Deutschland","Country":"DEU","State":"Thüringen","County":"Eisenach","City":"Eisenach","District":"Eisenach","Street":"Mühlhäuser Straße","HouseNumber":"95E","PostalCode":"99817","AdditionalData":[{"value":"Deutschland","key":"CountryName"},{"value":"Thüringen","key":"StateName"},{"value":"Eisenach","key":"CountyName"}]},"MapReference":{"ReferenceId":"548096736","Spot":0.93,"SideOfStreet":"right","CountryId":"20147700","StateId":"20196974","CountyId":"20242097","CityId":"20242098","DistrictId":"20242099","AddressId":"189398824","RoadLinkId":"39545568"}}},{"Relevance":1.0,"Distance":85.5,"MatchLevel":"street","MatchQuality":{"Country":1.0,"State":1.0,"County":1.0,"City":1.0,"District":1.0,"Street":[1.0],"PostalCode":1.0},"Location":{"LocationId":"NT_08.TEQRxidkXpZ1ADhpycD_l_548096733_R","LocationType":"point","DisplayPosition":{"Latitude":50.99047,"Longitude":10.314},"MapView":{"TopLeft":{"Latitude":50.99057,"Longitude":10.31389},"BottomRight":{"Latitude":50.99047,"Longitude":10.314}},"Address":{"Label":"Mühlhäuser Straße, 99817 Eisenach, Deutschland","Country":"DEU","State":"Thüringen","County":"Eisenach","City":"Eisenach","District":"Eisenach","Street":"Mühlhäuser Straße","PostalCode":"99817","AdditionalData":[{"value":"Deutschland","key":"CountryName"},{"value":"Thüringen","key":"StateName"},{"value":"Eisenach","key":"CountyName"}]},"MapReference":{"ReferenceId":"548096733","Spot":0.0,"SideOfStreet":"right","CountryId":"20147700","StateId":"20196974","CountyId":"20242097","CityId":"20242098","DistrictId":"20242099"}}},{"Relevance":1.0,"Distance":99.0,"MatchLevel":"street","MatchQuality":{"Country":1.0,"State":1.0,"County":1.0,"City":1.0,"District":1.0,"Street":[1.0],"PostalCode":1.0},"Location":{"LocationId":"NT_08.TEQRxidkXpZ1ADhpycD_l_548096735_R","LocationType":"point","DisplayPosition":{"Latitude":50.98924,"Longitude":10.3146},"MapView":{"TopLeft":{"Latitude":50.98942,"Longitude":10.31358},"BottomRight":{"Latitude":50.98924,"Longitude":10.3146}},"Address":{"Label":"Mühlhäuser Straße, 99817 Eisenach, Deutschland","Country":"DEU","State":"Thüringen","County":"Eisenach","City":"Eisenach","District":"Eisenach","Street":"Mühlhäuser Straße","PostalCode":"99817","AdditionalData":[{"value":"Deutschland","key":"CountryName"},{"value":"Thüringen","key":"StateName"},{"value":"Eisenach","key":"CountyName"}]},"MapReference":{"ReferenceId":"548096735","Spot":0.0,"SideOfStreet":"right","CountryId":"20147700","StateId":"20196974","CountyId":"20242097","CityId":"20242098","DistrictId":"20242099"}}}]}]}}