{"Response":{"MetaInfo":{"Timestamp":"2020-03-28T12:00:52.479+0000","NextPageInformation":"2"},"View":[{"_type":"SearchResultsViewType","ViewId":0,"Result":[{"Relevance":1.0,"Distance":0.0,"Direction":0.0,"MatchLevel":"district","MatchQuality":{"Country":1.0,"State":1.0,"County":1.0,"City":1.0,"District":1.0,"PostalCode":1.0},"Location":{"LocationId":"NT_.6mTeFiwTqHezwra61oo2D","LocationType":"point","DisplayPosition":{"Latitude":50.9049875,"Longitude":-3.4876204},"MapView":{"TopLeft":{"Latitude":50.91757,"Longitude":-3.50753},"BottomRight":{"Latitude":50.88675,"Longitude":-3.45399}},"Address":{"Label":"Tiverton, England, United Kingdom","Country":"GBR","State":"England","County":"Devon","City":"Tiverton","District":"Tiverton","PostalCode":"EX16 5","AdditionalData":[{"value":"United Kingdom","key":"CountryName"},{"value":"England","key":"StateName"},{"value":"Devon","key":"CountyName"}]},"MapReference":{"ReferenceId":"774474235","SideOfStreet":"neither","StateId":"20248595","CountyId":"20353913","CityId":"20354705","DistrictId":"20354706"}}},{"Relevance":1.0,"Distance":7.1,"MatchLevel":"postalCode","MatchQuality":{"PostalCode":1.0},"MatchType":"interpolated","Location":{"LocationId":"NT_-2qGXUSmpSSnHBaKPBcNwD_l_1131369038_L_4A","LocationType":"point","DisplayPosition":{"Latitude":50.90505,"Longitude":-3.48764},"MapView":{"TopLeft":{"Latitude":50.9140432,"Longitude":-3.5019012},"BottomRight":{"Latitude":50.8960568,"Longitude":-3.4733788}},"Address":{"Label":"EX16 6NJ, Tiverton, England, United Kingdom","Country":"GBR","State":"England","County":"Devon","City":"Tiverton","PostalCode":"EX16 6NJ","AdditionalData":[{"value":"United Kingdom","key":"CountryName"},{"value":"England","key":"StateName"},{"value":"Devon","key":"CountyName"}]},"MapReference":{"ReferenceId":"1131369038","Spot":0.52,"SideOfStreet":"neither","StateId":"20248595","CountyId":"20353913","CityId":"20354705"}}},{"Relevance":1.0,"Distance":12.1,"MatchLevel":"houseNumber","MatchQuality":{"Country":1.0,"State":1.0,"County":1.0,"City":1.0,"District":1.0,"Street":[1.0],"HouseNumber":1.0,"PostalCode":1.0},"MatchType":"interpolated","Location":{"LocationId":"NT_-2qGXUSmpSSnHBaKPBcNwD_l_1131369038_L_4A","LocationType":"point","DisplayPosition":{"Latitude":50.90509,"Longitude":-3.487677},"MapView":{"TopLeft":{"Latitude":50.9062142,"Longitude":-3.4894597},"BottomRight":{"Latitude":50.9039658,"Longitude":-3.4858944}},"Address":{"Label":"8 Newport Street, Tiverton, EX16 6NH, United Kingdom","Country":"GBR","State":"England","County":"Devon","City":"Tiverton","District":"Tiverton","Street":"Newport Street","HouseNumber":"8","PostalCode":"EX16 6NH","AdditionalData":[{"value":"United Kingdom","key":"CountryName"},{"value":"England","key":"StateName"},{"value":"Devon","key":"CountyName"}]},"MapReference":{"ReferenceId":"1131369038","Spot":0.52,"SideOfStreet":"left","StateId":"20248595","CountyId":"20353913","CityId":"20354705","DistrictId":"20354706"}}},{"Relevance":1.0,"Distance":14.9,"MatchLevel":"street","MatchQuality":{"Country":1.0,"State":1.0,"County":1.0,"City":1.0,"District":1.0,"PostalCode":1.0},"Location":{"LocationId":"NT_KGrkixg.J6CIx0Yc3EcTlA_l_946149554_L","LocationType":"point","DisplayPosition":{"Latitude":50.9049922,"Longitude":-3.4874076},"MapView":{"TopLeft":{"Latitude":50.9051,"Longitude":-3.48741},"BottomRight":{"Latitude":50.90465,"Longitude":-3.4874}},"Address":{"Label":"Tiverton, EX16 6, United Kingdom","Country":"GBR","State":"England","County":"Devon","City":"Tiverton","District":"Tiverton","PostalCode":"EX16 6","AdditionalData":[{"value":"United Kingdom","key":"CountryName"},{"value":"England","key":"StateName"},{"value":"Devon","key":"CountyName"}]},"MapReference":{"ReferenceId":"946149554","Spot":0.76,"SideOfStreet":"left","StateId":"20248595","CountyId":"20353913","CityId":"20354705","DistrictId":"20354706"}}},{"Relevance":1.0,"Distance":20.1,"MatchLevel":"street","MatchQuality":{"Country":1.0,"State":1.0,"County":1.0,"City":1.0,"District":1.0,"PostalCode":1.0},"Location":{"LocationId":"NT_KGrkixg.J6CIx0Yc3EcTlA_l_946157463_R","LocationType":"point","DisplayPosition":{"Latitude":50.90488,"Longitude":-3.48785},"MapView":{"TopLeft":{"Latitude":50.90509,"Longitude":-3.48797},"BottomRight":{"Latitude":50.90427,"Longitude":-3.48785}},"Address":{"Label":"Tiverton, EX16 6, United Kingdom","Country":"GBR","State":"England","County":"Devon","City":"Tiverton","District":"Tiverton","PostalCode":"EX16 6","AdditionalData":[{"value":"United Kingdom","key":"CountryName"},{"value":"England","key":"StateName"},{"value":"Devon","key":"CountyName"}]},"MapReference":{"ReferenceId":"946157463","Spot":0.68,"SideOfStreet":"right","StateId":"20248595","CountyId":"20353913","CityId":"20354705","DistrictId":"20354706"}}},{"Relevance":1.0,"Distance":23.2,"MatchLevel":"houseNumber","MatchQuality":{"Country":1.0,"State":1.0,"County":1.0,"City":1.0,"District":1.0,"Street":[1.0],"HouseNumber":1.0,"PostalCode":1.0},"MatchType":"interpolated","Location":{"LocationId":"NT_-2qGXUSmpSSnHBaKPBcNwD_l_1131369039_L_xAD","LocationType":"point","DisplayPosition":{"Latitude":50.9051053,"Longitude":-3.4873466},"MapView":{"TopLeft":{"Latitude":50.9062294,"Longitude":-3.4891292},"BottomRight":{"Latitude":50.9039811,"Longitude":-3.4855639}},"Address":{"Label":"10 Newport Street, Tiverton, EX16 6, United Kingdom","Country":"GBR","State":"England","County":"Devon","City":"Tiverton","District":"Tiverton","Street":"Newport Street","HouseNumber":"10","PostalCode":"EX16 6","AdditionalData":[{"value":"United Kingdom","key":"CountryName"},{"value":"England","key":"StateName"},{"value":"Devon","key":"CountyName"}]},"MapReference":{"ReferenceId":"1131369039","Spot":0.53,"SideOfStreet":"left","StateId":"20248595","CountyId":"20353913","CityId":"20354705","DistrictId":"20354706"}}},{"Relevance":1.0,"Distance":27.0,"MatchLevel":"houseNumber","MatchQuality":{"Country":1.0,"State":1.0,"County":1.0,"City":1.0,"District":1.0,"Street":[1.0],"HouseNumber":1.0,"PostalCode":1.0},"MatchType":"interpolated","Location":{"LocationId":"NT_-2qGXUSmpSSnHBaKPBcNwD_l_946157460_R_2A","LocationType":"point","DisplayPosition":{"Latitude":50.90509,"Longitude":-3.48797},"MapView":{"TopLeft":{"Latitude":50.9062142,"Longitude":-3.4897527},"BottomRight":{"Latitude":50.9039658,"Longitude":-3.4861874}},"Address":{"Label":"6 Newport Street, Tiverton, EX16 6NH, United Kingdom","Country":"GBR","State":"England","County":"Devon","City":"Tiverton","District":"Tiverton","Street":"Newport Street","HouseNumber":"6","PostalCode":"EX16 6NH","AdditionalData":[{"value":"United Kingdom","key":"CountryName"},{"value":"England","key":"StateName"},{"value":"Devon","key":"CountyName"}]},"MapReference":{"ReferenceId":"946157460","Spot":0.0,"SideOfStreet":"right","StateId":"20248595","CountyId":"20353913","CityId":"20354705","DistrictId":"20354706"}}},{"Relevance":1.0,"Distance":37.1,"MatchLevel":"houseNumber","MatchQuality":{"Country":1.0,"State":1.0,"County":1.0,"City":1.0,"District":1.0,"Street":[1.0],"HouseNumber":1.0,"PostalCode":1.0},"MatchType":"interpolated","Location":{"LocationId":"NT_nzpMi8toQ8jTa4PYKUcu8C_l_26655234_L_yA","LocationType":"point","DisplayPosition":{"Latitude":50.9052402,"Longitude":-3.48724},"MapView":{"TopLeft":{"Latitude":50.9063643,"Longitude":-3.4890226},"BottomRight":{"Latitude":50.904116,"Longitude":-3.4854573}},"Address":{"Label":"2 Castle Street, Tiverton, EX16 6RG, United Kingdom","Country":"GBR","State":"England","County":"Devon","City":"Tiverton","District":"Tiverton","Street":"Castle Street","HouseNumber":"2","PostalCode":"EX16 6RG","AdditionalData":[{"value":"United Kingdom","key":"CountryName"},{"value":"England","key":"StateName"},{"value":"Devon","key":"CountyName"}]},"MapReference":{"ReferenceId":"26655234","Spot":0.09,"SideOfStreet":"left","StateId":"20248595","CountyId":"20353913","CityId":"20354705","DistrictId":"20354706"}}},{"Relevance":1.0,"Distance":40.3,"MatchLevel":"postalCode","MatchQuality":{"PostalCode":1.0},"MatchType":"interpolated","Location":{"LocationId":"NT_-2qGXUSmpSSnHBaKPBcNwD_l_26655233_R_yMD","LocationType":"point","DisplayPosition":{"Latitude":50.90482,"Longitude":-3.48711},"MapView":{"TopLeft":{"Latitude":50.9138132,"Longitude":-3.5013711},"BottomRight":{"Latitude":50.8958268,"Longitude":-3.4728489}},"Address":{"Label":"EX16 6FJ, Tiverton, England, United Kingdom","Country":"GBR","State":"England","County":"Devon","City":"Tiverton","PostalCode":"EX16 6FJ","AdditionalData":[{"value":"United Kingdom","key":"CountryName"},{"value":"England","key":"StateName"},{"value":"Devon","key":"CountyName"}]},"MapReference":{"ReferenceId":"26655233","Spot":0.51,"SideOfStreet":"neither","StateId":"20248595","CountyId":"20353913","CityId":"20354705"}}},{"Relevance":1.0,"Distance":40.6,"MatchLevel":"street","MatchQuality":{"Country":1.0,"State":1.0,"County":1.0,"City":1.0,"District":1.0,"Street":[1.0],"PostalCode":1.0},"Location":{"LocationId":"NT_El.QZHcPJdwMvAjueoyZ8B_l_946149555_L","LocationType":"point","DisplayPosition":{"Latitude":50.90465,"Longitude":-3.4874},"MapView":{"TopLeft":{"Latitude":50.90482,"Longitude":-3.4874},"BottomRight":{"Latitude":50.90465,"Longitude":-3.48707}},"Address":{"Label":"Newport House, Tiverton, EX16 6, United Kingdom","Country":"GBR","State":"England","County":"Devon","City":"Tiverton","District":"Tiverton","Street":"Newport House","PostalCode":"EX16 6","AdditionalData":[{"value":"United Kingdom","key":"CountryName"},{"value":"England","key":"StateName"},{"value":"Devon","key":"CountyName"}]},"MapReference":{"ReferenceId":"946149555","Spot":0.0,"SideOfStreet":"left","StateId":"20248595","CountyId":"20353913","CityId":"20354705","DistrictId":"20354706"}}}]}]}}