{"Response":{"MetaInfo":{"Timestamp":"2020-03-28T10:16:16.916+0000","NextPageInformation":"2"},"View":[{"_type":"SearchResultsViewType","ViewId":0,"Result":[{"Relevance":1.0,"Distance":0.0,"Direction":0.0,"MatchLevel":"city","MatchQuality":{"Country":1.0,"State":1.0,"County":1.0,"City":1.0,"PostalCode":1.0},"Location":{"LocationId":"NT_LJTP3XTN5hISIucILmCCYB","LocationType":"point","DisplayPosition":{"Latitude":50.9501136,"Longitude":3.1213891},"MapView":{"TopLeft":{"Latitude":50.99404,"Longitude":3.06145},"BottomRight":{"Latitude":50.88705,"Longitude":3.18498}},"Address":{"Label":"Roeselare, Vlaanderen, België","Country":"BEL","State":"Vlaanderen","County":"West-Vlaanderen","City":"Roeselare","PostalCode":"8800","AdditionalData":[{"value":"België","key":"CountryName"},{"value":"Vlaanderen","key":"StateName"},{"value":"West-Vlaanderen","key":"CountyName"}]},"MapReference":{"ReferenceId":"60843949","SideOfStreet":"neither","CountryId":"20128886","StateId":"20204377","CountyId":"20204694","CityId":"20204992"}}},{"Relevance":1.0,"Distance":11.5,"MatchLevel":"houseNumber","MatchQuality":{"Country":1.0,"State":1.0,"County":1.0,"City":1.0,"Street":[1.0],"HouseNumber":1.0,"PostalCode":1.0},"MatchType":"interpolated","Location":{"LocationId":"NT_Y1C23lgtTQEJrg2uPw72LA_xUD","LocationType":"point","DisplayPosition":{"Latitude":50.95001,"Longitude":3.12138},"MapView":{"TopLeft":{"Latitude":50.9511342,"Longitude":3.1195956},"BottomRight":{"Latitude":50.9488858,"Longitude":3.1231644}},"Address":{"Label":"Adriaen Willaertstraat 15, 8800 Roeselare, België","Country":"BEL","State":"Vlaanderen","County":"West-Vlaanderen","City":"Roeselare","Street":"Adriaen Willaertstraat","HouseNumber":"15","PostalCode":"8800","AdditionalData":[{"value":"België","key":"CountryName"},{"value":"Vlaanderen","key":"StateName"},{"value":"West-Vlaanderen","key":"CountyName"}]},"MapReference":{"ReferenceId":"60844131","Spot":0.38,"SideOfStreet":"left","CountryId":"20128886","StateId":"20204377","CountyId":"20204694","CityId":"20204992","AddressId":"401509029","RoadLinkId":"30930217"}}},{"Relevance":1.0,"Distance":58.0,"MatchLevel":"houseNumber","MatchQuality":{"Country":1.0,"State":1.0,"County":1.0,"City":1.0,"Street":[1.0],"HouseNumber":1.0,"PostalCode":1.0},"MatchType":"interpolated","Location":{"LocationId":"NT_9y1rO9MMnEhjL6oiMVmHnB_xcDO","LocationType":"point","DisplayPosition":{"Latitude":50.94987,"Longitude":3.12039},"MapView":{"TopLeft":{"Latitude":50.9509942,"Longitude":3.1186056},"BottomRight":{"Latitude":50.9487458,"Longitude":3.1221744}},"Address":{"Label":"Noordstraat 178, 8800 Roeselare, België","Country":"BEL","State":"Vlaanderen","County":"West-Vlaanderen","City":"Roeselare","Street":"Noordstraat","HouseNumber":"178","PostalCode":"8800","AdditionalData":[{"value":"België","key":"CountryName"},{"value":"Vlaanderen","key":"StateName"},{"value":"West-Vlaanderen","key":"CountyName"}]},"MapReference":{"ReferenceId":"60843934","Spot":0.11,"SideOfStreet":"right","CountryId":"20128886","StateId":"20204377","CountyId":"20204694","CityId":"20204992","AddressId":"400392860","RoadLinkId":"30394142"}}},{"Relevance":1.0,"Distance":65.8,"MatchLevel":"houseNumber","MatchQuality":{"Country":1.0,"State":1.0,"County":1.0,"City":1.0,"Street":[1.0],"HouseNumber":1.0,"PostalCode":1.0},"MatchType":"interpolated","Location":{"LocationId":"NT_9y1rO9MMnEhjL6oiMVmHnB_xcDM","LocationType":"point","DisplayPosition":{"Latitude":50.94963,"Longitude":3.12054},"MapView":{"TopLeft":{"Latitude":50.9507542,"Longitude":3.1187556},"BottomRight":{"Latitude":50.9485058,"Longitude":3.1223244}},"Address":{"Label":"Noordstraat 170, 8800 Roeselare, België","Country":"BEL","State":"Vlaanderen","County":"West-Vlaanderen","City":"Roeselare","Street":"Noordstraat","HouseNumber":"170","PostalCode":"8800","AdditionalData":[{"value":"België","key":"CountryName"},{"value":"Vlaanderen","key":"StateName"},{"value":"West-Vlaanderen","key":"CountyName"}]},"MapReference":{"ReferenceId":"958271575","Spot":0.12,"SideOfStreet":"right","CountryId":"20128886","StateId":"20204377","CountyId":"20204694","CityId":"20204992","AddressId":"400496110","RoadLinkId":"301249807"}}},{"Relevance":1.0,"Distance":71.3,"MatchLevel":"houseNumber","MatchQuality":{"Country":1.0,"State":1.0,"County":1.0,"City":1.0,"Street":[1.0],"HouseNumber":1.0,"PostalCode":1.0},"MatchType":"interpolated","Location":{"LocationId":"NT_9y1rO9MMnEhjL6oiMVmHnB_xYDO","LocationType":"point","DisplayPosition":{"Latitude":50.94955,"Longitude":3.1206},"MapView":{"TopLeft":{"Latitude":50.9506742,"Longitude":3.1188156},"BottomRight":{"Latitude":50.9484258,"Longitude":3.1223844}},"Address":{"Label":"Noordstraat 168, 8800 Roeselare, België","Country":"BEL","State":"Vlaanderen","County":"West-Vlaanderen","City":"Roeselare","Street":"Noordstraat","HouseNumber":"168","PostalCode":"8800","AdditionalData":[{"value":"België","key":"CountryName"},{"value":"Vlaanderen","key":"StateName"},{"value":"West-Vlaanderen","key":"CountyName"}]},"MapReference":{"ReferenceId":"972465594","Spot":0.94,"SideOfStreet":"right","CountryId":"20128886","StateId":"20204377","CountyId":"20204694","CityId":"20204992","AddressId":"399534358","RoadLinkId":"308890431"}}},{"Relevance":1.0,"Distance":93.5,"MatchLevel":"houseNumber","MatchQuality":{"Country":1.0,"State":1.0,"County":1.0,"City":1.0,"Street":[1.0],"HouseNumber":1.0,"PostalCode":1.0},"MatchType":"interpolated","Location":{"LocationId":"NT_mOXhqkuwwx8IQ9JYYLbJwC_0A","LocationType":"point","DisplayPosition":{"Latitude":50.94972,"Longitude":3.12021},"MapView":{"TopLeft":{"Latitude":50.9508442,"Longitude":3.1184256},"BottomRight":{"Latitude":50.9485958,"Longitude":3.1219944}},"Address":{"Label":"Désiré Mergaertstraat 4, 8800 Roeselare, België","Country":"BEL","State":"Vlaanderen","County":"West-Vlaanderen","City":"Roeselare","Street":"Désiré Mergaertstraat","HouseNumber":"4","PostalCode":"8800","AdditionalData":[{"value":"België","key":"CountryName"},{"value":"Vlaanderen","key":"StateName"},{"value":"West-Vlaanderen","key":"CountyName"}]},"MapReference":{"ReferenceId":"1209954128","Spot":0.82,"SideOfStreet":"left","CountryId":"20128886","StateId":"20204377","CountyId":"20204694","CityId":"20204992","AddressId":"626332307","RoadLinkId":"524760452"}}},{"Relevance":1.0,"Distance":124.1,"MatchLevel":"houseNumber","MatchQuality":{"Country":1.0,"State":1.0,"County":1.0,"City":1.0,"Street":[1.0],"HouseNumber":1.0,"PostalCode":1.0},"MatchType":"interpolated","Location":{"LocationId":"NT_9y1rO9MMnEhjL6oiMVmHnB_yEDMBB","LocationType":"point","DisplayPosition":{"Latitude":50.95082,"Longitude":3.11998},"MapView":{"TopLeft":{"Latitude":50.9519442,"Longitude":3.1181956},"BottomRight":{"Latitude":50.9496958,"Longitude":3.1217644}},"Address":{"Label":"Noordstraat 210A, 8800 Roeselare, België","Country":"BEL","State":"Vlaanderen","County":"West-Vlaanderen","City":"Roeselare","Street":"Noordstraat","HouseNumber":"210A","PostalCode":"8800","AdditionalData":[{"value":"België","key":"CountryName"},{"value":"Vlaanderen","key":"StateName"},{"value":"West-Vlaanderen","key":"CountyName"}]},"MapReference":{"ReferenceId":"958271576","Spot":0.34,"SideOfStreet":"right","CountryId":"20128886","StateId":"20204377","CountyId":"20204694","CityId":"20204992","AddressId":"400392862","RoadLinkId":"301249810"}}},{"Relevance":1.0,"Distance":129.5,"MatchLevel":"houseNumber","MatchQuality":{"Country":1.0,"State":1.0,"County":1.0,"City":1.0,"Street":[1.0],"HouseNumber":1.0,"PostalCode":1.0},"MatchType":"interpolated","Location":{"LocationId":"NT_9y1rO9MMnEhjL6oiMVmHnB_yEDO","LocationType":"point","DisplayPosition":{"Latitude":50.9509,"Longitude":3.11992},"MapView":{"TopLeft":{"Latitude":50.9520242,"Longitude":3.1181356},"BottomRight":{"Latitude":50.9497758,"Longitude":3.1217044}},"Address":{"Label":"Noordstraat 218, 8800 Roeselare, België","Country":"BEL","State":"Vlaanderen","County":"West-Vlaanderen","City":"Roeselare","Street":"Noordstraat","HouseNumber":"218","PostalCode":"8800","AdditionalData":[{"value":"België","key":"CountryName"},{"value":"Vlaanderen","key":"StateName"},{"value":"West-Vlaanderen","key":"CountyName"}]},"MapReference":{"ReferenceId":"958271577","Spot":0.05,"SideOfStreet":"right","CountryId":"20128886","StateId":"20204377","CountyId":"20204694","CityId":"20204992","AddressId":"737547856","RoadLinkId":"301249811"}}},{"Relevance":1.0,"Distance":130.6,"MatchLevel":"houseNumber","MatchQuality":{"Country":1.0,"State":1.0,"County":1.0,"City":1.0,"Street":[1.0],"HouseNumber":1.0,"PostalCode":1.0},"MatchType":"interpolated","Location":{"LocationId":"NT_Y1C23lgtTQEJrg2uPw72LA_1ED","LocationType":"point","DisplayPosition":{"Latitude":50.95074,"Longitude":3.12299},"MapView":{"TopLeft":{"Latitude":50.9518642,"Longitude":3.1212056},"BottomRight":{"Latitude":50.9496158,"Longitude":3.1247744}},"Address":{"Label":"Adriaen Willaertstraat 51, 8800 Roeselare, België","Country":"BEL","State":"Vlaanderen","County":"West-Vlaanderen","City":"Roeselare","Street":"Adriaen Willaertstraat","HouseNumber":"51","PostalCode":"8800","AdditionalData":[{"value":"België","key":"CountryName"},{"value":"Vlaanderen","key":"StateName"},{"value":"West-Vlaanderen","key":"CountyName"}]},"MapReference":{"ReferenceId":"60844132","Spot":0.28,"SideOfStreet":"left","CountryId":"20128886","StateId":"20204377","CountyId":"20204694","CityId":"20204992","AddressId":"401731844","RoadLinkId":"30446022"}}},{"Relevance":1.0,"Distance":143.3,"MatchLevel":"houseNumber","MatchQuality":{"Country":1.0,"State":1.0,"County":1.0,"City":1.0,"Street":[1.0],"HouseNumber":1.0,"PostalCode":1.0},"MatchType":"interpolated","Location":{"LocationId":"NT_84ufyWGIGBCwGRgxFHJOYC_2A","LocationType":"point","DisplayPosition":{"Latitude":50.95131,"Longitude":3.12011},"MapView":{"TopLeft":{"Latitude":50.9524342,"Longitude":3.1183256},"BottomRight":{"Latitude":50.9501858,"Longitude":3.1218944}},"Address":{"Label":"Brugsesteenweg 6, 8800 Roeselare, België","Country":"BEL","State":"Vlaanderen","County":"West-Vlaanderen","City":"Roeselare","Street":"Brugsesteenweg","HouseNumber":"6","PostalCode":"8800","AdditionalData":[{"value":"België","key":"CountryName"},{"value":"Vlaanderen","key":"StateName"},{"value":"West-Vlaanderen","key":"CountyName"}]},"MapReference":{"ReferenceId":"958275476","Spot":0.25,"SideOfStreet":"right","CountryId":"20128886","StateId":"20204377","CountyId":"20204694","CityId":"20204992","AddressId":"400939098","RoadLinkId":"301253797"}}}]}]}}