{"Response":{"MetaInfo":{"Timestamp":"2020-03-28T10:17:16.237+0000","NextPageInformation":"2"},"View":[{"_type":"SearchResultsViewType","ViewId":0,"Result":[{"Relevance":1.0,"Distance":0.0,"Direction":0.0,"MatchLevel":"district","MatchQuality":{"Country":1.0,"State":1.0,"County":1.0,"City":1.0,"District":1.0,"PostalCode":1.0},"Location":{"LocationId":"NT_WLOUXiIQzTPBOeqFXXIf-A","LocationType":"point","DisplayPosition":{"Latitude":50.9105899,"Longitude":13.3936754},"MapView":{"TopLeft":{"Latitude":50.92287,"Longitude":13.38637},"BottomRight":{"Latitude":50.90696,"Longitude":13.40703}},"Address":{"Label":"Hilbersdorf, Bobritzsch-Hilbersdorf, Sachsen, Deutschland","Country":"DEU","State":"Sachsen","County":"Mittelsachsen","City":"Bobritzsch-Hilbersdorf","District":"Hilbersdorf","PostalCode":"09627","AdditionalData":[{"value":"Deutschland","key":"CountryName"},{"value":"Sachsen","key":"StateName"},{"value":"Mittelsachsen","key":"CountyName"}]},"MapReference":{"ReferenceId":"565386059","SideOfStreet":"neither","CountryId":"20147700","StateId":"20191185","CountyId":"23409401","CityId":"20211824","DistrictId":"20212723"}}},{"Relevance":1.0,"Distance":17.8,"MatchLevel":"houseNumber","MatchQuality":{"Country":1.0,"State":1.0,"County":1.0,"City":1.0,"District":1.0,"Street":[1.0],"HouseNumber":1.0,"PostalCode":1.0},"MatchType":"interpolated","Location":{"LocationId":"NT_bd4Y.NAymOFBIJJGUU0C8C_zEE","LocationType":"point","DisplayPosition":{"Latitude":50.91036,"Longitude":13.39366},"MapView":{"TopLeft":{"Latitude":50.9114842,"Longitude":13.3918771},"BottomRight":{"Latitude":50.9092358,"Longitude":13.3954429}},"Address":{"Label":"Dorfstraße 3A, 09627 Bobritzsch-Hilbersdorf, Deutschland","Country":"DEU","State":"Sachsen","County":"Mittelsachsen","City":"Bobritzsch-Hilbersdorf","District":"Hilbersdorf","Street":"Dorfstraße","HouseNumber":"3A","PostalCode":"09627","AdditionalData":[{"value":"Deutschland","key":"CountryName"},{"value":"Sachsen","key":"StateName"},{"value":"Mittelsachsen","key":"CountyName"}]},"MapReference":{"ReferenceId":"554763407","Spot":0.53,"SideOfStreet":"right","CountryId":"20147700","StateId":"20191185","CountyId":"23409401","CityId":"20211824","DistrictId":"20212723","AddressId":"622316528","RoadLinkId":"39618680"}}},{"Relevance":1.0,"Distance":42.9,"MatchLevel":"houseNumber","MatchQuality":{"Country":1.0,"State":1.0,"County":1.0,"City":1.0,"District":1.0,"Street":[1.0],"HouseNumber":1.0,"PostalCode":1.0},"MatchType":"interpolated","Location":{"LocationId":"NT_UHqB0w5CPRcMCy5pQcOReB_yAD","LocationType":"point","DisplayPosition":{"Latitude":50.91104,"Longitude":13.39402},"MapView":{"TopLeft":{"Latitude":50.9121642,"Longitude":13.3922371},"BottomRight":{"Latitude":50.9099158,"Longitude":13.3958029}},"Address":{"Label":"Alte Hauptstraße 20, 09627 Bobritzsch-Hilbersdorf, Deutschland","Country":"DEU","State":"Sachsen","County":"Mittelsachsen","City":"Bobritzsch-Hilbersdorf","District":"Hilbersdorf","Street":"Alte Hauptstraße","HouseNumber":"20","PostalCode":"09627","AdditionalData":[{"value":"Deutschland","key":"CountryName"},{"value":"Sachsen","key":"StateName"},{"value":"Mittelsachsen","key":"CountyName"}]},"MapReference":{"ReferenceId":"565386064","Spot":0.45,"SideOfStreet":"right","CountryId":"20147700","StateId":"20191185","CountyId":"23409401","CityId":"20211824","DistrictId":"20212723","AddressId":"189881976","RoadLinkId":"39588307"}}},{"Relevance":1.0,"Distance":48.4,"MatchLevel":"street","MatchQuality":{"Country":1.0,"State":1.0,"County":1.0,"City":1.0,"District":1.0,"Street":[1.0],"PostalCode":1.0},"Location":{"LocationId":"NT_khTsLhnRbCKNuH5w3-BQSD_l_880796891_R","LocationType":"point","DisplayPosition":{"Latitude":50.91097,"Longitude":13.39334},"MapView":{"TopLeft":{"Latitude":50.91117,"Longitude":13.39331},"BottomRight":{"Latitude":50.91097,"Longitude":13.39334}},"Address":{"Label":"Ebereschenstraße, 09627 Bobritzsch-Hilbersdorf, Deutschland","Country":"DEU","State":"Sachsen","County":"Mittelsachsen","City":"Bobritzsch-Hilbersdorf","District":"Hilbersdorf","Street":"Ebereschenstraße","PostalCode":"09627","AdditionalData":[{"value":"Deutschland","key":"CountryName"},{"value":"Sachsen","key":"StateName"},{"value":"Mittelsachsen","key":"CountyName"}]},"MapReference":{"ReferenceId":"880796891","Spot":0.0,"SideOfStreet":"right","CountryId":"20147700","StateId":"20191185","CountyId":"23409401","CityId":"20211824","DistrictId":"20212723"}}},{"Relevance":1.0,"Distance":69.4,"MatchLevel":"street","MatchQuality":{"Country":1.0,"State":1.0,"County":1.0,"City":1.0,"District":1.0,"Street":[1.0],"PostalCode":1.0},"Location":{"LocationId":"NT_khTsLhnRbCKNuH5w3-BQSD_l_880796892_R","LocationType":"point","DisplayPosition":{"Latitude":50.91117,"Longitude":13.39331},"MapView":{"TopLeft":{"Latitude":50.91137,"Longitude":13.39327},"BottomRight":{"Latitude":50.91117,"Longitude":13.39331}},"Address":{"Label":"Ebereschenstraße, 09627 Bobritzsch-Hilbersdorf, Deutschland","Country":"DEU","State":"Sachsen","County":"Mittelsachsen","City":"Bobritzsch-Hilbersdorf","District":"Hilbersdorf","Street":"Ebereschenstraße","PostalCode":"09627","AdditionalData":[{"value":"Deutschland","key":"CountryName"},{"value":"Sachsen","key":"StateName"},{"value":"Mittelsachsen","key":"CountyName"}]},"MapReference":{"ReferenceId":"880796892","Spot":0.0,"SideOfStreet":"right","CountryId":"20147700","StateId":"20191185","CountyId":"23409401","CityId":"20211824","DistrictId":"20212723"}}},{"Relevance":1.0,"Distance":76.6,"MatchLevel":"houseNumber","MatchQuality":{"Country":1.0,"State":1.0,"County":1.0,"City":1.0,"District":1.0,"Street":[1.0],"HouseNumber":1.0,"PostalCode":1.0},"MatchType":"interpolated","Location":{"LocationId":"NT_UHqB0w5CPRcMCy5pQcOReB_xgD","LocationType":"point","DisplayPosition":{"Latitude":50.91078,"Longitude":13.39254},"MapView":{"TopLeft":{"Latitude":50.9119042,"Longitude":13.3907571},"BottomRight":{"Latitude":50.9096558,"Longitude":13.3943229}},"Address":{"Label":"Alte Hauptstraße 18, 09627 Bobritzsch-Hilbersdorf, Deutschland","Country":"DEU","State":"Sachsen","County":"Mittelsachsen","City":"Bobritzsch-Hilbersdorf","District":"Hilbersdorf","Street":"Alte Hauptstraße","HouseNumber":"18","PostalCode":"09627","AdditionalData":[{"value":"Deutschland","key":"CountryName"},{"value":"Sachsen","key":"StateName"},{"value":"Mittelsachsen","key":"CountyName"}]},"MapReference":{"ReferenceId":"565386059","Spot":0.35,"SideOfStreet":"right","CountryId":"20147700","StateId":"20191185","CountyId":"23409401","CityId":"20211824","DistrictId":"20212723","AddressId":"190253746","RoadLinkId":"39906345"}}},{"Relevance":1.0,"Distance":86.7,"MatchLevel":"houseNumber","MatchQuality":{"Country":1.0,"State":1.0,"County":1.0,"City":1.0,"District":1.0,"Street":[1.0],"HouseNumber":1.0,"PostalCode":1.0},"MatchType":"interpolated","Location":{"LocationId":"NT_38unJSwvhUS8JRyw7Pge8D_1A","LocationType":"point","DisplayPosition":{"Latitude":50.90981,"Longitude":13.39367},"MapView":{"TopLeft":{"Latitude":50.9109342,"Longitude":13.3918872},"BottomRight":{"Latitude":50.9086858,"Longitude":13.3954528}},"Address":{"Label":"Untere Gasse 5, 09627 Bobritzsch-Hilbersdorf, Deutschland","Country":"DEU","State":"Sachsen","County":"Mittelsachsen","City":"Bobritzsch-Hilbersdorf","District":"Hilbersdorf","Street":"Untere Gasse","HouseNumber":"5","PostalCode":"09627","AdditionalData":[{"value":"Deutschland","key":"CountryName"},{"value":"Sachsen","key":"StateName"},{"value":"Mittelsachsen","key":"CountyName"}]},"MapReference":{"ReferenceId":"540792902","Spot":0.62,"SideOfStreet":"left","CountryId":"20147700","StateId":"20191185","CountyId":"23409401","CityId":"20211824","DistrictId":"20212723","AddressId":"190214275","RoadLinkId":"39583624"}}},{"Relevance":1.0,"Distance":89.0,"MatchLevel":"houseNumber","MatchQuality":{"Country":1.0,"State":1.0,"County":1.0,"City":1.0,"District":1.0,"Street":[1.0],"HouseNumber":1.0,"PostalCode":1.0},"MatchType":"interpolated","Location":{"LocationId":"NT_kspxcjtuSsnC7xOrdcmT1B_xA","LocationType":"point","DisplayPosition":{"Latitude":50.91139,"Longitude":13.39369},"MapView":{"TopLeft":{"Latitude":50.9125142,"Longitude":13.3919071},"BottomRight":{"Latitude":50.9102658,"Longitude":13.3954729}},"Address":{"Label":"Am Weidenring 1, 09627 Bobritzsch-Hilbersdorf, Deutschland","Country":"DEU","State":"Sachsen","County":"Mittelsachsen","City":"Bobritzsch-Hilbersdorf","District":"Hilbersdorf","Street":"Am Weidenring","HouseNumber":"1","PostalCode":"09627","AdditionalData":[{"value":"Deutschland","key":"CountryName"},{"value":"Sachsen","key":"StateName"},{"value":"Mittelsachsen","key":"CountyName"}]},"MapReference":{"ReferenceId":"565386069","Spot":0.43,"SideOfStreet":"left","CountryId":"20147700","StateId":"20191185","CountyId":"23409401","CityId":"20211824","DistrictId":"20212723","AddressId":"190344310","RoadLinkId":"39837238"}}},{"Relevance":1.0,"Distance":91.3,"MatchLevel":"street","MatchQuality":{"Country":1.0,"State":1.0,"County":1.0,"City":1.0,"District":1.0,"Street":[1.0],"PostalCode":1.0},"Location":{"LocationId":"NT_aS7iPXZWe-D-BxtNZH86GC_l_565386058_R","LocationType":"point","DisplayPosition":{"Latitude":50.91137,"Longitude":13.39327},"MapView":{"TopLeft":{"Latitude":50.91217,"Longitude":13.39317},"BottomRight":{"Latitude":50.91137,"Longitude":13.39327}},"Address":{"Label":"Ebereschenstraße, 09627 Bobritzsch-Hilbersdorf, Deutschland","Country":"DEU","State":"Sachsen","County":"Mittelsachsen","City":"Bobritzsch-Hilbersdorf","District":"Hilbersdorf","Street":"Ebereschenstraße","PostalCode":"09627","AdditionalData":[{"value":"Deutschland","key":"CountryName"},{"value":"Sachsen","key":"StateName"},{"value":"Mittelsachsen","key":"CountyName"}]},"MapReference":{"ReferenceId":"565386058","Spot":0.0,"SideOfStreet":"right","CountryId":"20147700","StateId":"20191185","CountyId":"23409401","CityId":"20211824","DistrictId":"20212723"}}},{"Relevance":1.0,"Distance":91.8,"MatchLevel":"street","MatchQuality":{"Country":1.0,"State":1.0,"County":1.0,"City":1.0,"District":1.0,"Street":[1.0],"PostalCode":1.0},"Location":{"LocationId":"NT_A6H4HGQENmzX7V09W-sStD_l_540792870_R","LocationType":"point","DisplayPosition":{"Latitude":50.90989,"Longitude":13.39298},"MapView":{"TopLeft":{"Latitude":50.90989,"Longitude":13.3921},"BottomRight":{"Latitude":50.90949,"Longitude":13.39298}},"Address":{"Label":"Kindergasse, 09627 Bobritzsch-Hilbersdorf, Deutschland","Country":"DEU","State":"Sachsen","County":"Mittelsachsen","City":"Bobritzsch-Hilbersdorf","District":"Hilbersdorf","Street":"Kindergasse","PostalCode":"09627","AdditionalData":[{"value":"Deutschland","key":"CountryName"},{"value":"Sachsen","key":"StateName"},{"value":"Mittelsachsen","key":"CountyName"}]},"MapReference":{"ReferenceId":"540792870","Spot":1.0,"SideOfStreet":"right","CountryId":"20147700","StateId":"20191185","CountyId":"23409401","CityId":"20211824","DistrictId":"20212723"}}}]}]}}