{"Response":{"MetaInfo":{"Timestamp":"2020-03-28T10:05:54.016+0000","NextPageInformation":"2"},"View":[{"_type":"SearchResultsViewType","ViewId":0,"Result":[{"Relevance":1.0,"Distance":0.0,"Direction":0.0,"MatchLevel":"district","MatchQuality":{"Country":1.0,"State":1.0,"County":1.0,"City":1.0,"District":1.0,"PostalCode":1.0},"Location":{"LocationId":"NT_7z4gLeG3pPSPdHg6PbyndB","LocationType":"point","DisplayPosition":{"Latitude":50.9517636,"Longitude":6.425449},"MapView":{"TopLeft":{"Latitude":50.95335,"Longitude":6.40972},"BottomRight":{"Latitude":50.94623,"Longitude":6.42666}},"Address":{"Label":"Welldorf, Jülich, Nordrhein-Westfalen, Deutschland","Country":"DEU","State":"Nordrhein-Westfalen","County":"Düren","City":"Jülich","District":"Welldorf","PostalCode":"52428","AdditionalData":[{"value":"Deutschland","key":"CountryName"},{"value":"Nordrhein-Westfalen","key":"StateName"},{"value":"Düren","key":"CountyName"}]},"MapReference":{"ReferenceId":"536974346","SideOfStreet":"neither","CountryId":"20147700","StateId":"20157369","CountyId":"20158166","CityId":"20158216","DistrictId":"20158220"}}},{"Relevance":1.0,"Distance":9.7,"MatchLevel":"houseNumber","MatchQuality":{"Country":1.0,"State":1.0,"County":1.0,"City":1.0,"District":1.0,"Street":[1.0],"HouseNumber":1.0,"PostalCode":1.0},"MatchType":"interpolated","Location":{"LocationId":"NT_bFk9.C6YLI4hS3SEGo8FKB_3gD","LocationType":"point","DisplayPosition":{"Latitude":50.95185,"Longitude":6.42547},"MapView":{"TopLeft":{"Latitude":50.9529742,"Longitude":6.4236856},"BottomRight":{"Latitude":50.9507258,"Longitude":6.4272544}},"Address":{"Label":"Güstener Straße 78, 52428 Jülich, Deutschland","Country":"DEU","State":"Nordrhein-Westfalen","County":"Düren","City":"Jülich","District":"Welldorf","Street":"Güstener Straße","HouseNumber":"78","PostalCode":"52428","AdditionalData":[{"value":"Deutschland","key":"CountryName"},{"value":"Nordrhein-Westfalen","key":"StateName"},{"value":"Düren","key":"CountyName"}]},"MapReference":{"ReferenceId":"761935473","Spot":0.75,"SideOfStreet":"right","CountryId":"20147700","StateId":"20157369","CountyId":"20158166","CityId":"20158216","DistrictId":"20158220","AddressId":"196332184","RoadLinkId":"156148251"}}},{"Relevance":1.0,"Distance":50.8,"MatchLevel":"houseNumber","MatchQuality":{"Country":1.0,"State":1.0,"County":1.0,"City":1.0,"District":1.0,"Street":[1.0],"HouseNumber":1.0,"PostalCode":1.0},"MatchType":"interpolated","Location":{"LocationId":"NT_-VYKKXSFd17rQ203qUln-A_yA","LocationType":"point","DisplayPosition":{"Latitude":50.95206,"Longitude":6.426},"MapView":{"TopLeft":{"Latitude":50.9531842,"Longitude":6.4242155},"BottomRight":{"Latitude":50.9509358,"Longitude":6.4277845}},"Address":{"Label":"Welldorfer Straße 2, 52428 Jülich, Deutschland","Country":"DEU","State":"Nordrhein-Westfalen","County":"Düren","City":"Jülich","District":"Güsten","Street":"Welldorfer Straße","HouseNumber":"2","PostalCode":"52428","AdditionalData":[{"value":"Deutschland","key":"CountryName"},{"value":"Nordrhein-Westfalen","key":"StateName"},{"value":"Düren","key":"CountyName"}]},"MapReference":{"ReferenceId":"761935474","Spot":0.55,"SideOfStreet":"right","CountryId":"20147700","StateId":"20157369","CountyId":"20158166","CityId":"20158216","DistrictId":"20378692","AddressId":"249333395","RoadLinkId":"241136678"}}},{"Relevance":1.0,"Distance":103.9,"MatchLevel":"street","MatchQuality":{"Country":1.0,"State":1.0,"County":1.0,"City":1.0,"District":1.0,"Street":[1.0],"PostalCode":1.0},"Location":{"LocationId":"NT_Tr4ma9aj.3-KxSrxf8Op7C_l_536971917_R","LocationType":"point","DisplayPosition":{"Latitude":50.9510997,"Longitude":6.4244057},"MapView":{"TopLeft":{"Latitude":50.95136,"Longitude":6.42424},"BottomRight":{"Latitude":50.95048,"Longitude":6.4248}},"Address":{"Label":"Finkelbachweg, 52428 Jülich, Deutschland","Country":"DEU","State":"Nordrhein-Westfalen","County":"Düren","City":"Jülich","District":"Welldorf","Street":"Finkelbachweg","PostalCode":"52428","AdditionalData":[{"value":"Deutschland","key":"CountryName"},{"value":"Nordrhein-Westfalen","key":"StateName"},{"value":"Düren","key":"CountyName"}]},"MapReference":{"ReferenceId":"536971917","Spot":0.7,"SideOfStreet":"right","CountryId":"20147700","StateId":"20157369","CountyId":"20158166","CityId":"20158216","DistrictId":"20158220"}}},{"Relevance":1.0,"Distance":105.5,"MatchLevel":"houseNumber","MatchQuality":{"Country":1.0,"State":1.0,"County":1.0,"City":1.0,"District":1.0,"Street":[1.0],"HouseNumber":1.0,"PostalCode":1.0},"MatchType":"interpolated","Location":{"LocationId":"NT_-VYKKXSFd17rQ203qUln-A_2A","LocationType":"point","DisplayPosition":{"Latitude":50.95231,"Longitude":6.42668},"MapView":{"TopLeft":{"Latitude":50.9534342,"Longitude":6.4248955},"BottomRight":{"Latitude":50.9511858,"Longitude":6.4284645}},"Address":{"Label":"Welldorfer Straße 6, 52428 Jülich, Deutschland","Country":"DEU","State":"Nordrhein-Westfalen","County":"Düren","City":"Jülich","District":"Güsten","Street":"Welldorfer Straße","HouseNumber":"6","PostalCode":"52428","AdditionalData":[{"value":"Deutschland","key":"CountryName"},{"value":"Nordrhein-Westfalen","key":"StateName"},{"value":"Düren","key":"CountyName"}]},"MapReference":{"ReferenceId":"536968767","Spot":0.77,"SideOfStreet":"right","CountryId":"20147700","StateId":"20157369","CountyId":"20158166","CityId":"20158216","DistrictId":"20378692","AddressId":"249333394","RoadLinkId":"241136677"}}},{"Relevance":1.0,"Distance":106.0,"MatchLevel":"houseNumber","MatchQuality":{"Country":1.0,"State":1.0,"County":1.0,"City":1.0,"District":1.0,"Street":[1.0],"HouseNumber":1.0,"PostalCode":1.0},"MatchType":"interpolated","Location":{"LocationId":"NT_bFk9.C6YLI4hS3SEGo8FKB_1ED","LocationType":"point","DisplayPosition":{"Latitude":50.95132,"Longitude":6.42411},"MapView":{"TopLeft":{"Latitude":50.9524442,"Longitude":6.4223256},"BottomRight":{"Latitude":50.9501958,"Longitude":6.4258944}},"Address":{"Label":"Güstener Straße 51, 52428 Jülich, Deutschland","Country":"DEU","State":"Nordrhein-Westfalen","County":"Düren","City":"Jülich","District":"Welldorf","Street":"Güstener Straße","HouseNumber":"51","PostalCode":"52428","AdditionalData":[{"value":"Deutschland","key":"CountryName"},{"value":"Nordrhein-Westfalen","key":"StateName"},{"value":"Düren","key":"CountyName"}]},"MapReference":{"ReferenceId":"537831276","Spot":0.82,"SideOfStreet":"left","CountryId":"20147700","StateId":"20157369","CountyId":"20158166","CityId":"20158216","DistrictId":"20158220","AddressId":"196239699","RoadLinkId":"39119337"}}},{"Relevance":1.0,"Distance":141.0,"MatchLevel":"houseNumber","MatchQuality":{"Country":1.0,"State":1.0,"County":1.0,"City":1.0,"District":1.0,"Street":[1.0],"HouseNumber":1.0,"PostalCode":1.0},"MatchType":"interpolated","Location":{"LocationId":"NT_-VYKKXSFd17rQ203qUln-A_4A","LocationType":"point","DisplayPosition":{"Latitude":50.95247,"Longitude":6.42712},"MapView":{"TopLeft":{"Latitude":50.9535942,"Longitude":6.4253355},"BottomRight":{"Latitude":50.9513458,"Longitude":6.4289045}},"Address":{"Label":"Welldorfer Straße 8, 52428 Jülich, Deutschland","Country":"DEU","State":"Nordrhein-Westfalen","County":"Düren","City":"Jülich","District":"Güsten","Street":"Welldorfer Straße","HouseNumber":"8","PostalCode":"52428","AdditionalData":[{"value":"Deutschland","key":"CountryName"},{"value":"Nordrhein-Westfalen","key":"StateName"},{"value":"Düren","key":"CountyName"}]},"MapReference":{"ReferenceId":"536968723","Spot":0.21,"SideOfStreet":"right","CountryId":"20147700","StateId":"20157369","CountyId":"20158166","CityId":"20158216","DistrictId":"20378692","AddressId":"193473246","RoadLinkId":"39487940"}}},{"Relevance":1.0,"Distance":149.8,"MatchLevel":"street","MatchQuality":{"Country":1.0,"State":1.0,"County":1.0,"City":1.0,"District":1.0,"Street":[1.0],"PostalCode":1.0},"Location":{"LocationId":"NT_Tr4ma9aj.3-KxSrxf8Op7C_l_536971916_R","LocationType":"point","DisplayPosition":{"Latitude":50.95048,"Longitude":6.4248},"MapView":{"TopLeft":{"Latitude":50.95048,"Longitude":6.4248},"BottomRight":{"Latitude":50.94925,"Longitude":6.42497}},"Address":{"Label":"Finkelbachweg, 52428 Jülich, Deutschland","Country":"DEU","State":"Nordrhein-Westfalen","County":"Düren","City":"Jülich","District":"Welldorf","Street":"Finkelbachweg","PostalCode":"52428","AdditionalData":[{"value":"Deutschland","key":"CountryName"},{"value":"Nordrhein-Westfalen","key":"StateName"},{"value":"Düren","key":"CountyName"}]},"MapReference":{"ReferenceId":"536971916","Spot":1.0,"SideOfStreet":"right","CountryId":"20147700","StateId":"20157369","CountyId":"20158166","CityId":"20158216","DistrictId":"20158220"}}},{"Relevance":1.0,"Distance":151.6,"MatchLevel":"houseNumber","MatchQuality":{"Country":1.0,"State":1.0,"County":1.0,"City":1.0,"District":1.0,"Street":[1.0],"HouseNumber":1.0,"PostalCode":1.0},"MatchType":"interpolated","Location":{"LocationId":"NT_91lOr5bTFC1rMfvYuYJMpC_4A","LocationType":"point","DisplayPosition":{"Latitude":50.95102,"Longitude":6.42341},"MapView":{"TopLeft":{"Latitude":50.9521442,"Longitude":6.4216256},"BottomRight":{"Latitude":50.9498958,"Longitude":6.4251944}},"Address":{"Label":"Industrieweg 8, 52428 Jülich, Deutschland","Country":"DEU","State":"Nordrhein-Westfalen","County":"Düren","City":"Jülich","District":"Welldorf","Street":"Industrieweg","HouseNumber":"8","PostalCode":"52428","AdditionalData":[{"value":"Deutschland","key":"CountryName"},{"value":"Nordrhein-Westfalen","key":"StateName"},{"value":"Düren","key":"CountyName"}]},"MapReference":{"ReferenceId":"761935512","Spot":0.85,"SideOfStreet":"right","CountryId":"20147700","StateId":"20157369","CountyId":"20158166","CityId":"20158216","DistrictId":"20158220","AddressId":"196328517","RoadLinkId":"156148292"}}},{"Relevance":1.0,"Distance":166.7,"MatchLevel":"houseNumber","MatchQuality":{"Country":1.0,"State":1.0,"County":1.0,"City":1.0,"District":1.0,"Street":[1.0],"HouseNumber":1.0,"PostalCode":1.0},"MatchType":"interpolated","Location":{"LocationId":"NT_bFk9.C6YLI4hS3SEGo8FKB_0UD","LocationType":"point","DisplayPosition":{"Latitude":50.95116,"Longitude":6.42327},"MapView":{"TopLeft":{"Latitude":50.9522842,"Longitude":6.4214856},"BottomRight":{"Latitude":50.9500358,"Longitude":6.4250544}},"Address":{"Label":"Güstener Straße 45, 52428 Jülich, Deutschland","Country":"DEU","State":"Nordrhein-Westfalen","County":"Düren","City":"Jülich","District":"Welldorf","Street":"Güstener Straße","HouseNumber":"45","PostalCode":"52428","AdditionalData":[{"value":"Deutschland","key":"CountryName"},{"value":"Nordrhein-Westfalen","key":"StateName"},{"value":"Düren","key":"CountyName"}]},"MapReference":{"ReferenceId":"537831275","Spot":0.27,"SideOfStreet":"left","CountryId":"20147700","StateId":"20157369","CountyId":"20158166","CityId":"20158216","DistrictId":"20158220","AddressId":"196568971","RoadLinkId":"39077503"}}}]}]}}