{"Response":{"MetaInfo":{"Timestamp":"2020-03-28T10:04:21.203+0000","NextPageInformation":"2"},"View":[{"_type":"SearchResultsViewType","ViewId":0,"Result":[{"Relevance":1.0,"Distance":0.0,"Direction":0.0,"MatchLevel":"district","MatchQuality":{"Country":1.0,"State":1.0,"County":1.0,"City":1.0,"District":1.0,"PostalCode":1.0},"Location":{"LocationId":"NT_L0CO4IbYMSNhaNbHz-FLgD","LocationType":"point","DisplayPosition":{"Latitude":50.9519539,"Longitude":6.171187},"MapView":{"TopLeft":{"Latitude":50.95517,"Longitude":6.1633},"BottomRight":{"Latitude":50.94886,"Longitude":6.17857}},"Address":{"Label":"Immendorf, Geilenkirchen, Nordrhein-Westfalen, Deutschland","Country":"DEU","State":"Nordrhein-Westfalen","County":"Heinsberg","City":"Geilenkirchen","District":"Immendorf","PostalCode":"52511","AdditionalData":[{"value":"Deutschland","key":"CountryName"},{"value":"Nordrhein-Westfalen","key":"StateName"},{"value":"Heinsberg","key":"CountyName"}]},"MapReference":{"ReferenceId":"572260859","SideOfStreet":"neither","CountryId":"20147700","StateId":"20157369","CountyId":"20158557","CityId":"20158585","DistrictId":"20158589"}}},{"Relevance":1.0,"Distance":5.9,"MatchLevel":"houseNumber","MatchQuality":{"Country":1.0,"State":1.0,"County":1.0,"City":1.0,"District":1.0,"Street":[1.0],"HouseNumber":1.0,"PostalCode":1.0},"MatchType":"interpolated","Location":{"LocationId":"NT_L9YMQwKO4dsZ5YZvGxJYFD_zA","LocationType":"point","DisplayPosition":{"Latitude":50.95184,"Longitude":6.17141},"MapView":{"TopLeft":{"Latitude":50.9529642,"Longitude":6.1696256},"BottomRight":{"Latitude":50.9507158,"Longitude":6.1731944}},"Address":{"Label":"Apweilerstraße 3, 52511 Geilenkirchen, Deutschland","Country":"DEU","State":"Nordrhein-Westfalen","County":"Heinsberg","City":"Geilenkirchen","District":"Immendorf","Street":"Apweilerstraße","HouseNumber":"3","PostalCode":"52511","AdditionalData":[{"value":"Deutschland","key":"CountryName"},{"value":"Nordrhein-Westfalen","key":"StateName"},{"value":"Heinsberg","key":"CountyName"}]},"MapReference":{"ReferenceId":"537818389","Spot":0.84,"SideOfStreet":"left","CountryId":"20147700","StateId":"20157369","CountyId":"20158557","CityId":"20158585","DistrictId":"20158589","AddressId":"196115261","RoadLinkId":"39253974"}}},{"Relevance":1.0,"Distance":5.9,"MatchLevel":"houseNumber","MatchQuality":{"Country":1.0,"State":1.0,"County":1.0,"City":1.0,"District":1.0,"Street":[1.0],"HouseNumber":1.0,"PostalCode":1.0},"MatchType":"interpolated","Location":{"LocationId":"NT_i2TG8SFQu6pK3zquRNWZHC_xA","LocationType":"point","DisplayPosition":{"Latitude":50.952,"Longitude":6.17139},"MapView":{"TopLeft":{"Latitude":50.9531242,"Longitude":6.1696056},"BottomRight":{"Latitude":50.9508758,"Longitude":6.1731744}},"Address":{"Label":"Zehnthofstraße 1, 52511 Geilenkirchen, Deutschland","Country":"DEU","State":"Nordrhein-Westfalen","County":"Heinsberg","City":"Geilenkirchen","District":"Immendorf","Street":"Zehnthofstraße","HouseNumber":"1","PostalCode":"52511","AdditionalData":[{"value":"Deutschland","key":"CountryName"},{"value":"Nordrhein-Westfalen","key":"StateName"},{"value":"Heinsberg","key":"CountyName"}]},"MapReference":{"ReferenceId":"537806760","Spot":0.17,"SideOfStreet":"left","CountryId":"20147700","StateId":"20157369","CountyId":"20158557","CityId":"20158585","DistrictId":"20158589","AddressId":"199469344","RoadLinkId":"39232252"}}},{"Relevance":1.0,"Distance":21.9,"MatchLevel":"houseNumber","MatchQuality":{"Country":1.0,"State":1.0,"County":1.0,"City":1.0,"District":1.0,"Street":[1.0],"HouseNumber":1.0,"PostalCode":1.0},"MatchType":"interpolated","Location":{"LocationId":"NT_-FX8Q06K6qOTwOtdNNu2jA_3ID","LocationType":"point","DisplayPosition":{"Latitude":50.95176,"Longitude":6.17113},"MapView":{"TopLeft":{"Latitude":50.9528842,"Longitude":6.1693456},"BottomRight":{"Latitude":50.9506358,"Longitude":6.1729144}},"Address":{"Label":"Dürener Straße 72, 52511 Geilenkirchen, Deutschland","Country":"DEU","State":"Nordrhein-Westfalen","County":"Heinsberg","City":"Geilenkirchen","District":"Immendorf","Street":"Dürener Straße","HouseNumber":"72","PostalCode":"52511","AdditionalData":[{"value":"Deutschland","key":"CountryName"},{"value":"Nordrhein-Westfalen","key":"StateName"},{"value":"Heinsberg","key":"CountyName"}]},"MapReference":{"ReferenceId":"572260859","Spot":0.21,"SideOfStreet":"left","CountryId":"20147700","StateId":"20157369","CountyId":"20158557","CityId":"20158585","DistrictId":"20158589","AddressId":"195286070","RoadLinkId":"39422420"}}},{"Relevance":1.0,"Distance":26.6,"MatchLevel":"houseNumber","MatchQuality":{"Country":1.0,"State":1.0,"County":1.0,"City":1.0,"District":1.0,"Street":[1.0],"HouseNumber":1.0,"PostalCode":1.0},"MatchType":"interpolated","Location":{"LocationId":"NT_-FX8Q06K6qOTwOtdNNu2jA_1UD","LocationType":"point","DisplayPosition":{"Latitude":50.95169,"Longitude":6.17134},"MapView":{"TopLeft":{"Latitude":50.9528142,"Longitude":6.1695556},"BottomRight":{"Latitude":50.9505658,"Longitude":6.1731244}},"Address":{"Label":"Dürener Straße 55, 52511 Geilenkirchen, Deutschland","Country":"DEU","State":"Nordrhein-Westfalen","County":"Heinsberg","City":"Geilenkirchen","District":"Immendorf","Street":"Dürener Straße","HouseNumber":"55","PostalCode":"52511","AdditionalData":[{"value":"Deutschland","key":"CountryName"},{"value":"Nordrhein-Westfalen","key":"StateName"},{"value":"Heinsberg","key":"CountyName"}]},"MapReference":{"ReferenceId":"759822198","Spot":0.7,"SideOfStreet":"right","CountryId":"20147700","StateId":"20157369","CountyId":"20158557","CityId":"20158585","DistrictId":"20158589","AddressId":"732509300","RoadLinkId":"154354788"}}},{"Relevance":1.0,"Distance":34.8,"MatchLevel":"houseNumber","MatchQuality":{"Country":1.0,"State":1.0,"County":1.0,"City":1.0,"District":1.0,"Street":[1.0],"HouseNumber":1.0,"PostalCode":1.0},"MatchType":"interpolated","Location":{"LocationId":"NT_-FX8Q06K6qOTwOtdNNu2jA_1MD","LocationType":"point","DisplayPosition":{"Latitude":50.95175,"Longitude":6.17081},"MapView":{"TopLeft":{"Latitude":50.9528742,"Longitude":6.1690256},"BottomRight":{"Latitude":50.9506258,"Longitude":6.1725944}},"Address":{"Label":"Dürener Straße 53, 52511 Geilenkirchen, Deutschland","Country":"DEU","State":"Nordrhein-Westfalen","County":"Heinsberg","City":"Geilenkirchen","District":"Immendorf","Street":"Dürener Straße","HouseNumber":"53","PostalCode":"52511","AdditionalData":[{"value":"Deutschland","key":"CountryName"},{"value":"Nordrhein-Westfalen","key":"StateName"},{"value":"Heinsberg","key":"CountyName"}]},"MapReference":{"ReferenceId":"572260860","Spot":0.96,"SideOfStreet":"left","CountryId":"20147700","StateId":"20157369","CountyId":"20158557","CityId":"20158585","DistrictId":"20158589","AddressId":"193179552","RoadLinkId":"39188056"}}},{"Relevance":1.0,"Distance":47.3,"MatchLevel":"houseNumber","MatchQuality":{"Country":1.0,"State":1.0,"County":1.0,"City":1.0,"District":1.0,"Street":[1.0],"HouseNumber":1.0,"PostalCode":1.0},"MatchType":"interpolated","Location":{"LocationId":"NT_L9YMQwKO4dsZ5YZvGxJYFD_3A","LocationType":"point","DisplayPosition":{"Latitude":50.95191,"Longitude":6.17188},"MapView":{"TopLeft":{"Latitude":50.9530342,"Longitude":6.1700956},"BottomRight":{"Latitude":50.9507858,"Longitude":6.1736644}},"Address":{"Label":"Apweilerstraße 7, 52511 Geilenkirchen, Deutschland","Country":"DEU","State":"Nordrhein-Westfalen","County":"Heinsberg","City":"Geilenkirchen","District":"Immendorf","Street":"Apweilerstraße","HouseNumber":"7","PostalCode":"52511","AdditionalData":[{"value":"Deutschland","key":"CountryName"},{"value":"Nordrhein-Westfalen","key":"StateName"},{"value":"Heinsberg","key":"CountyName"}]},"MapReference":{"ReferenceId":"537806751","Spot":0.19,"SideOfStreet":"left","CountryId":"20147700","StateId":"20157369","CountyId":"20158557","CityId":"20158585","DistrictId":"20158589","AddressId":"196225387","RoadLinkId":"39409224"}}},{"Relevance":1.0,"Distance":53.6,"MatchLevel":"houseNumber","MatchQuality":{"Country":1.0,"State":1.0,"County":1.0,"City":1.0,"District":1.0,"Street":[1.0],"HouseNumber":1.0,"PostalCode":1.0},"MatchType":"interpolated","Location":{"LocationId":"NT_i2TG8SFQu6pK3zquRNWZHC_5A","LocationType":"point","DisplayPosition":{"Latitude":50.95238,"Longitude":6.17083},"MapView":{"TopLeft":{"Latitude":50.9535042,"Longitude":6.1690455},"BottomRight":{"Latitude":50.9512558,"Longitude":6.1726145}},"Address":{"Label":"Zehnthofstraße 9, 52511 Geilenkirchen, Deutschland","Country":"DEU","State":"Nordrhein-Westfalen","County":"Heinsberg","City":"Geilenkirchen","District":"Immendorf","Street":"Zehnthofstraße","HouseNumber":"9","PostalCode":"52511","AdditionalData":[{"value":"Deutschland","key":"CountryName"},{"value":"Nordrhein-Westfalen","key":"StateName"},{"value":"Heinsberg","key":"CountyName"}]},"MapReference":{"ReferenceId":"537806759","Spot":0.68,"SideOfStreet":"left","CountryId":"20147700","StateId":"20157369","CountyId":"20158557","CityId":"20158585","DistrictId":"20158589","AddressId":"255684222","RoadLinkId":"245087953"}}},{"Relevance":1.0,"Distance":67.2,"MatchLevel":"houseNumber","MatchQuality":{"Country":1.0,"State":1.0,"County":1.0,"City":1.0,"District":1.0,"Street":[1.0],"HouseNumber":1.0,"PostalCode":1.0},"MatchType":"interpolated","Location":{"LocationId":"NT_-FX8Q06K6qOTwOtdNNu2jA_2ED","LocationType":"point","DisplayPosition":{"Latitude":50.9515,"Longitude":6.17182},"MapView":{"TopLeft":{"Latitude":50.9526242,"Longitude":6.1700356},"BottomRight":{"Latitude":50.9503758,"Longitude":6.1736044}},"Address":{"Label":"Dürener Straße 61, 52511 Geilenkirchen, Deutschland","Country":"DEU","State":"Nordrhein-Westfalen","County":"Heinsberg","City":"Geilenkirchen","District":"Immendorf","Street":"Dürener Straße","HouseNumber":"61","PostalCode":"52511","AdditionalData":[{"value":"Deutschland","key":"CountryName"},{"value":"Nordrhein-Westfalen","key":"StateName"},{"value":"Heinsberg","key":"CountyName"}]},"MapReference":{"ReferenceId":"759822197","Spot":0.64,"SideOfStreet":"right","CountryId":"20147700","StateId":"20157369","CountyId":"20158557","CityId":"20158585","DistrictId":"20158589","AddressId":"195636395","RoadLinkId":"154354787"}}},{"Relevance":1.0,"Distance":71.3,"MatchLevel":"houseNumber","MatchQuality":{"Country":1.0,"State":1.0,"County":1.0,"City":1.0,"District":1.0,"Street":[1.0],"HouseNumber":1.0,"PostalCode":1.0},"MatchType":"interpolated","Location":{"LocationId":"NT_CEKgNE8r2g65N4XB.hQYyB_yA","LocationType":"point","DisplayPosition":{"Latitude":50.95122,"Longitude":6.17162},"MapView":{"TopLeft":{"Latitude":50.9523442,"Longitude":6.1698356},"BottomRight":{"Latitude":50.9500958,"Longitude":6.1734044}},"Address":{"Label":"Schummelshof 2, 52511 Geilenkirchen, Deutschland","Country":"DEU","State":"Nordrhein-Westfalen","County":"Heinsberg","City":"Geilenkirchen","District":"Immendorf","Street":"Schummelshof","HouseNumber":"2","PostalCode":"52511","AdditionalData":[{"value":"Deutschland","key":"CountryName"},{"value":"Nordrhein-Westfalen","key":"StateName"},{"value":"Heinsberg","key":"CountyName"}]},"MapReference":{"ReferenceId":"537806755","Spot":0.81,"SideOfStreet":"left","CountryId":"20147700","StateId":"20157369","CountyId":"20158557","CityId":"20158585","DistrictId":"20158589","AddressId":"196034999","RoadLinkId":"39033603"}}}]}]}}