{"Response":{"MetaInfo":{"Timestamp":"2020-03-28T10:31:28.940+0000","NextPageInformation":"2"},"View":[{"_type":"SearchResultsViewType","ViewId":0,"Result":[{"Relevance":1.0,"Distance":0.0,"Direction":0.0,"MatchLevel":"district","MatchQuality":{"Country":1.0,"State":1.0,"County":1.0,"City":1.0,"District":1.0,"PostalCode":1.0},"Location":{"LocationId":"NT_D.a5zEw-a2p4Qw90GqqNCD","LocationType":"point","DisplayPosition":{"Latitude":50.9498811,"Longitude":-2.6657208},"MapView":{"TopLeft":{"Latitude":50.96232,"Longitude":-2.69408},"BottomRight":{"Latitude":50.92197,"Longitude":-2.59893}},"Address":{"Label":"Yeovil, England, United Kingdom","Country":"GBR","State":"England","County":"Somerset","City":"Yeovil","District":"Yeovil","PostalCode":"BA21 3","AdditionalData":[{"value":"United Kingdom","key":"CountryName"},{"value":"England","key":"StateName"},{"value":"Somerset","key":"CountyName"}]},"MapReference":{"ReferenceId":"810100920","SideOfStreet":"neither","StateId":"20248595","CountyId":"20357053","CityId":"20357711","DistrictId":"20357712"}}},{"Relevance":1.0,"Distance":40.9,"MatchLevel":"houseNumber","MatchQuality":{"Country":1.0,"State":1.0,"County":1.0,"City":1.0,"District":1.0,"Street":[1.0],"HouseNumber":1.0,"PostalCode":1.0},"MatchType":"interpolated","Location":{"LocationId":"NT_N3.aMYCslV3Ji.UZxYBR2D_l_26552722_R_ygD","LocationType":"point","DisplayPosition":{"Latitude":50.9497502,"Longitude":-2.6664102},"MapView":{"TopLeft":{"Latitude":50.9508744,"Longitude":-2.6681946},"BottomRight":{"Latitude":50.9486261,"Longitude":-2.6646259}},"Address":{"Label":"28 Hillingdon Court, Yeovil, BA21 3TA, United Kingdom","Country":"GBR","State":"England","County":"Somerset","City":"Yeovil","District":"Yeovil","Street":"Hillingdon Court","HouseNumber":"28","PostalCode":"BA21 3TA","AdditionalData":[{"value":"United Kingdom","key":"CountryName"},{"value":"England","key":"StateName"},{"value":"Somerset","key":"CountyName"}]},"MapReference":{"ReferenceId":"26552722","Spot":0.15,"SideOfStreet":"right","StateId":"20248595","CountyId":"20357053","CityId":"20357711","DistrictId":"20357712"}}},{"Relevance":1.0,"Distance":52.5,"MatchLevel":"postalCode","MatchQuality":{"PostalCode":1.0},"MatchType":"interpolated","Location":{"LocationId":"NT_N3.aMYCslV3Ji.UZxYBR2D_l_26552722_R_ygD","LocationType":"point","DisplayPosition":{"Latitude":50.94988,"Longitude":-2.66647},"MapView":{"TopLeft":{"Latitude":50.9588732,"Longitude":-2.6807449},"BottomRight":{"Latitude":50.9408868,"Longitude":-2.6521951}},"Address":{"Label":"BA21 3TA, Yeovil, England, United Kingdom","Country":"GBR","State":"England","County":"Somerset","City":"Yeovil","PostalCode":"BA21 3TA","AdditionalData":[{"value":"United Kingdom","key":"CountryName"},{"value":"England","key":"StateName"},{"value":"Somerset","key":"CountyName"}]},"MapReference":{"ReferenceId":"26552722","Spot":0.15,"SideOfStreet":"neither","StateId":"20248595","CountyId":"20357053","CityId":"20357711"}}},{"Relevance":1.0,"Distance":58.2,"MatchLevel":"houseNumber","MatchQuality":{"Country":1.0,"State":1.0,"County":1.0,"City":1.0,"District":1.0,"Street":[1.0],"HouseNumber":1.0,"PostalCode":1.0},"MatchType":"interpolated","Location":{"LocationId":"NT_N9LIrr.Ta6EU9D50n7wJZC_l_26552644_R_2QD","LocationType":"point","DisplayPosition":{"Latitude":50.9504336,"Longitude":-2.6662382},"MapView":{"TopLeft":{"Latitude":50.9515578,"Longitude":-2.6680226},"BottomRight":{"Latitude":50.9493095,"Longitude":-2.6644538}},"Address":{"Label":"64 The Toose, Yeovil, BA21 3SN, United Kingdom","Country":"GBR","State":"England","County":"Somerset","City":"Yeovil","District":"Yeovil","Street":"The Toose","HouseNumber":"64","PostalCode":"BA21 3SN","AdditionalData":[{"value":"United Kingdom","key":"CountryName"},{"value":"England","key":"StateName"},{"value":"Somerset","key":"CountyName"}]},"MapReference":{"ReferenceId":"26552644","Spot":0.61,"SideOfStreet":"right","StateId":"20248595","CountyId":"20357053","CityId":"20357711","DistrictId":"20357712"}}},{"Relevance":1.0,"Distance":60.1,"MatchLevel":"street","MatchQuality":{"Country":1.0,"State":1.0,"County":1.0,"City":1.0,"District":1.0,"PostalCode":1.0},"Location":{"LocationId":"NT_buGj.uNZISQundhx4ncMoA_l_766855555_L","LocationType":"point","DisplayPosition":{"Latitude":50.94962,"Longitude":-2.66497},"MapView":{"TopLeft":{"Latitude":50.95029,"Longitude":-2.66497},"BottomRight":{"Latitude":50.94962,"Longitude":-2.66421}},"Address":{"Label":"Yeovil, BA21 3, United Kingdom","Country":"GBR","State":"England","County":"Somerset","City":"Yeovil","District":"Yeovil","PostalCode":"BA21 3","AdditionalData":[{"value":"United Kingdom","key":"CountryName"},{"value":"England","key":"StateName"},{"value":"Somerset","key":"CountyName"}]},"MapReference":{"ReferenceId":"766855555","Spot":0.0,"SideOfStreet":"left","StateId":"20248595","CountyId":"20357053","CityId":"20357711","DistrictId":"20357712"}}},{"Relevance":1.0,"Distance":62.0,"MatchLevel":"houseNumber","MatchQuality":{"Country":1.0,"State":1.0,"County":1.0,"City":1.0,"District":1.0,"Street":[1.0],"HouseNumber":1.0,"PostalCode":1.0},"MatchType":"interpolated","Location":{"LocationId":"NT_-XgBShKa2NREuf29vrJjpA_l_26552833_R_yMD","LocationType":"point","DisplayPosition":{"Latitude":50.9493722,"Longitude":-2.6664471},"MapView":{"TopLeft":{"Latitude":50.9504963,"Longitude":-2.6682315},"BottomRight":{"Latitude":50.948248,"Longitude":-2.6646628}},"Address":{"Label":"23 Derwent Way, Yeovil, BA21 3, United Kingdom","Country":"GBR","State":"England","County":"Somerset","City":"Yeovil","District":"Yeovil","Street":"Derwent Way","HouseNumber":"23","PostalCode":"BA21 3","AdditionalData":[{"value":"United Kingdom","key":"CountryName"},{"value":"England","key":"StateName"},{"value":"Somerset","key":"CountyName"}]},"MapReference":{"ReferenceId":"26552833","Spot":0.29,"SideOfStreet":"right","StateId":"20248595","CountyId":"20357053","CityId":"20357711","DistrictId":"20357712"}}},{"Relevance":1.0,"Distance":63.1,"MatchLevel":"street","MatchQuality":{"Country":1.0,"State":1.0,"County":1.0,"City":1.0,"District":1.0,"Street":[1.0],"PostalCode":1.0},"Location":{"LocationId":"NT_I9Kq9zDJYR.jhhsmsRGa9C_l_766855554_L","LocationType":"point","DisplayPosition":{"Latitude":50.95042,"Longitude":-2.66544},"MapView":{"TopLeft":{"Latitude":50.95055,"Longitude":-2.66558},"BottomRight":{"Latitude":50.95029,"Longitude":-2.66421}},"Address":{"Label":"West Abbey, Yeovil, BA21 3, United Kingdom","Country":"GBR","State":"England","County":"Somerset","City":"Yeovil","District":"Yeovil","Street":"West Abbey","PostalCode":"BA21 3","AdditionalData":[{"value":"United Kingdom","key":"CountryName"},{"value":"England","key":"StateName"},{"value":"Somerset","key":"CountyName"}]},"MapReference":{"ReferenceId":"766855554","Spot":0.87,"SideOfStreet":"left","StateId":"20248595","CountyId":"20357053","CityId":"20357711","DistrictId":"20357712"}}},{"Relevance":1.0,"Distance":71.6,"MatchLevel":"postalCode","MatchQuality":{"PostalCode":1.0},"Location":{"LocationId":"NT_buGj.uNZISQundhx4ncMoA_l_766855555_L","LocationType":"point","DisplayPosition":{"Latitude":50.94992,"Longitude":-2.6647},"MapView":{"TopLeft":{"Latitude":50.9589132,"Longitude":-2.678975},"BottomRight":{"Latitude":50.9409268,"Longitude":-2.650425}},"Address":{"Label":"BA21 3TL, Yeovil, England, United Kingdom","Country":"GBR","State":"England","County":"Somerset","City":"Yeovil","PostalCode":"BA21 3TL","AdditionalData":[{"value":"United Kingdom","key":"CountryName"},{"value":"England","key":"StateName"},{"value":"Somerset","key":"CountyName"}]},"MapReference":{"ReferenceId":"766855555","Spot":0.0,"SideOfStreet":"neither","StateId":"20248595","CountyId":"20357053","CityId":"20357711"}}},{"Relevance":1.0,"Distance":75.0,"MatchLevel":"street","MatchQuality":{"Country":1.0,"State":1.0,"County":1.0,"City":1.0,"District":1.0,"Street":[1.0],"PostalCode":1.0},"Location":{"LocationId":"NT_N9LIrr.Ta6EU9D50n7wJZC_l_26552580_R","LocationType":"point","DisplayPosition":{"Latitude":50.95055,"Longitude":-2.66558},"MapView":{"TopLeft":{"Latitude":50.95095,"Longitude":-2.66558},"BottomRight":{"Latitude":50.95055,"Longitude":-2.66473}},"Address":{"Label":"The Toose, Yeovil, BA21 3, United Kingdom","Country":"GBR","State":"England","County":"Somerset","City":"Yeovil","District":"Yeovil","Street":"The Toose","PostalCode":"BA21 3","AdditionalData":[{"value":"United Kingdom","key":"CountryName"},{"value":"England","key":"StateName"},{"value":"Somerset","key":"CountyName"}]},"MapReference":{"ReferenceId":"26552580","Spot":0.0,"SideOfStreet":"right","StateId":"20248595","CountyId":"20357053","CityId":"20357711","DistrictId":"20357712"}}},{"Relevance":1.0,"Distance":89.3,"MatchLevel":"postalCode","MatchQuality":{"PostalCode":1.0},"MatchType":"interpolated","Location":{"LocationId":"NT_-XgBShKa2NREuf29vrJjpA_l_26552833_R_yMD","LocationType":"point","DisplayPosition":{"Latitude":50.9493,"Longitude":-2.6666},"MapView":{"TopLeft":{"Latitude":50.9582932,"Longitude":-2.6808748},"BottomRight":{"Latitude":50.9403068,"Longitude":-2.6523252}},"Address":{"Label":"BA21 3SZ, Yeovil, England, United Kingdom","Country":"GBR","State":"England","County":"Somerset","City":"Yeovil","PostalCode":"BA21 3SZ","AdditionalData":[{"value":"United Kingdom","key":"CountryName"},{"value":"England","key":"StateName"},{"value":"Somerset","key":"CountyName"}]},"MapReference":{"ReferenceId":"26552833","Spot":0.29,"SideOfStreet":"neither","StateId":"20248595","CountyId":"20357053","CityId":"20357711"}}}]}]}}