{"Response":{"MetaInfo":{"Timestamp":"2020-03-28T09:36:46.817+0000","NextPageInformation":"2"},"View":[{"_type":"SearchResultsViewType","ViewId":0,"Result":[{"Relevance":1.0,"Distance":-38.4,"MatchLevel":"landmark","MatchQuality":{"Country":1.0,"State":1.0,"County":1.0,"City":1.0,"District":1.0,"PostalCode":1.0,"Name":1.0},"Location":{"LocationId":"NT_.IDgeYzguWx1skoQFk0QPC","LocationType":"industrialComplex","Name":"Gewerbepark Technologiezentrum","DisplayPosition":{"Latitude":50.95178,"Longitude":11.08883},"MapView":{"TopLeft":{"Latitude":50.95537,"Longitude":11.08186},"BottomRight":{"Latitude":50.94818,"Longitude":11.09521}},"Address":{"Label":"99084 Erfurt, Deutschland","Country":"DEU","State":"Thüringen","County":"Erfurt","City":"Erfurt","District":"Erfurt","PostalCode":"99084","AdditionalData":[{"value":"Deutschland","key":"CountryName"},{"value":"Thüringen","key":"StateName"},{"value":"Erfurt","key":"CountyName"}]},"MapReference":{"CountryId":"20147700","StateId":"20196974","CountyId":"20196975","CityId":"20196976","DistrictId":"20196978","PlaceId":"1410959279"}}},{"Relevance":1.0,"Distance":0.0,"Direction":0.0,"MatchLevel":"district","MatchQuality":{"Country":1.0,"State":1.0,"County":1.0,"City":1.0,"District":1.0,"PostalCode":1.0},"Location":{"LocationId":"NT_4rZ0OqOHX3R9w0O-0KB5pC","LocationType":"point","DisplayPosition":{"Latitude":50.9486074,"Longitude":11.08963},"MapView":{"TopLeft":{"Latitude":50.96497,"Longitude":11.04845},"BottomRight":{"Latitude":50.93998,"Longitude":11.09521}},"Address":{"Label":"Herrenberg/Wiesenhügel/Melchendorf, Erfurt, Thüringen, Deutschland","Country":"DEU","State":"Thüringen","County":"Erfurt","City":"Erfurt","District":"Herrenberg/Wiesenhügel/Melchendorf","PostalCode":"99097","AdditionalData":[{"value":"Deutschland","key":"CountryName"},{"value":"Thüringen","key":"StateName"},{"value":"Erfurt","key":"CountyName"}]},"MapReference":{"ReferenceId":"53547180","SideOfStreet":"neither","CountryId":"20147700","StateId":"20196974","CountyId":"20196975","CityId":"20196976"}}},{"Relevance":1.0,"Distance":21.1,"MatchLevel":"houseNumber","MatchQuality":{"Country":1.0,"State":1.0,"County":1.0,"City":1.0,"District":1.0,"Street":[1.0],"HouseNumber":1.0,"PostalCode":1.0},"MatchType":"interpolated","Location":{"LocationId":"NT_W3lINIUZw0e4Klaj3MmIGA_3A","LocationType":"point","DisplayPosition":{"Latitude":50.94823,"Longitude":11.08946},"MapView":{"TopLeft":{"Latitude":50.9493542,"Longitude":11.0876757},"BottomRight":{"Latitude":50.9471058,"Longitude":11.0912443}},"Address":{"Label":"Am Urbicher Kreuz 7, 99099 Erfurt, Deutschland","Country":"DEU","State":"Thüringen","County":"Erfurt","City":"Erfurt","District":"Herrenberg/Wiesenhügel/Melchendorf","Street":"Am Urbicher Kreuz","HouseNumber":"7","PostalCode":"99099","AdditionalData":[{"value":"Deutschland","key":"CountryName"},{"value":"Thüringen","key":"StateName"},{"value":"Erfurt","key":"CountyName"}]},"MapReference":{"ReferenceId":"868654538","Spot":0.35,"SideOfStreet":"left","CountryId":"20147700","StateId":"20196974","CountyId":"20196975","CityId":"20196976","AddressId":"768344814","RoadLinkId":"241267938"}}},{"Relevance":1.0,"Distance":30.5,"MatchLevel":"street","MatchQuality":{"Country":1.0,"State":1.0,"County":1.0,"City":1.0,"District":1.0,"PostalCode":1.0},"Location":{"LocationId":"NT_ikyt8f.LWAcdEDp-vCGVoB_l_1037586045_L","LocationType":"point","DisplayPosition":{"Latitude":50.9485,"Longitude":11.09003},"MapView":{"TopLeft":{"Latitude":50.949,"Longitude":11.08993},"BottomRight":{"Latitude":50.94832,"Longitude":11.0901}},"Address":{"Label":"99099 Erfurt, Deutschland","Country":"DEU","State":"Thüringen","County":"Erfurt","City":"Erfurt","District":"Herrenberg/Wiesenhügel/Melchendorf","PostalCode":"99099","AdditionalData":[{"value":"Deutschland","key":"CountryName"},{"value":"Thüringen","key":"StateName"},{"value":"Erfurt","key":"CountyName"}]},"MapReference":{"ReferenceId":"1037586045","Spot":0.26,"SideOfStreet":"left","CountryId":"20147700","StateId":"20196974","CountyId":"20196975","CityId":"20196976"}}},{"Relevance":1.0,"Distance":45.5,"MatchLevel":"street","MatchQuality":{"Country":1.0,"State":1.0,"County":1.0,"City":1.0,"District":1.0,"Street":[1.0],"PostalCode":1.0},"Location":{"LocationId":"NT_F3xW3GpsB-1I7GF-NGq8HA_l_1037586043_L","LocationType":"point","DisplayPosition":{"Latitude":50.9489975,"Longitude":11.089825},"MapView":{"TopLeft":{"Latitude":50.94963,"Longitude":11.08836},"BottomRight":{"Latitude":50.94899,"Longitude":11.08993}},"Address":{"Label":"Konrad-Zuse-Straße, 99099 Erfurt, Deutschland","Country":"DEU","State":"Thüringen","County":"Erfurt","City":"Erfurt","District":"Herrenberg/Wiesenhügel/Melchendorf","Street":"Konrad-Zuse-Straße","PostalCode":"99099","AdditionalData":[{"value":"Deutschland","key":"CountryName"},{"value":"Thüringen","key":"StateName"},{"value":"Erfurt","key":"CountyName"}]},"MapReference":{"ReferenceId":"1037586043","Spot":0.06,"SideOfStreet":"left","CountryId":"20147700","StateId":"20196974","CountyId":"20196975","CityId":"20196976"}}},{"Relevance":1.0,"Distance":45.9,"MatchLevel":"street","MatchQuality":{"Country":1.0,"State":1.0,"County":1.0,"City":1.0,"District":1.0,"Street":[1.0],"PostalCode":1.0},"Location":{"LocationId":"NT_W3lINIUZw0e4Klaj3MmIGA_l_868654539_L","LocationType":"point","DisplayPosition":{"Latitude":50.94832,"Longitude":11.0901},"MapView":{"TopLeft":{"Latitude":50.94841,"Longitude":11.0901},"BottomRight":{"Latitude":50.94832,"Longitude":11.09071}},"Address":{"Label":"Am Urbicher Kreuz, 99099 Erfurt, Deutschland","Country":"DEU","State":"Thüringen","County":"Erfurt","City":"Erfurt","District":"Herrenberg/Wiesenhügel/Melchendorf","Street":"Am Urbicher Kreuz","PostalCode":"99099","AdditionalData":[{"value":"Deutschland","key":"CountryName"},{"value":"Thüringen","key":"StateName"},{"value":"Erfurt","key":"CountyName"}]},"MapReference":{"ReferenceId":"868654539","Spot":0.0,"SideOfStreet":"left","CountryId":"20147700","StateId":"20196974","CountyId":"20196975","CityId":"20196976"}}},{"Relevance":1.0,"Distance":48.5,"MatchLevel":"street","MatchQuality":{"Country":1.0,"State":1.0,"County":1.0,"City":1.0,"District":1.0,"Street":[1.0],"PostalCode":1.0},"Location":{"LocationId":"NT_F3xW3GpsB-1I7GF-NGq8HA_l_1037586044_R","LocationType":"point","DisplayPosition":{"Latitude":50.949,"Longitude":11.08993},"MapView":{"TopLeft":{"Latitude":50.94973,"Longitude":11.08993},"BottomRight":{"Latitude":50.949,"Longitude":11.09064}},"Address":{"Label":"Konrad-Zuse-Straße, 99099 Erfurt, Deutschland","Country":"DEU","State":"Thüringen","County":"Erfurt","City":"Erfurt","District":"Herrenberg/Wiesenhügel/Melchendorf","Street":"Konrad-Zuse-Straße","PostalCode":"99099","AdditionalData":[{"value":"Deutschland","key":"CountryName"},{"value":"Thüringen","key":"StateName"},{"value":"Erfurt","key":"CountyName"}]},"MapReference":{"ReferenceId":"1037586044","Spot":0.0,"SideOfStreet":"right","CountryId":"20147700","StateId":"20196974","CountyId":"20196975","CityId":"20196976"}}},{"Relevance":1.0,"Distance":54.5,"MatchLevel":"landmark","MatchQuality":{"Country":1.0,"State":1.0,"County":1.0,"City":1.0,"District":1.0,"PostalCode":1.0,"Name":1.0},"Location":{"LocationId":"NT_e0XyyLjK6riQjfxcimAjzD","LocationType":"industrialComplex","Name":"Haarbergstraße","DisplayPosition":{"Latitude":50.9489,"Longitude":11.08612},"MapView":{"TopLeft":{"Latitude":50.9509,"Longitude":11.08202},"BottomRight":{"Latitude":50.94689,"Longitude":11.08911}},"Address":{"Label":"99084 Erfurt, Deutschland","Country":"DEU","State":"Thüringen","County":"Erfurt","City":"Erfurt","District":"Erfurt","PostalCode":"99084","AdditionalData":[{"value":"Deutschland","key":"CountryName"},{"value":"Thüringen","key":"StateName"},{"value":"Erfurt","key":"CountyName"}]},"MapReference":{"CountryId":"20147700","StateId":"20196974","CountyId":"20196975","CityId":"20196976","DistrictId":"20196978","PlaceId":"1410959281"}}},{"Relevance":1.0,"Distance":54.5,"MatchLevel":"street","MatchQuality":{"Country":1.0,"State":1.0,"County":1.0,"City":1.0,"District":1.0,"PostalCode":1.0},"Location":{"LocationId":"NT_ikyt8f.LWAcdEDp-vCGVoB_l_1037586046_R","LocationType":"point","DisplayPosition":{"Latitude":50.9482782,"Longitude":11.0890539},"MapView":{"TopLeft":{"Latitude":50.94915,"Longitude":11.0881},"BottomRight":{"Latitude":50.94818,"Longitude":11.08911}},"Address":{"Label":"99099 Erfurt, Deutschland","Country":"DEU","State":"Thüringen","County":"Erfurt","City":"Erfurt","District":"Herrenberg/Wiesenhügel/Melchendorf","PostalCode":"99099","AdditionalData":[{"value":"Deutschland","key":"CountryName"},{"value":"Thüringen","key":"StateName"},{"value":"Erfurt","key":"CountyName"}]},"MapReference":{"ReferenceId":"1037586046","Spot":0.07,"SideOfStreet":"right","CountryId":"20147700","StateId":"20196974","CountyId":"20196975","CityId":"20196976"}}},{"Relevance":1.0,"Distance":59.5,"MatchLevel":"houseNumber","MatchQuality":{"Country":1.0,"State":1.0,"County":1.0,"City":1.0,"District":1.0,"Street":[1.0],"HouseNumber":1.0,"PostalCode":1.0},"MatchType":"interpolated","Location":{"LocationId":"NT_jkx5nMfX1YScn19aeahiaD_5A","LocationType":"point","DisplayPosition":{"Latitude":50.94812,"Longitude":11.09001},"MapView":{"TopLeft":{"Latitude":50.9492442,"Longitude":11.0882257},"BottomRight":{"Latitude":50.9469958,"Longitude":11.0917943}},"Address":{"Label":"Stangenweg 9, 99099 Erfurt, Deutschland","Country":"DEU","State":"Thüringen","County":"Erfurt","City":"Erfurt","District":"Windischholzhausen","Street":"Stangenweg","HouseNumber":"9","PostalCode":"99099","AdditionalData":[{"value":"Deutschland","key":"CountryName"},{"value":"Thüringen","key":"StateName"},{"value":"Erfurt","key":"CountyName"}]},"MapReference":{"ReferenceId":"53672691","Spot":1.0,"SideOfStreet":"left","CountryId":"20147700","StateId":"20196974","CountyId":"20196975","CityId":"20196976","DistrictId":"20196990","AddressId":"168795644","RoadLinkId":"40050901"}}}]}]}}