{"Response":{"MetaInfo":{"Timestamp":"2020-03-28T10:21:06.733+0000","NextPageInformation":"2"},"View":[{"_type":"SearchResultsViewType","ViewId":0,"Result":[{"Relevance":1.0,"Distance":0.0,"Direction":0.0,"MatchLevel":"district","MatchQuality":{"Country":1.0,"State":1.0,"County":1.0,"City":1.0,"District":1.0,"PostalCode":1.0},"Location":{"LocationId":"NT_yjxWyXNSDrtYe32stiPWRD","LocationType":"point","DisplayPosition":{"Latitude":50.9202934,"Longitude":6.1197471},"MapView":{"TopLeft":{"Latitude":50.92729,"Longitude":6.10705},"BottomRight":{"Latitude":50.89989,"Longitude":6.1526}},"Address":{"Label":"Übach, Übach-Palenberg, Nordrhein-Westfalen, Deutschland","Country":"DEU","State":"Nordrhein-Westfalen","County":"Heinsberg","City":"Übach-Palenberg","District":"Übach","PostalCode":"52531","AdditionalData":[{"value":"Deutschland","key":"CountryName"},{"value":"Nordrhein-Westfalen","key":"StateName"},{"value":"Heinsberg","key":"CountyName"}]},"MapReference":{"ReferenceId":"817293531","SideOfStreet":"neither","CountryId":"20147700","StateId":"20157369","CountyId":"20158557","CityId":"20158634","DistrictId":"20158638"}}},{"Relevance":1.0,"Distance":18.8,"MatchLevel":"houseNumber","MatchQuality":{"Country":1.0,"State":1.0,"County":1.0,"City":1.0,"District":1.0,"Street":[1.0],"HouseNumber":1.0,"PostalCode":1.0},"MatchType":"interpolated","Location":{"LocationId":"NT_feTVjV6UF.3SJriozlfe5B_5A","LocationType":"point","DisplayPosition":{"Latitude":50.91985,"Longitude":6.11995},"MapView":{"TopLeft":{"Latitude":50.9209742,"Longitude":6.1181668},"BottomRight":{"Latitude":50.9187258,"Longitude":6.1217332}},"Address":{"Label":"Em Koddes 9, 52531 Übach-Palenberg, Deutschland","Country":"DEU","State":"Nordrhein-Westfalen","County":"Heinsberg","City":"Übach-Palenberg","District":"Übach","Street":"Em Koddes","HouseNumber":"9","PostalCode":"52531","AdditionalData":[{"value":"Deutschland","key":"CountryName"},{"value":"Nordrhein-Westfalen","key":"StateName"},{"value":"Heinsberg","key":"CountyName"}]},"MapReference":{"ReferenceId":"817293532","Spot":0.73,"SideOfStreet":"left","CountryId":"20147700","StateId":"20157369","CountyId":"20158557","CityId":"20158634","DistrictId":"20158638","AddressId":"249387772","RoadLinkId":"204609463"}}},{"Relevance":1.0,"Distance":20.1,"MatchLevel":"street","MatchQuality":{"Country":1.0,"State":1.0,"County":1.0,"City":1.0,"District":1.0,"PostalCode":1.0},"Location":{"LocationId":"NT_b-KJv3P3Ol7Fjzt6yaLQkA_l_537832633_L","LocationType":"point","DisplayPosition":{"Latitude":50.92044,"Longitude":6.11958},"MapView":{"TopLeft":{"Latitude":50.92061,"Longitude":6.11875},"BottomRight":{"Latitude":50.92044,"Longitude":6.11958}},"Address":{"Label":"52531 Übach-Palenberg, Deutschland","Country":"DEU","State":"Nordrhein-Westfalen","County":"Heinsberg","City":"Übach-Palenberg","District":"Übach","PostalCode":"52531","AdditionalData":[{"value":"Deutschland","key":"CountryName"},{"value":"Nordrhein-Westfalen","key":"StateName"},{"value":"Heinsberg","key":"CountyName"}]},"MapReference":{"ReferenceId":"537832633","Spot":0.0,"SideOfStreet":"left","CountryId":"20147700","StateId":"20157369","CountyId":"20158557","CityId":"20158634","DistrictId":"20158638"}}},{"Relevance":1.0,"Distance":37.6,"MatchLevel":"street","MatchQuality":{"Country":1.0,"State":1.0,"County":1.0,"City":1.0,"District":1.0,"Street":[1.0],"PostalCode":1.0},"Location":{"LocationId":"NT_jA9vj9v9UCqugrwBjlSRpC_l_536977627_R","LocationType":"point","DisplayPosition":{"Latitude":50.9206302,"Longitude":6.119801},"MapView":{"TopLeft":{"Latitude":50.9208,"Longitude":6.11904},"BottomRight":{"Latitude":50.92058,"Longitude":6.12221}},"Address":{"Label":"Friedrich-Ebert-Straße, 52531 Übach-Palenberg, Deutschland","Country":"DEU","State":"Nordrhein-Westfalen","County":"Heinsberg","City":"Übach-Palenberg","District":"Übach","Street":"Friedrich-Ebert-Straße","PostalCode":"52531","AdditionalData":[{"value":"Deutschland","key":"CountryName"},{"value":"Nordrhein-Westfalen","key":"StateName"},{"value":"Heinsberg","key":"CountyName"}]},"MapReference":{"ReferenceId":"536977627","Spot":0.24,"SideOfStreet":"right","CountryId":"20147700","StateId":"20157369","CountyId":"20158557","CityId":"20158634","DistrictId":"20158638"}}},{"Relevance":1.0,"Distance":57.0,"MatchLevel":"houseNumber","MatchQuality":{"Country":1.0,"State":1.0,"County":1.0,"City":1.0,"District":1.0,"Street":[1.0],"HouseNumber":1.0,"PostalCode":1.0},"MatchType":"interpolated","Location":{"LocationId":"NT_1ggk5y1muvWvffHVWSGvqC_zA","LocationType":"point","DisplayPosition":{"Latitude":50.91989,"Longitude":6.1204},"MapView":{"TopLeft":{"Latitude":50.9210142,"Longitude":6.1186168},"BottomRight":{"Latitude":50.9187658,"Longitude":6.1221832}},"Address":{"Label":"Talstraße 3, 52531 Übach-Palenberg, Deutschland","Country":"DEU","State":"Nordrhein-Westfalen","County":"Heinsberg","City":"Übach-Palenberg","District":"Übach","Street":"Talstraße","HouseNumber":"3","PostalCode":"52531","AdditionalData":[{"value":"Deutschland","key":"CountryName"},{"value":"Nordrhein-Westfalen","key":"StateName"},{"value":"Heinsberg","key":"CountyName"}]},"MapReference":{"ReferenceId":"1205995852","Spot":0.57,"SideOfStreet":"left","CountryId":"20147700","StateId":"20157369","CountyId":"20158557","CityId":"20158634","DistrictId":"20158638","AddressId":"194842166","RoadLinkId":"519812129"}}},{"Relevance":1.0,"Distance":57.3,"MatchLevel":"houseNumber","MatchQuality":{"Country":1.0,"State":1.0,"County":1.0,"City":1.0,"District":1.0,"Street":[1.0],"HouseNumber":1.0,"PostalCode":1.0},"MatchType":"interpolated","Location":{"LocationId":"NT_RnDnWjyhJ0xjZxGGAllSnC_yID","LocationType":"point","DisplayPosition":{"Latitude":50.91979,"Longitude":6.11922},"MapView":{"TopLeft":{"Latitude":50.9209142,"Longitude":6.1174368},"BottomRight":{"Latitude":50.9186658,"Longitude":6.1210032}},"Address":{"Label":"Rathausplatz 22, 52531 Übach-Palenberg, Deutschland","Country":"DEU","State":"Nordrhein-Westfalen","County":"Heinsberg","City":"Übach-Palenberg","District":"Übach","Street":"Rathausplatz","HouseNumber":"22","PostalCode":"52531","AdditionalData":[{"value":"Deutschland","key":"CountryName"},{"value":"Nordrhein-Westfalen","key":"StateName"},{"value":"Heinsberg","key":"CountyName"}]},"MapReference":{"ReferenceId":"817293531","Spot":0.82,"SideOfStreet":"left","CountryId":"20147700","StateId":"20157369","CountyId":"20158557","CityId":"20158634","DistrictId":"20158638","AddressId":"249452879","RoadLinkId":"204609464"}}},{"Relevance":1.0,"Distance":67.0,"MatchLevel":"houseNumber","MatchQuality":{"Country":1.0,"State":1.0,"County":1.0,"City":1.0,"District":1.0,"Street":[1.0],"HouseNumber":1.0,"PostalCode":1.0},"MatchType":"interpolated","Location":{"LocationId":"NT_.Uty9AQVZe0Gc99Mj0IWDD_0A","LocationType":"point","DisplayPosition":{"Latitude":50.91975,"Longitude":6.12024},"MapView":{"TopLeft":{"Latitude":50.9208742,"Longitude":6.1184568},"BottomRight":{"Latitude":50.9186258,"Longitude":6.1220232}},"Address":{"Label":"Kirchberg 4, 52531 Übach-Palenberg, Deutschland","Country":"DEU","State":"Nordrhein-Westfalen","County":"Heinsberg","City":"Übach-Palenberg","District":"Übach","Street":"Kirchberg","HouseNumber":"4","PostalCode":"52531","AdditionalData":[{"value":"Deutschland","key":"CountryName"},{"value":"Nordrhein-Westfalen","key":"StateName"},{"value":"Heinsberg","key":"CountyName"}]},"MapReference":{"ReferenceId":"537819800","Spot":0.81,"SideOfStreet":"left","CountryId":"20147700","StateId":"20157369","CountyId":"20158557","CityId":"20158634","DistrictId":"20158638","AddressId":"192879959","RoadLinkId":"39494347"}}},{"Relevance":1.0,"Distance":71.8,"MatchLevel":"houseNumber","MatchQuality":{"Country":1.0,"State":1.0,"County":1.0,"City":1.0,"District":1.0,"Street":[1.0],"HouseNumber":1.0,"PostalCode":1.0},"MatchType":"interpolated","Location":{"LocationId":"NT_1ggk5y1muvWvffHVWSGvqC_3A","LocationType":"point","DisplayPosition":{"Latitude":50.9199,"Longitude":6.12067},"MapView":{"TopLeft":{"Latitude":50.9210242,"Longitude":6.1188868},"BottomRight":{"Latitude":50.9187758,"Longitude":6.1224532}},"Address":{"Label":"Talstraße 7, 52531 Übach-Palenberg, Deutschland","Country":"DEU","State":"Nordrhein-Westfalen","County":"Heinsberg","City":"Übach-Palenberg","District":"Übach","Street":"Talstraße","HouseNumber":"7","PostalCode":"52531","AdditionalData":[{"value":"Deutschland","key":"CountryName"},{"value":"Nordrhein-Westfalen","key":"StateName"},{"value":"Heinsberg","key":"CountyName"}]},"MapReference":{"ReferenceId":"1205995853","Spot":0.06,"SideOfStreet":"left","CountryId":"20147700","StateId":"20157369","CountyId":"20158557","CityId":"20158634","DistrictId":"20158638","AddressId":"196027011","RoadLinkId":"519812130"}}},{"Relevance":1.0,"Distance":72.6,"MatchLevel":"street","MatchQuality":{"Country":1.0,"State":1.0,"County":1.0,"City":1.0,"District":1.0,"PostalCode":1.0},"Location":{"LocationId":"NT_b-KJv3P3Ol7Fjzt6yaLQkA_l_877861149_R","LocationType":"point","DisplayPosition":{"Latitude":50.92077,"Longitude":6.11904},"MapView":{"TopLeft":{"Latitude":50.92077,"Longitude":6.11881},"BottomRight":{"Latitude":50.9207,"Longitude":6.11904}},"Address":{"Label":"52531 Übach-Palenberg, Deutschland","Country":"DEU","State":"Nordrhein-Westfalen","County":"Heinsberg","City":"Übach-Palenberg","District":"Übach","PostalCode":"52531","AdditionalData":[{"value":"Deutschland","key":"CountryName"},{"value":"Nordrhein-Westfalen","key":"StateName"},{"value":"Heinsberg","key":"CountyName"}]},"MapReference":{"ReferenceId":"877861149","Spot":1.0,"SideOfStreet":"right","CountryId":"20147700","StateId":"20157369","CountyId":"20158557","CityId":"20158634","DistrictId":"20158638"}}},{"Relevance":1.0,"Distance":72.6,"MatchLevel":"street","MatchQuality":{"Country":1.0,"State":1.0,"County":1.0,"City":1.0,"District":1.0,"PostalCode":1.0},"Location":{"LocationId":"NT_b-KJv3P3Ol7Fjzt6yaLQkA_l_877861147_R","LocationType":"point","DisplayPosition":{"Latitude":50.92077,"Longitude":6.11904},"MapView":{"TopLeft":{"Latitude":50.92089,"Longitude":6.11896},"BottomRight":{"Latitude":50.92077,"Longitude":6.11904}},"Address":{"Label":"52531 Übach-Palenberg, Deutschland","Country":"DEU","State":"Nordrhein-Westfalen","County":"Heinsberg","City":"Übach-Palenberg","District":"Übach","PostalCode":"52531","AdditionalData":[{"value":"Deutschland","key":"CountryName"},{"value":"Nordrhein-Westfalen","key":"StateName"},{"value":"Heinsberg","key":"CountyName"}]},"MapReference":{"ReferenceId":"877861147","Spot":0.0,"SideOfStreet":"right","CountryId":"20147700","StateId":"20157369","CountyId":"20158557","CityId":"20158634","DistrictId":"20158638"}}}]}]}}