{"Response":{"MetaInfo":{"Timestamp":"2020-03-28T11:59:57.793+0000","NextPageInformation":"2"},"View":[{"_type":"SearchResultsViewType","ViewId":0,"Result":[{"Relevance":1.0,"Distance":0.0,"Direction":0.0,"MatchLevel":"district","MatchQuality":{"Country":1.0,"State":1.0,"County":1.0,"City":1.0,"District":1.0,"PostalCode":1.0},"Location":{"LocationId":"NT_5FilAzJ18j1ESRGZ5JDbED","LocationType":"point","DisplayPosition":{"Latitude":50.9145207,"Longitude":-1.423597},"MapView":{"TopLeft":{"Latitude":50.96054,"Longitude":-1.47446},"BottomRight":{"Latitude":50.88303,"Longitude":-1.3195}},"Address":{"Label":"Southampton, England, United Kingdom","Country":"GBR","State":"England","County":"Hampshire","City":"Southampton","District":"Southampton","PostalCode":"SO15 2","AdditionalData":[{"value":"United Kingdom","key":"CountryName"},{"value":"England","key":"StateName"},{"value":"Hampshire","key":"CountyName"}]},"MapReference":{"ReferenceId":"1020270683","SideOfStreet":"neither","StateId":"20248595","CountyId":"20335863","CityId":"20336269","DistrictId":"20336270"}}},{"Relevance":1.0,"Distance":2.6,"MatchLevel":"houseNumber","MatchQuality":{"Country":1.0,"State":1.0,"County":1.0,"City":1.0,"District":1.0,"Street":[1.0],"HouseNumber":1.0,"PostalCode":1.0},"MatchType":"interpolated","Location":{"LocationId":"NT_yeg1qd531sky1Svlb-JkGD_yAjN","LocationType":"point","DisplayPosition":{"Latitude":50.91459,"Longitude":-1.42349},"MapView":{"TopLeft":{"Latitude":50.9157142,"Longitude":-1.425273},"BottomRight":{"Latitude":50.9134658,"Longitude":-1.421707}},"Address":{"Label":"206 Shirley Road, Southampton, SO15 3FL, United Kingdom","Country":"GBR","State":"England","County":"Hampshire","City":"Southampton","District":"Southampton","Street":"Shirley Road","HouseNumber":"206","PostalCode":"SO15 3FL","AdditionalData":[{"value":"United Kingdom","key":"CountryName"},{"value":"England","key":"StateName"},{"value":"Hampshire","key":"CountyName"}]},"MapReference":{"ReferenceId":"864238011","Spot":0.56,"SideOfStreet":"left","StateId":"20248595","CountyId":"20335863","CityId":"20336269","DistrictId":"20336270","AddressId":"754919159","RoadLinkId":"237633786"}}},{"Relevance":1.0,"Distance":15.2,"MatchLevel":"postalCode","MatchQuality":{"PostalCode":1.0},"MatchType":"interpolated","Location":{"LocationId":"NT_yeg1qd531sky1Svlb-JkGD_yAjN","LocationType":"point","DisplayPosition":{"Latitude":50.91459,"Longitude":-1.42341},"MapView":{"TopLeft":{"Latitude":50.9235832,"Longitude":-1.4376741},"BottomRight":{"Latitude":50.9055968,"Longitude":-1.4091459}},"Address":{"Label":"SO15 3FJ, Southampton, England, United Kingdom","Country":"GBR","State":"England","County":"Hampshire","City":"Southampton","PostalCode":"SO15 3FJ","AdditionalData":[{"value":"United Kingdom","key":"CountryName"},{"value":"England","key":"StateName"},{"value":"Hampshire","key":"CountyName"}]},"MapReference":{"ReferenceId":"864238011","Spot":0.56,"SideOfStreet":"neither","StateId":"20248595","CountyId":"20335863","CityId":"20336269"}}},{"Relevance":1.0,"Distance":32.6,"MatchLevel":"houseNumber","MatchQuality":{"Country":1.0,"State":1.0,"County":1.0,"City":1.0,"District":1.0,"Street":[1.0],"HouseNumber":1.0,"PostalCode":1.0},"MatchType":"interpolated","Location":{"LocationId":"NT_yeg1qd531sky1Svlb-JkGD_yEjN","LocationType":"point","DisplayPosition":{"Latitude":50.9148,"Longitude":-1.42374},"MapView":{"TopLeft":{"Latitude":50.9159242,"Longitude":-1.425523},"BottomRight":{"Latitude":50.9136758,"Longitude":-1.421957}},"Address":{"Label":"216 Shirley Road, Southampton, SO15 3FL, United Kingdom","Country":"GBR","State":"England","County":"Hampshire","City":"Southampton","District":"Southampton","Street":"Shirley Road","HouseNumber":"216","PostalCode":"SO15 3FL","AdditionalData":[{"value":"United Kingdom","key":"CountryName"},{"value":"England","key":"StateName"},{"value":"Hampshire","key":"CountyName"}]},"MapReference":{"ReferenceId":"864238012","Spot":0.07,"SideOfStreet":"left","StateId":"20248595","CountyId":"20335863","CityId":"20336269","DistrictId":"20336270","AddressId":"754921234","RoadLinkId":"237633787"}}},{"Relevance":1.0,"Distance":33.8,"MatchLevel":"postalCode","MatchQuality":{"PostalCode":1.0},"MatchType":"interpolated","Location":{"LocationId":"NT_yeg1qd531sky1Svlb-JkGD_yEjN","LocationType":"point","DisplayPosition":{"Latitude":50.91482,"Longitude":-1.42368},"MapView":{"TopLeft":{"Latitude":50.9238132,"Longitude":-1.4379442},"BottomRight":{"Latitude":50.9058268,"Longitude":-1.4094158}},"Address":{"Label":"SO15 3SJ, Southampton, England, United Kingdom","Country":"GBR","State":"England","County":"Hampshire","City":"Southampton","PostalCode":"SO15 3SJ","AdditionalData":[{"value":"United Kingdom","key":"CountryName"},{"value":"England","key":"StateName"},{"value":"Hampshire","key":"CountyName"}]},"MapReference":{"ReferenceId":"864238012","Spot":0.07,"SideOfStreet":"neither","StateId":"20248595","CountyId":"20335863","CityId":"20336269"}}},{"Relevance":1.0,"Distance":45.1,"MatchLevel":"houseNumber","MatchQuality":{"Country":1.0,"State":1.0,"County":1.0,"City":1.0,"District":1.0,"Street":[1.0],"HouseNumber":1.0,"PostalCode":1.0},"MatchType":"interpolated","Location":{"LocationId":"NT_WSRAMS5kHBw.PSzQI4UNID_xA","LocationType":"point","DisplayPosition":{"Latitude":50.91406,"Longitude":-1.42363},"MapView":{"TopLeft":{"Latitude":50.9151842,"Longitude":-1.425413},"BottomRight":{"Latitude":50.9129358,"Longitude":-1.421847}},"Address":{"Label":"1 Paynes Road, Southampton, SO15 3DL, United Kingdom","Country":"GBR","State":"England","County":"Hampshire","City":"Southampton","District":"Southampton","Street":"Paynes Road","HouseNumber":"1","PostalCode":"SO15 3DL","AdditionalData":[{"value":"United Kingdom","key":"CountryName"},{"value":"England","key":"StateName"},{"value":"Hampshire","key":"CountyName"}]},"MapReference":{"ReferenceId":"25726840","Spot":0.68,"SideOfStreet":"left","StateId":"20248595","CountyId":"20335863","CityId":"20336269","DistrictId":"20336270","AddressId":"754917458","RoadLinkId":"82271899"}}},{"Relevance":1.0,"Distance":45.7,"MatchLevel":"houseNumber","MatchQuality":{"Country":1.0,"State":1.0,"County":1.0,"City":1.0,"District":1.0,"Street":[1.0],"HouseNumber":1.0,"PostalCode":1.0},"MatchType":"interpolated","Location":{"LocationId":"NT_yeg1qd531sky1Svlb-JkGD_xkDN","LocationType":"point","DisplayPosition":{"Latitude":50.91425,"Longitude":-1.42309},"MapView":{"TopLeft":{"Latitude":50.9153742,"Longitude":-1.424873},"BottomRight":{"Latitude":50.9131258,"Longitude":-1.421307}},"Address":{"Label":"194 Shirley Road, Southampton, SO15 3FN, United Kingdom","Country":"GBR","State":"England","County":"Hampshire","City":"Southampton","District":"Southampton","Street":"Shirley Road","HouseNumber":"194","PostalCode":"SO15 3FN","AdditionalData":[{"value":"United Kingdom","key":"CountryName"},{"value":"England","key":"StateName"},{"value":"Hampshire","key":"CountyName"}]},"MapReference":{"ReferenceId":"25726764","Spot":0.87,"SideOfStreet":"left","StateId":"20248595","CountyId":"20335863","CityId":"20336269","DistrictId":"20336270","AddressId":"754917446","RoadLinkId":"82660073"}}},{"Relevance":1.0,"Distance":49.5,"MatchLevel":"houseNumber","MatchQuality":{"Country":1.0,"State":1.0,"County":1.0,"City":1.0,"District":1.0,"Street":[1.0],"HouseNumber":1.0,"PostalCode":1.0},"MatchType":"interpolated","Location":{"LocationId":"NT_iVvJZF0JSeovNF35s4DoJA_l_1162455507_R_xID","LocationType":"point","DisplayPosition":{"Latitude":50.9148833,"Longitude":-1.42427},"MapView":{"TopLeft":{"Latitude":50.9160075,"Longitude":-1.426053},"BottomRight":{"Latitude":50.9137592,"Longitude":-1.422487}},"Address":{"Label":"12 Cawte Road, Southampton, SO15 3, United Kingdom","Country":"GBR","State":"England","County":"Hampshire","City":"Southampton","District":"Southampton","Street":"Cawte Road","HouseNumber":"12","PostalCode":"SO15 3","AdditionalData":[{"value":"United Kingdom","key":"CountryName"},{"value":"England","key":"StateName"},{"value":"Hampshire","key":"CountyName"}]},"MapReference":{"ReferenceId":"1162455507","Spot":0.58,"SideOfStreet":"right","StateId":"20248595","CountyId":"20335863","CityId":"20336269","DistrictId":"20336270"}}},{"Relevance":1.0,"Distance":51.0,"MatchLevel":"houseNumber","MatchQuality":{"Country":1.0,"State":1.0,"County":1.0,"City":1.0,"District":1.0,"Street":[1.0],"HouseNumber":1.0,"PostalCode":1.0},"MatchType":"interpolated","Location":{"LocationId":"NT_HrbFwVR17E2liGG2rIDTFC_5ID","LocationType":"point","DisplayPosition":{"Latitude":50.91452,"Longitude":-1.4228},"MapView":{"TopLeft":{"Latitude":50.9156442,"Longitude":-1.424583},"BottomRight":{"Latitude":50.9133958,"Longitude":-1.421017}},"Address":{"Label":"92 Howard Road, Southampton, SO15 5BH, United Kingdom","Country":"GBR","State":"England","County":"Hampshire","City":"Southampton","District":"Southampton","Street":"Howard Road","HouseNumber":"92","PostalCode":"SO15 5BH","AdditionalData":[{"value":"United Kingdom","key":"CountryName"},{"value":"England","key":"StateName"},{"value":"Hampshire","key":"CountyName"}]},"MapReference":{"ReferenceId":"25726550","Spot":0.29,"SideOfStreet":"left","StateId":"20248595","CountyId":"20335863","CityId":"20336269","DistrictId":"20336270","AddressId":"749733771","RoadLinkId":"172562406"}}},{"Relevance":1.0,"Distance":59.9,"MatchLevel":"postalCode","MatchQuality":{"PostalCode":1.0},"MatchType":"interpolated","Location":{"LocationId":"NT_HrbFwVR17E2liGG2rIDTFC_5ID","LocationType":"point","DisplayPosition":{"Latitude":50.91459,"Longitude":-1.42275},"MapView":{"TopLeft":{"Latitude":50.9235832,"Longitude":-1.4370141},"BottomRight":{"Latitude":50.9055968,"Longitude":-1.4084859}},"Address":{"Label":"SO15 5BH, Southampton, England, United Kingdom","Country":"GBR","State":"England","County":"Hampshire","City":"Southampton","PostalCode":"SO15 5BH","AdditionalData":[{"value":"United Kingdom","key":"CountryName"},{"value":"England","key":"StateName"},{"value":"Hampshire","key":"CountyName"}]},"MapReference":{"ReferenceId":"25726550","Spot":0.29,"SideOfStreet":"neither","StateId":"20248595","CountyId":"20335863","CityId":"20336269"}}}]}]}}