{"Response":{"MetaInfo":{"Timestamp":"2020-03-28T10:21:03.190+0000","NextPageInformation":"2"},"View":[{"_type":"SearchResultsViewType","ViewId":0,"Result":[{"Relevance":1.0,"Distance":0.0,"Direction":0.0,"MatchLevel":"district","MatchQuality":{"Country":1.0,"State":1.0,"County":1.0,"City":1.0,"District":1.0,"PostalCode":1.0},"Location":{"LocationId":"NT_tveUGW56oLXmqPLIf7ejeC","LocationType":"point","DisplayPosition":{"Latitude":50.9411475,"Longitude":6.1058248},"MapView":{"TopLeft":{"Latitude":50.95259,"Longitude":6.09518},"BottomRight":{"Latitude":50.93682,"Longitude":6.11794}},"Address":{"Label":"Frelenberg, Übach-Palenberg, Nordrhein-Westfalen, Deutschland","Country":"DEU","State":"Nordrhein-Westfalen","County":"Heinsberg","City":"Übach-Palenberg","District":"Frelenberg","PostalCode":"52531","AdditionalData":[{"value":"Deutschland","key":"CountryName"},{"value":"Nordrhein-Westfalen","key":"StateName"},{"value":"Heinsberg","key":"CountyName"}]},"MapReference":{"ReferenceId":"536939487","SideOfStreet":"neither","CountryId":"20147700","StateId":"20157369","CountyId":"20158557","CityId":"20158634","DistrictId":"20158637"}}},{"Relevance":1.0,"Distance":9.6,"MatchLevel":"houseNumber","MatchQuality":{"Country":1.0,"State":1.0,"County":1.0,"City":1.0,"District":1.0,"Street":[1.0],"HouseNumber":1.0,"PostalCode":1.0},"MatchType":"interpolated","Location":{"LocationId":"NT_QNqc8O.GqBCRrXAH...INB_xQD","LocationType":"point","DisplayPosition":{"Latitude":50.94109,"Longitude":6.10566},"MapView":{"TopLeft":{"Latitude":50.9422142,"Longitude":6.103876},"BottomRight":{"Latitude":50.9399658,"Longitude":6.107444}},"Address":{"Label":"Geilenkirchener Straße 14, 52531 Übach-Palenberg, Deutschland","Country":"DEU","State":"Nordrhein-Westfalen","County":"Heinsberg","City":"Übach-Palenberg","District":"Frelenberg","Street":"Geilenkirchener Straße","HouseNumber":"14","PostalCode":"52531","AdditionalData":[{"value":"Deutschland","key":"CountryName"},{"value":"Nordrhein-Westfalen","key":"StateName"},{"value":"Heinsberg","key":"CountyName"}]},"MapReference":{"ReferenceId":"536939501","Spot":0.46,"SideOfStreet":"right","CountryId":"20147700","StateId":"20157369","CountyId":"20158557","CityId":"20158634","DistrictId":"20158637","AddressId":"193651281","RoadLinkId":"39228871"}}},{"Relevance":1.0,"Distance":79.6,"MatchLevel":"street","MatchQuality":{"Country":1.0,"State":1.0,"County":1.0,"City":1.0,"District":1.0,"Street":[1.0],"PostalCode":1.0},"Location":{"LocationId":"NT_Pu5V2uR06kGoVWVPFVfamA_l_536939469_L","LocationType":"point","DisplayPosition":{"Latitude":50.9418546,"Longitude":6.1060016},"MapView":{"TopLeft":{"Latitude":50.94191,"Longitude":6.10578},"BottomRight":{"Latitude":50.94172,"Longitude":6.10647}},"Address":{"Label":"Gürzelweg, 52531 Übach-Palenberg, Deutschland","Country":"DEU","State":"Nordrhein-Westfalen","County":"Heinsberg","City":"Übach-Palenberg","District":"Frelenberg","Street":"Gürzelweg","PostalCode":"52531","AdditionalData":[{"value":"Deutschland","key":"CountryName"},{"value":"Nordrhein-Westfalen","key":"StateName"},{"value":"Heinsberg","key":"CountyName"}]},"MapReference":{"ReferenceId":"536939469","Spot":0.68,"SideOfStreet":"left","CountryId":"20147700","StateId":"20157369","CountyId":"20158557","CityId":"20158634","DistrictId":"20158637"}}},{"Relevance":1.0,"Distance":86.7,"MatchLevel":"houseNumber","MatchQuality":{"Country":1.0,"State":1.0,"County":1.0,"City":1.0,"District":1.0,"Street":[1.0],"HouseNumber":1.0,"PostalCode":1.0},"MatchType":"interpolated","Location":{"LocationId":"NT_Pu5V2uR06kGoVWVPFVfamA_xA","LocationType":"point","DisplayPosition":{"Latitude":50.94157,"Longitude":6.10707},"MapView":{"TopLeft":{"Latitude":50.9426942,"Longitude":6.105286},"BottomRight":{"Latitude":50.9404458,"Longitude":6.108854}},"Address":{"Label":"Gürzelweg 1, 52531 Übach-Palenberg, Deutschland","Country":"DEU","State":"Nordrhein-Westfalen","County":"Heinsberg","City":"Übach-Palenberg","District":"Frelenberg","Street":"Gürzelweg","HouseNumber":"1","PostalCode":"52531","AdditionalData":[{"value":"Deutschland","key":"CountryName"},{"value":"Nordrhein-Westfalen","key":"StateName"},{"value":"Heinsberg","key":"CountyName"}]},"MapReference":{"ReferenceId":"536939467","Spot":0.57,"SideOfStreet":"left","CountryId":"20147700","StateId":"20157369","CountyId":"20158557","CityId":"20158634","DistrictId":"20158637","AddressId":"193722958","RoadLinkId":"39020734"}}},{"Relevance":1.0,"Distance":87.3,"MatchLevel":"street","MatchQuality":{"Country":1.0,"State":1.0,"County":1.0,"City":1.0,"Street":[1.0],"PostalCode":1.0},"Location":{"LocationId":"NT_jGRR2YHXBAW9edk89NOzYD_l_1197787136_R","LocationType":"point","DisplayPosition":{"Latitude":50.94038,"Longitude":6.10556},"MapView":{"TopLeft":{"Latitude":50.94038,"Longitude":6.10461},"BottomRight":{"Latitude":50.93803,"Longitude":6.10556}},"Address":{"Label":"Geilenkirchener Straße, 52531 Übach-Palenberg, Deutschland","Country":"DEU","State":"Nordrhein-Westfalen","County":"Heinsberg","City":"Übach-Palenberg","Street":"Geilenkirchener Straße","PostalCode":"52531","AdditionalData":[{"value":"Deutschland","key":"CountryName"},{"value":"Nordrhein-Westfalen","key":"StateName"},{"value":"Heinsberg","key":"CountyName"}]},"MapReference":{"ReferenceId":"1197787136","Spot":1.0,"SideOfStreet":"right","CountryId":"20147700","StateId":"20157369","CountyId":"20158557","CityId":"20158634"}}},{"Relevance":1.0,"Distance":90.4,"MatchLevel":"houseNumber","MatchQuality":{"Country":1.0,"State":1.0,"County":1.0,"City":1.0,"District":1.0,"Street":[1.0],"HouseNumber":1.0,"PostalCode":1.0},"MatchType":"interpolated","Location":{"LocationId":"NT_QNqc8O.GqBCRrXAH...INB_yMD","LocationType":"point","DisplayPosition":{"Latitude":50.94196,"Longitude":6.10578},"MapView":{"TopLeft":{"Latitude":50.9430842,"Longitude":6.1039959},"BottomRight":{"Latitude":50.9408358,"Longitude":6.1075641}},"Address":{"Label":"Geilenkirchener Straße 23, 52531 Übach-Palenberg, Deutschland","Country":"DEU","State":"Nordrhein-Westfalen","County":"Heinsberg","City":"Übach-Palenberg","District":"Frelenberg","Street":"Geilenkirchener Straße","HouseNumber":"23","PostalCode":"52531","AdditionalData":[{"value":"Deutschland","key":"CountryName"},{"value":"Nordrhein-Westfalen","key":"StateName"},{"value":"Heinsberg","key":"CountyName"}]},"MapReference":{"ReferenceId":"536939502","Spot":0.06,"SideOfStreet":"left","CountryId":"20147700","StateId":"20157369","CountyId":"20158557","CityId":"20158634","DistrictId":"20158637","AddressId":"195087394","RoadLinkId":"39437901"}}},{"Relevance":1.0,"Distance":99.2,"MatchLevel":"houseNumber","MatchQuality":{"Country":1.0,"State":1.0,"County":1.0,"City":1.0,"District":1.0,"Street":[1.0],"HouseNumber":1.0,"PostalCode":1.0},"MatchType":"interpolated","Location":{"LocationId":"NT_VctF82sK.4p8tntoA2a0kD_xQjQ","LocationType":"point","DisplayPosition":{"Latitude":50.94026,"Longitude":6.10597},"MapView":{"TopLeft":{"Latitude":50.9413842,"Longitude":6.104186},"BottomRight":{"Latitude":50.9391358,"Longitude":6.107754}},"Address":{"Label":"Wolfstraße 14B, 52531 Übach-Palenberg, Deutschland","Country":"DEU","State":"Nordrhein-Westfalen","County":"Heinsberg","City":"Übach-Palenberg","District":"Frelenberg","Street":"Wolfstraße","HouseNumber":"14B","PostalCode":"52531","AdditionalData":[{"value":"Deutschland","key":"CountryName"},{"value":"Nordrhein-Westfalen","key":"StateName"},{"value":"Heinsberg","key":"CountyName"}]},"MapReference":{"ReferenceId":"536939465","Spot":0.0,"SideOfStreet":"left","CountryId":"20147700","StateId":"20157369","CountyId":"20158557","CityId":"20158634","DistrictId":"20158637","AddressId":"622145080","RoadLinkId":"39453907"}}},{"Relevance":1.0,"Distance":123.7,"MatchLevel":"houseNumber","MatchQuality":{"Country":1.0,"State":1.0,"County":1.0,"City":1.0,"District":1.0,"Street":[1.0],"HouseNumber":1.0,"PostalCode":1.0},"MatchType":"interpolated","Location":{"LocationId":"NT_q1nKnExb-5Aj1uUgooD9YD_yAD","LocationType":"point","DisplayPosition":{"Latitude":50.94059,"Longitude":6.1075},"MapView":{"TopLeft":{"Latitude":50.9417142,"Longitude":6.105716},"BottomRight":{"Latitude":50.9394658,"Longitude":6.109284}},"Address":{"Label":"Schildstraße 20, 52531 Übach-Palenberg, Deutschland","Country":"DEU","State":"Nordrhein-Westfalen","County":"Heinsberg","City":"Übach-Palenberg","District":"Frelenberg","Street":"Schildstraße","HouseNumber":"20","PostalCode":"52531","AdditionalData":[{"value":"Deutschland","key":"CountryName"},{"value":"Nordrhein-Westfalen","key":"StateName"},{"value":"Heinsberg","key":"CountyName"}]},"MapReference":{"ReferenceId":"536939464","Spot":0.48,"SideOfStreet":"left","CountryId":"20147700","StateId":"20157369","CountyId":"20158557","CityId":"20158634","DistrictId":"20158637","AddressId":"193777001","RoadLinkId":"39405007"}}},{"Relevance":1.0,"Distance":175.4,"MatchLevel":"houseNumber","MatchQuality":{"Country":1.0,"State":1.0,"County":1.0,"City":1.0,"District":1.0,"Street":[1.0],"HouseNumber":1.0,"PostalCode":1.0},"MatchType":"interpolated","Location":{"LocationId":"NT_.xilip8eYkbHm5aMv9h9UD_2A","LocationType":"point","DisplayPosition":{"Latitude":50.94254,"Longitude":6.107},"MapView":{"TopLeft":{"Latitude":50.9436642,"Longitude":6.1052159},"BottomRight":{"Latitude":50.9414158,"Longitude":6.1087841}},"Address":{"Label":"Annabergstraße 6, 52531 Übach-Palenberg, Deutschland","Country":"DEU","State":"Nordrhein-Westfalen","County":"Heinsberg","City":"Übach-Palenberg","District":"Frelenberg","Street":"Annabergstraße","HouseNumber":"6","PostalCode":"52531","AdditionalData":[{"value":"Deutschland","key":"CountryName"},{"value":"Nordrhein-Westfalen","key":"StateName"},{"value":"Heinsberg","key":"CountyName"}]},"MapReference":{"ReferenceId":"537819477","Spot":0.06,"SideOfStreet":"right","CountryId":"20147700","StateId":"20157369","CountyId":"20158557","CityId":"20158634","DistrictId":"20158637","AddressId":"622149110","RoadLinkId":"39201115"}}},{"Relevance":1.0,"Distance":177.5,"MatchLevel":"street","MatchQuality":{"Country":1.0,"State":1.0,"County":1.0,"City":1.0,"District":1.0,"Street":[1.0],"PostalCode":1.0},"Location":{"LocationId":"NT_.xilip8eYkbHm5aMv9h9UD_l_537819476_L","LocationType":"point","DisplayPosition":{"Latitude":50.94253,"Longitude":6.10709},"MapView":{"TopLeft":{"Latitude":50.94253,"Longitude":6.10709},"BottomRight":{"Latitude":50.94232,"Longitude":6.10837}},"Address":{"Label":"Annabergstraße, 52531 Übach-Palenberg, Deutschland","Country":"DEU","State":"Nordrhein-Westfalen","County":"Heinsberg","City":"Übach-Palenberg","District":"Frelenberg","Street":"Annabergstraße","PostalCode":"52531","AdditionalData":[{"value":"Deutschland","key":"CountryName"},{"value":"Nordrhein-Westfalen","key":"StateName"},{"value":"Heinsberg","key":"CountyName"}]},"MapReference":{"ReferenceId":"537819476","Spot":1.0,"SideOfStreet":"left","CountryId":"20147700","StateId":"20157369","CountyId":"20158557","CityId":"20158634","DistrictId":"20158637"}}}]}]}}