{"Response":{"MetaInfo":{"Timestamp":"2020-03-28T10:59:11.528+0000","NextPageInformation":"2"},"View":[{"_type":"SearchResultsViewType","ViewId":0,"Result":[{"Relevance":1.0,"Distance":0.0,"Direction":0.0,"MatchLevel":"district","MatchQuality":{"Country":1.0,"State":1.0,"County":1.0,"City":1.0,"District":1.0,"PostalCode":1.0},"Location":{"LocationId":"NT_zNa8qqnLHVzWQS-u2YQKZA","LocationType":"point","DisplayPosition":{"Latitude":50.9252266,"Longitude":6.9561421},"MapView":{"TopLeft":{"Latitude":50.95933,"Longitude":6.92454},"BottomRight":{"Latitude":50.91351,"Longitude":6.97767}},"Address":{"Label":"Innenstadt, Köln, Nordrhein-Westfalen, Deutschland","Country":"DEU","State":"Nordrhein-Westfalen","County":"Köln","City":"Köln","District":"Innenstadt","PostalCode":"50667","AdditionalData":[{"value":"Deutschland","key":"CountryName"},{"value":"Nordrhein-Westfalen","key":"StateName"},{"value":"Köln","key":"CountyName"}]},"MapReference":{"ReferenceId":"833382980","SideOfStreet":"neither","CountryId":"20147700","StateId":"20157369","CountyId":"20158021","CityId":"20158022","DistrictId":"20158039"}}},{"Relevance":1.0,"Distance":8.2,"MatchLevel":"houseNumber","MatchQuality":{"Country":1.0,"State":1.0,"County":1.0,"City":1.0,"District":1.0,"Street":[1.0],"HouseNumber":1.0,"PostalCode":1.0},"MatchType":"interpolated","Location":{"LocationId":"NT_XaQzeN0xF9X1FI36mMK.RA_ycD","LocationType":"point","DisplayPosition":{"Latitude":50.9253,"Longitude":6.95615},"MapView":{"TopLeft":{"Latitude":50.9264242,"Longitude":6.9543666},"BottomRight":{"Latitude":50.9241758,"Longitude":6.9579334}},"Address":{"Label":"Jakobstraße 27, 50678 Köln, Deutschland","Country":"DEU","State":"Nordrhein-Westfalen","County":"Köln","City":"Köln","District":"Innenstadt","Street":"Jakobstraße","HouseNumber":"27","PostalCode":"50678","AdditionalData":[{"value":"Deutschland","key":"CountryName"},{"value":"Nordrhein-Westfalen","key":"StateName"},{"value":"Köln","key":"CountyName"}]},"MapReference":{"ReferenceId":"50882853","Spot":0.69,"SideOfStreet":"right","CountryId":"20147700","StateId":"20157369","CountyId":"20158021","CityId":"20158022","DistrictId":"20158039","AddressId":"167924807","RoadLinkId":"39442111"}}},{"Relevance":1.0,"Distance":28.7,"MatchLevel":"houseNumber","MatchQuality":{"Country":1.0,"State":1.0,"County":1.0,"City":1.0,"District":1.0,"Street":[1.0],"HouseNumber":1.0,"PostalCode":1.0},"MatchType":"interpolated","Location":{"LocationId":"NT_yeDGagxyitZAArOS9QMrSB_xA","LocationType":"point","DisplayPosition":{"Latitude":50.92553,"Longitude":6.95626},"MapView":{"TopLeft":{"Latitude":50.9266542,"Longitude":6.9544766},"BottomRight":{"Latitude":50.9244058,"Longitude":6.9580434}},"Address":{"Label":"Isabellenstraße 1, 50678 Köln, Deutschland","Country":"DEU","State":"Nordrhein-Westfalen","County":"Köln","City":"Köln","District":"Innenstadt","Street":"Isabellenstraße","HouseNumber":"1","PostalCode":"50678","AdditionalData":[{"value":"Deutschland","key":"CountryName"},{"value":"Nordrhein-Westfalen","key":"StateName"},{"value":"Köln","key":"CountyName"}]},"MapReference":{"ReferenceId":"50882851","Spot":0.08,"SideOfStreet":"left","CountryId":"20147700","StateId":"20157369","CountyId":"20158021","CityId":"20158022","DistrictId":"20158039","AddressId":"168983579","RoadLinkId":"39447377"}}},{"Relevance":1.0,"Distance":42.4,"MatchLevel":"houseNumber","MatchQuality":{"Country":1.0,"State":1.0,"County":1.0,"City":1.0,"District":1.0,"Street":[1.0],"HouseNumber":1.0,"PostalCode":1.0},"MatchType":"interpolated","Location":{"LocationId":"NT_XaQzeN0xF9X1FI36mMK.RA_zAD","LocationType":"point","DisplayPosition":{"Latitude":50.92549,"Longitude":6.95658},"MapView":{"TopLeft":{"Latitude":50.9266142,"Longitude":6.9547966},"BottomRight":{"Latitude":50.9243658,"Longitude":6.9583634}},"Address":{"Label":"Jakobstraße 30, 50678 Köln, Deutschland","Country":"DEU","State":"Nordrhein-Westfalen","County":"Köln","City":"Köln","District":"Innenstadt","Street":"Jakobstraße","HouseNumber":"30","PostalCode":"50678","AdditionalData":[{"value":"Deutschland","key":"CountryName"},{"value":"Nordrhein-Westfalen","key":"StateName"},{"value":"Köln","key":"CountyName"}]},"MapReference":{"ReferenceId":"50882854","Spot":0.16,"SideOfStreet":"left","CountryId":"20147700","StateId":"20157369","CountyId":"20158021","CityId":"20158022","DistrictId":"20158039","AddressId":"169373543","RoadLinkId":"39092157"}}},{"Relevance":1.0,"Distance":56.8,"MatchLevel":"houseNumber","MatchQuality":{"Country":1.0,"State":1.0,"County":1.0,"City":1.0,"District":1.0,"Street":[1.0],"HouseNumber":1.0,"PostalCode":1.0},"MatchType":"interpolated","Location":{"LocationId":"NT_fdM5iGTbwsa1wpXsGiJcGD_4A","LocationType":"point","DisplayPosition":{"Latitude":50.92507,"Longitude":6.95528},"MapView":{"TopLeft":{"Latitude":50.9261942,"Longitude":6.9534966},"BottomRight":{"Latitude":50.9239458,"Longitude":6.9570634}},"Address":{"Label":"Kartäusergasse 8, 50678 Köln, Deutschland","Country":"DEU","State":"Nordrhein-Westfalen","County":"Köln","City":"Köln","District":"Innenstadt","Street":"Kartäusergasse","HouseNumber":"8","PostalCode":"50678","AdditionalData":[{"value":"Deutschland","key":"CountryName"},{"value":"Nordrhein-Westfalen","key":"StateName"},{"value":"Köln","key":"CountyName"}]},"MapReference":{"ReferenceId":"1197120621","Spot":0.18,"SideOfStreet":"right","CountryId":"20147700","StateId":"20157369","CountyId":"20158021","CityId":"20158022","DistrictId":"20158039","AddressId":"170280896","RoadLinkId":"507801917"}}},{"Relevance":1.0,"Distance":77.0,"MatchLevel":"houseNumber","MatchQuality":{"Country":1.0,"State":1.0,"County":1.0,"City":1.0,"District":1.0,"Street":[1.0],"HouseNumber":1.0,"PostalCode":1.0},"MatchType":"interpolated","Location":{"LocationId":"NT_fdM5iGTbwsa1wpXsGiJcGD_0A","LocationType":"point","DisplayPosition":{"Latitude":50.92443,"Longitude":6.95625},"MapView":{"TopLeft":{"Latitude":50.9255542,"Longitude":6.9544666},"BottomRight":{"Latitude":50.9233058,"Longitude":6.9580334}},"Address":{"Label":"Kartäusergasse 4, 50678 Köln, Deutschland","Country":"DEU","State":"Nordrhein-Westfalen","County":"Köln","City":"Köln","District":"Innenstadt","Street":"Kartäusergasse","HouseNumber":"4","PostalCode":"50678","AdditionalData":[{"value":"Deutschland","key":"CountryName"},{"value":"Nordrhein-Westfalen","key":"StateName"},{"value":"Köln","key":"CountyName"}]},"MapReference":{"ReferenceId":"50882912","Spot":0.51,"SideOfStreet":"right","CountryId":"20147700","StateId":"20157369","CountyId":"20158021","CityId":"20158022","DistrictId":"20158039","AddressId":"622117300","RoadLinkId":"39269442"}}},{"Relevance":1.0,"Distance":90.3,"MatchLevel":"street","MatchQuality":{"Country":1.0,"State":1.0,"County":1.0,"City":1.0,"District":1.0,"Street":[1.0],"PostalCode":1.0},"Location":{"LocationId":"NT_XaQzeN0xF9X1FI36mMK.RA_l_51509862_L","LocationType":"point","DisplayPosition":{"Latitude":50.92557,"Longitude":6.95731},"MapView":{"TopLeft":{"Latitude":50.9258,"Longitude":6.95725},"BottomRight":{"Latitude":50.92557,"Longitude":6.95731}},"Address":{"Label":"Jakobstraße, 50678 Köln, Deutschland","Country":"DEU","State":"Nordrhein-Westfalen","County":"Köln","City":"Köln","District":"Innenstadt","Street":"Jakobstraße","PostalCode":"50678","AdditionalData":[{"value":"Deutschland","key":"CountryName"},{"value":"Nordrhein-Westfalen","key":"StateName"},{"value":"Köln","key":"CountyName"}]},"MapReference":{"ReferenceId":"51509862","Spot":0.0,"SideOfStreet":"left","CountryId":"20147700","StateId":"20157369","CountyId":"20158021","CityId":"20158022","DistrictId":"20158039"}}},{"Relevance":1.0,"Distance":100.4,"MatchLevel":"houseNumber","MatchQuality":{"Country":1.0,"State":1.0,"County":1.0,"City":1.0,"District":1.0,"Street":[1.0],"HouseNumber":1.0,"PostalCode":1.0},"MatchType":"interpolated","Location":{"LocationId":"NT_XaQzeN0xF9X1FI36mMK.RA_xAD","LocationType":"point","DisplayPosition":{"Latitude":50.92558,"Longitude":6.95746},"MapView":{"TopLeft":{"Latitude":50.9267042,"Longitude":6.9556766},"BottomRight":{"Latitude":50.9244558,"Longitude":6.9592434}},"Address":{"Label":"Jakobstraße 10, 50678 Köln, Deutschland","Country":"DEU","State":"Nordrhein-Westfalen","County":"Köln","City":"Köln","District":"Innenstadt","Street":"Jakobstraße","HouseNumber":"10","PostalCode":"50678","AdditionalData":[{"value":"Deutschland","key":"CountryName"},{"value":"Nordrhein-Westfalen","key":"StateName"},{"value":"Köln","key":"CountyName"}]},"MapReference":{"ReferenceId":"51509861","Spot":0.16,"SideOfStreet":"left","CountryId":"20147700","StateId":"20157369","CountyId":"20158021","CityId":"20158022","DistrictId":"20158039","AddressId":"168704133","RoadLinkId":"39168472"}}},{"Relevance":1.0,"Distance":100.5,"MatchLevel":"street","MatchQuality":{"Country":1.0,"State":1.0,"County":1.0,"City":1.0,"District":1.0,"PostalCode":1.0},"Location":{"LocationId":"NT_DTFrhrnGGVRH5LcsxrvYHA_l_833435941_L","LocationType":"point","DisplayPosition":{"Latitude":50.9258,"Longitude":6.95725},"MapView":{"TopLeft":{"Latitude":50.92638,"Longitude":6.9572},"BottomRight":{"Latitude":50.9258,"Longitude":6.95725}},"Address":{"Label":"50678 Köln, Deutschland","Country":"DEU","State":"Nordrhein-Westfalen","County":"Köln","City":"Köln","District":"Innenstadt","PostalCode":"50678","AdditionalData":[{"value":"Deutschland","key":"CountryName"},{"value":"Nordrhein-Westfalen","key":"StateName"},{"value":"Köln","key":"CountyName"}]},"MapReference":{"ReferenceId":"833435941","Spot":0.0,"SideOfStreet":"left","CountryId":"20147700","StateId":"20157369","CountyId":"20158021","CityId":"20158022","DistrictId":"20158039"}}},{"Relevance":1.0,"Distance":117.7,"MatchLevel":"houseNumber","MatchQuality":{"Country":1.0,"State":1.0,"County":1.0,"City":1.0,"District":1.0,"Street":[1.0],"HouseNumber":1.0,"PostalCode":1.0},"MatchType":"interpolated","Location":{"LocationId":"NT_MPIyil2kgTuqCeBkFy9XaC_5A","LocationType":"point","DisplayPosition":{"Latitude":50.92638,"Longitude":6.9572},"MapView":{"TopLeft":{"Latitude":50.9275042,"Longitude":6.9554165},"BottomRight":{"Latitude":50.9252558,"Longitude":6.9589835}},"Address":{"Label":"Josephstraße 9, 50678 Köln, Deutschland","Country":"DEU","State":"Nordrhein-Westfalen","County":"Köln","City":"Köln","District":"Innenstadt","Street":"Josephstraße","HouseNumber":"9","PostalCode":"50678","AdditionalData":[{"value":"Deutschland","key":"CountryName"},{"value":"Nordrhein-Westfalen","key":"StateName"},{"value":"Köln","key":"CountyName"}]},"MapReference":{"ReferenceId":"51509860","Spot":0.0,"SideOfStreet":"right","CountryId":"20147700","StateId":"20157369","CountyId":"20158021","CityId":"20158022","DistrictId":"20158039","AddressId":"732606789","RoadLinkId":"39450549"}}}]}]}}