{"Response":{"MetaInfo":{"Timestamp":"2020-03-28T10:03:46.719+0000","NextPageInformation":"2"},"View":[{"_type":"SearchResultsViewType","ViewId":0,"Result":[{"Relevance":1.0,"Distance":0.0,"Direction":0.0,"MatchLevel":"district","MatchQuality":{"Country":1.0,"State":1.0,"County":1.0,"City":1.0,"District":1.0,"PostalCode":1.0},"Location":{"LocationId":"NT_rmn9u0iqm6RiAG07KvzrOD","LocationType":"point","DisplayPosition":{"Latitude":51.0466998,"Longitude":9.6696696},"MapView":{"TopLeft":{"Latitude":51.05719,"Longitude":9.66042},"BottomRight":{"Latitude":51.03727,"Longitude":9.67719}},"Address":{"Label":"Heinebach, Alheim, Hessen, Deutschland","Country":"DEU","State":"Hessen","County":"Hersfeld-Rotenburg","City":"Alheim","District":"Heinebach","PostalCode":"36211","AdditionalData":[{"value":"Deutschland","key":"CountryName"},{"value":"Hessen","key":"StateName"},{"value":"Hersfeld-Rotenburg","key":"CountyName"}]},"MapReference":{"ReferenceId":"576392036","SideOfStreet":"neither","CountryId":"20147700","StateId":"20160993","CountyId":"20163143","CityId":"20163144","DistrictId":"20163149"}}},{"Relevance":1.0,"Distance":14.9,"MatchLevel":"houseNumber","MatchQuality":{"Country":1.0,"State":1.0,"County":1.0,"City":1.0,"District":1.0,"Street":[1.0],"HouseNumber":1.0,"PostalCode":1.0},"MatchType":"interpolated","Location":{"LocationId":"NT_mKrOTTSRTG8L-tEzQiHFaD_xAD","LocationType":"point","DisplayPosition":{"Latitude":51.04688,"Longitude":9.66992},"MapView":{"TopLeft":{"Latitude":51.0480042,"Longitude":9.6681319},"BottomRight":{"Latitude":51.0457558,"Longitude":9.6717081}},"Address":{"Label":"Friedhofstraße 10, 36211 Alheim, Deutschland","Country":"DEU","State":"Hessen","County":"Hersfeld-Rotenburg","City":"Alheim","District":"Heinebach","Street":"Friedhofstraße","HouseNumber":"10","PostalCode":"36211","AdditionalData":[{"value":"Deutschland","key":"CountryName"},{"value":"Hessen","key":"StateName"},{"value":"Hersfeld-Rotenburg","key":"CountyName"}]},"MapReference":{"ReferenceId":"576392107","Spot":0.18,"SideOfStreet":"left","CountryId":"20147700","StateId":"20160993","CountyId":"20163143","CityId":"20163144","DistrictId":"20163149","AddressId":"187216216","RoadLinkId":"34537779"}}},{"Relevance":1.0,"Distance":26.7,"MatchLevel":"houseNumber","MatchQuality":{"Country":1.0,"State":1.0,"County":1.0,"City":1.0,"District":1.0,"Street":[1.0],"HouseNumber":1.0,"PostalCode":1.0},"MatchType":"interpolated","Location":{"LocationId":"NT_0cEwoX-Kn6yn7ujtIthYSA_1A","LocationType":"point","DisplayPosition":{"Latitude":51.04643,"Longitude":9.66981},"MapView":{"TopLeft":{"Latitude":51.0475542,"Longitude":9.6680219},"BottomRight":{"Latitude":51.0453058,"Longitude":9.6715981}},"Address":{"Label":"Auf dem Flachsbeet 5, 36211 Alheim, Deutschland","Country":"DEU","State":"Hessen","County":"Hersfeld-Rotenburg","City":"Alheim","District":"Heinebach","Street":"Auf dem Flachsbeet","HouseNumber":"5","PostalCode":"36211","AdditionalData":[{"value":"Deutschland","key":"CountryName"},{"value":"Hessen","key":"StateName"},{"value":"Hersfeld-Rotenburg","key":"CountyName"}]},"MapReference":{"ReferenceId":"576392105","Spot":0.57,"SideOfStreet":"left","CountryId":"20147700","StateId":"20160993","CountyId":"20163143","CityId":"20163144","DistrictId":"20163149","AddressId":"187614159","RoadLinkId":"34583352"}}},{"Relevance":1.0,"Distance":44.8,"MatchLevel":"houseNumber","MatchQuality":{"Country":1.0,"State":1.0,"County":1.0,"City":1.0,"District":1.0,"Street":[1.0],"HouseNumber":1.0,"PostalCode":1.0},"MatchType":"interpolated","Location":{"LocationId":"NT_HNaKFP3nra25sy7VyGDO8D_xAD","LocationType":"point","DisplayPosition":{"Latitude":51.04704,"Longitude":9.66903},"MapView":{"TopLeft":{"Latitude":51.0481642,"Longitude":9.6672419},"BottomRight":{"Latitude":51.0459158,"Longitude":9.6708181}},"Address":{"Label":"Flachsweg 10, 36211 Alheim, Deutschland","Country":"DEU","State":"Hessen","County":"Hersfeld-Rotenburg","City":"Alheim","District":"Heinebach","Street":"Flachsweg","HouseNumber":"10","PostalCode":"36211","AdditionalData":[{"value":"Deutschland","key":"CountryName"},{"value":"Hessen","key":"StateName"},{"value":"Hersfeld-Rotenburg","key":"CountyName"}]},"MapReference":{"ReferenceId":"62087664","Spot":0.18,"SideOfStreet":"right","CountryId":"20147700","StateId":"20160993","CountyId":"20163143","CityId":"20163144","DistrictId":"20163149","AddressId":"187302243","RoadLinkId":"34173532"}}},{"Relevance":1.0,"Distance":46.1,"MatchLevel":"houseNumber","MatchQuality":{"Country":1.0,"State":1.0,"County":1.0,"City":1.0,"District":1.0,"Street":[1.0],"HouseNumber":1.0,"PostalCode":1.0},"MatchType":"interpolated","Location":{"LocationId":"NT_mKrOTTSRTG8L-tEzQiHFaD_xID","LocationType":"point","DisplayPosition":{"Latitude":51.04648,"Longitude":9.6703},"MapView":{"TopLeft":{"Latitude":51.0476042,"Longitude":9.6685119},"BottomRight":{"Latitude":51.0453558,"Longitude":9.6720881}},"Address":{"Label":"Friedhofstraße 12, 36211 Alheim, Deutschland","Country":"DEU","State":"Hessen","County":"Hersfeld-Rotenburg","City":"Alheim","District":"Heinebach","Street":"Friedhofstraße","HouseNumber":"12","PostalCode":"36211","AdditionalData":[{"value":"Deutschland","key":"CountryName"},{"value":"Hessen","key":"StateName"},{"value":"Hersfeld-Rotenburg","key":"CountyName"}]},"MapReference":{"ReferenceId":"576392106","Spot":0.78,"SideOfStreet":"left","CountryId":"20147700","StateId":"20160993","CountyId":"20163143","CityId":"20163144","DistrictId":"20163149","AddressId":"187093306","RoadLinkId":"34748089"}}},{"Relevance":1.0,"Distance":54.9,"MatchLevel":"houseNumber","MatchQuality":{"Country":1.0,"State":1.0,"County":1.0,"City":1.0,"District":1.0,"Street":[1.0],"HouseNumber":1.0,"PostalCode":1.0},"MatchType":"interpolated","Location":{"LocationId":"NT_HNaKFP3nra25sy7VyGDO8D_4A","LocationType":"point","DisplayPosition":{"Latitude":51.04669,"Longitude":9.66874},"MapView":{"TopLeft":{"Latitude":51.0478142,"Longitude":9.6669519},"BottomRight":{"Latitude":51.0455658,"Longitude":9.6705281}},"Address":{"Label":"Flachsweg 8, 36211 Alheim, Deutschland","Country":"DEU","State":"Hessen","County":"Hersfeld-Rotenburg","City":"Alheim","District":"Heinebach","Street":"Flachsweg","HouseNumber":"8","PostalCode":"36211","AdditionalData":[{"value":"Deutschland","key":"CountryName"},{"value":"Hessen","key":"StateName"},{"value":"Hersfeld-Rotenburg","key":"CountyName"}]},"MapReference":{"ReferenceId":"62087734","Spot":0.82,"SideOfStreet":"right","CountryId":"20147700","StateId":"20160993","CountyId":"20163143","CityId":"20163144","DistrictId":"20163149","AddressId":"187341198","RoadLinkId":"34618665"}}},{"Relevance":1.0,"Distance":68.0,"MatchLevel":"houseNumber","MatchQuality":{"Country":1.0,"State":1.0,"County":1.0,"City":1.0,"District":1.0,"Street":[1.0],"HouseNumber":1.0,"PostalCode":1.0},"MatchType":"interpolated","Location":{"LocationId":"NT_40VBteORLU3p7lHQ1Alb3B_xA","LocationType":"point","DisplayPosition":{"Latitude":51.04599,"Longitude":9.66966},"MapView":{"TopLeft":{"Latitude":51.0471142,"Longitude":9.6678719},"BottomRight":{"Latitude":51.0448658,"Longitude":9.6714481}},"Address":{"Label":"Hanfgasse 1, 36211 Alheim, Deutschland","Country":"DEU","State":"Hessen","County":"Hersfeld-Rotenburg","City":"Alheim","District":"Heinebach","Street":"Hanfgasse","HouseNumber":"1","PostalCode":"36211","AdditionalData":[{"value":"Deutschland","key":"CountryName"},{"value":"Hessen","key":"StateName"},{"value":"Hersfeld-Rotenburg","key":"CountyName"}]},"MapReference":{"ReferenceId":"576392104","Spot":0.96,"SideOfStreet":"right","CountryId":"20147700","StateId":"20160993","CountyId":"20163143","CityId":"20163144","DistrictId":"20163149","AddressId":"186734820","RoadLinkId":"34604057"}}},{"Relevance":1.0,"Distance":84.4,"MatchLevel":"houseNumber","MatchQuality":{"Country":1.0,"State":1.0,"County":1.0,"City":1.0,"District":1.0,"Street":[1.0],"HouseNumber":1.0,"PostalCode":1.0},"MatchType":"interpolated","Location":{"LocationId":"NT_0cEwoX-Kn6yn7ujtIthYSA_xA","LocationType":"point","DisplayPosition":{"Latitude":51.0459,"Longitude":9.66957},"MapView":{"TopLeft":{"Latitude":51.0470242,"Longitude":9.6677819},"BottomRight":{"Latitude":51.0447758,"Longitude":9.6713581}},"Address":{"Label":"Auf dem Flachsbeet 1, 36211 Alheim, Deutschland","Country":"DEU","State":"Hessen","County":"Hersfeld-Rotenburg","City":"Alheim","District":"Heinebach","Street":"Auf dem Flachsbeet","HouseNumber":"1","PostalCode":"36211","AdditionalData":[{"value":"Deutschland","key":"CountryName"},{"value":"Hessen","key":"StateName"},{"value":"Hersfeld-Rotenburg","key":"CountyName"}]},"MapReference":{"ReferenceId":"576392103","Spot":0.78,"SideOfStreet":"left","CountryId":"20147700","StateId":"20160993","CountyId":"20163143","CityId":"20163144","DistrictId":"20163149","AddressId":"732678157","RoadLinkId":"34382053"}}},{"Relevance":1.0,"Distance":117.2,"MatchLevel":"houseNumber","MatchQuality":{"Country":1.0,"State":1.0,"County":1.0,"City":1.0,"District":1.0,"Street":[1.0],"HouseNumber":1.0,"PostalCode":1.0},"MatchType":"interpolated","Location":{"LocationId":"NT_4Jocshf6F8RDBn79N0jvRC_1A","LocationType":"point","DisplayPosition":{"Latitude":51.04744,"Longitude":9.66845},"MapView":{"TopLeft":{"Latitude":51.0485642,"Longitude":9.6666619},"BottomRight":{"Latitude":51.0463158,"Longitude":9.6702381}},"Address":{"Label":"Hopfgarten 5, 36211 Alheim, Deutschland","Country":"DEU","State":"Hessen","County":"Hersfeld-Rotenburg","City":"Alheim","District":"Heinebach","Street":"Hopfgarten","HouseNumber":"5","PostalCode":"36211","AdditionalData":[{"value":"Deutschland","key":"CountryName"},{"value":"Hessen","key":"StateName"},{"value":"Hersfeld-Rotenburg","key":"CountyName"}]},"MapReference":{"ReferenceId":"576392039","Spot":0.41,"SideOfStreet":"right","CountryId":"20147700","StateId":"20160993","CountyId":"20163143","CityId":"20163144","DistrictId":"20163149","AddressId":"187396994","RoadLinkId":"34664807"}}},{"Relevance":1.0,"Distance":129.1,"MatchLevel":"street","MatchQuality":{"Country":1.0,"State":1.0,"County":1.0,"City":1.0,"District":1.0,"Street":[1.0],"PostalCode":1.0},"Location":{"LocationId":"NT_0cEwoX-Kn6yn7ujtIthYSA_l_576392101_L","LocationType":"point","DisplayPosition":{"Latitude":51.04556,"Longitude":9.66932},"MapView":{"TopLeft":{"Latitude":51.04556,"Longitude":9.66883},"BottomRight":{"Latitude":51.04494,"Longitude":9.66932}},"Address":{"Label":"Auf dem Flachsbeet, 36211 Alheim, Deutschland","Country":"DEU","State":"Hessen","County":"Hersfeld-Rotenburg","City":"Alheim","District":"Heinebach","Street":"Auf dem Flachsbeet","PostalCode":"36211","AdditionalData":[{"value":"Deutschland","key":"CountryName"},{"value":"Hessen","key":"StateName"},{"value":"Hersfeld-Rotenburg","key":"CountyName"}]},"MapReference":{"ReferenceId":"576392101","Spot":1.0,"SideOfStreet":"left","CountryId":"20147700","StateId":"20160993","CountyId":"20163143","CityId":"20163144","DistrictId":"20163149"}}}]}]}}