{"Response":{"MetaInfo":{"Timestamp":"2020-03-28T10:23:37.829+0000","NextPageInformation":"2"},"View":[{"_type":"SearchResultsViewType","ViewId":0,"Result":[{"Relevance":1.0,"Distance":0.0,"Direction":0.0,"MatchLevel":"district","MatchQuality":{"Country":1.0,"State":1.0,"County":1.0,"City":1.0,"District":1.0,"PostalCode":1.0},"Location":{"LocationId":"NT_UYJ0bWRlUztYAKMjjWAs0D","LocationType":"point","DisplayPosition":{"Latitude":51.0335419,"Longitude":6.2133795},"MapView":{"TopLeft":{"Latitude":51.04342,"Longitude":6.20654},"BottomRight":{"Latitude":51.02925,"Longitude":6.22422}},"Address":{"Label":"Hilfarth, Hückelhoven, Nordrhein-Westfalen, Deutschland","Country":"DEU","State":"Nordrhein-Westfalen","County":"Heinsberg","City":"Hückelhoven","District":"Hilfarth","PostalCode":"41836","AdditionalData":[{"value":"Deutschland","key":"CountryName"},{"value":"Nordrhein-Westfalen","key":"StateName"},{"value":"Heinsberg","key":"CountyName"}]},"MapReference":{"ReferenceId":"572260535","SideOfStreet":"neither","CountryId":"20147700","StateId":"20157369","CountyId":"20158557","CityId":"20158613","DistrictId":"20158617"}}},{"Relevance":1.0,"Distance":6.5,"MatchLevel":"houseNumber","MatchQuality":{"Country":1.0,"State":1.0,"County":1.0,"City":1.0,"District":1.0,"Street":[1.0],"HouseNumber":1.0,"PostalCode":1.0},"MatchType":"interpolated","Location":{"LocationId":"NT_yoKNQ8.mOG0UHXp5NTlKAC_zgD","LocationType":"point","DisplayPosition":{"Latitude":51.0336,"Longitude":6.21368},"MapView":{"TopLeft":{"Latitude":51.0347242,"Longitude":6.2118924},"BottomRight":{"Latitude":51.0324758,"Longitude":6.2154676}},"Address":{"Label":"Tannenstraße 38, 41836 Hückelhoven, Deutschland","Country":"DEU","State":"Nordrhein-Westfalen","County":"Heinsberg","City":"Hückelhoven","District":"Hilfarth","Street":"Tannenstraße","HouseNumber":"38","PostalCode":"41836","AdditionalData":[{"value":"Deutschland","key":"CountryName"},{"value":"Nordrhein-Westfalen","key":"StateName"},{"value":"Heinsberg","key":"CountyName"}]},"MapReference":{"ReferenceId":"537803580","Spot":0.18,"SideOfStreet":"left","CountryId":"20147700","StateId":"20157369","CountyId":"20158557","CityId":"20158613","DistrictId":"20158617","AddressId":"196407408","RoadLinkId":"39453587"}}},{"Relevance":1.0,"Distance":32.1,"MatchLevel":"houseNumber","MatchQuality":{"Country":1.0,"State":1.0,"County":1.0,"City":1.0,"District":1.0,"Street":[1.0],"HouseNumber":1.0,"PostalCode":1.0},"MatchType":"interpolated","Location":{"LocationId":"NT_yoKNQ8.mOG0UHXp5NTlKAC_0AD","LocationType":"point","DisplayPosition":{"Latitude":51.03341,"Longitude":6.21392},"MapView":{"TopLeft":{"Latitude":51.0345342,"Longitude":6.2121324},"BottomRight":{"Latitude":51.0322858,"Longitude":6.2157076}},"Address":{"Label":"Tannenstraße 40, 41836 Hückelhoven, Deutschland","Country":"DEU","State":"Nordrhein-Westfalen","County":"Heinsberg","City":"Hückelhoven","District":"Hilfarth","Street":"Tannenstraße","HouseNumber":"40","PostalCode":"41836","AdditionalData":[{"value":"Deutschland","key":"CountryName"},{"value":"Nordrhein-Westfalen","key":"StateName"},{"value":"Heinsberg","key":"CountyName"}]},"MapReference":{"ReferenceId":"537803578","Spot":0.84,"SideOfStreet":"left","CountryId":"20147700","StateId":"20157369","CountyId":"20158557","CityId":"20158613","DistrictId":"20158617","AddressId":"194892494","RoadLinkId":"39440841"}}},{"Relevance":1.0,"Distance":33.6,"MatchLevel":"houseNumber","MatchQuality":{"Country":1.0,"State":1.0,"County":1.0,"City":1.0,"District":1.0,"Street":[1.0],"HouseNumber":1.0,"PostalCode":1.0},"MatchType":"interpolated","Location":{"LocationId":"NT_yoKNQ8.mOG0UHXp5NTlKAC_zgTQ","LocationType":"point","DisplayPosition":{"Latitude":51.03328,"Longitude":6.21314},"MapView":{"TopLeft":{"Latitude":51.0344042,"Longitude":6.2113524},"BottomRight":{"Latitude":51.0321558,"Longitude":6.2149276}},"Address":{"Label":"Tannenstraße 38A, 41836 Hückelhoven, Deutschland","Country":"DEU","State":"Nordrhein-Westfalen","County":"Heinsberg","City":"Hückelhoven","District":"Hilfarth","Street":"Tannenstraße","HouseNumber":"38A","PostalCode":"41836","AdditionalData":[{"value":"Deutschland","key":"CountryName"},{"value":"Nordrhein-Westfalen","key":"StateName"},{"value":"Heinsberg","key":"CountyName"}]},"MapReference":{"ReferenceId":"537803579","Spot":0.44,"SideOfStreet":"left","CountryId":"20147700","StateId":"20157369","CountyId":"20158557","CityId":"20158613","DistrictId":"20158617","AddressId":"594121633","RoadLinkId":"39034798"}}},{"Relevance":1.0,"Distance":50.0,"MatchLevel":"houseNumber","MatchQuality":{"Country":1.0,"State":1.0,"County":1.0,"City":1.0,"District":1.0,"Street":[1.0],"HouseNumber":1.0,"PostalCode":1.0},"MatchType":"interpolated","Location":{"LocationId":"NT_ghtlKdU9T7s6thDdp-.2CB_yUD","LocationType":"point","DisplayPosition":{"Latitude":51.03369,"Longitude":6.21254},"MapView":{"TopLeft":{"Latitude":51.0348142,"Longitude":6.2107524},"BottomRight":{"Latitude":51.0325658,"Longitude":6.2143276}},"Address":{"Label":"Callstraße 25, 41836 Hückelhoven, Deutschland","Country":"DEU","State":"Nordrhein-Westfalen","County":"Heinsberg","City":"Hückelhoven","District":"Hilfarth","Street":"Callstraße","HouseNumber":"25","PostalCode":"41836","AdditionalData":[{"value":"Deutschland","key":"CountryName"},{"value":"Nordrhein-Westfalen","key":"StateName"},{"value":"Heinsberg","key":"CountyName"}]},"MapReference":{"ReferenceId":"537803563","Spot":0.13,"SideOfStreet":"right","CountryId":"20147700","StateId":"20157369","CountyId":"20158557","CityId":"20158613","DistrictId":"20158617","AddressId":"195226845","RoadLinkId":"39195368"}}},{"Relevance":1.0,"Distance":66.6,"MatchLevel":"street","MatchQuality":{"Country":1.0,"State":1.0,"County":1.0,"City":1.0,"District":1.0,"Street":[1.0],"PostalCode":1.0},"Location":{"LocationId":"NT_ghtlKdU9T7s6thDdp-.2CB_l_537803582_R","LocationType":"point","DisplayPosition":{"Latitude":51.03364,"Longitude":6.21244},"MapView":{"TopLeft":{"Latitude":51.03364,"Longitude":6.21168},"BottomRight":{"Latitude":51.03327,"Longitude":6.21244}},"Address":{"Label":"Callstraße, 41836 Hückelhoven, Deutschland","Country":"DEU","State":"Nordrhein-Westfalen","County":"Heinsberg","City":"Hückelhoven","District":"Hilfarth","Street":"Callstraße","PostalCode":"41836","AdditionalData":[{"value":"Deutschland","key":"CountryName"},{"value":"Nordrhein-Westfalen","key":"StateName"},{"value":"Heinsberg","key":"CountyName"}]},"MapReference":{"ReferenceId":"537803582","Spot":1.0,"SideOfStreet":"right","CountryId":"20147700","StateId":"20157369","CountyId":"20158557","CityId":"20158613","DistrictId":"20158617"}}},{"Relevance":1.0,"Distance":83.4,"MatchLevel":"houseNumber","MatchQuality":{"Country":1.0,"State":1.0,"County":1.0,"City":1.0,"District":1.0,"Street":[1.0],"HouseNumber":1.0,"PostalCode":1.0},"MatchType":"interpolated","Location":{"LocationId":"NT_-NXox8d.EAr2PmbpMRX9WA_yMD","LocationType":"point","DisplayPosition":{"Latitude":51.03383,"Longitude":6.21218},"MapView":{"TopLeft":{"Latitude":51.0349542,"Longitude":6.2103924},"BottomRight":{"Latitude":51.0327058,"Longitude":6.2139676}},"Address":{"Label":"Weißdornweg 23, 41836 Hückelhoven, Deutschland","Country":"DEU","State":"Nordrhein-Westfalen","County":"Heinsberg","City":"Hückelhoven","District":"Hilfarth","Street":"Weißdornweg","HouseNumber":"23","PostalCode":"41836","AdditionalData":[{"value":"Deutschland","key":"CountryName"},{"value":"Nordrhein-Westfalen","key":"StateName"},{"value":"Heinsberg","key":"CountyName"}]},"MapReference":{"ReferenceId":"537803564","Spot":0.78,"SideOfStreet":"right","CountryId":"20147700","StateId":"20157369","CountyId":"20158557","CityId":"20158613","DistrictId":"20158617","AddressId":"195265829","RoadLinkId":"39243350"}}},{"Relevance":1.0,"Distance":101.0,"MatchLevel":"houseNumber","MatchQuality":{"Country":1.0,"State":1.0,"County":1.0,"City":1.0,"District":1.0,"Street":[1.0],"HouseNumber":1.0,"PostalCode":1.0},"MatchType":"interpolated","Location":{"LocationId":"NT_yeJOx0d5QkPgG7eLd.F9EB_xAD","LocationType":"point","DisplayPosition":{"Latitude":51.03259,"Longitude":6.21401},"MapView":{"TopLeft":{"Latitude":51.0337142,"Longitude":6.2122224},"BottomRight":{"Latitude":51.0314658,"Longitude":6.2157976}},"Address":{"Label":"Fichtenstraße 10, 41836 Hückelhoven, Deutschland","Country":"DEU","State":"Nordrhein-Westfalen","County":"Heinsberg","City":"Hückelhoven","District":"Hilfarth","Street":"Fichtenstraße","HouseNumber":"10","PostalCode":"41836","AdditionalData":[{"value":"Deutschland","key":"CountryName"},{"value":"Nordrhein-Westfalen","key":"StateName"},{"value":"Heinsberg","key":"CountyName"}]},"MapReference":{"ReferenceId":"537803567","Spot":0.92,"SideOfStreet":"left","CountryId":"20147700","StateId":"20157369","CountyId":"20158557","CityId":"20158613","DistrictId":"20158617","AddressId":"194675708","RoadLinkId":"39045196"}}},{"Relevance":1.0,"Distance":103.5,"MatchLevel":"houseNumber","MatchQuality":{"Country":1.0,"State":1.0,"County":1.0,"City":1.0,"District":1.0,"Street":[1.0],"HouseNumber":1.0,"PostalCode":1.0},"MatchType":"interpolated","Location":{"LocationId":"NT_6yR1rxPrPBqAhi9xKohM4A_xED","LocationType":"point","DisplayPosition":{"Latitude":51.03259,"Longitude":6.21264},"MapView":{"TopLeft":{"Latitude":51.0337142,"Longitude":6.2108524},"BottomRight":{"Latitude":51.0314658,"Longitude":6.2144276}},"Address":{"Label":"Ahornweg 11, 41836 Hückelhoven, Deutschland","Country":"DEU","State":"Nordrhein-Westfalen","County":"Heinsberg","City":"Hückelhoven","District":"Hilfarth","Street":"Ahornweg","HouseNumber":"11","PostalCode":"41836","AdditionalData":[{"value":"Deutschland","key":"CountryName"},{"value":"Nordrhein-Westfalen","key":"StateName"},{"value":"Heinsberg","key":"CountyName"}]},"MapReference":{"ReferenceId":"537803569","Spot":0.36,"SideOfStreet":"right","CountryId":"20147700","StateId":"20157369","CountyId":"20158557","CityId":"20158613","DistrictId":"20158617","AddressId":"194245566","RoadLinkId":"39356268"}}},{"Relevance":1.0,"Distance":105.4,"MatchLevel":"houseNumber","MatchQuality":{"Country":1.0,"State":1.0,"County":1.0,"City":1.0,"District":1.0,"Street":[1.0],"HouseNumber":1.0,"PostalCode":1.0},"MatchType":"interpolated","Location":{"LocationId":"NT_yoKNQ8.mOG0UHXp5NTlKAC_yYD","LocationType":"point","DisplayPosition":{"Latitude":51.0344,"Longitude":6.21274},"MapView":{"TopLeft":{"Latitude":51.0355242,"Longitude":6.2109524},"BottomRight":{"Latitude":51.0332758,"Longitude":6.2145276}},"Address":{"Label":"Tannenstraße 26, 41836 Hückelhoven, Deutschland","Country":"DEU","State":"Nordrhein-Westfalen","County":"Heinsberg","City":"Hückelhoven","District":"Hilfarth","Street":"Tannenstraße","HouseNumber":"26","PostalCode":"41836","AdditionalData":[{"value":"Deutschland","key":"CountryName"},{"value":"Nordrhein-Westfalen","key":"StateName"},{"value":"Heinsberg","key":"CountyName"}]},"MapReference":{"ReferenceId":"537803591","Spot":0.34,"SideOfStreet":"left","CountryId":"20147700","StateId":"20157369","CountyId":"20158557","CityId":"20158613","DistrictId":"20158617","AddressId":"195339836","RoadLinkId":"39322118"}}}]}]}}