{"Response":{"MetaInfo":{"Timestamp":"2020-03-28T10:59:20.424+0000","NextPageInformation":"2"},"View":[{"_type":"SearchResultsViewType","ViewId":0,"Result":[{"Relevance":1.0,"Distance":-80.3,"MatchLevel":"landmark","MatchQuality":{"Country":1.0,"State":1.0,"County":1.0,"City":1.0,"District":1.0,"Street":[1.0],"HouseNumber":1.0,"PostalCode":1.0,"Name":1.0},"Location":{"LocationId":"NT_mJjySnoCCbxlJlfLGzDG9B_p_2g281K56n1Y-TpKyRIiMQB","LocationType":"hospital","Name":"KKH Gummersbach-Klinikum Oberberg","DisplayPosition":{"Latitude":51.01502,"Longitude":7.56941},"MapView":{"TopLeft":{"Latitude":51.0161442,"Longitude":7.5676231},"BottomRight":{"Latitude":51.0138958,"Longitude":7.5711969}},"Address":{"Label":"Wilhelm-Breckow-Allee 20, 51643 Gummersbach, Deutschland","Country":"DEU","State":"Nordrhein-Westfalen","County":"Oberbergischer Kreis","City":"Gummersbach","District":"Gummersbach","Street":"Wilhelm-Breckow-Allee","HouseNumber":"20","PostalCode":"51643","AdditionalData":[{"value":"Deutschland","key":"CountryName"},{"value":"Nordrhein-Westfalen","key":"StateName"},{"value":"Oberbergischer Kreis","key":"CountyName"}]},"MapReference":{"CountryId":"20147700","StateId":"20157369","CountyId":"20158671","CityId":"20158686","DistrictId":"20158702","PlaceId":"50544727"}}},{"Relevance":1.0,"Distance":0.0,"Direction":0.0,"MatchLevel":"district","MatchQuality":{"Country":1.0,"State":1.0,"County":1.0,"City":1.0,"District":1.0,"PostalCode":1.0},"Location":{"LocationId":"NT_XkwREhcHDiHJvSjpGGWHEA","LocationType":"point","DisplayPosition":{"Latitude":51.0160038,"Longitude":7.5673791},"MapView":{"TopLeft":{"Latitude":51.04113,"Longitude":7.53619},"BottomRight":{"Latitude":51.00837,"Longitude":7.58775}},"Address":{"Label":"Gummersbach, Nordrhein-Westfalen, Deutschland","Country":"DEU","State":"Nordrhein-Westfalen","County":"Oberbergischer Kreis","City":"Gummersbach","District":"Gummersbach","PostalCode":"51643","AdditionalData":[{"value":"Deutschland","key":"CountryName"},{"value":"Nordrhein-Westfalen","key":"StateName"},{"value":"Oberbergischer Kreis","key":"CountyName"}]},"MapReference":{"ReferenceId":"1199624715","SideOfStreet":"neither","CountryId":"20147700","StateId":"20157369","CountyId":"20158671","CityId":"20158686","DistrictId":"20158702"}}},{"Relevance":1.0,"Distance":74.8,"MatchLevel":"street","MatchQuality":{"Country":1.0,"State":1.0,"County":1.0,"City":1.0,"District":1.0,"PostalCode":1.0},"Location":{"LocationId":"NT_AJnwy6IhhGbQ.iW9OrEDvC_l_1211388203_R","LocationType":"point","DisplayPosition":{"Latitude":51.01609,"Longitude":7.56844},"MapView":{"TopLeft":{"Latitude":51.01614,"Longitude":7.56844},"BottomRight":{"Latitude":51.01609,"Longitude":7.56942}},"Address":{"Label":"51643 Gummersbach, Deutschland","Country":"DEU","State":"Nordrhein-Westfalen","County":"Oberbergischer Kreis","City":"Gummersbach","District":"Gummersbach","PostalCode":"51643","AdditionalData":[{"value":"Deutschland","key":"CountryName"},{"value":"Nordrhein-Westfalen","key":"StateName"},{"value":"Oberbergischer Kreis","key":"CountyName"}]},"MapReference":{"ReferenceId":"1211388203","Spot":0.0,"SideOfStreet":"right","CountryId":"20147700","StateId":"20157369","CountyId":"20158671","CityId":"20158686","DistrictId":"20158702"}}},{"Relevance":1.0,"Distance":74.8,"MatchLevel":"street","MatchQuality":{"Country":1.0,"State":1.0,"County":1.0,"City":1.0,"District":1.0,"PostalCode":1.0},"Location":{"LocationId":"NT_AJnwy6IhhGbQ.iW9OrEDvC_l_1211388204_L","LocationType":"point","DisplayPosition":{"Latitude":51.01609,"Longitude":7.56844},"MapView":{"TopLeft":{"Latitude":51.01609,"Longitude":7.56844},"BottomRight":{"Latitude":51.01569,"Longitude":7.56874}},"Address":{"Label":"51643 Gummersbach, Deutschland","Country":"DEU","State":"Nordrhein-Westfalen","County":"Oberbergischer Kreis","City":"Gummersbach","District":"Gummersbach","PostalCode":"51643","AdditionalData":[{"value":"Deutschland","key":"CountryName"},{"value":"Nordrhein-Westfalen","key":"StateName"},{"value":"Oberbergischer Kreis","key":"CountyName"}]},"MapReference":{"ReferenceId":"1211388204","Spot":1.0,"SideOfStreet":"left","CountryId":"20147700","StateId":"20157369","CountyId":"20158671","CityId":"20158686","DistrictId":"20158702"}}},{"Relevance":1.0,"Distance":74.8,"MatchLevel":"street","MatchQuality":{"Country":1.0,"State":1.0,"County":1.0,"City":1.0,"District":1.0,"PostalCode":1.0},"Location":{"LocationId":"NT_AJnwy6IhhGbQ.iW9OrEDvC_l_1211388189_L","LocationType":"point","DisplayPosition":{"Latitude":51.01609,"Longitude":7.56844},"MapView":{"TopLeft":{"Latitude":51.01624,"Longitude":7.56844},"BottomRight":{"Latitude":51.01609,"Longitude":7.56846}},"Address":{"Label":"51643 Gummersbach, Deutschland","Country":"DEU","State":"Nordrhein-Westfalen","County":"Oberbergischer Kreis","City":"Gummersbach","District":"Gummersbach","PostalCode":"51643","AdditionalData":[{"value":"Deutschland","key":"CountryName"},{"value":"Nordrhein-Westfalen","key":"StateName"},{"value":"Oberbergischer Kreis","key":"CountyName"}]},"MapReference":{"ReferenceId":"1211388189","Spot":0.0,"SideOfStreet":"left","CountryId":"20147700","StateId":"20157369","CountyId":"20158671","CityId":"20158686","DistrictId":"20158702"}}},{"Relevance":1.0,"Distance":78.7,"MatchLevel":"street","MatchQuality":{"Country":1.0,"State":1.0,"County":1.0,"City":1.0,"District":1.0,"PostalCode":1.0},"Location":{"LocationId":"NT_AJnwy6IhhGbQ.iW9OrEDvC_l_1211388197_R","LocationType":"point","DisplayPosition":{"Latitude":51.01624,"Longitude":7.56844},"MapView":{"TopLeft":{"Latitude":51.01633,"Longitude":7.56844},"BottomRight":{"Latitude":51.01624,"Longitude":7.56944}},"Address":{"Label":"51643 Gummersbach, Deutschland","Country":"DEU","State":"Nordrhein-Westfalen","County":"Oberbergischer Kreis","City":"Gummersbach","District":"Gummersbach","PostalCode":"51643","AdditionalData":[{"value":"Deutschland","key":"CountryName"},{"value":"Nordrhein-Westfalen","key":"StateName"},{"value":"Oberbergischer Kreis","key":"CountyName"}]},"MapReference":{"ReferenceId":"1211388197","Spot":0.0,"SideOfStreet":"right","CountryId":"20147700","StateId":"20157369","CountyId":"20158671","CityId":"20158686","DistrictId":"20158702"}}},{"Relevance":1.0,"Distance":87.1,"MatchLevel":"houseNumber","MatchQuality":{"Country":1.0,"State":1.0,"County":1.0,"City":1.0,"District":1.0,"Street":[1.0],"HouseNumber":1.0,"PostalCode":1.0},"MatchType":"interpolated","Location":{"LocationId":"NT_2PCIIgfYs0Y3fulw74NjdC_yA","LocationType":"point","DisplayPosition":{"Latitude":51.01617,"Longitude":7.56595},"MapView":{"TopLeft":{"Latitude":51.0172942,"Longitude":7.5641631},"BottomRight":{"Latitude":51.0150458,"Longitude":7.5677369}},"Address":{"Label":"Paul-Ehrlich-Straße 2, 51643 Gummersbach, Deutschland","Country":"DEU","State":"Nordrhein-Westfalen","County":"Oberbergischer Kreis","City":"Gummersbach","District":"Gummersbach","Street":"Paul-Ehrlich-Straße","HouseNumber":"2","PostalCode":"51643","AdditionalData":[{"value":"Deutschland","key":"CountryName"},{"value":"Nordrhein-Westfalen","key":"StateName"},{"value":"Oberbergischer Kreis","key":"CountyName"}]},"MapReference":{"ReferenceId":"1203302320","Spot":0.24,"SideOfStreet":"right","CountryId":"20147700","StateId":"20157369","CountyId":"20158671","CityId":"20158686","DistrictId":"20158702","AddressId":"194102769","RoadLinkId":"516301162"}}},{"Relevance":1.0,"Distance":89.0,"MatchLevel":"street","MatchQuality":{"Country":1.0,"State":1.0,"County":1.0,"City":1.0,"District":1.0,"PostalCode":1.0},"Location":{"LocationId":"NT_AJnwy6IhhGbQ.iW9OrEDvC_l_1211388194_L","LocationType":"point","DisplayPosition":{"Latitude":51.0159,"Longitude":7.56864},"MapView":{"TopLeft":{"Latitude":51.01596,"Longitude":7.56864},"BottomRight":{"Latitude":51.01575,"Longitude":7.56941}},"Address":{"Label":"51643 Gummersbach, Deutschland","Country":"DEU","State":"Nordrhein-Westfalen","County":"Oberbergischer Kreis","City":"Gummersbach","District":"Gummersbach","PostalCode":"51643","AdditionalData":[{"value":"Deutschland","key":"CountryName"},{"value":"Nordrhein-Westfalen","key":"StateName"},{"value":"Oberbergischer Kreis","key":"CountyName"}]},"MapReference":{"ReferenceId":"1211388194","Spot":0.21,"SideOfStreet":"left","CountryId":"20147700","StateId":"20157369","CountyId":"20158671","CityId":"20158686","DistrictId":"20158702"}}},{"Relevance":1.0,"Distance":92.0,"MatchLevel":"houseNumber","MatchQuality":{"Country":1.0,"State":1.0,"County":1.0,"City":1.0,"District":1.0,"Street":[1.0],"HouseNumber":1.0,"PostalCode":1.0},"MatchType":"interpolated","Location":{"LocationId":"NT_veGAlLrV58bBrpcSLq3yKD_yED","LocationType":"point","DisplayPosition":{"Latitude":51.01693,"Longitude":7.56642},"MapView":{"TopLeft":{"Latitude":51.0180542,"Longitude":7.5646331},"BottomRight":{"Latitude":51.0158058,"Longitude":7.5682069}},"Address":{"Label":"Brantenhölzchen 21, 51643 Gummersbach, Deutschland","Country":"DEU","State":"Nordrhein-Westfalen","County":"Oberbergischer Kreis","City":"Gummersbach","District":"Gummersbach","Street":"Brantenhölzchen","HouseNumber":"21","PostalCode":"51643","AdditionalData":[{"value":"Deutschland","key":"CountryName"},{"value":"Nordrhein-Westfalen","key":"StateName"},{"value":"Oberbergischer Kreis","key":"CountyName"}]},"MapReference":{"ReferenceId":"1255038644","Spot":0.27,"SideOfStreet":"left","CountryId":"20147700","StateId":"20157369","CountyId":"20158671","CityId":"20158686","DistrictId":"20158702","AddressId":"195899485","RoadLinkId":"578402834"}}},{"Relevance":1.0,"Distance":96.6,"MatchLevel":"houseNumber","MatchQuality":{"Country":1.0,"State":1.0,"County":1.0,"City":1.0,"District":1.0,"Street":[1.0],"HouseNumber":1.0,"PostalCode":1.0},"MatchType":"interpolated","Location":{"LocationId":"NT_2PCIIgfYs0Y3fulw74NjdC_1A","LocationType":"point","DisplayPosition":{"Latitude":51.01582,"Longitude":7.56603},"MapView":{"TopLeft":{"Latitude":51.0169442,"Longitude":7.5642431},"BottomRight":{"Latitude":51.0146958,"Longitude":7.5678169}},"Address":{"Label":"Paul-Ehrlich-Straße 5, 51643 Gummersbach, Deutschland","Country":"DEU","State":"Nordrhein-Westfalen","County":"Oberbergischer Kreis","City":"Gummersbach","District":"Gummersbach","Street":"Paul-Ehrlich-Straße","HouseNumber":"5","PostalCode":"51643","AdditionalData":[{"value":"Deutschland","key":"CountryName"},{"value":"Nordrhein-Westfalen","key":"StateName"},{"value":"Oberbergischer Kreis","key":"CountyName"}]},"MapReference":{"ReferenceId":"52698723","Spot":0.69,"SideOfStreet":"left","CountryId":"20147700","StateId":"20157369","CountyId":"20158671","CityId":"20158686","DistrictId":"20158702","AddressId":"193877313","RoadLinkId":"39380103"}}}]}]}}