{"Response":{"MetaInfo":{"Timestamp":"2020-03-28T10:23:32.886+0000","NextPageInformation":"2"},"View":[{"_type":"SearchResultsViewType","ViewId":0,"Result":[{"Relevance":1.0,"Distance":0.0,"Direction":0.0,"MatchLevel":"district","MatchQuality":{"Country":1.0,"State":1.0,"County":1.0,"City":1.0,"District":1.0,"PostalCode":1.0},"Location":{"LocationId":"NT_hT6tS8mH1ssBGFNjggYORB","LocationType":"point","DisplayPosition":{"Latitude":51.0192964,"Longitude":6.1722906},"MapView":{"TopLeft":{"Latitude":51.02067,"Longitude":6.16821},"BottomRight":{"Latitude":51.01057,"Longitude":6.19134}},"Address":{"Label":"Randerath, Heinsberg, Nordrhein-Westfalen, Deutschland","Country":"DEU","State":"Nordrhein-Westfalen","County":"Heinsberg","City":"Heinsberg","District":"Randerath","PostalCode":"52525","AdditionalData":[{"value":"Deutschland","key":"CountryName"},{"value":"Nordrhein-Westfalen","key":"StateName"},{"value":"Heinsberg","key":"CountyName"}]},"MapReference":{"ReferenceId":"1200141288","SideOfStreet":"neither","CountryId":"20147700","StateId":"20157369","CountyId":"20158557","CityId":"20158598","DistrictId":"20158600"}}},{"Relevance":1.0,"Distance":7.9,"MatchLevel":"houseNumber","MatchQuality":{"Country":1.0,"State":1.0,"County":1.0,"City":1.0,"District":1.0,"Street":[1.0],"HouseNumber":1.0,"PostalCode":1.0},"MatchType":"interpolated","Location":{"LocationId":"NT_P9WgGLBbSBqvC-3AvWO4zC_yED","LocationType":"point","DisplayPosition":{"Latitude":51.01921,"Longitude":6.17254},"MapView":{"TopLeft":{"Latitude":51.0203342,"Longitude":6.170753},"BottomRight":{"Latitude":51.0180858,"Longitude":6.174327}},"Address":{"Label":"Am Hellenkamp 21, 52525 Heinsberg, Deutschland","Country":"DEU","State":"Nordrhein-Westfalen","County":"Heinsberg","City":"Heinsberg","District":"Randerath","Street":"Am Hellenkamp","HouseNumber":"21","PostalCode":"52525","AdditionalData":[{"value":"Deutschland","key":"CountryName"},{"value":"Nordrhein-Westfalen","key":"StateName"},{"value":"Heinsberg","key":"CountyName"}]},"MapReference":{"ReferenceId":"1250554673","Spot":0.41,"SideOfStreet":"left","CountryId":"20147700","StateId":"20157369","CountyId":"20158557","CityId":"20158598","DistrictId":"20158600","AddressId":"196747287","RoadLinkId":"573429422"}}},{"Relevance":1.0,"Distance":35.9,"MatchLevel":"street","MatchQuality":{"Country":1.0,"State":1.0,"County":1.0,"City":1.0,"District":1.0,"PostalCode":1.0},"Location":{"LocationId":"NT_Xe6Ury3N5tonS7zhldvueD_l_1250554674_R","LocationType":"point","DisplayPosition":{"Latitude":51.0189768,"Longitude":6.172218},"MapView":{"TopLeft":{"Latitude":51.01907,"Longitude":6.17176},"BottomRight":{"Latitude":51.01893,"Longitude":6.17251}},"Address":{"Label":"52525 Heinsberg, Deutschland","Country":"DEU","State":"Nordrhein-Westfalen","County":"Heinsberg","City":"Heinsberg","District":"Randerath","PostalCode":"52525","AdditionalData":[{"value":"Deutschland","key":"CountryName"},{"value":"Nordrhein-Westfalen","key":"StateName"},{"value":"Heinsberg","key":"CountyName"}]},"MapReference":{"ReferenceId":"1250554674","Spot":0.39,"SideOfStreet":"right","CountryId":"20147700","StateId":"20157369","CountyId":"20158557","CityId":"20158598","DistrictId":"20158600"}}},{"Relevance":1.0,"Distance":39.0,"MatchLevel":"street","MatchQuality":{"Country":1.0,"State":1.0,"County":1.0,"City":1.0,"District":1.0,"Street":[1.0],"PostalCode":1.0},"Location":{"LocationId":"NT_P9WgGLBbSBqvC-3AvWO4zC_l_77173410_L","LocationType":"point","DisplayPosition":{"Latitude":51.01961,"Longitude":6.17254},"MapView":{"TopLeft":{"Latitude":51.01978,"Longitude":6.17248},"BottomRight":{"Latitude":51.01961,"Longitude":6.17254}},"Address":{"Label":"Am Hellenkamp, 52525 Heinsberg, Deutschland","Country":"DEU","State":"Nordrhein-Westfalen","County":"Heinsberg","City":"Heinsberg","District":"Randerath","Street":"Am Hellenkamp","PostalCode":"52525","AdditionalData":[{"value":"Deutschland","key":"CountryName"},{"value":"Nordrhein-Westfalen","key":"StateName"},{"value":"Heinsberg","key":"CountyName"}]},"MapReference":{"ReferenceId":"77173410","Spot":0.0,"SideOfStreet":"left","CountryId":"20147700","StateId":"20157369","CountyId":"20158557","CityId":"20158598","DistrictId":"20158600"}}},{"Relevance":1.0,"Distance":44.8,"MatchLevel":"street","MatchQuality":{"Country":1.0,"State":1.0,"County":1.0,"City":1.0,"District":1.0,"PostalCode":1.0},"Location":{"LocationId":"NT_Xe6Ury3N5tonS7zhldvueD_l_1250554671_R","LocationType":"point","DisplayPosition":{"Latitude":51.01907,"Longitude":6.17176},"MapView":{"TopLeft":{"Latitude":51.01907,"Longitude":6.17041},"BottomRight":{"Latitude":51.01825,"Longitude":6.17176}},"Address":{"Label":"52525 Heinsberg, Deutschland","Country":"DEU","State":"Nordrhein-Westfalen","County":"Heinsberg","City":"Heinsberg","District":"Randerath","PostalCode":"52525","AdditionalData":[{"value":"Deutschland","key":"CountryName"},{"value":"Nordrhein-Westfalen","key":"StateName"},{"value":"Heinsberg","key":"CountyName"}]},"MapReference":{"ReferenceId":"1250554671","Spot":1.0,"SideOfStreet":"right","CountryId":"20147700","StateId":"20157369","CountyId":"20158557","CityId":"20158598","DistrictId":"20158600"}}},{"Relevance":1.0,"Distance":44.8,"MatchLevel":"street","MatchQuality":{"Country":1.0,"State":1.0,"County":1.0,"City":1.0,"District":1.0,"PostalCode":1.0},"Location":{"LocationId":"NT_Xe6Ury3N5tonS7zhldvueD_l_1250554675_R","LocationType":"point","DisplayPosition":{"Latitude":51.01907,"Longitude":6.17176},"MapView":{"TopLeft":{"Latitude":51.01932,"Longitude":6.17138},"BottomRight":{"Latitude":51.01907,"Longitude":6.17176}},"Address":{"Label":"52525 Heinsberg, Deutschland","Country":"DEU","State":"Nordrhein-Westfalen","County":"Heinsberg","City":"Heinsberg","District":"Randerath","PostalCode":"52525","AdditionalData":[{"value":"Deutschland","key":"CountryName"},{"value":"Nordrhein-Westfalen","key":"StateName"},{"value":"Heinsberg","key":"CountyName"}]},"MapReference":{"ReferenceId":"1250554675","Spot":0.0,"SideOfStreet":"right","CountryId":"20147700","StateId":"20157369","CountyId":"20158557","CityId":"20158598","DistrictId":"20158600"}}},{"Relevance":1.0,"Distance":53.3,"MatchLevel":"houseNumber","MatchQuality":{"Country":1.0,"State":1.0,"County":1.0,"City":1.0,"District":1.0,"Street":[1.0],"HouseNumber":1.0,"PostalCode":1.0},"MatchType":"interpolated","Location":{"LocationId":"NT_P9WgGLBbSBqvC-3AvWO4zC_xcD","LocationType":"point","DisplayPosition":{"Latitude":51.01881,"Longitude":6.1725},"MapView":{"TopLeft":{"Latitude":51.0199342,"Longitude":6.170713},"BottomRight":{"Latitude":51.0176858,"Longitude":6.174287}},"Address":{"Label":"Am Hellenkamp 17, 52525 Heinsberg, Deutschland","Country":"DEU","State":"Nordrhein-Westfalen","County":"Heinsberg","City":"Heinsberg","District":"Randerath","Street":"Am Hellenkamp","HouseNumber":"17","PostalCode":"52525","AdditionalData":[{"value":"Deutschland","key":"CountryName"},{"value":"Nordrhein-Westfalen","key":"StateName"},{"value":"Heinsberg","key":"CountyName"}]},"MapReference":{"ReferenceId":"1250554672","Spot":0.92,"SideOfStreet":"left","CountryId":"20147700","StateId":"20157369","CountyId":"20158557","CityId":"20158598","DistrictId":"20158600","AddressId":"195772273","RoadLinkId":"573429421"}}},{"Relevance":1.0,"Distance":62.3,"MatchLevel":"houseNumber","MatchQuality":{"Country":1.0,"State":1.0,"County":1.0,"City":1.0,"District":1.0,"Street":[1.0],"HouseNumber":1.0,"PostalCode":1.0},"MatchType":"interpolated","Location":{"LocationId":"NT_KD62EAGj2061p2l4sOGpmB_2kD","LocationType":"point","DisplayPosition":{"Latitude":51.01965,"Longitude":6.17308},"MapView":{"TopLeft":{"Latitude":51.0207742,"Longitude":6.1712929},"BottomRight":{"Latitude":51.0185258,"Longitude":6.1748671}},"Address":{"Label":"Driesch 69, 52525 Heinsberg, Deutschland","Country":"DEU","State":"Nordrhein-Westfalen","County":"Heinsberg","City":"Heinsberg","District":"Randerath","Street":"Driesch","HouseNumber":"69","PostalCode":"52525","AdditionalData":[{"value":"Deutschland","key":"CountryName"},{"value":"Nordrhein-Westfalen","key":"StateName"},{"value":"Heinsberg","key":"CountyName"}]},"MapReference":{"ReferenceId":"77172357","Spot":0.31,"SideOfStreet":"right","CountryId":"20147700","StateId":"20157369","CountyId":"20158557","CityId":"20158598","DistrictId":"20158600","AddressId":"192928959","RoadLinkId":"39097695"}}},{"Relevance":1.0,"Distance":68.9,"MatchLevel":"houseNumber","MatchQuality":{"Country":1.0,"State":1.0,"County":1.0,"City":1.0,"District":1.0,"Street":[1.0],"HouseNumber":1.0,"PostalCode":1.0},"MatchType":"interpolated","Location":{"LocationId":"NT_P9WgGLBbSBqvC-3AvWO4zC_yUD","LocationType":"point","DisplayPosition":{"Latitude":51.01996,"Longitude":6.17237},"MapView":{"TopLeft":{"Latitude":51.0210842,"Longitude":6.1705829},"BottomRight":{"Latitude":51.0188358,"Longitude":6.1741571}},"Address":{"Label":"Am Hellenkamp 25, 52525 Heinsberg, Deutschland","Country":"DEU","State":"Nordrhein-Westfalen","County":"Heinsberg","City":"Heinsberg","District":"Randerath","Street":"Am Hellenkamp","HouseNumber":"25","PostalCode":"52525","AdditionalData":[{"value":"Deutschland","key":"CountryName"},{"value":"Nordrhein-Westfalen","key":"StateName"},{"value":"Heinsberg","key":"CountyName"}]},"MapReference":{"ReferenceId":"759667935","Spot":0.23,"SideOfStreet":"left","CountryId":"20147700","StateId":"20157369","CountyId":"20158557","CityId":"20158598","DistrictId":"20158600","AddressId":"195434240","RoadLinkId":"154256917"}}},{"Relevance":1.0,"Distance":144.0,"MatchLevel":"street","MatchQuality":{"Country":1.0,"State":1.0,"County":1.0,"City":1.0,"Street":[1.0],"PostalCode":1.0},"Location":{"LocationId":"NT_04jFo5bKSSBeb8IFyb4HYC_l_759667936_L","LocationType":"point","DisplayPosition":{"Latitude":51.02058,"Longitude":6.17202},"MapView":{"TopLeft":{"Latitude":51.0257,"Longitude":6.1718},"BottomRight":{"Latitude":51.02058,"Longitude":6.17339}},"Address":{"Label":"K5, 52525 Heinsberg, Deutschland","Country":"DEU","State":"Nordrhein-Westfalen","County":"Heinsberg","City":"Heinsberg","Street":"K5","PostalCode":"52525","AdditionalData":[{"value":"Deutschland","key":"CountryName"},{"value":"Nordrhein-Westfalen","key":"StateName"},{"value":"Heinsberg","key":"CountyName"}]},"MapReference":{"ReferenceId":"759667936","Spot":0.0,"SideOfStreet":"left","CountryId":"20147700","StateId":"20157369","CountyId":"20158557","CityId":"20158598"}}}]}]}}