{"Response":{"MetaInfo":{"Timestamp":"2020-03-28T11:40:03.213+0000","NextPageInformation":"2"},"View":[{"_type":"SearchResultsViewType","ViewId":0,"Result":[{"Relevance":1.0,"Distance":0.0,"Direction":0.0,"MatchLevel":"district","MatchQuality":{"Country":1.0,"State":1.0,"County":1.0,"City":1.0,"District":1.0,"PostalCode":1.0},"Location":{"LocationId":"NT_rmn9u0iqm6RiAG07KvzrOD","LocationType":"point","DisplayPosition":{"Latitude":51.0457871,"Longitude":9.667144},"MapView":{"TopLeft":{"Latitude":51.05719,"Longitude":9.66042},"BottomRight":{"Latitude":51.03727,"Longitude":9.67719}},"Address":{"Label":"Heinebach, Alheim, Hessen, Deutschland","Country":"DEU","State":"Hessen","County":"Hersfeld-Rotenburg","City":"Alheim","District":"Heinebach","PostalCode":"36211","AdditionalData":[{"value":"Deutschland","key":"CountryName"},{"value":"Hessen","key":"StateName"},{"value":"Hersfeld-Rotenburg","key":"CountyName"}]},"MapReference":{"ReferenceId":"576392036","SideOfStreet":"neither","CountryId":"20147700","StateId":"20160993","CountyId":"20163143","CityId":"20163144","DistrictId":"20163149"}}},{"Relevance":1.0,"Distance":18.0,"MatchLevel":"houseNumber","MatchQuality":{"Country":1.0,"State":1.0,"County":1.0,"City":1.0,"District":1.0,"Street":[1.0],"HouseNumber":1.0,"PostalCode":1.0},"MatchType":"interpolated","Location":{"LocationId":"NT_vpMhZM8bbZOr5KF24uCowA_0AD","LocationType":"point","DisplayPosition":{"Latitude":51.04602,"Longitude":9.66715},"MapView":{"TopLeft":{"Latitude":51.0471442,"Longitude":9.6653619},"BottomRight":{"Latitude":51.0448958,"Longitude":9.6689381}},"Address":{"Label":"Nürnberger Straße 40, 36211 Alheim, Deutschland","Country":"DEU","State":"Hessen","County":"Hersfeld-Rotenburg","City":"Alheim","District":"Heinebach","Street":"Nürnberger Straße","HouseNumber":"40","PostalCode":"36211","AdditionalData":[{"value":"Deutschland","key":"CountryName"},{"value":"Hessen","key":"StateName"},{"value":"Hersfeld-Rotenburg","key":"CountyName"}]},"MapReference":{"ReferenceId":"78661109","Spot":0.39,"SideOfStreet":"left","CountryId":"20147700","StateId":"20160993","CountyId":"20163143","CityId":"20163144","DistrictId":"20163149","AddressId":"187382360","RoadLinkId":"33898655"}}},{"Relevance":1.0,"Distance":30.3,"MatchLevel":"houseNumber","MatchQuality":{"Country":1.0,"State":1.0,"County":1.0,"City":1.0,"District":1.0,"Street":[1.0],"HouseNumber":1.0,"PostalCode":1.0},"MatchType":"interpolated","Location":{"LocationId":"NT_Kp2MAXm38-dwp18SLuKuvB_4A","LocationType":"point","DisplayPosition":{"Latitude":51.04532,"Longitude":9.66724},"MapView":{"TopLeft":{"Latitude":51.0464442,"Longitude":9.665452},"BottomRight":{"Latitude":51.0441958,"Longitude":9.669028}},"Address":{"Label":"Lützelfeldstraße 8, 36211 Alheim, Deutschland","Country":"DEU","State":"Hessen","County":"Hersfeld-Rotenburg","City":"Alheim","District":"Heinebach","Street":"Lützelfeldstraße","HouseNumber":"8","PostalCode":"36211","AdditionalData":[{"value":"Deutschland","key":"CountryName"},{"value":"Hessen","key":"StateName"},{"value":"Hersfeld-Rotenburg","key":"CountyName"}]},"MapReference":{"ReferenceId":"62087706","Spot":0.64,"SideOfStreet":"left","CountryId":"20147700","StateId":"20160993","CountyId":"20163143","CityId":"20163144","DistrictId":"20163149","AddressId":"187128135","RoadLinkId":"34164414"}}},{"Relevance":1.0,"Distance":50.0,"MatchLevel":"houseNumber","MatchQuality":{"Country":1.0,"State":1.0,"County":1.0,"City":1.0,"District":1.0,"Street":[1.0],"HouseNumber":1.0,"PostalCode":1.0},"MatchType":"interpolated","Location":{"LocationId":"NT_ytvgoWIAHH38pzzBuC92.B_3EE","LocationType":"point","DisplayPosition":{"Latitude":51.04539,"Longitude":9.66549},"MapView":{"TopLeft":{"Latitude":51.0465142,"Longitude":9.663702},"BottomRight":{"Latitude":51.0442658,"Longitude":9.667278}},"Address":{"Label":"Jahnstraße 7A, 36211 Alheim, Deutschland","Country":"DEU","State":"Hessen","County":"Hersfeld-Rotenburg","City":"Alheim","District":"Heinebach","Street":"Jahnstraße","HouseNumber":"7A","PostalCode":"36211","AdditionalData":[{"value":"Deutschland","key":"CountryName"},{"value":"Hessen","key":"StateName"},{"value":"Hersfeld-Rotenburg","key":"CountyName"}]},"MapReference":{"ReferenceId":"62087720","Spot":0.14,"SideOfStreet":"right","CountryId":"20147700","StateId":"20160993","CountyId":"20163143","CityId":"20163144","DistrictId":"20163149","AddressId":"187105075","RoadLinkId":"33899774"}}},{"Relevance":1.0,"Distance":54.5,"MatchLevel":"houseNumber","MatchQuality":{"Country":1.0,"State":1.0,"County":1.0,"City":1.0,"District":1.0,"Street":[1.0],"HouseNumber":1.0,"PostalCode":1.0},"MatchType":"interpolated","Location":{"LocationId":"NT_HNaKFP3nra25sy7VyGDO8D_xA","LocationType":"point","DisplayPosition":{"Latitude":51.04573,"Longitude":9.66793},"MapView":{"TopLeft":{"Latitude":51.0468542,"Longitude":9.6661419},"BottomRight":{"Latitude":51.0446058,"Longitude":9.6697181}},"Address":{"Label":"Flachsweg 1, 36211 Alheim, Deutschland","Country":"DEU","State":"Hessen","County":"Hersfeld-Rotenburg","City":"Alheim","District":"Heinebach","Street":"Flachsweg","HouseNumber":"1","PostalCode":"36211","AdditionalData":[{"value":"Deutschland","key":"CountryName"},{"value":"Hessen","key":"StateName"},{"value":"Hersfeld-Rotenburg","key":"CountyName"}]},"MapReference":{"ReferenceId":"62087734","Spot":0.09,"SideOfStreet":"left","CountryId":"20147700","StateId":"20160993","CountyId":"20163143","CityId":"20163144","DistrictId":"20163149","AddressId":"186902098","RoadLinkId":"34618665"}}},{"Relevance":1.0,"Distance":77.7,"MatchLevel":"houseNumber","MatchQuality":{"Country":1.0,"State":1.0,"County":1.0,"City":1.0,"District":1.0,"Street":[1.0],"HouseNumber":1.0,"PostalCode":1.0},"MatchType":"interpolated","Location":{"LocationId":"NT_ytvgoWIAHH38pzzBuC92.B_xED","LocationType":"point","DisplayPosition":{"Latitude":51.04522,"Longitude":9.66568},"MapView":{"TopLeft":{"Latitude":51.0463442,"Longitude":9.663892},"BottomRight":{"Latitude":51.0440958,"Longitude":9.667468}},"Address":{"Label":"Jahnstraße 11, 36211 Alheim, Deutschland","Country":"DEU","State":"Hessen","County":"Hersfeld-Rotenburg","City":"Alheim","District":"Heinebach","Street":"Jahnstraße","HouseNumber":"11","PostalCode":"36211","AdditionalData":[{"value":"Deutschland","key":"CountryName"},{"value":"Hessen","key":"StateName"},{"value":"Hersfeld-Rotenburg","key":"CountyName"}]},"MapReference":{"ReferenceId":"62087719","Spot":0.85,"SideOfStreet":"right","CountryId":"20147700","StateId":"20160993","CountyId":"20163143","CityId":"20163144","DistrictId":"20163149","AddressId":"186946050","RoadLinkId":"34914555"}}},{"Relevance":1.0,"Distance":91.8,"MatchLevel":"houseNumber","MatchQuality":{"Country":1.0,"State":1.0,"County":1.0,"City":1.0,"District":1.0,"Street":[1.0],"HouseNumber":1.0,"PostalCode":1.0},"MatchType":"interpolated","Location":{"LocationId":"NT_vpMhZM8bbZOr5KF24uCowA_0gD","LocationType":"point","DisplayPosition":{"Latitude":51.04532,"Longitude":9.66828},"MapView":{"TopLeft":{"Latitude":51.0464442,"Longitude":9.666492},"BottomRight":{"Latitude":51.0441958,"Longitude":9.670068}},"Address":{"Label":"Nürnberger Straße 48, 36211 Alheim, Deutschland","Country":"DEU","State":"Hessen","County":"Hersfeld-Rotenburg","City":"Alheim","District":"Heinebach","Street":"Nürnberger Straße","HouseNumber":"48","PostalCode":"36211","AdditionalData":[{"value":"Deutschland","key":"CountryName"},{"value":"Hessen","key":"StateName"},{"value":"Hersfeld-Rotenburg","key":"CountyName"}]},"MapReference":{"ReferenceId":"576392100","Spot":0.56,"SideOfStreet":"left","CountryId":"20147700","StateId":"20160993","CountyId":"20163143","CityId":"20163144","DistrictId":"20163149","AddressId":"187465545","RoadLinkId":"34807804"}}},{"Relevance":1.0,"Distance":115.9,"MatchLevel":"houseNumber","MatchQuality":{"Country":1.0,"State":1.0,"County":1.0,"City":1.0,"District":1.0,"Street":[1.0],"HouseNumber":1.0,"PostalCode":1.0},"MatchType":"interpolated","Location":{"LocationId":"NT_UCaWAjetT9Ka.RHcqPLMfB_xA","LocationType":"point","DisplayPosition":{"Latitude":51.04636,"Longitude":9.66561},"MapView":{"TopLeft":{"Latitude":51.0474842,"Longitude":9.6638219},"BottomRight":{"Latitude":51.0452358,"Longitude":9.6673981}},"Address":{"Label":"Bahnhofstraße 1, 36211 Alheim, Deutschland","Country":"DEU","State":"Hessen","County":"Hersfeld-Rotenburg","City":"Alheim","District":"Heinebach","Street":"Bahnhofstraße","HouseNumber":"1","PostalCode":"36211","AdditionalData":[{"value":"Deutschland","key":"CountryName"},{"value":"Hessen","key":"StateName"},{"value":"Hersfeld-Rotenburg","key":"CountyName"}]},"MapReference":{"ReferenceId":"62087737","Spot":0.62,"SideOfStreet":"right","CountryId":"20147700","StateId":"20160993","CountyId":"20163143","CityId":"20163144","DistrictId":"20163149","AddressId":"187062637","RoadLinkId":"34635736"}}},{"Relevance":1.0,"Distance":136.2,"MatchLevel":"houseNumber","MatchQuality":{"Country":1.0,"State":1.0,"County":1.0,"City":1.0,"District":1.0,"Street":[1.0],"HouseNumber":1.0,"PostalCode":1.0},"MatchType":"interpolated","Location":{"LocationId":"NT_ytvgoWIAHH38pzzBuC92.B_xMD","LocationType":"point","DisplayPosition":{"Latitude":51.04447,"Longitude":9.66656},"MapView":{"TopLeft":{"Latitude":51.0455942,"Longitude":9.664772},"BottomRight":{"Latitude":51.0433458,"Longitude":9.668348}},"Address":{"Label":"Jahnstraße 13, 36211 Alheim, Deutschland","Country":"DEU","State":"Hessen","County":"Hersfeld-Rotenburg","City":"Alheim","District":"Heinebach","Street":"Jahnstraße","HouseNumber":"13","PostalCode":"36211","AdditionalData":[{"value":"Deutschland","key":"CountryName"},{"value":"Hessen","key":"StateName"},{"value":"Hersfeld-Rotenburg","key":"CountyName"}]},"MapReference":{"ReferenceId":"62087705","Spot":0.51,"SideOfStreet":"right","CountryId":"20147700","StateId":"20160993","CountyId":"20163143","CityId":"20163144","DistrictId":"20163149","AddressId":"186683340","RoadLinkId":"34682608"}}},{"Relevance":1.0,"Distance":141.4,"MatchLevel":"houseNumber","MatchQuality":{"Country":1.0,"State":1.0,"County":1.0,"City":1.0,"District":1.0,"Street":[1.0],"HouseNumber":1.0,"PostalCode":1.0},"MatchType":"interpolated","Location":{"LocationId":"NT_vpMhZM8bbZOr5KF24uCowA_zYD","LocationType":"point","DisplayPosition":{"Latitude":51.04677,"Longitude":9.66586},"MapView":{"TopLeft":{"Latitude":51.0478942,"Longitude":9.6640719},"BottomRight":{"Latitude":51.0456458,"Longitude":9.6676481}},"Address":{"Label":"Nürnberger Straße 36, 36211 Alheim, Deutschland","Country":"DEU","State":"Hessen","County":"Hersfeld-Rotenburg","City":"Alheim","District":"Heinebach","Street":"Nürnberger Straße","HouseNumber":"36","PostalCode":"36211","AdditionalData":[{"value":"Deutschland","key":"CountryName"},{"value":"Hessen","key":"StateName"},{"value":"Hersfeld-Rotenburg","key":"CountyName"}]},"MapReference":{"ReferenceId":"832739947","Spot":0.58,"SideOfStreet":"left","CountryId":"20147700","StateId":"20160993","CountyId":"20163143","CityId":"20163144","DistrictId":"20163149","AddressId":"187366392","RoadLinkId":"215907151"}}}]}]}}