{"Response":{"MetaInfo":{"Timestamp":"2020-03-28T10:24:46.677+0000","NextPageInformation":"2"},"View":[{"_type":"SearchResultsViewType","ViewId":0,"Result":[{"Relevance":1.0,"Distance":0.0,"Direction":0.0,"MatchLevel":"district","MatchQuality":{"Country":1.0,"State":1.0,"County":1.0,"City":1.0,"District":1.0,"PostalCode":1.0},"Location":{"LocationId":"NT_ZyBvc3kj4V-tlJ164KrMbC","LocationType":"point","DisplayPosition":{"Latitude":51.034745,"Longitude":9.4981626},"MapView":{"TopLeft":{"Latitude":51.03842,"Longitude":9.49608},"BottomRight":{"Latitude":51.03147,"Longitude":9.50632}},"Address":{"Label":"Oberbeisheim, Knüllwald, Hessen, Deutschland","Country":"DEU","State":"Hessen","County":"Schwalm-Eder-Kreis","City":"Knüllwald","District":"Oberbeisheim","PostalCode":"34593","AdditionalData":[{"value":"Deutschland","key":"CountryName"},{"value":"Hessen","key":"StateName"},{"value":"Schwalm-Eder-Kreis","key":"CountyName"}]},"MapReference":{"ReferenceId":"837373612","SideOfStreet":"neither","CountryId":"20147700","StateId":"20160993","CountyId":"20163458","CityId":"20163557","DistrictId":"20163562"}}},{"Relevance":1.0,"Distance":2.5,"MatchLevel":"street","MatchQuality":{"Country":1.0,"State":1.0,"County":1.0,"City":1.0,"District":1.0,"PostalCode":1.0},"Location":{"LocationId":"NT_4QjMl8qai9AZmmBRv1jFLD_l_63628960_L","LocationType":"point","DisplayPosition":{"Latitude":51.034766,"Longitude":9.4981498},"MapView":{"TopLeft":{"Latitude":51.0349,"Longitude":9.49677},"BottomRight":{"Latitude":51.0335,"Longitude":9.49837}},"Address":{"Label":"34593 Knüllwald, Deutschland","Country":"DEU","State":"Hessen","County":"Schwalm-Eder-Kreis","City":"Knüllwald","District":"Oberbeisheim","PostalCode":"34593","AdditionalData":[{"value":"Deutschland","key":"CountryName"},{"value":"Hessen","key":"StateName"},{"value":"Schwalm-Eder-Kreis","key":"CountyName"}]},"MapReference":{"ReferenceId":"63628960","Spot":0.88,"SideOfStreet":"neither","CountryId":"20147700","StateId":"20160993","CountyId":"20163458","CityId":"20163557","DistrictId":"20163562"}}},{"Relevance":1.0,"Distance":14.6,"MatchLevel":"houseNumber","MatchQuality":{"Country":1.0,"State":1.0,"County":1.0,"City":1.0,"District":1.0,"Street":[1.0],"HouseNumber":1.0,"PostalCode":1.0},"MatchType":"interpolated","Location":{"LocationId":"NT_DwR2F84fP7wP0OgFtVVLoB_zA","LocationType":"point","DisplayPosition":{"Latitude":51.03484,"Longitude":9.4985},"MapView":{"TopLeft":{"Latitude":51.0359642,"Longitude":9.4967124},"BottomRight":{"Latitude":51.0337158,"Longitude":9.5002876}},"Address":{"Label":"Poststraße 3, 34593 Knüllwald, Deutschland","Country":"DEU","State":"Hessen","County":"Schwalm-Eder-Kreis","City":"Knüllwald","District":"Oberbeisheim","Street":"Poststraße","HouseNumber":"3","PostalCode":"34593","AdditionalData":[{"value":"Deutschland","key":"CountryName"},{"value":"Hessen","key":"StateName"},{"value":"Schwalm-Eder-Kreis","key":"CountyName"}]},"MapReference":{"ReferenceId":"63601210","Spot":0.85,"SideOfStreet":"left","CountryId":"20147700","StateId":"20160993","CountyId":"20163458","CityId":"20163557","DistrictId":"20163562","AddressId":"186648062","RoadLinkId":"34004325"}}},{"Relevance":1.0,"Distance":16.4,"MatchLevel":"houseNumber","MatchQuality":{"Country":1.0,"State":1.0,"County":1.0,"City":1.0,"District":1.0,"Street":[1.0],"HouseNumber":1.0,"PostalCode":1.0},"MatchType":"interpolated","Location":{"LocationId":"NT_DwR2F84fP7wP0OgFtVVLoB_1A","LocationType":"point","DisplayPosition":{"Latitude":51.03497,"Longitude":9.49821},"MapView":{"TopLeft":{"Latitude":51.0360942,"Longitude":9.4964224},"BottomRight":{"Latitude":51.0338458,"Longitude":9.4999976}},"Address":{"Label":"Poststraße 5, 34593 Knüllwald, Deutschland","Country":"DEU","State":"Hessen","County":"Schwalm-Eder-Kreis","City":"Knüllwald","District":"Oberbeisheim","Street":"Poststraße","HouseNumber":"5","PostalCode":"34593","AdditionalData":[{"value":"Deutschland","key":"CountryName"},{"value":"Hessen","key":"StateName"},{"value":"Schwalm-Eder-Kreis","key":"CountyName"}]},"MapReference":{"ReferenceId":"833035851","Spot":0.09,"SideOfStreet":"left","CountryId":"20147700","StateId":"20160993","CountyId":"20163458","CityId":"20163557","DistrictId":"20163562","AddressId":"186948694","RoadLinkId":"216266820"}}},{"Relevance":1.0,"Distance":22.5,"MatchLevel":"street","MatchQuality":{"Country":1.0,"State":1.0,"County":1.0,"City":1.0,"District":1.0,"Street":[1.0],"PostalCode":1.0},"Location":{"LocationId":"NT_NhmD.fiXf2uo2BX0.DYhtB_l_63601194_R","LocationType":"point","DisplayPosition":{"Latitude":51.0349,"Longitude":9.49837},"MapView":{"TopLeft":{"Latitude":51.03506,"Longitude":9.49837},"BottomRight":{"Latitude":51.0349,"Longitude":9.49885}},"Address":{"Label":"Am Kirchrain, 34593 Knüllwald, Deutschland","Country":"DEU","State":"Hessen","County":"Schwalm-Eder-Kreis","City":"Knüllwald","District":"Oberbeisheim","Street":"Am Kirchrain","PostalCode":"34593","AdditionalData":[{"value":"Deutschland","key":"CountryName"},{"value":"Hessen","key":"StateName"},{"value":"Schwalm-Eder-Kreis","key":"CountyName"}]},"MapReference":{"ReferenceId":"63601194","Spot":0.0,"SideOfStreet":"right","CountryId":"20147700","StateId":"20160993","CountyId":"20163458","CityId":"20163557","DistrictId":"20163562"}}},{"Relevance":1.0,"Distance":57.1,"MatchLevel":"houseNumber","MatchQuality":{"Country":1.0,"State":1.0,"County":1.0,"City":1.0,"District":1.0,"Street":[1.0],"HouseNumber":1.0,"PostalCode":1.0},"MatchType":"interpolated","Location":{"LocationId":"NT_9J2Livq1PkRsfoeobDRgrB_0A","LocationType":"point","DisplayPosition":{"Latitude":51.03452,"Longitude":9.49923},"MapView":{"TopLeft":{"Latitude":51.0356442,"Longitude":9.4974424},"BottomRight":{"Latitude":51.0333958,"Longitude":9.5010176}},"Address":{"Label":"Lichtenhagener Straße 4, 34593 Knüllwald, Deutschland","Country":"DEU","State":"Hessen","County":"Schwalm-Eder-Kreis","City":"Knüllwald","District":"Oberbeisheim","Street":"Lichtenhagener Straße","HouseNumber":"4","PostalCode":"34593","AdditionalData":[{"value":"Deutschland","key":"CountryName"},{"value":"Hessen","key":"StateName"},{"value":"Schwalm-Eder-Kreis","key":"CountyName"}]},"MapReference":{"ReferenceId":"63601173","Spot":0.99,"SideOfStreet":"left","CountryId":"20147700","StateId":"20160993","CountyId":"20163458","CityId":"20163557","DistrictId":"20163562","AddressId":"186665415","RoadLinkId":"34183065"}}},{"Relevance":1.0,"Distance":59.5,"MatchLevel":"street","MatchQuality":{"Country":1.0,"State":1.0,"County":1.0,"City":1.0,"District":1.0,"Street":[1.0],"PostalCode":1.0},"Location":{"LocationId":"NT_NhmD.fiXf2uo2BX0.DYhtB_l_63601215_L","LocationType":"point","DisplayPosition":{"Latitude":51.03506,"Longitude":9.49885},"MapView":{"TopLeft":{"Latitude":51.03558,"Longitude":9.49885},"BottomRight":{"Latitude":51.03506,"Longitude":9.49918}},"Address":{"Label":"Am Kirchrain, 34593 Knüllwald, Deutschland","Country":"DEU","State":"Hessen","County":"Schwalm-Eder-Kreis","City":"Knüllwald","District":"Oberbeisheim","Street":"Am Kirchrain","PostalCode":"34593","AdditionalData":[{"value":"Deutschland","key":"CountryName"},{"value":"Hessen","key":"StateName"},{"value":"Schwalm-Eder-Kreis","key":"CountyName"}]},"MapReference":{"ReferenceId":"63601215","Spot":0.0,"SideOfStreet":"left","CountryId":"20147700","StateId":"20160993","CountyId":"20163458","CityId":"20163557","DistrictId":"20163562"}}},{"Relevance":1.0,"Distance":59.5,"MatchLevel":"street","MatchQuality":{"Country":1.0,"State":1.0,"County":1.0,"City":1.0,"District":1.0,"Street":[1.0],"PostalCode":1.0},"Location":{"LocationId":"NT_NhmD.fiXf2uo2BX0.DYhtB_l_63601176_L","LocationType":"point","DisplayPosition":{"Latitude":51.03506,"Longitude":9.49885},"MapView":{"TopLeft":{"Latitude":51.03506,"Longitude":9.49885},"BottomRight":{"Latitude":51.03493,"Longitude":9.49947}},"Address":{"Label":"Am Kirchrain, 34593 Knüllwald, Deutschland","Country":"DEU","State":"Hessen","County":"Schwalm-Eder-Kreis","City":"Knüllwald","District":"Oberbeisheim","Street":"Am Kirchrain","PostalCode":"34593","AdditionalData":[{"value":"Deutschland","key":"CountryName"},{"value":"Hessen","key":"StateName"},{"value":"Schwalm-Eder-Kreis","key":"CountyName"}]},"MapReference":{"ReferenceId":"63601176","Spot":1.0,"SideOfStreet":"left","CountryId":"20147700","StateId":"20160993","CountyId":"20163458","CityId":"20163557","DistrictId":"20163562"}}},{"Relevance":1.0,"Distance":88.0,"MatchLevel":"houseNumber","MatchQuality":{"Country":1.0,"State":1.0,"County":1.0,"City":1.0,"District":1.0,"Street":[1.0],"HouseNumber":1.0,"PostalCode":1.0},"MatchType":"interpolated","Location":{"LocationId":"NT_9J2Livq1PkRsfoeobDRgrB_yA","LocationType":"point","DisplayPosition":{"Latitude":51.03488,"Longitude":9.49944},"MapView":{"TopLeft":{"Latitude":51.0360042,"Longitude":9.4976524},"BottomRight":{"Latitude":51.0337558,"Longitude":9.5012276}},"Address":{"Label":"Lichtenhagener Straße 2, 34593 Knüllwald, Deutschland","Country":"DEU","State":"Hessen","County":"Schwalm-Eder-Kreis","City":"Knüllwald","District":"Oberbeisheim","Street":"Lichtenhagener Straße","HouseNumber":"2","PostalCode":"34593","AdditionalData":[{"value":"Deutschland","key":"CountryName"},{"value":"Hessen","key":"StateName"},{"value":"Schwalm-Eder-Kreis","key":"CountyName"}]},"MapReference":{"ReferenceId":"63601174","Spot":0.88,"SideOfStreet":"left","CountryId":"20147700","StateId":"20160993","CountyId":"20163458","CityId":"20163557","DistrictId":"20163562","AddressId":"187577759","RoadLinkId":"34248606"}}},{"Relevance":1.0,"Distance":96.8,"MatchLevel":"houseNumber","MatchQuality":{"Country":1.0,"State":1.0,"County":1.0,"City":1.0,"District":1.0,"Street":[1.0],"HouseNumber":1.0,"PostalCode":1.0},"MatchType":"interpolated","Location":{"LocationId":"NT_9J2Livq1PkRsfoeobDRgrB_zA","LocationType":"point","DisplayPosition":{"Latitude":51.03497,"Longitude":9.4995},"MapView":{"TopLeft":{"Latitude":51.0360942,"Longitude":9.4977124},"BottomRight":{"Latitude":51.0338458,"Longitude":9.5012876}},"Address":{"Label":"Lichtenhagener Straße 3, 34593 Knüllwald, Deutschland","Country":"DEU","State":"Hessen","County":"Schwalm-Eder-Kreis","City":"Knüllwald","District":"Oberbeisheim","Street":"Lichtenhagener Straße","HouseNumber":"3","PostalCode":"34593","AdditionalData":[{"value":"Deutschland","key":"CountryName"},{"value":"Hessen","key":"StateName"},{"value":"Schwalm-Eder-Kreis","key":"CountyName"}]},"MapReference":{"ReferenceId":"63601175","Spot":0.09,"SideOfStreet":"right","CountryId":"20147700","StateId":"20160993","CountyId":"20163458","CityId":"20163557","DistrictId":"20163562","AddressId":"187473308","RoadLinkId":"34797141"}}}]}]}}