{"Response":{"MetaInfo":{"Timestamp":"2020-03-28T10:47:29.871+0000","NextPageInformation":"2"},"View":[{"_type":"SearchResultsViewType","ViewId":0,"Result":[{"Relevance":1.0,"Distance":0.0,"Direction":0.0,"MatchLevel":"district","MatchQuality":{"Country":1.0,"State":1.0,"County":1.0,"City":1.0,"District":1.0,"Subdistrict":1.0,"PostalCode":1.0},"Location":{"LocationId":"NT_HQRRNIiFBx9sqt.cqrFJvB","LocationType":"point","DisplayPosition":{"Latitude":51.093933,"Longitude":17.0185768},"MapView":{"TopLeft":{"Latitude":51.1097,"Longitude":17.00623},"BottomRight":{"Latitude":51.08024,"Longitude":17.08326}},"Address":{"Label":"Południe, Wrocław, Woj. Dolnośląskie, Polska","Country":"POL","State":"Woj. Dolnośląskie","County":"Wrocław","City":"Wrocław","District":"Wrocław","Subdistrict":"Południe","PostalCode":"50-502","AdditionalData":[{"value":"Polska","key":"CountryName"},{"value":"Woj. Dolnośląskie","key":"StateName"},{"value":"Wrocław","key":"CountyName"}]},"MapReference":{"ReferenceId":"1186454305","SideOfStreet":"neither","CountryId":"20624059","StateId":"20625002","CountyId":"20625392","CityId":"20625393","DistrictId":"20646839"}}},{"Relevance":1.0,"Distance":15.3,"MatchLevel":"street","MatchQuality":{"Country":1.0,"State":1.0,"County":1.0,"City":1.0,"District":1.0,"Subdistrict":1.0,"Street":[1.0],"PostalCode":1.0},"Location":{"LocationId":"NT_39-PoedY3Y8tgnMCJpQU3D_l_854597628_R","LocationType":"point","DisplayPosition":{"Latitude":51.0938,"Longitude":17.01852},"MapView":{"TopLeft":{"Latitude":51.09398,"Longitude":17.01783},"BottomRight":{"Latitude":51.0938,"Longitude":17.01852}},"Address":{"Label":"ulica Wielka, 53-417 Wrocław, Polska","Country":"POL","State":"Woj. Dolnośląskie","County":"Wrocław","City":"Wrocław","District":"Wrocław","Subdistrict":"Południe","Street":"ulica Wielka","PostalCode":"53-417","AdditionalData":[{"value":"Polska","key":"CountryName"},{"value":"Woj. Dolnośląskie","key":"StateName"},{"value":"Wrocław","key":"CountyName"}]},"MapReference":{"ReferenceId":"854597628","Spot":0.0,"SideOfStreet":"right","CountryId":"20624059","StateId":"20625002","CountyId":"20625392","CityId":"20625393","DistrictId":"20646839"}}},{"Relevance":1.0,"Distance":15.3,"MatchLevel":"street","MatchQuality":{"Country":1.0,"State":1.0,"County":1.0,"City":1.0,"District":1.0,"Subdistrict":1.0,"PostalCode":1.0},"Location":{"LocationId":"NT_URsTv2Cnpf2SEEUpIgQXtB_l_854597626_L","LocationType":"point","DisplayPosition":{"Latitude":51.0938,"Longitude":17.01852},"MapView":{"TopLeft":{"Latitude":51.0938,"Longitude":17.01792},"BottomRight":{"Latitude":51.09372,"Longitude":17.01852}},"Address":{"Label":"53-417 Wrocław, Polska","Country":"POL","State":"Woj. Dolnośląskie","County":"Wrocław","City":"Wrocław","District":"Wrocław","Subdistrict":"Południe","PostalCode":"53-417","AdditionalData":[{"value":"Polska","key":"CountryName"},{"value":"Woj. Dolnośląskie","key":"StateName"},{"value":"Wrocław","key":"CountyName"}]},"MapReference":{"ReferenceId":"854597626","Spot":1.0,"SideOfStreet":"left","CountryId":"20624059","StateId":"20625002","CountyId":"20625392","CityId":"20625393","DistrictId":"20646839"}}},{"Relevance":1.0,"Distance":44.8,"MatchLevel":"street","MatchQuality":{"Country":1.0,"State":1.0,"County":1.0,"City":1.0,"District":1.0,"Subdistrict":1.0,"PostalCode":1.0},"Location":{"LocationId":"NT_URsTv2Cnpf2SEEUpIgQXtB_l_854597624_L","LocationType":"point","DisplayPosition":{"Latitude":51.0935308,"Longitude":17.0186203},"MapView":{"TopLeft":{"Latitude":51.0936,"Longitude":17.01804},"BottomRight":{"Latitude":51.09345,"Longitude":17.01926}},"Address":{"Label":"53-417 Wrocław, Polska","Country":"POL","State":"Woj. Dolnośląskie","County":"Wrocław","City":"Wrocław","District":"Wrocław","Subdistrict":"Południe","PostalCode":"53-417","AdditionalData":[{"value":"Polska","key":"CountryName"},{"value":"Woj. Dolnośląskie","key":"StateName"},{"value":"Wrocław","key":"CountyName"}]},"MapReference":{"ReferenceId":"854597624","Spot":0.48,"SideOfStreet":"left","CountryId":"20624059","StateId":"20625002","CountyId":"20625392","CityId":"20625393","DistrictId":"20646839"}}},{"Relevance":1.0,"Distance":49.5,"MatchLevel":"houseNumber","MatchQuality":{"Country":1.0,"State":1.0,"County":1.0,"City":1.0,"District":1.0,"Subdistrict":1.0,"Street":[1.0],"HouseNumber":1.0,"PostalCode":1.0},"MatchType":"interpolated","Location":{"LocationId":"NT_39-PoedY3Y8tgnMCJpQU3D_08iMwA","LocationType":"point","DisplayPosition":{"Latitude":51.09364,"Longitude":17.01911},"MapView":{"TopLeft":{"Latitude":51.0947642,"Longitude":17.0173201},"BottomRight":{"Latitude":51.0925158,"Longitude":17.0208999}},"Address":{"Label":"ulica Wielka 4/20, 53-417 Wrocław, Polska","Country":"POL","State":"Woj. Dolnośląskie","County":"Wrocław","City":"Wrocław","District":"Wrocław","Subdistrict":"Południe","Street":"ulica Wielka","HouseNumber":"4/20","PostalCode":"53-417","AdditionalData":[{"value":"Polska","key":"CountryName"},{"value":"Woj. Dolnośląskie","key":"StateName"},{"value":"Wrocław","key":"CountyName"}]},"MapReference":{"ReferenceId":"854589252","Spot":0.2,"SideOfStreet":"right","CountryId":"20624059","StateId":"20625002","CountyId":"20625392","CityId":"20625393","DistrictId":"20646839","AddressId":"731451708","RoadLinkId":"232807093"}}},{"Relevance":1.0,"Distance":51.6,"MatchLevel":"street","MatchQuality":{"Country":1.0,"State":1.0,"County":1.0,"City":1.0,"District":1.0,"Subdistrict":1.0,"PostalCode":1.0},"Location":{"LocationId":"NT_URsTv2Cnpf2SEEUpIgQXtB_l_854597630_R","LocationType":"point","DisplayPosition":{"Latitude":51.09372,"Longitude":17.01792},"MapView":{"TopLeft":{"Latitude":51.09398,"Longitude":17.01783},"BottomRight":{"Latitude":51.09372,"Longitude":17.01792}},"Address":{"Label":"53-417 Wrocław, Polska","Country":"POL","State":"Woj. Dolnośląskie","County":"Wrocław","City":"Wrocław","District":"Wrocław","Subdistrict":"Południe","PostalCode":"53-417","AdditionalData":[{"value":"Polska","key":"CountryName"},{"value":"Woj. Dolnośląskie","key":"StateName"},{"value":"Wrocław","key":"CountyName"}]},"MapReference":{"ReferenceId":"854597630","Spot":0.0,"SideOfStreet":"right","CountryId":"20624059","StateId":"20625002","CountyId":"20625392","CityId":"20625393","DistrictId":"20646839"}}},{"Relevance":1.0,"Distance":51.6,"MatchLevel":"street","MatchQuality":{"Country":1.0,"State":1.0,"County":1.0,"City":1.0,"District":1.0,"Subdistrict":1.0,"PostalCode":1.0},"Location":{"LocationId":"NT_URsTv2Cnpf2SEEUpIgQXtB_l_854597625_L","LocationType":"point","DisplayPosition":{"Latitude":51.09372,"Longitude":17.01792},"MapView":{"TopLeft":{"Latitude":51.09372,"Longitude":17.01703},"BottomRight":{"Latitude":51.0936,"Longitude":17.01792}},"Address":{"Label":"53-417 Wrocław, Polska","Country":"POL","State":"Woj. Dolnośląskie","County":"Wrocław","City":"Wrocław","District":"Wrocław","Subdistrict":"Południe","PostalCode":"53-417","AdditionalData":[{"value":"Polska","key":"CountryName"},{"value":"Woj. Dolnośląskie","key":"StateName"},{"value":"Wrocław","key":"CountyName"}]},"MapReference":{"ReferenceId":"854597625","Spot":1.0,"SideOfStreet":"left","CountryId":"20624059","StateId":"20625002","CountyId":"20625392","CityId":"20625393","DistrictId":"20646839"}}},{"Relevance":1.0,"Distance":52.4,"MatchLevel":"street","MatchQuality":{"Country":1.0,"State":1.0,"County":1.0,"City":1.0,"District":1.0,"Subdistrict":1.0,"Street":[1.0],"PostalCode":1.0},"Location":{"LocationId":"NT_39-PoedY3Y8tgnMCJpQU3D_l_854597629_R","LocationType":"point","DisplayPosition":{"Latitude":51.09398,"Longitude":17.01783},"MapView":{"TopLeft":{"Latitude":51.09405,"Longitude":17.01757},"BottomRight":{"Latitude":51.09398,"Longitude":17.01783}},"Address":{"Label":"ulica Wielka, 53-417 Wrocław, Polska","Country":"POL","State":"Woj. Dolnośląskie","County":"Wrocław","City":"Wrocław","District":"Wrocław","Subdistrict":"Południe","Street":"ulica Wielka","PostalCode":"53-417","AdditionalData":[{"value":"Polska","key":"CountryName"},{"value":"Woj. Dolnośląskie","key":"StateName"},{"value":"Wrocław","key":"CountyName"}]},"MapReference":{"ReferenceId":"854597629","Spot":0.0,"SideOfStreet":"right","CountryId":"20624059","StateId":"20625002","CountyId":"20625392","CityId":"20625393","DistrictId":"20646839"}}},{"Relevance":1.0,"Distance":53.7,"MatchLevel":"street","MatchQuality":{"Country":1.0,"State":1.0,"County":1.0,"City":1.0,"District":1.0,"Subdistrict":1.0,"PostalCode":1.0},"Location":{"LocationId":"NT_URsTv2Cnpf2SEEUpIgQXtB_l_854597627_R","LocationType":"point","DisplayPosition":{"Latitude":51.0936541,"Longitude":17.0179493},"MapView":{"TopLeft":{"Latitude":51.09372,"Longitude":17.01792},"BottomRight":{"Latitude":51.09345,"Longitude":17.01804}},"Address":{"Label":"53-417 Wrocław, Polska","Country":"POL","State":"Woj. Dolnośląskie","County":"Wrocław","City":"Wrocław","District":"Wrocław","Subdistrict":"Południe","PostalCode":"53-417","AdditionalData":[{"value":"Polska","key":"CountryName"},{"value":"Woj. Dolnośląskie","key":"StateName"},{"value":"Wrocław","key":"CountyName"}]},"MapReference":{"ReferenceId":"854597627","Spot":0.76,"SideOfStreet":"right","CountryId":"20624059","StateId":"20625002","CountyId":"20625392","CityId":"20625393","DistrictId":"20646839"}}},{"Relevance":1.0,"Distance":60.4,"MatchLevel":"street","MatchQuality":{"Country":1.0,"State":1.0,"County":1.0,"City":1.0,"District":1.0,"Subdistrict":1.0,"Street":[1.0],"PostalCode":1.0},"Location":{"LocationId":"NT_39-PoedY3Y8tgnMCJpQU3D_l_854589255_R","LocationType":"point","DisplayPosition":{"Latitude":51.0936,"Longitude":17.01926},"MapView":{"TopLeft":{"Latitude":51.0936,"Longitude":17.01926},"BottomRight":{"Latitude":51.09347,"Longitude":17.01978}},"Address":{"Label":"ulica Wielka, 53-417 Wrocław, Polska","Country":"POL","State":"Woj. Dolnośląskie","County":"Wrocław","City":"Wrocław","District":"Wrocław","Subdistrict":"Południe","Street":"ulica Wielka","PostalCode":"53-417","AdditionalData":[{"value":"Polska","key":"CountryName"},{"value":"Woj. Dolnośląskie","key":"StateName"},{"value":"Wrocław","key":"CountyName"}]},"MapReference":{"ReferenceId":"854589255","Spot":1.0,"SideOfStreet":"right","CountryId":"20624059","StateId":"20625002","CountyId":"20625392","CityId":"20625393","DistrictId":"20646839"}}}]}]}}