{"Response":{"MetaInfo":{"Timestamp":"2020-03-28T10:10:46.330+0000","NextPageInformation":"2"},"View":[{"_type":"SearchResultsViewType","ViewId":0,"Result":[{"Relevance":1.0,"Distance":0.0,"Direction":0.0,"MatchLevel":"district","MatchQuality":{"Country":1.0,"State":1.0,"County":1.0,"City":1.0,"District":1.0,"PostalCode":1.0},"Location":{"LocationId":"NT_-w4NWjsJ7lwkXw6mB9bNID","LocationType":"point","DisplayPosition":{"Latitude":51.0190371,"Longitude":-3.1056528},"MapView":{"TopLeft":{"Latitude":51.02447,"Longitude":-3.11717},"BottomRight":{"Latitude":51.01446,"Longitude":-3.09053}},"Address":{"Label":"Frieze Hill, Taunton, England, United Kingdom","Country":"GBR","State":"England","County":"Somerset","City":"Taunton","District":"Frieze Hill","PostalCode":"TA1 1","AdditionalData":[{"value":"United Kingdom","key":"CountryName"},{"value":"England","key":"StateName"},{"value":"Somerset","key":"CountyName"}]},"MapReference":{"ReferenceId":"26709062","SideOfStreet":"neither","StateId":"20248595","CountyId":"20357053","CityId":"20357486","DistrictId":"20357522"}}},{"Relevance":1.0,"Distance":4.6,"MatchLevel":"houseNumber","MatchQuality":{"Country":1.0,"State":1.0,"County":1.0,"City":1.0,"District":1.0,"Street":[1.0],"HouseNumber":1.0,"PostalCode":1.0},"MatchType":"interpolated","Location":{"LocationId":"NT_JCmjN.OJD9Oz2YHdcp9eHA_l_744056887_R_2gD","LocationType":"point","DisplayPosition":{"Latitude":51.0189987,"Longitude":-3.1056787},"MapView":{"TopLeft":{"Latitude":51.0201229,"Longitude":-3.1074657},"BottomRight":{"Latitude":51.0178746,"Longitude":-3.1038917}},"Address":{"Label":"68 Bridge Street, Taunton, TA1 1UD, United Kingdom","Country":"GBR","State":"England","County":"Somerset","City":"Taunton","District":"Frieze Hill","Street":"Bridge Street","HouseNumber":"68","PostalCode":"TA1 1UD","AdditionalData":[{"value":"United Kingdom","key":"CountryName"},{"value":"England","key":"StateName"},{"value":"Somerset","key":"CountyName"}]},"MapReference":{"ReferenceId":"744056887","Spot":0.83,"SideOfStreet":"right","StateId":"20248595","CountyId":"20357053","CityId":"20357486","DistrictId":"20357522"}}},{"Relevance":1.0,"Distance":11.1,"MatchLevel":"postalCode","MatchQuality":{"PostalCode":1.0},"MatchType":"interpolated","Location":{"LocationId":"NT_JCmjN.OJD9Oz2YHdcp9eHA_l_744056887_R_2gD","LocationType":"point","DisplayPosition":{"Latitude":51.01894,"Longitude":-3.10569},"MapView":{"TopLeft":{"Latitude":51.0279332,"Longitude":-3.1199862},"BottomRight":{"Latitude":51.0099468,"Longitude":-3.0913938}},"Address":{"Label":"TA1 1TW, Taunton, England, United Kingdom","Country":"GBR","State":"England","County":"Somerset","City":"Taunton","PostalCode":"TA1 1TW","AdditionalData":[{"value":"United Kingdom","key":"CountryName"},{"value":"England","key":"StateName"},{"value":"Somerset","key":"CountyName"}]},"MapReference":{"ReferenceId":"744056887","Spot":0.83,"SideOfStreet":"neither","StateId":"20248595","CountyId":"20357053","CityId":"20357486"}}},{"Relevance":1.0,"Distance":23.3,"MatchLevel":"houseNumber","MatchQuality":{"Country":1.0,"State":1.0,"County":1.0,"City":1.0,"District":1.0,"Street":[1.0],"HouseNumber":1.0,"PostalCode":1.0},"MatchType":"interpolated","Location":{"LocationId":"NT_JLuFMFEfQxoJKeQkvBkmrB_l_26762500_L_xA","LocationType":"point","DisplayPosition":{"Latitude":51.019198,"Longitude":-3.1058861},"MapView":{"TopLeft":{"Latitude":51.0203222,"Longitude":-3.1076731},"BottomRight":{"Latitude":51.0180739,"Longitude":-3.104099}},"Address":{"Label":"1 Staplegrove Road, Taunton, TA1 1DB, United Kingdom","Country":"GBR","State":"England","County":"Somerset","City":"Taunton","District":"Frieze Hill","Street":"Staplegrove Road","HouseNumber":"1","PostalCode":"TA1 1DB","AdditionalData":[{"value":"United Kingdom","key":"CountryName"},{"value":"England","key":"StateName"},{"value":"Somerset","key":"CountyName"}]},"MapReference":{"ReferenceId":"26762500","Spot":0.52,"SideOfStreet":"left","StateId":"20248595","CountyId":"20357053","CityId":"20357486","DistrictId":"20357522"}}},{"Relevance":1.0,"Distance":25.2,"MatchLevel":"houseNumber","MatchQuality":{"Country":1.0,"State":1.0,"County":1.0,"City":1.0,"District":1.0,"Street":[1.0],"HouseNumber":1.0,"PostalCode":1.0},"MatchType":"interpolated","Location":{"LocationId":"NT_5bqCBtvLpd26CSZQPzSKDD_l_26709361_R_xAD","LocationType":"point","DisplayPosition":{"Latitude":51.01936,"Longitude":-3.10584},"MapView":{"TopLeft":{"Latitude":51.0204842,"Longitude":-3.107627},"BottomRight":{"Latitude":51.0182359,"Longitude":-3.1040529}},"Address":{"Label":"10 Station Road, Taunton, TA1 1NH, United Kingdom","Country":"GBR","State":"England","County":"Somerset","City":"Taunton","District":"Frieze Hill","Street":"Station Road","HouseNumber":"10","PostalCode":"TA1 1NH","AdditionalData":[{"value":"United Kingdom","key":"CountryName"},{"value":"England","key":"StateName"},{"value":"Somerset","key":"CountyName"}]},"MapReference":{"ReferenceId":"26709361","Spot":0.41,"SideOfStreet":"right","StateId":"20248595","CountyId":"20357053","CityId":"20357486","DistrictId":"20357522"}}},{"Relevance":1.0,"Distance":25.7,"MatchLevel":"houseNumber","MatchQuality":{"Country":1.0,"State":1.0,"County":1.0,"City":1.0,"District":1.0,"Street":[1.0],"HouseNumber":1.0,"PostalCode":1.0},"MatchType":"interpolated","Location":{"LocationId":"NT_JLuFMFEfQxoJKeQkvBkmrB_l_781648124_L_zA","LocationType":"point","DisplayPosition":{"Latitude":51.01924,"Longitude":-3.10594},"MapView":{"TopLeft":{"Latitude":51.0203642,"Longitude":-3.1077271},"BottomRight":{"Latitude":51.0181159,"Longitude":-3.104153}},"Address":{"Label":"3 Staplegrove Road, Taunton, TA1 1DA, United Kingdom","Country":"GBR","State":"England","County":"Somerset","City":"Taunton","District":"Frieze Hill","Street":"Staplegrove Road","HouseNumber":"3","PostalCode":"TA1 1DA","AdditionalData":[{"value":"United Kingdom","key":"CountryName"},{"value":"England","key":"StateName"},{"value":"Somerset","key":"CountyName"}]},"MapReference":{"ReferenceId":"781648124","Spot":0.0,"SideOfStreet":"left","StateId":"20248595","CountyId":"20357053","CityId":"20357486","DistrictId":"20357522"}}},{"Relevance":1.0,"Distance":25.9,"MatchLevel":"postalCode","MatchQuality":{"PostalCode":1.0},"MatchType":"interpolated","Location":{"LocationId":"NT_JLuFMFEfQxoJKeQkvBkmrB_l_26762500_L_xA","LocationType":"point","DisplayPosition":{"Latitude":51.0191,"Longitude":-3.10601},"MapView":{"TopLeft":{"Latitude":51.0280932,"Longitude":-3.1203062},"BottomRight":{"Latitude":51.0101068,"Longitude":-3.0917138}},"Address":{"Label":"TA1 1DB, Taunton, England, United Kingdom","Country":"GBR","State":"England","County":"Somerset","City":"Taunton","PostalCode":"TA1 1DB","AdditionalData":[{"value":"United Kingdom","key":"CountryName"},{"value":"England","key":"StateName"},{"value":"Somerset","key":"CountyName"}]},"MapReference":{"ReferenceId":"26762500","Spot":0.52,"SideOfStreet":"neither","StateId":"20248595","CountyId":"20357053","CityId":"20357486"}}},{"Relevance":1.0,"Distance":26.9,"MatchLevel":"houseNumber","MatchQuality":{"Country":1.0,"State":1.0,"County":1.0,"City":1.0,"District":1.0,"Street":[1.0],"HouseNumber":1.0,"PostalCode":1.0},"MatchType":"interpolated","Location":{"LocationId":"NT_mk6BzfBrEYybNsem4.p4.D_l_26756123_L_0ED","LocationType":"point","DisplayPosition":{"Latitude":51.0190183,"Longitude":-3.1060367},"MapView":{"TopLeft":{"Latitude":51.0201425,"Longitude":-3.1078237},"BottomRight":{"Latitude":51.0178942,"Longitude":-3.1042496}},"Address":{"Label":"41 Wood Street, Taunton, TA1 1DB, United Kingdom","Country":"GBR","State":"England","County":"Somerset","City":"Taunton","District":"Frieze Hill","Street":"Wood Street","HouseNumber":"41","PostalCode":"TA1 1DB","AdditionalData":[{"value":"United Kingdom","key":"CountryName"},{"value":"England","key":"StateName"},{"value":"Somerset","key":"CountyName"}]},"MapReference":{"ReferenceId":"26756123","Spot":0.67,"SideOfStreet":"left","StateId":"20248595","CountyId":"20357053","CityId":"20357486","DistrictId":"20357522"}}},{"Relevance":1.0,"Distance":31.9,"MatchLevel":"postalCode","MatchQuality":{"PostalCode":1.0},"Location":{"LocationId":"NT_13Yo5o0UlH6w2vIiMbixjA_l_744056890_L","LocationType":"point","DisplayPosition":{"Latitude":51.01916,"Longitude":-3.10524},"MapView":{"TopLeft":{"Latitude":51.0281532,"Longitude":-3.1195363},"BottomRight":{"Latitude":51.0101668,"Longitude":-3.0909437}},"Address":{"Label":"TA1 1UE, Taunton, England, United Kingdom","Country":"GBR","State":"England","County":"Somerset","City":"Taunton","PostalCode":"TA1 1UE","AdditionalData":[{"value":"United Kingdom","key":"CountryName"},{"value":"England","key":"StateName"},{"value":"Somerset","key":"CountyName"}]},"MapReference":{"ReferenceId":"744056890","Spot":0.36,"SideOfStreet":"neither","StateId":"20248595","CountyId":"20357053","CityId":"20357486"}}},{"Relevance":1.0,"Distance":35.5,"MatchLevel":"street","MatchQuality":{"Country":1.0,"State":1.0,"County":1.0,"City":1.0,"District":1.0,"Street":[1.0],"PostalCode":1.0},"Location":{"LocationId":"NT_13Yo5o0UlH6w2vIiMbixjA_l_744056890_L","LocationType":"point","DisplayPosition":{"Latitude":51.0191983,"Longitude":-3.1052152},"MapView":{"TopLeft":{"Latitude":51.01956,"Longitude":-3.10575},"BottomRight":{"Latitude":51.0188,"Longitude":-3.10498}},"Address":{"Label":"Blackhorse Lane, Taunton, TA1 1, United Kingdom","Country":"GBR","State":"England","County":"Somerset","City":"Taunton","District":"Frieze Hill","Street":"Blackhorse Lane","PostalCode":"TA1 1","AdditionalData":[{"value":"United Kingdom","key":"CountryName"},{"value":"England","key":"StateName"},{"value":"Somerset","key":"CountyName"}]},"MapReference":{"ReferenceId":"744056890","Spot":0.36,"SideOfStreet":"left","StateId":"20248595","CountyId":"20357053","CityId":"20357486","DistrictId":"20357522"}}}]}]}}