{"Response":{"MetaInfo":{"Timestamp":"2020-03-28T10:21:02.722+0000","NextPageInformation":"2"},"View":[{"_type":"SearchResultsViewType","ViewId":0,"Result":[{"Relevance":1.0,"Distance":0.0,"Direction":0.0,"MatchLevel":"district","MatchQuality":{"Country":1.0,"State":1.0,"County":1.0,"City":1.0,"District":1.0,"PostalCode":1.0},"Location":{"LocationId":"NT_ICmLidzsNbcQqow9AkqwTC","LocationType":"point","DisplayPosition":{"Latitude":51.0130243,"Longitude":6.0489807},"MapView":{"TopLeft":{"Latitude":51.0143,"Longitude":6.04071},"BottomRight":{"Latitude":50.99805,"Longitude":6.0653}},"Address":{"Label":"Birgden, Gangelt, Nordrhein-Westfalen, Deutschland","Country":"DEU","State":"Nordrhein-Westfalen","County":"Heinsberg","City":"Gangelt","District":"Birgden","PostalCode":"52538","AdditionalData":[{"value":"Deutschland","key":"CountryName"},{"value":"Nordrhein-Westfalen","key":"StateName"},{"value":"Heinsberg","key":"CountyName"}]},"MapReference":{"ReferenceId":"536997452","SideOfStreet":"neither","CountryId":"20147700","StateId":"20157369","CountyId":"20158557","CityId":"20158575","DistrictId":"20158577"}}},{"Relevance":1.0,"Distance":10.0,"MatchLevel":"houseNumber","MatchQuality":{"Country":1.0,"State":1.0,"County":1.0,"City":1.0,"District":1.0,"Street":[1.0],"HouseNumber":1.0,"PostalCode":1.0},"MatchType":"interpolated","Location":{"LocationId":"NT_AenBclG4n2eaukdsZLdtWD_zcD","LocationType":"point","DisplayPosition":{"Latitude":51.01294,"Longitude":6.04925},"MapView":{"TopLeft":{"Latitude":51.0140642,"Longitude":6.0474632},"BottomRight":{"Latitude":51.0118158,"Longitude":6.0510368}},"Address":{"Label":"Starzend 37, 52538 Gangelt, Deutschland","Country":"DEU","State":"Nordrhein-Westfalen","County":"Heinsberg","City":"Gangelt","District":"Birgden","Street":"Starzend","HouseNumber":"37","PostalCode":"52538","AdditionalData":[{"value":"Deutschland","key":"CountryName"},{"value":"Nordrhein-Westfalen","key":"StateName"},{"value":"Heinsberg","key":"CountyName"}]},"MapReference":{"ReferenceId":"537818408","Spot":0.33,"SideOfStreet":"left","CountryId":"20147700","StateId":"20157369","CountyId":"20158557","CityId":"20158575","DistrictId":"20158577","AddressId":"594121724","RoadLinkId":"39450692"}}},{"Relevance":1.0,"Distance":27.5,"MatchLevel":"houseNumber","MatchQuality":{"Country":1.0,"State":1.0,"County":1.0,"City":1.0,"District":1.0,"Street":[1.0],"HouseNumber":1.0,"PostalCode":1.0},"MatchType":"interpolated","Location":{"LocationId":"NT_AenBclG4n2eaukdsZLdtWD_zkD","LocationType":"point","DisplayPosition":{"Latitude":51.01254,"Longitude":6.04872},"MapView":{"TopLeft":{"Latitude":51.0136642,"Longitude":6.0469332},"BottomRight":{"Latitude":51.0114158,"Longitude":6.0505068}},"Address":{"Label":"Starzend 39, 52538 Gangelt, Deutschland","Country":"DEU","State":"Nordrhein-Westfalen","County":"Heinsberg","City":"Gangelt","District":"Birgden","Street":"Starzend","HouseNumber":"39","PostalCode":"52538","AdditionalData":[{"value":"Deutschland","key":"CountryName"},{"value":"Nordrhein-Westfalen","key":"StateName"},{"value":"Heinsberg","key":"CountyName"}]},"MapReference":{"ReferenceId":"536997440","Spot":0.09,"SideOfStreet":"right","CountryId":"20147700","StateId":"20157369","CountyId":"20158557","CityId":"20158575","DistrictId":"20158577","AddressId":"195048464","RoadLinkId":"39324083"}}},{"Relevance":1.0,"Distance":38.7,"MatchLevel":"houseNumber","MatchQuality":{"Country":1.0,"State":1.0,"County":1.0,"City":1.0,"District":1.0,"Street":[1.0],"HouseNumber":1.0,"PostalCode":1.0},"MatchType":"interpolated","Location":{"LocationId":"NT_2nwZdOv1LnD9f6v4.bq.XA_yA","LocationType":"point","DisplayPosition":{"Latitude":51.01262,"Longitude":6.04928},"MapView":{"TopLeft":{"Latitude":51.0137442,"Longitude":6.0474932},"BottomRight":{"Latitude":51.0114958,"Longitude":6.0510668}},"Address":{"Label":"An der Vogelstange 2, 52538 Gangelt, Deutschland","Country":"DEU","State":"Nordrhein-Westfalen","County":"Heinsberg","City":"Gangelt","District":"Birgden","Street":"An der Vogelstange","HouseNumber":"2","PostalCode":"52538","AdditionalData":[{"value":"Deutschland","key":"CountryName"},{"value":"Nordrhein-Westfalen","key":"StateName"},{"value":"Heinsberg","key":"CountyName"}]},"MapReference":{"ReferenceId":"536997130","Spot":0.92,"SideOfStreet":"right","CountryId":"20147700","StateId":"20157369","CountyId":"20158557","CityId":"20158575","DistrictId":"20158577","AddressId":"193969067","RoadLinkId":"39284851"}}},{"Relevance":1.0,"Distance":45.8,"MatchLevel":"street","MatchQuality":{"Country":1.0,"State":1.0,"County":1.0,"City":1.0,"District":1.0,"Street":[1.0],"PostalCode":1.0},"Location":{"LocationId":"NT_AenBclG4n2eaukdsZLdtWD_l_537818407_L","LocationType":"point","DisplayPosition":{"Latitude":51.01263,"Longitude":6.04917},"MapView":{"TopLeft":{"Latitude":51.01263,"Longitude":6.04905},"BottomRight":{"Latitude":51.01244,"Longitude":6.04917}},"Address":{"Label":"Starzend, 52538 Gangelt, Deutschland","Country":"DEU","State":"Nordrhein-Westfalen","County":"Heinsberg","City":"Gangelt","District":"Birgden","Street":"Starzend","PostalCode":"52538","AdditionalData":[{"value":"Deutschland","key":"CountryName"},{"value":"Nordrhein-Westfalen","key":"StateName"},{"value":"Heinsberg","key":"CountyName"}]},"MapReference":{"ReferenceId":"537818407","Spot":1.0,"SideOfStreet":"left","CountryId":"20147700","StateId":"20157369","CountyId":"20158557","CityId":"20158575","DistrictId":"20158577"}}},{"Relevance":1.0,"Distance":69.0,"MatchLevel":"street","MatchQuality":{"Country":1.0,"State":1.0,"County":1.0,"City":1.0,"PostalCode":1.0},"Location":{"LocationId":"NT_9gpAQn9thDabcuJ8cdqCjC_l_1167372814_L","LocationType":"point","DisplayPosition":{"Latitude":51.01358,"Longitude":6.04942},"MapView":{"TopLeft":{"Latitude":51.01712,"Longitude":6.04942},"BottomRight":{"Latitude":51.01358,"Longitude":6.05065}},"Address":{"Label":"52538 Gangelt, Deutschland","Country":"DEU","State":"Nordrhein-Westfalen","County":"Heinsberg","City":"Gangelt","PostalCode":"52538","AdditionalData":[{"value":"Deutschland","key":"CountryName"},{"value":"Nordrhein-Westfalen","key":"StateName"},{"value":"Heinsberg","key":"CountyName"}]},"MapReference":{"ReferenceId":"1167372814","Spot":0.0,"SideOfStreet":"left","CountryId":"20147700","StateId":"20157369","CountyId":"20158557","CityId":"20158575"}}},{"Relevance":1.0,"Distance":78.3,"MatchLevel":"houseNumber","MatchQuality":{"Country":1.0,"State":1.0,"County":1.0,"City":1.0,"District":1.0,"Street":[1.0],"HouseNumber":1.0,"PostalCode":1.0},"MatchType":"interpolated","Location":{"LocationId":"NT_AenBclG4n2eaukdsZLdtWD_zMD","LocationType":"point","DisplayPosition":{"Latitude":51.01233,"Longitude":6.04917},"MapView":{"TopLeft":{"Latitude":51.0134542,"Longitude":6.0473832},"BottomRight":{"Latitude":51.0112058,"Longitude":6.0509568}},"Address":{"Label":"Starzend 33, 52538 Gangelt, Deutschland","Country":"DEU","State":"Nordrhein-Westfalen","County":"Heinsberg","City":"Gangelt","District":"Birgden","Street":"Starzend","HouseNumber":"33","PostalCode":"52538","AdditionalData":[{"value":"Deutschland","key":"CountryName"},{"value":"Nordrhein-Westfalen","key":"StateName"},{"value":"Heinsberg","key":"CountyName"}]},"MapReference":{"ReferenceId":"757240467","Spot":0.35,"SideOfStreet":"right","CountryId":"20147700","StateId":"20157369","CountyId":"20158557","CityId":"20158575","DistrictId":"20158577","AddressId":"193883133","RoadLinkId":"152242147"}}},{"Relevance":1.0,"Distance":103.4,"MatchLevel":"houseNumber","MatchQuality":{"Country":1.0,"State":1.0,"County":1.0,"City":1.0,"District":1.0,"Street":[1.0],"HouseNumber":1.0,"PostalCode":1.0},"MatchType":"interpolated","Location":{"LocationId":"NT_AenBclG4n2eaukdsZLdtWD_ykD","LocationType":"point","DisplayPosition":{"Latitude":51.01211,"Longitude":6.04925},"MapView":{"TopLeft":{"Latitude":51.0132342,"Longitude":6.0474632},"BottomRight":{"Latitude":51.0109858,"Longitude":6.0510368}},"Address":{"Label":"Starzend 29, 52538 Gangelt, Deutschland","Country":"DEU","State":"Nordrhein-Westfalen","County":"Heinsberg","City":"Gangelt","District":"Birgden","Street":"Starzend","HouseNumber":"29","PostalCode":"52538","AdditionalData":[{"value":"Deutschland","key":"CountryName"},{"value":"Nordrhein-Westfalen","key":"StateName"},{"value":"Heinsberg","key":"CountyName"}]},"MapReference":{"ReferenceId":"757240466","Spot":0.8,"SideOfStreet":"right","CountryId":"20147700","StateId":"20157369","CountyId":"20158557","CityId":"20158575","DistrictId":"20158577","AddressId":"193972961","RoadLinkId":"152242146"}}},{"Relevance":1.0,"Distance":130.7,"MatchLevel":"street","MatchQuality":{"Country":1.0,"State":1.0,"County":1.0,"City":1.0,"PostalCode":1.0},"Location":{"LocationId":"NT_9gpAQn9thDabcuJ8cdqCjC_l_536997144_R","LocationType":"point","DisplayPosition":{"Latitude":51.01246,"Longitude":6.05062},"MapView":{"TopLeft":{"Latitude":51.01246,"Longitude":6.05062},"BottomRight":{"Latitude":51.01188,"Longitude":6.05678}},"Address":{"Label":"52538 Gangelt, Deutschland","Country":"DEU","State":"Nordrhein-Westfalen","County":"Heinsberg","City":"Gangelt","PostalCode":"52538","AdditionalData":[{"value":"Deutschland","key":"CountryName"},{"value":"Nordrhein-Westfalen","key":"StateName"},{"value":"Heinsberg","key":"CountyName"}]},"MapReference":{"ReferenceId":"536997144","Spot":1.0,"SideOfStreet":"right","CountryId":"20147700","StateId":"20157369","CountyId":"20158557","CityId":"20158575"}}},{"Relevance":1.0,"Distance":177.3,"MatchLevel":"houseNumber","MatchQuality":{"Country":1.0,"State":1.0,"County":1.0,"City":1.0,"District":1.0,"Street":[1.0],"HouseNumber":1.0,"PostalCode":1.0},"MatchType":"interpolated","Location":{"LocationId":"NT_AenBclG4n2eaukdsZLdtWD_zQD","LocationType":"point","DisplayPosition":{"Latitude":51.01145,"Longitude":6.04932},"MapView":{"TopLeft":{"Latitude":51.0125742,"Longitude":6.0475333},"BottomRight":{"Latitude":51.0103258,"Longitude":6.0511067}},"Address":{"Label":"Starzend 34, 52538 Gangelt, Deutschland","Country":"DEU","State":"Nordrhein-Westfalen","County":"Heinsberg","City":"Gangelt","District":"Birgden","Street":"Starzend","HouseNumber":"34","PostalCode":"52538","AdditionalData":[{"value":"Deutschland","key":"CountryName"},{"value":"Nordrhein-Westfalen","key":"StateName"},{"value":"Heinsberg","key":"CountyName"}]},"MapReference":{"ReferenceId":"757240462","Spot":0.88,"SideOfStreet":"left","CountryId":"20147700","StateId":"20157369","CountyId":"20158557","CityId":"20158575","DistrictId":"20158577","AddressId":"193367718","RoadLinkId":"152242140"}}}]}]}}