{"Response":{"MetaInfo":{"Timestamp":"2020-03-28T11:38:48.958+0000","NextPageInformation":"2"},"View":[{"_type":"SearchResultsViewType","ViewId":0,"Result":[{"Relevance":1.0,"Distance":0.0,"Direction":0.0,"MatchLevel":"district","MatchQuality":{"Country":1.0,"State":1.0,"County":1.0,"City":1.0,"District":1.0,"PostalCode":1.0},"Location":{"LocationId":"NT_Hw.pbQjp-OHw8O8zj2VjpB","LocationType":"point","DisplayPosition":{"Latitude":51.0482038,"Longitude":4.4213342},"MapView":{"TopLeft":{"Latitude":51.05498,"Longitude":4.40757},"BottomRight":{"Latitude":51.04446,"Longitude":4.42359}},"Address":{"Label":"Heffen, Mechelen, Vlaanderen, België","Country":"BEL","State":"Vlaanderen","County":"Antwerpen","City":"Mechelen","District":"Heffen","PostalCode":"2801","AdditionalData":[{"value":"België","key":"CountryName"},{"value":"Vlaanderen","key":"StateName"},{"value":"Antwerpen","key":"CountyName"}]},"MapReference":{"ReferenceId":"544941217","SideOfStreet":"neither","CountryId":"20128886","StateId":"20204377","CountyId":"20204378","CityId":"20204534","DistrictId":"20204536"}}},{"Relevance":1.0,"Distance":7.1,"MatchLevel":"houseNumber","MatchQuality":{"Country":1.0,"State":1.0,"County":1.0,"City":1.0,"District":1.0,"Street":[1.0],"HouseNumber":1.0,"PostalCode":1.0},"MatchType":"interpolated","Location":{"LocationId":"NT_jH50f3wOl-ssMm7gvVBKAD_0A","LocationType":"point","DisplayPosition":{"Latitude":51.04818,"Longitude":4.42125},"MapView":{"TopLeft":{"Latitude":51.0493042,"Longitude":4.4194618},"BottomRight":{"Latitude":51.0470558,"Longitude":4.4230382}},"Address":{"Label":"Hooiendonkstraat 4, 2801 Mechelen, België","Country":"BEL","State":"Vlaanderen","County":"Antwerpen","City":"Mechelen","District":"Heffen","Street":"Hooiendonkstraat","HouseNumber":"4","PostalCode":"2801","AdditionalData":[{"value":"België","key":"CountryName"},{"value":"Vlaanderen","key":"StateName"},{"value":"Antwerpen","key":"CountyName"}]},"MapReference":{"ReferenceId":"544941215","Spot":0.1,"SideOfStreet":"right","CountryId":"20128886","StateId":"20204377","CountyId":"20204378","CityId":"20204534","DistrictId":"20204536","AddressId":"400712483","RoadLinkId":"30901795"}}},{"Relevance":1.0,"Distance":20.3,"MatchLevel":"houseNumber","MatchQuality":{"Country":1.0,"State":1.0,"County":1.0,"City":1.0,"District":1.0,"Street":[1.0],"HouseNumber":1.0,"PostalCode":1.0},"MatchType":"interpolated","Location":{"LocationId":"NT_N1WKsHVgsH-OyJMKLh72LC_yA","LocationType":"point","DisplayPosition":{"Latitude":51.04826,"Longitude":4.42096},"MapView":{"TopLeft":{"Latitude":51.0493842,"Longitude":4.4191718},"BottomRight":{"Latitude":51.0471358,"Longitude":4.4227482}},"Address":{"Label":"Steenweg op Heindonk 2, 2801 Mechelen, België","Country":"BEL","State":"Vlaanderen","County":"Antwerpen","City":"Mechelen","District":"Heffen","Street":"Steenweg op Heindonk","HouseNumber":"2","PostalCode":"2801","AdditionalData":[{"value":"België","key":"CountryName"},{"value":"Vlaanderen","key":"StateName"},{"value":"Antwerpen","key":"CountyName"}]},"MapReference":{"ReferenceId":"54022412","Spot":0.14,"SideOfStreet":"right","CountryId":"20128886","StateId":"20204377","CountyId":"20204378","CityId":"20204534","DistrictId":"20204536","AddressId":"737265093","RoadLinkId":"348611185"}}},{"Relevance":1.0,"Distance":25.6,"MatchLevel":"houseNumber","MatchQuality":{"Country":1.0,"State":1.0,"County":1.0,"City":1.0,"District":1.0,"Street":[1.0],"HouseNumber":1.0,"PostalCode":1.0},"MatchType":"interpolated","Location":{"LocationId":"NT_VglQsHPW3CzPZ-ctJp3ZFA_yQD","LocationType":"point","DisplayPosition":{"Latitude":51.04793,"Longitude":4.4213},"MapView":{"TopLeft":{"Latitude":51.0490542,"Longitude":4.4195119},"BottomRight":{"Latitude":51.0468058,"Longitude":4.4230881}},"Address":{"Label":"Kazernestraat 24, 2801 Mechelen, België","Country":"BEL","State":"Vlaanderen","County":"Antwerpen","City":"Mechelen","District":"Heffen","Street":"Kazernestraat","HouseNumber":"24","PostalCode":"2801","AdditionalData":[{"value":"België","key":"CountryName"},{"value":"Vlaanderen","key":"StateName"},{"value":"Antwerpen","key":"CountyName"}]},"MapReference":{"ReferenceId":"54022413","Spot":0.87,"SideOfStreet":"right","CountryId":"20128886","StateId":"20204377","CountyId":"20204378","CityId":"20204534","DistrictId":"20204536","AddressId":"400169748","RoadLinkId":"30259869"}}},{"Relevance":1.0,"Distance":83.2,"MatchLevel":"houseNumber","MatchQuality":{"Country":1.0,"State":1.0,"County":1.0,"City":1.0,"District":1.0,"Street":[1.0],"HouseNumber":1.0,"PostalCode":1.0},"MatchType":"interpolated","Location":{"LocationId":"NT_NLhH-pL03WRfuH6w..AGRC_5A","LocationType":"point","DisplayPosition":{"Latitude":51.04827,"Longitude":4.42266},"MapView":{"TopLeft":{"Latitude":51.0493942,"Longitude":4.4208718},"BottomRight":{"Latitude":51.0471458,"Longitude":4.4244482}},"Address":{"Label":"Fabiolalaan 9, 2801 Mechelen, België","Country":"BEL","State":"Vlaanderen","County":"Antwerpen","City":"Mechelen","District":"Heffen","Street":"Fabiolalaan","HouseNumber":"9","PostalCode":"2801","AdditionalData":[{"value":"België","key":"CountryName"},{"value":"Vlaanderen","key":"StateName"},{"value":"Antwerpen","key":"CountyName"}]},"MapReference":{"ReferenceId":"54022420","Spot":0.2,"SideOfStreet":"left","CountryId":"20128886","StateId":"20204377","CountyId":"20204378","CityId":"20204534","DistrictId":"20204536","AddressId":"400373685","RoadLinkId":"30671086"}}},{"Relevance":1.0,"Distance":88.2,"MatchLevel":"houseNumber","MatchQuality":{"Country":1.0,"State":1.0,"County":1.0,"City":1.0,"District":1.0,"Street":[1.0],"HouseNumber":1.0,"PostalCode":1.0},"MatchType":"interpolated","Location":{"LocationId":"NT_Xi567DAP5sKBjCqza43HYA_yQD","LocationType":"point","DisplayPosition":{"Latitude":51.04753,"Longitude":4.42031},"MapView":{"TopLeft":{"Latitude":51.0486542,"Longitude":4.4185219},"BottomRight":{"Latitude":51.0464058,"Longitude":4.4220981}},"Address":{"Label":"Groenenbeemd 24, 2801 Mechelen, België","Country":"BEL","State":"Vlaanderen","County":"Antwerpen","City":"Mechelen","District":"Heffen","Street":"Groenenbeemd","HouseNumber":"24","PostalCode":"2801","AdditionalData":[{"value":"België","key":"CountryName"},{"value":"Vlaanderen","key":"StateName"},{"value":"Antwerpen","key":"CountyName"}]},"MapReference":{"ReferenceId":"544994506","Spot":0.65,"SideOfStreet":"right","CountryId":"20128886","StateId":"20204377","CountyId":"20204378","CityId":"20204534","DistrictId":"20204536","AddressId":"399721323","RoadLinkId":"30531008"}}},{"Relevance":1.0,"Distance":94.2,"MatchLevel":"houseNumber","MatchQuality":{"Country":1.0,"State":1.0,"County":1.0,"City":1.0,"District":1.0,"Street":[1.0],"HouseNumber":1.0,"PostalCode":1.0},"MatchType":"interpolated","Location":{"LocationId":"NT_Xi567DAP5sKBjCqza43HYA_ygD","LocationType":"point","DisplayPosition":{"Latitude":51.04759,"Longitude":4.42011},"MapView":{"TopLeft":{"Latitude":51.0487142,"Longitude":4.4183219},"BottomRight":{"Latitude":51.0464658,"Longitude":4.4218981}},"Address":{"Label":"Groenenbeemd 28, 2801 Mechelen, België","Country":"BEL","State":"Vlaanderen","County":"Antwerpen","City":"Mechelen","District":"Heffen","Street":"Groenenbeemd","HouseNumber":"28","PostalCode":"2801","AdditionalData":[{"value":"België","key":"CountryName"},{"value":"Vlaanderen","key":"StateName"},{"value":"Antwerpen","key":"CountyName"}]},"MapReference":{"ReferenceId":"544994505","Spot":0.09,"SideOfStreet":"right","CountryId":"20128886","StateId":"20204377","CountyId":"20204378","CityId":"20204534","DistrictId":"20204536","AddressId":"401239997","RoadLinkId":"30927157"}}},{"Relevance":1.0,"Distance":99.4,"MatchLevel":"houseNumber","MatchQuality":{"Country":1.0,"State":1.0,"County":1.0,"City":1.0,"District":1.0,"Street":[1.0],"HouseNumber":1.0,"PostalCode":1.0},"MatchType":"interpolated","Location":{"LocationId":"NT_Yug8IoHdPSkuLyvcgt.UKC_xgD","LocationType":"point","DisplayPosition":{"Latitude":51.04713,"Longitude":4.42199},"MapView":{"TopLeft":{"Latitude":51.0482542,"Longitude":4.4202019},"BottomRight":{"Latitude":51.0460058,"Longitude":4.4237781}},"Address":{"Label":"Heffen-Dorp 18, 2801 Mechelen, België","Country":"BEL","State":"Vlaanderen","County":"Antwerpen","City":"Mechelen","District":"Heffen","Street":"Heffen-Dorp","HouseNumber":"18","PostalCode":"2801","AdditionalData":[{"value":"België","key":"CountryName"},{"value":"Vlaanderen","key":"StateName"},{"value":"Antwerpen","key":"CountyName"}]},"MapReference":{"ReferenceId":"54022431","Spot":1.0,"SideOfStreet":"left","CountryId":"20128886","StateId":"20204377","CountyId":"20204378","CityId":"20204534","DistrictId":"20204536","AddressId":"399527453","RoadLinkId":"30284523"}}},{"Relevance":1.0,"Distance":108.9,"MatchLevel":"houseNumber","MatchQuality":{"Country":1.0,"State":1.0,"County":1.0,"City":1.0,"District":1.0,"Street":[1.0],"HouseNumber":1.0,"PostalCode":1.0},"MatchType":"interpolated","Location":{"LocationId":"NT_NLhH-pL03WRfuH6w..AGRC_zED","LocationType":"point","DisplayPosition":{"Latitude":51.04913,"Longitude":4.42224},"MapView":{"TopLeft":{"Latitude":51.0502542,"Longitude":4.4204518},"BottomRight":{"Latitude":51.0480058,"Longitude":4.4240282}},"Address":{"Label":"Fabiolalaan 31, 2801 Mechelen, België","Country":"BEL","State":"Vlaanderen","County":"Antwerpen","City":"Mechelen","District":"Heffen","Street":"Fabiolalaan","HouseNumber":"31","PostalCode":"2801","AdditionalData":[{"value":"België","key":"CountryName"},{"value":"Vlaanderen","key":"StateName"},{"value":"Antwerpen","key":"CountyName"}]},"MapReference":{"ReferenceId":"54022428","Spot":0.74,"SideOfStreet":"left","CountryId":"20128886","StateId":"20204377","CountyId":"20204378","CityId":"20204534","DistrictId":"20204536","AddressId":"399584281","RoadLinkId":"31011588"}}},{"Relevance":1.0,"Distance":117.7,"MatchLevel":"houseNumber","MatchQuality":{"Country":1.0,"State":1.0,"County":1.0,"City":1.0,"District":1.0,"Street":[1.0],"HouseNumber":1.0,"PostalCode":1.0},"MatchType":"interpolated","Location":{"LocationId":"NT_nzgK.ZnqQA8o90KM5MUThD_zA","LocationType":"point","DisplayPosition":{"Latitude":51.04719,"Longitude":4.42227},"MapView":{"TopLeft":{"Latitude":51.0483142,"Longitude":4.4204819},"BottomRight":{"Latitude":51.0460658,"Longitude":4.4240581}},"Address":{"Label":"Sint-Amandusstraat 3, 2801 Mechelen, België","Country":"BEL","State":"Vlaanderen","County":"Antwerpen","City":"Mechelen","District":"Heffen","Street":"Sint-Amandusstraat","HouseNumber":"3","PostalCode":"2801","AdditionalData":[{"value":"België","key":"CountryName"},{"value":"Vlaanderen","key":"StateName"},{"value":"Antwerpen","key":"CountyName"}]},"MapReference":{"ReferenceId":"544941217","Spot":0.39,"SideOfStreet":"left","CountryId":"20128886","StateId":"20204377","CountyId":"20204378","CityId":"20204534","DistrictId":"20204536","AddressId":"401134320","RoadLinkId":"30434318"}}}]}]}}