{"Response":{"MetaInfo":{"Timestamp":"2020-03-28T10:23:35.024+0000","NextPageInformation":"2"},"View":[{"_type":"SearchResultsViewType","ViewId":0,"Result":[{"Relevance":1.0,"Distance":0.0,"Direction":0.0,"MatchLevel":"district","MatchQuality":{"Country":1.0,"State":1.0,"County":1.0,"City":1.0,"District":1.0,"PostalCode":1.0},"Location":{"LocationId":"NT_8.kWPPfh3hBbso8eD0lKcA","LocationType":"point","DisplayPosition":{"Latitude":51.0802375,"Longitude":6.3196245},"MapView":{"TopLeft":{"Latitude":51.0935,"Longitude":6.29206},"BottomRight":{"Latitude":51.059,"Longitude":6.33829}},"Address":{"Label":"Erkelenz, Nordrhein-Westfalen, Deutschland","Country":"DEU","State":"Nordrhein-Westfalen","County":"Heinsberg","City":"Erkelenz","District":"Erkelenz","PostalCode":"41812","AdditionalData":[{"value":"Deutschland","key":"CountryName"},{"value":"Nordrhein-Westfalen","key":"StateName"},{"value":"Heinsberg","key":"CountyName"}]},"MapReference":{"ReferenceId":"537853765","SideOfStreet":"neither","CountryId":"20147700","StateId":"20157369","CountyId":"20158557","CityId":"20158558","DistrictId":"20158574"}}},{"Relevance":1.0,"Distance":8.4,"MatchLevel":"houseNumber","MatchQuality":{"Country":1.0,"State":1.0,"County":1.0,"City":1.0,"District":1.0,"Street":[1.0],"HouseNumber":1.0,"PostalCode":1.0},"MatchType":"interpolated","Location":{"LocationId":"NT_v2ckisMLNXF.XHatBdcTjD_0MD","LocationType":"point","DisplayPosition":{"Latitude":51.08017,"Longitude":6.31957},"MapView":{"TopLeft":{"Latitude":51.0812942,"Longitude":6.3177806},"BottomRight":{"Latitude":51.0790458,"Longitude":6.3213594}},"Address":{"Label":"Theodor-Körner-Straße 43, 41812 Erkelenz, Deutschland","Country":"DEU","State":"Nordrhein-Westfalen","County":"Heinsberg","City":"Erkelenz","District":"Erkelenz","Street":"Theodor-Körner-Straße","HouseNumber":"43","PostalCode":"41812","AdditionalData":[{"value":"Deutschland","key":"CountryName"},{"value":"Nordrhein-Westfalen","key":"StateName"},{"value":"Heinsberg","key":"CountyName"}]},"MapReference":{"ReferenceId":"1205940417","Spot":0.1,"SideOfStreet":"right","CountryId":"20147700","StateId":"20157369","CountyId":"20158557","CityId":"20158558","DistrictId":"20158574","AddressId":"192784704","RoadLinkId":"519734302"}}},{"Relevance":1.0,"Distance":24.8,"MatchLevel":"houseNumber","MatchQuality":{"Country":1.0,"State":1.0,"County":1.0,"City":1.0,"District":1.0,"Street":[1.0],"HouseNumber":1.0,"PostalCode":1.0},"MatchType":"interpolated","Location":{"LocationId":"NT_v2ckisMLNXF.XHatBdcTjD_0ED","LocationType":"point","DisplayPosition":{"Latitude":51.08002,"Longitude":6.3197},"MapView":{"TopLeft":{"Latitude":51.0811442,"Longitude":6.3179106},"BottomRight":{"Latitude":51.0788958,"Longitude":6.3214894}},"Address":{"Label":"Theodor-Körner-Straße 41, 41812 Erkelenz, Deutschland","Country":"DEU","State":"Nordrhein-Westfalen","County":"Heinsberg","City":"Erkelenz","District":"Erkelenz","Street":"Theodor-Körner-Straße","HouseNumber":"41","PostalCode":"41812","AdditionalData":[{"value":"Deutschland","key":"CountryName"},{"value":"Nordrhein-Westfalen","key":"StateName"},{"value":"Heinsberg","key":"CountyName"}]},"MapReference":{"ReferenceId":"536950911","Spot":0.87,"SideOfStreet":"right","CountryId":"20147700","StateId":"20157369","CountyId":"20158557","CityId":"20158558","DistrictId":"20158574","AddressId":"196533550","RoadLinkId":"39452985"}}},{"Relevance":1.0,"Distance":66.8,"MatchLevel":"houseNumber","MatchQuality":{"Country":1.0,"State":1.0,"County":1.0,"City":1.0,"District":1.0,"Street":[1.0],"HouseNumber":1.0,"PostalCode":1.0},"MatchType":"interpolated","Location":{"LocationId":"NT_W7fjQWL1M8PDMZc9pGeH8D_ykD","LocationType":"point","DisplayPosition":{"Latitude":51.0802,"Longitude":6.31843},"MapView":{"TopLeft":{"Latitude":51.0813242,"Longitude":6.3166406},"BottomRight":{"Latitude":51.0790758,"Longitude":6.3202194}},"Address":{"Label":"Ostpromenade 29, 41812 Erkelenz, Deutschland","Country":"DEU","State":"Nordrhein-Westfalen","County":"Heinsberg","City":"Erkelenz","District":"Erkelenz","Street":"Ostpromenade","HouseNumber":"29","PostalCode":"41812","AdditionalData":[{"value":"Deutschland","key":"CountryName"},{"value":"Nordrhein-Westfalen","key":"StateName"},{"value":"Heinsberg","key":"CountyName"}]},"MapReference":{"ReferenceId":"536950934","Spot":0.55,"SideOfStreet":"right","CountryId":"20147700","StateId":"20157369","CountyId":"20158557","CityId":"20158558","DistrictId":"20158574","AddressId":"192728584","RoadLinkId":"39270777"}}},{"Relevance":1.0,"Distance":68.4,"MatchLevel":"houseNumber","MatchQuality":{"Country":1.0,"State":1.0,"County":1.0,"City":1.0,"District":1.0,"Street":[1.0],"HouseNumber":1.0,"PostalCode":1.0},"MatchType":"interpolated","Location":{"LocationId":"NT_p0jAPKOY0djD4rCQHuXeGB_0cD","LocationType":"point","DisplayPosition":{"Latitude":51.08051,"Longitude":6.32052},"MapView":{"TopLeft":{"Latitude":51.0816342,"Longitude":6.3187306},"BottomRight":{"Latitude":51.0793858,"Longitude":6.3223094}},"Address":{"Label":"Lambertusweg 47, 41812 Erkelenz, Deutschland","Country":"DEU","State":"Nordrhein-Westfalen","County":"Heinsberg","City":"Erkelenz","District":"Erkelenz","Street":"Lambertusweg","HouseNumber":"47","PostalCode":"41812","AdditionalData":[{"value":"Deutschland","key":"CountryName"},{"value":"Nordrhein-Westfalen","key":"StateName"},{"value":"Heinsberg","key":"CountyName"}]},"MapReference":{"ReferenceId":"77200561","Spot":0.25,"SideOfStreet":"left","CountryId":"20147700","StateId":"20157369","CountyId":"20158557","CityId":"20158558","DistrictId":"20158574","AddressId":"193015171","RoadLinkId":"39059306"}}},{"Relevance":1.0,"Distance":86.2,"MatchLevel":"houseNumber","MatchQuality":{"Country":1.0,"State":1.0,"County":1.0,"City":1.0,"District":1.0,"Street":[1.0],"HouseNumber":1.0,"PostalCode":1.0},"MatchType":"interpolated","Location":{"LocationId":"NT_W7fjQWL1M8PDMZc9pGeH8D_zkD","LocationType":"point","DisplayPosition":{"Latitude":51.08062,"Longitude":6.31833},"MapView":{"TopLeft":{"Latitude":51.0817442,"Longitude":6.3165406},"BottomRight":{"Latitude":51.0794958,"Longitude":6.3201194}},"Address":{"Label":"Ostpromenade 39, 41812 Erkelenz, Deutschland","Country":"DEU","State":"Nordrhein-Westfalen","County":"Heinsberg","City":"Erkelenz","District":"Erkelenz","Street":"Ostpromenade","HouseNumber":"39","PostalCode":"41812","AdditionalData":[{"value":"Deutschland","key":"CountryName"},{"value":"Nordrhein-Westfalen","key":"StateName"},{"value":"Heinsberg","key":"CountyName"}]},"MapReference":{"ReferenceId":"536950935","Spot":0.14,"SideOfStreet":"right","CountryId":"20147700","StateId":"20157369","CountyId":"20158557","CityId":"20158558","DistrictId":"20158574","AddressId":"249417898","RoadLinkId":"39403885"}}},{"Relevance":1.0,"Distance":87.1,"MatchLevel":"street","MatchQuality":{"Country":1.0,"State":1.0,"County":1.0,"City":1.0,"District":1.0,"Street":[1.0],"PostalCode":1.0},"Location":{"LocationId":"NT_.M5fex0ZB9SENp.tSJCsqD_l_537815606_R","LocationType":"point","DisplayPosition":{"Latitude":51.07965,"Longitude":6.3188},"MapView":{"TopLeft":{"Latitude":51.07977,"Longitude":6.31828},"BottomRight":{"Latitude":51.07879,"Longitude":6.3188}},"Address":{"Label":"Schwatte Jräet, 41812 Erkelenz, Deutschland","Country":"DEU","State":"Nordrhein-Westfalen","County":"Heinsberg","City":"Erkelenz","District":"Erkelenz","Street":"Schwatte Jräet","PostalCode":"41812","AdditionalData":[{"value":"Deutschland","key":"CountryName"},{"value":"Nordrhein-Westfalen","key":"StateName"},{"value":"Heinsberg","key":"CountyName"}]},"MapReference":{"ReferenceId":"537815606","Spot":0.66,"SideOfStreet":"right","CountryId":"20147700","StateId":"20157369","CountyId":"20158557","CityId":"20158558","DistrictId":"20158574"}}},{"Relevance":1.0,"Distance":92.6,"MatchLevel":"street","MatchQuality":{"Country":1.0,"State":1.0,"County":1.0,"City":1.0,"District":1.0,"Street":[1.0],"PostalCode":1.0},"Location":{"LocationId":"NT_J3nk-aVsqiY8QIEIpz-wyD_l_77200527_L","LocationType":"point","DisplayPosition":{"Latitude":51.07949,"Longitude":6.32021},"MapView":{"TopLeft":{"Latitude":51.07978,"Longitude":6.32021},"BottomRight":{"Latitude":51.07949,"Longitude":6.32089}},"Address":{"Label":"Glück-Auf-Straße, 41812 Erkelenz, Deutschland","Country":"DEU","State":"Nordrhein-Westfalen","County":"Heinsberg","City":"Erkelenz","District":"Erkelenz","Street":"Glück-Auf-Straße","PostalCode":"41812","AdditionalData":[{"value":"Deutschland","key":"CountryName"},{"value":"Nordrhein-Westfalen","key":"StateName"},{"value":"Heinsberg","key":"CountyName"}]},"MapReference":{"ReferenceId":"77200527","Spot":0.0,"SideOfStreet":"left","CountryId":"20147700","StateId":"20157369","CountyId":"20158557","CityId":"20158558","DistrictId":"20158574"}}},{"Relevance":1.0,"Distance":92.6,"MatchLevel":"street","MatchQuality":{"Country":1.0,"State":1.0,"County":1.0,"City":1.0,"District":1.0,"Street":[1.0],"PostalCode":1.0},"Location":{"LocationId":"NT_v2ckisMLNXF.XHatBdcTjD_l_920194505_R","LocationType":"point","DisplayPosition":{"Latitude":51.07949,"Longitude":6.32021},"MapView":{"TopLeft":{"Latitude":51.07949,"Longitude":6.32021},"BottomRight":{"Latitude":51.07944,"Longitude":6.32027}},"Address":{"Label":"Theodor-Körner-Straße, 41812 Erkelenz, Deutschland","Country":"DEU","State":"Nordrhein-Westfalen","County":"Heinsberg","City":"Erkelenz","District":"Erkelenz","Street":"Theodor-Körner-Straße","PostalCode":"41812","AdditionalData":[{"value":"Deutschland","key":"CountryName"},{"value":"Nordrhein-Westfalen","key":"StateName"},{"value":"Heinsberg","key":"CountyName"}]},"MapReference":{"ReferenceId":"920194505","Spot":1.0,"SideOfStreet":"right","CountryId":"20147700","StateId":"20157369","CountyId":"20158557","CityId":"20158558","DistrictId":"20158574"}}},{"Relevance":1.0,"Distance":93.3,"MatchLevel":"houseNumber","MatchQuality":{"Country":1.0,"State":1.0,"County":1.0,"City":1.0,"District":1.0,"Street":[1.0],"HouseNumber":1.0,"PostalCode":1.0},"MatchType":"interpolated","Location":{"LocationId":"NT_J3nk-aVsqiY8QIEIpz-wyD_yA","LocationType":"point","DisplayPosition":{"Latitude":51.07984,"Longitude":6.32103},"MapView":{"TopLeft":{"Latitude":51.0809642,"Longitude":6.3192406},"BottomRight":{"Latitude":51.0787158,"Longitude":6.3228194}},"Address":{"Label":"Glück-Auf-Straße 2, 41812 Erkelenz, Deutschland","Country":"DEU","State":"Nordrhein-Westfalen","County":"Heinsberg","City":"Erkelenz","District":"Erkelenz","Street":"Glück-Auf-Straße","HouseNumber":"2","PostalCode":"41812","AdditionalData":[{"value":"Deutschland","key":"CountryName"},{"value":"Nordrhein-Westfalen","key":"StateName"},{"value":"Heinsberg","key":"CountyName"}]},"MapReference":{"ReferenceId":"77200578","Spot":0.05,"SideOfStreet":"left","CountryId":"20147700","StateId":"20157369","CountyId":"20158557","CityId":"20158558","DistrictId":"20158574","AddressId":"196093853","RoadLinkId":"39507355"}}}]}]}}