{"Response":{"MetaInfo":{"Timestamp":"2020-03-28T10:48:05.409+0000","NextPageInformation":"2"},"View":[{"_type":"SearchResultsViewType","ViewId":0,"Result":[{"Relevance":1.0,"Distance":0.0,"Direction":0.0,"MatchLevel":"district","MatchQuality":{"Country":1.0,"State":1.0,"County":1.0,"City":1.0,"District":1.0,"PostalCode":1.0},"Location":{"LocationId":"NT_kGRv2lIpSRhmXP7xnHmjwA","LocationType":"point","DisplayPosition":{"Latitude":51.0723462,"Longitude":17.7279238},"MapView":{"TopLeft":{"Latitude":51.09003,"Longitude":17.69043},"BottomRight":{"Latitude":51.06354,"Longitude":17.74904}},"Address":{"Label":"Namysłów, Woj. Opolskie, Polska","Country":"POL","State":"Woj. Opolskie","County":"Powiat Namysłowski","City":"Namysłów","District":"Namysłów","PostalCode":"46-100","AdditionalData":[{"value":"Polska","key":"CountryName"},{"value":"Woj. Opolskie","key":"StateName"},{"value":"Powiat Namysłowski","key":"CountyName"}]},"MapReference":{"ReferenceId":"594203746","SideOfStreet":"neither","CountryId":"20624059","StateId":"20627925","CountyId":"20627993","CityId":"20627996","DistrictId":"20690249"}}},{"Relevance":1.0,"Distance":5.8,"MatchLevel":"street","MatchQuality":{"Country":1.0,"State":1.0,"County":1.0,"City":1.0,"District":1.0,"PostalCode":1.0},"Location":{"LocationId":"NT_OE5YgN4GC7l4mpnnwHlxbC_l_1157981625_L","LocationType":"point","DisplayPosition":{"Latitude":51.072373,"Longitude":17.7279949},"MapView":{"TopLeft":{"Latitude":51.07273,"Longitude":17.72786},"BottomRight":{"Latitude":51.07163,"Longitude":17.7282}},"Address":{"Label":"46-100 Namysłów, Polska","Country":"POL","State":"Woj. Opolskie","County":"Powiat Namysłowski","City":"Namysłów","District":"Namysłów","PostalCode":"46-100","AdditionalData":[{"value":"Polska","key":"CountryName"},{"value":"Woj. Opolskie","key":"StateName"},{"value":"Powiat Namysłowski","key":"CountyName"}]},"MapReference":{"ReferenceId":"1157981625","Spot":0.7,"SideOfStreet":"left","CountryId":"20624059","StateId":"20627925","CountyId":"20627993","CityId":"20627996","DistrictId":"20690249"}}},{"Relevance":1.0,"Distance":24.3,"MatchLevel":"houseNumber","MatchQuality":{"Country":1.0,"State":1.0,"County":1.0,"City":1.0,"District":1.0,"Street":[1.0],"HouseNumber":1.0,"PostalCode":1.0},"MatchType":"interpolated","Location":{"LocationId":"NT_-XhqM1psmwEIIRN7tomCJD_xQD","LocationType":"point","DisplayPosition":{"Latitude":51.07273,"Longitude":17.72778},"MapView":{"TopLeft":{"Latitude":51.0738542,"Longitude":17.7259909},"BottomRight":{"Latitude":51.0716058,"Longitude":17.7295691}},"Address":{"Label":"ulica Adama Mickiewicza 14, 46-100 Namysłów, Polska","Country":"POL","State":"Woj. Opolskie","County":"Powiat Namysłowski","City":"Namysłów","District":"Namysłów","Street":"ulica Adama Mickiewicza","HouseNumber":"14","PostalCode":"46-100","AdditionalData":[{"value":"Polska","key":"CountryName"},{"value":"Woj. Opolskie","key":"StateName"},{"value":"Powiat Namysłowski","key":"CountyName"}]},"MapReference":{"ReferenceId":"1157981623","Spot":0.92,"SideOfStreet":"right","CountryId":"20624059","StateId":"20627925","CountyId":"20627993","CityId":"20627996","DistrictId":"20690249","AddressId":"211249229","RoadLinkId":"464397291"}}},{"Relevance":1.0,"Distance":47.6,"MatchLevel":"houseNumber","MatchQuality":{"Country":1.0,"State":1.0,"County":1.0,"City":1.0,"District":1.0,"Street":[1.0],"HouseNumber":1.0,"PostalCode":1.0},"MatchType":"interpolated","Location":{"LocationId":"NT_-XhqM1psmwEIIRN7tomCJD_xUD","LocationType":"point","DisplayPosition":{"Latitude":51.07275,"Longitude":17.72815},"MapView":{"TopLeft":{"Latitude":51.0738742,"Longitude":17.7263609},"BottomRight":{"Latitude":51.0716258,"Longitude":17.7299391}},"Address":{"Label":"ulica Adama Mickiewicza 15, 46-100 Namysłów, Polska","Country":"POL","State":"Woj. Opolskie","County":"Powiat Namysłowski","City":"Namysłów","District":"Namysłów","Street":"ulica Adama Mickiewicza","HouseNumber":"15","PostalCode":"46-100","AdditionalData":[{"value":"Polska","key":"CountryName"},{"value":"Woj. Opolskie","key":"StateName"},{"value":"Powiat Namysłowski","key":"CountyName"}]},"MapReference":{"ReferenceId":"1188258549","Spot":0.22,"SideOfStreet":"left","CountryId":"20624059","StateId":"20627925","CountyId":"20627993","CityId":"20627996","DistrictId":"20690249","AddressId":"211249228","RoadLinkId":"497113426"}}},{"Relevance":1.0,"Distance":94.9,"MatchLevel":"houseNumber","MatchQuality":{"Country":1.0,"State":1.0,"County":1.0,"City":1.0,"District":1.0,"Street":[1.0],"HouseNumber":1.0,"PostalCode":1.0},"MatchType":"interpolated","Location":{"LocationId":"NT_69UZM-9Sumu0EGJw0fPMJA_xQzQ","LocationType":"point","DisplayPosition":{"Latitude":51.07337,"Longitude":17.72776},"MapView":{"TopLeft":{"Latitude":51.0744942,"Longitude":17.7259709},"BottomRight":{"Latitude":51.0722458,"Longitude":17.7295491}},"Address":{"Label":"ulica Łączańska 14C, 46-100 Namysłów, Polska","Country":"POL","State":"Woj. Opolskie","County":"Powiat Namysłowski","City":"Namysłów","District":"Namysłów","Street":"ulica Łączańska","HouseNumber":"14C","PostalCode":"46-100","AdditionalData":[{"value":"Polska","key":"CountryName"},{"value":"Woj. Opolskie","key":"StateName"},{"value":"Powiat Namysłowski","key":"CountyName"}]},"MapReference":{"ReferenceId":"892211526","Spot":0.0,"SideOfStreet":"left","CountryId":"20624059","StateId":"20627925","CountyId":"20627993","CityId":"20627996","DistrictId":"20690249","AddressId":"222320223","RoadLinkId":"256130346"}}},{"Relevance":1.0,"Distance":97.5,"MatchLevel":"landmark","MatchQuality":{"Country":1.0,"State":1.0,"Name":1.0},"Location":{"LocationId":"NT_LJW3wdwoKxTIgSq39NisWB","LocationType":"woodland","Name":"Bory Stobrawskie","DisplayPosition":{"Latitude":50.83321,"Longitude":18.04566},"MapView":{"TopLeft":{"Latitude":51.09219,"Longitude":17.42756},"BottomRight":{"Latitude":50.57423,"Longitude":18.49719}},"Address":{"Label":"Polska","Country":"POL","State":"Woj. Opolskie","AdditionalData":[{"value":"Polska","key":"CountryName"},{"value":"Woj. Opolskie","key":"StateName"}]},"MapReference":{"CountryId":"20624059","StateId":"20627925","PlaceId":"560992313"}}},{"Relevance":1.0,"Distance":98.4,"MatchLevel":"street","MatchQuality":{"Country":1.0,"State":1.0,"County":1.0,"City":1.0,"District":1.0,"PostalCode":1.0},"Location":{"LocationId":"NT_OE5YgN4GC7l4mpnnwHlxbC_l_1188258551_L","LocationType":"point","DisplayPosition":{"Latitude":51.07277,"Longitude":17.72916},"MapView":{"TopLeft":{"Latitude":51.0728,"Longitude":17.72915},"BottomRight":{"Latitude":51.07273,"Longitude":17.72932}},"Address":{"Label":"46-100 Namysłów, Polska","Country":"POL","State":"Woj. Opolskie","County":"Powiat Namysłowski","City":"Namysłów","District":"Namysłów","PostalCode":"46-100","AdditionalData":[{"value":"Polska","key":"CountryName"},{"value":"Woj. Opolskie","key":"StateName"},{"value":"Powiat Namysłowski","key":"CountyName"}]},"MapReference":{"ReferenceId":"1188258551","Spot":0.84,"SideOfStreet":"left","CountryId":"20624059","StateId":"20627925","CountyId":"20627993","CityId":"20627996","DistrictId":"20690249"}}},{"Relevance":1.0,"Distance":99.4,"MatchLevel":"street","MatchQuality":{"Country":1.0,"State":1.0,"County":1.0,"City":1.0,"District":1.0,"PostalCode":1.0},"Location":{"LocationId":"NT_OE5YgN4GC7l4mpnnwHlxbC_l_1188258550_L","LocationType":"point","DisplayPosition":{"Latitude":51.0728,"Longitude":17.72915},"MapView":{"TopLeft":{"Latitude":51.07287,"Longitude":17.72915},"BottomRight":{"Latitude":51.0728,"Longitude":17.72926}},"Address":{"Label":"46-100 Namysłów, Polska","Country":"POL","State":"Woj. Opolskie","County":"Powiat Namysłowski","City":"Namysłów","District":"Namysłów","PostalCode":"46-100","AdditionalData":[{"value":"Polska","key":"CountryName"},{"value":"Woj. Opolskie","key":"StateName"},{"value":"Powiat Namysłowski","key":"CountyName"}]},"MapReference":{"ReferenceId":"1188258550","Spot":0.0,"SideOfStreet":"left","CountryId":"20624059","StateId":"20627925","CountyId":"20627993","CityId":"20627996","DistrictId":"20690249"}}},{"Relevance":1.0,"Distance":110.0,"MatchLevel":"street","MatchQuality":{"Country":1.0,"State":1.0,"County":1.0,"City":1.0,"District":1.0,"PostalCode":1.0},"Location":{"LocationId":"NT_OE5YgN4GC7l4mpnnwHlxbC_l_1188258547_L","LocationType":"point","DisplayPosition":{"Latitude":51.07287,"Longitude":17.72926},"MapView":{"TopLeft":{"Latitude":51.07287,"Longitude":17.72926},"BottomRight":{"Latitude":51.0728,"Longitude":17.72937}},"Address":{"Label":"46-100 Namysłów, Polska","Country":"POL","State":"Woj. Opolskie","County":"Powiat Namysłowski","City":"Namysłów","District":"Namysłów","PostalCode":"46-100","AdditionalData":[{"value":"Polska","key":"CountryName"},{"value":"Woj. Opolskie","key":"StateName"},{"value":"Powiat Namysłowski","key":"CountyName"}]},"MapReference":{"ReferenceId":"1188258547","Spot":1.0,"SideOfStreet":"left","CountryId":"20624059","StateId":"20627925","CountyId":"20627993","CityId":"20627996","DistrictId":"20690249"}}},{"Relevance":1.0,"Distance":113.2,"MatchLevel":"street","MatchQuality":{"Country":1.0,"State":1.0,"County":1.0,"City":1.0,"District":1.0,"PostalCode":1.0},"Location":{"LocationId":"NT_OE5YgN4GC7l4mpnnwHlxbC_l_1187887572_R","LocationType":"point","DisplayPosition":{"Latitude":51.07329,"Longitude":17.72853},"MapView":{"TopLeft":{"Latitude":51.07341,"Longitude":17.72853},"BottomRight":{"Latitude":51.07329,"Longitude":17.72889}},"Address":{"Label":"46-100 Namysłów, Polska","Country":"POL","State":"Woj. Opolskie","County":"Powiat Namysłowski","City":"Namysłów","District":"Namysłów","PostalCode":"46-100","AdditionalData":[{"value":"Polska","key":"CountryName"},{"value":"Woj. Opolskie","key":"StateName"},{"value":"Powiat Namysłowski","key":"CountyName"}]},"MapReference":{"ReferenceId":"1187887572","Spot":0.0,"SideOfStreet":"right","CountryId":"20624059","StateId":"20627925","CountyId":"20627993","CityId":"20627996","DistrictId":"20690249"}}}]}]}}