{"Response":{"MetaInfo":{"Timestamp":"2020-03-28T11:38:20.177+0000","NextPageInformation":"2"},"View":[{"_type":"SearchResultsViewType","ViewId":0,"Result":[{"Relevance":1.0,"Distance":0.0,"Direction":0.0,"MatchLevel":"city","MatchQuality":{"Country":1.0,"State":1.0,"County":1.0,"City":1.0,"PostalCode":1.0},"Location":{"LocationId":"NT_9Lt2GxLBmIvkI204Wt8T1A","LocationType":"point","DisplayPosition":{"Latitude":51.0679924,"Longitude":4.0376377},"MapView":{"TopLeft":{"Latitude":51.1024,"Longitude":3.97183},"BottomRight":{"Latitude":51.03221,"Longitude":4.09249}},"Address":{"Label":"Zele, Vlaanderen, België","Country":"BEL","State":"Vlaanderen","County":"Oost-Vlaanderen","City":"Zele","PostalCode":"9240","AdditionalData":[{"value":"België","key":"CountryName"},{"value":"Vlaanderen","key":"StateName"},{"value":"Oost-Vlaanderen","key":"CountyName"}]},"MapReference":{"ReferenceId":"55696576","SideOfStreet":"neither","CountryId":"20128886","StateId":"20204377","CountyId":"20205081","CityId":"20205230"}}},{"Relevance":1.0,"Distance":7.0,"MatchLevel":"houseNumber","MatchQuality":{"Country":1.0,"State":1.0,"County":1.0,"City":1.0,"Street":[1.0],"HouseNumber":1.0,"PostalCode":1.0},"MatchType":"interpolated","Location":{"LocationId":"NT_Fz2AVMv0lgaTAuoKlj5brA_2A","LocationType":"point","DisplayPosition":{"Latitude":51.06793,"Longitude":4.03762},"MapView":{"TopLeft":{"Latitude":51.0690542,"Longitude":4.0358311},"BottomRight":{"Latitude":51.0668058,"Longitude":4.0394089}},"Address":{"Label":"Cesar Meeusstraat 6, 9240 Zele, België","Country":"BEL","State":"Vlaanderen","County":"Oost-Vlaanderen","City":"Zele","Street":"Cesar Meeusstraat","HouseNumber":"6","PostalCode":"9240","AdditionalData":[{"value":"België","key":"CountryName"},{"value":"Vlaanderen","key":"StateName"},{"value":"Oost-Vlaanderen","key":"CountyName"}]},"MapReference":{"ReferenceId":"580404450","Spot":0.89,"SideOfStreet":"left","CountryId":"20128886","StateId":"20204377","CountyId":"20205081","CityId":"20205230","AddressId":"399701387","RoadLinkId":"30981934"}}},{"Relevance":1.0,"Distance":7.5,"MatchLevel":"houseNumber","MatchQuality":{"Country":1.0,"State":1.0,"County":1.0,"City":1.0,"Street":[1.0],"HouseNumber":1.0,"PostalCode":1.0},"MatchType":"interpolated","Location":{"LocationId":"NT_Fz2AVMv0lgaTAuoKlj5brA_0A","LocationType":"point","DisplayPosition":{"Latitude":51.06797,"Longitude":4.03771},"MapView":{"TopLeft":{"Latitude":51.0690942,"Longitude":4.0359211},"BottomRight":{"Latitude":51.0668458,"Longitude":4.0394989}},"Address":{"Label":"Cesar Meeusstraat 4, 9240 Zele, België","Country":"BEL","State":"Vlaanderen","County":"Oost-Vlaanderen","City":"Zele","Street":"Cesar Meeusstraat","HouseNumber":"4","PostalCode":"9240","AdditionalData":[{"value":"België","key":"CountryName"},{"value":"Vlaanderen","key":"StateName"},{"value":"Oost-Vlaanderen","key":"CountyName"}]},"MapReference":{"ReferenceId":"580404449","Spot":0.03,"SideOfStreet":"left","CountryId":"20128886","StateId":"20204377","CountyId":"20205081","CityId":"20205230","AddressId":"399810398","RoadLinkId":"30473388"}}},{"Relevance":1.0,"Distance":16.3,"MatchLevel":"houseNumber","MatchQuality":{"Country":1.0,"State":1.0,"County":1.0,"City":1.0,"Street":[1.0],"HouseNumber":1.0,"PostalCode":1.0},"MatchType":"interpolated","Location":{"LocationId":"NT_CcuUpvEWZjXp2g60Iq8kfD_zcD","LocationType":"point","DisplayPosition":{"Latitude":51.06819,"Longitude":4.03789},"MapView":{"TopLeft":{"Latitude":51.0693142,"Longitude":4.0361011},"BottomRight":{"Latitude":51.0670658,"Longitude":4.0396789}},"Address":{"Label":"Markt 37, 9240 Zele, België","Country":"BEL","State":"Vlaanderen","County":"Oost-Vlaanderen","City":"Zele","Street":"Markt","HouseNumber":"37","PostalCode":"9240","AdditionalData":[{"value":"België","key":"CountryName"},{"value":"Vlaanderen","key":"StateName"},{"value":"Oost-Vlaanderen","key":"CountyName"}]},"MapReference":{"ReferenceId":"55696576","Spot":0.68,"SideOfStreet":"left","CountryId":"20128886","StateId":"20204377","CountyId":"20205081","CityId":"20205230","AddressId":"401471629","RoadLinkId":"30770154"}}},{"Relevance":1.0,"Distance":26.0,"MatchLevel":"houseNumber","MatchQuality":{"Country":1.0,"State":1.0,"County":1.0,"City":1.0,"Street":[1.0],"HouseNumber":1.0,"PostalCode":1.0},"MatchType":"interpolated","Location":{"LocationId":"NT_CcuUpvEWZjXp2g60Iq8kfD_yYD","LocationType":"point","DisplayPosition":{"Latitude":51.06806,"Longitude":4.03801},"MapView":{"TopLeft":{"Latitude":51.0691842,"Longitude":4.0362211},"BottomRight":{"Latitude":51.0669358,"Longitude":4.0397989}},"Address":{"Label":"Markt 26, 9240 Zele, België","Country":"BEL","State":"Vlaanderen","County":"Oost-Vlaanderen","City":"Zele","Street":"Markt","HouseNumber":"26","PostalCode":"9240","AdditionalData":[{"value":"België","key":"CountryName"},{"value":"Vlaanderen","key":"StateName"},{"value":"Oost-Vlaanderen","key":"CountyName"}]},"MapReference":{"ReferenceId":"55699256","Spot":1.0,"SideOfStreet":"left","CountryId":"20128886","StateId":"20204377","CountyId":"20205081","CityId":"20205230","AddressId":"399448144","RoadLinkId":"30957752"}}},{"Relevance":1.0,"Distance":31.0,"MatchLevel":"houseNumber","MatchQuality":{"Country":1.0,"State":1.0,"County":1.0,"City":1.0,"Street":[1.0],"HouseNumber":1.0,"PostalCode":1.0},"MatchType":"interpolated","Location":{"LocationId":"NT_CcuUpvEWZjXp2g60Iq8kfD_zkD","LocationType":"point","DisplayPosition":{"Latitude":51.06833,"Longitude":4.03777},"MapView":{"TopLeft":{"Latitude":51.0694542,"Longitude":4.0359811},"BottomRight":{"Latitude":51.0672058,"Longitude":4.0395589}},"Address":{"Label":"Markt 39, 9240 Zele, België","Country":"BEL","State":"Vlaanderen","County":"Oost-Vlaanderen","City":"Zele","Street":"Markt","HouseNumber":"39","PostalCode":"9240","AdditionalData":[{"value":"België","key":"CountryName"},{"value":"Vlaanderen","key":"StateName"},{"value":"Oost-Vlaanderen","key":"CountyName"}]},"MapReference":{"ReferenceId":"567236529","Spot":0.45,"SideOfStreet":"left","CountryId":"20128886","StateId":"20204377","CountyId":"20205081","CityId":"20205230","AddressId":"399865145","RoadLinkId":"30867289"}}},{"Relevance":1.0,"Distance":38.5,"MatchLevel":"houseNumber","MatchQuality":{"Country":1.0,"State":1.0,"County":1.0,"City":1.0,"Street":[1.0],"HouseNumber":1.0,"PostalCode":1.0},"MatchType":"interpolated","Location":{"LocationId":"NT_CcuUpvEWZjXp2g60Iq8kfD_0AD","LocationType":"point","DisplayPosition":{"Latitude":51.06846,"Longitude":4.03753},"MapView":{"TopLeft":{"Latitude":51.0695842,"Longitude":4.0357411},"BottomRight":{"Latitude":51.0673358,"Longitude":4.0393189}},"Address":{"Label":"Markt 40, 9240 Zele, België","Country":"BEL","State":"Vlaanderen","County":"Oost-Vlaanderen","City":"Zele","Street":"Markt","HouseNumber":"40","PostalCode":"9240","AdditionalData":[{"value":"België","key":"CountryName"},{"value":"Vlaanderen","key":"StateName"},{"value":"Oost-Vlaanderen","key":"CountyName"}]},"MapReference":{"ReferenceId":"567236528","Spot":0.21,"SideOfStreet":"left","CountryId":"20128886","StateId":"20204377","CountyId":"20205081","CityId":"20205230","AddressId":"401478580","RoadLinkId":"30656743"}}},{"Relevance":1.0,"Distance":44.7,"MatchLevel":"houseNumber","MatchQuality":{"Country":1.0,"State":1.0,"County":1.0,"City":1.0,"Street":[1.0],"HouseNumber":1.0,"PostalCode":1.0},"MatchType":"interpolated","Location":{"LocationId":"NT_iFvncUkIv6KBW3lnUwc8bD_0A","LocationType":"point","DisplayPosition":{"Latitude":51.06767,"Longitude":4.03806},"MapView":{"TopLeft":{"Latitude":51.0687942,"Longitude":4.0362711},"BottomRight":{"Latitude":51.0665458,"Longitude":4.0398489}},"Address":{"Label":"Zwaanstraat 4, 9240 Zele, België","Country":"BEL","State":"Vlaanderen","County":"Oost-Vlaanderen","City":"Zele","Street":"Zwaanstraat","HouseNumber":"4","PostalCode":"9240","AdditionalData":[{"value":"België","key":"CountryName"},{"value":"Vlaanderen","key":"StateName"},{"value":"Oost-Vlaanderen","key":"CountyName"}]},"MapReference":{"ReferenceId":"55700140","Spot":0.72,"SideOfStreet":"left","CountryId":"20128886","StateId":"20204377","CountyId":"20205081","CityId":"20205230","AddressId":"400122931","RoadLinkId":"30514190"}}},{"Relevance":1.0,"Distance":49.9,"MatchLevel":"houseNumber","MatchQuality":{"Country":1.0,"State":1.0,"County":1.0,"City":1.0,"Street":[1.0],"HouseNumber":1.0,"PostalCode":1.0},"MatchType":"interpolated","Location":{"LocationId":"NT_CcuUpvEWZjXp2g60Iq8kfD_yMTQ","LocationType":"point","DisplayPosition":{"Latitude":51.06803,"Longitude":4.03835},"MapView":{"TopLeft":{"Latitude":51.0691542,"Longitude":4.0365611},"BottomRight":{"Latitude":51.0669058,"Longitude":4.0401389}},"Address":{"Label":"Markt 23A, 9240 Zele, België","Country":"BEL","State":"Vlaanderen","County":"Oost-Vlaanderen","City":"Zele","Street":"Markt","HouseNumber":"23A","PostalCode":"9240","AdditionalData":[{"value":"België","key":"CountryName"},{"value":"Vlaanderen","key":"StateName"},{"value":"Oost-Vlaanderen","key":"CountyName"}]},"MapReference":{"ReferenceId":"53697410","Spot":0.09,"SideOfStreet":"right","CountryId":"20128886","StateId":"20204377","CountyId":"20205081","CityId":"20205230","AddressId":"401748044","RoadLinkId":"30493838"}}},{"Relevance":1.0,"Distance":56.6,"MatchLevel":"houseNumber","MatchQuality":{"Country":1.0,"State":1.0,"County":1.0,"City":1.0,"Street":[1.0],"HouseNumber":1.0,"PostalCode":1.0},"MatchType":"interpolated","Location":{"LocationId":"NT_CcuUpvEWZjXp2g60Iq8kfD_2AD","LocationType":"point","DisplayPosition":{"Latitude":51.0685,"Longitude":4.0377},"MapView":{"TopLeft":{"Latitude":51.0696242,"Longitude":4.0359111},"BottomRight":{"Latitude":51.0673758,"Longitude":4.0394889}},"Address":{"Label":"Markt 60, 9240 Zele, België","Country":"BEL","State":"Vlaanderen","County":"Oost-Vlaanderen","City":"Zele","Street":"Markt","HouseNumber":"60","PostalCode":"9240","AdditionalData":[{"value":"België","key":"CountryName"},{"value":"Vlaanderen","key":"StateName"},{"value":"Oost-Vlaanderen","key":"CountyName"}]},"MapReference":{"ReferenceId":"567236530","Spot":0.12,"SideOfStreet":"right","CountryId":"20128886","StateId":"20204377","CountyId":"20205081","CityId":"20205230","AddressId":"400881241","RoadLinkId":"30877072"}}}]}]}}