{"Response":{"MetaInfo":{"Timestamp":"2020-03-28T10:05:03.635+0000","NextPageInformation":"2"},"View":[{"_type":"SearchResultsViewType","ViewId":0,"Result":[{"Relevance":1.0,"Distance":0.0,"Direction":0.0,"MatchLevel":"district","MatchQuality":{"Country":1.0,"State":1.0,"County":1.0,"City":1.0,"District":1.0,"PostalCode":1.0},"Location":{"LocationId":"NT_Emf9oiE3vPHUDJEWefp5dD","LocationType":"point","DisplayPosition":{"Latitude":51.0927164,"Longitude":9.5387742},"MapView":{"TopLeft":{"Latitude":51.09605,"Longitude":9.53099},"BottomRight":{"Latitude":51.08247,"Longitude":9.54337}},"Address":{"Label":"Malsfeld, Hessen, Deutschland","Country":"DEU","State":"Hessen","County":"Schwalm-Eder-Kreis","City":"Malsfeld","District":"Malsfeld","PostalCode":"34323","AdditionalData":[{"value":"Deutschland","key":"CountryName"},{"value":"Hessen","key":"StateName"},{"value":"Schwalm-Eder-Kreis","key":"CountyName"}]},"MapReference":{"ReferenceId":"78655237","SideOfStreet":"neither","CountryId":"20147700","StateId":"20160993","CountyId":"20163458","CityId":"20163572","DistrictId":"20163574"}}},{"Relevance":1.0,"Distance":7.1,"MatchLevel":"houseNumber","MatchQuality":{"Country":1.0,"State":1.0,"County":1.0,"City":1.0,"District":1.0,"Street":[1.0],"HouseNumber":1.0,"PostalCode":1.0},"MatchType":"interpolated","Location":{"LocationId":"NT_AeJkqID9sRL9mXXLYdlqmB_xED","LocationType":"point","DisplayPosition":{"Latitude":51.09274,"Longitude":9.53856},"MapView":{"TopLeft":{"Latitude":51.0938642,"Longitude":9.5367701},"BottomRight":{"Latitude":51.0916158,"Longitude":9.5403499}},"Address":{"Label":"Steinweg 11, 34323 Malsfeld, Deutschland","Country":"DEU","State":"Hessen","County":"Schwalm-Eder-Kreis","City":"Malsfeld","District":"Malsfeld","Street":"Steinweg","HouseNumber":"11","PostalCode":"34323","AdditionalData":[{"value":"Deutschland","key":"CountryName"},{"value":"Hessen","key":"StateName"},{"value":"Schwalm-Eder-Kreis","key":"CountyName"}]},"MapReference":{"ReferenceId":"78655238","Spot":0.31,"SideOfStreet":"right","CountryId":"20147700","StateId":"20160993","CountyId":"20163458","CityId":"20163572","DistrictId":"20163574","AddressId":"187431043","RoadLinkId":"34888858"}}},{"Relevance":1.0,"Distance":29.7,"MatchLevel":"houseNumber","MatchQuality":{"Country":1.0,"State":1.0,"County":1.0,"City":1.0,"District":1.0,"Street":[1.0],"HouseNumber":1.0,"PostalCode":1.0},"MatchType":"interpolated","Location":{"LocationId":"NT_2sbfOhP4b64L2asTijPi-B_xA","LocationType":"point","DisplayPosition":{"Latitude":51.0923,"Longitude":9.53883},"MapView":{"TopLeft":{"Latitude":51.0934242,"Longitude":9.5370401},"BottomRight":{"Latitude":51.0911758,"Longitude":9.5406199}},"Address":{"Label":"Kirchstraße 1, 34323 Malsfeld, Deutschland","Country":"DEU","State":"Hessen","County":"Schwalm-Eder-Kreis","City":"Malsfeld","District":"Malsfeld","Street":"Kirchstraße","HouseNumber":"1","PostalCode":"34323","AdditionalData":[{"value":"Deutschland","key":"CountryName"},{"value":"Hessen","key":"StateName"},{"value":"Schwalm-Eder-Kreis","key":"CountyName"}]},"MapReference":{"ReferenceId":"567332596","Spot":0.37,"SideOfStreet":"right","CountryId":"20147700","StateId":"20160993","CountyId":"20163458","CityId":"20163572","DistrictId":"20163574","AddressId":"186663726","RoadLinkId":"34773023"}}},{"Relevance":1.0,"Distance":42.0,"MatchLevel":"houseNumber","MatchQuality":{"Country":1.0,"State":1.0,"County":1.0,"City":1.0,"District":1.0,"Street":[1.0],"HouseNumber":1.0,"PostalCode":1.0},"MatchType":"interpolated","Location":{"LocationId":"NT_AeJkqID9sRL9mXXLYdlqmB_xYD","LocationType":"point","DisplayPosition":{"Latitude":51.09231,"Longitude":9.53862},"MapView":{"TopLeft":{"Latitude":51.0934342,"Longitude":9.5368301},"BottomRight":{"Latitude":51.0911858,"Longitude":9.5404099}},"Address":{"Label":"Steinweg 16, 34323 Malsfeld, Deutschland","Country":"DEU","State":"Hessen","County":"Schwalm-Eder-Kreis","City":"Malsfeld","District":"Malsfeld","Street":"Steinweg","HouseNumber":"16","PostalCode":"34323","AdditionalData":[{"value":"Deutschland","key":"CountryName"},{"value":"Hessen","key":"StateName"},{"value":"Schwalm-Eder-Kreis","key":"CountyName"}]},"MapReference":{"ReferenceId":"78655237","Spot":0.93,"SideOfStreet":"left","CountryId":"20147700","StateId":"20160993","CountyId":"20163458","CityId":"20163572","DistrictId":"20163574","AddressId":"187330925","RoadLinkId":"34765381"}}},{"Relevance":1.0,"Distance":58.6,"MatchLevel":"houseNumber","MatchQuality":{"Country":1.0,"State":1.0,"County":1.0,"City":1.0,"District":1.0,"Street":[1.0],"HouseNumber":1.0,"PostalCode":1.0},"MatchType":"interpolated","Location":{"LocationId":"NT_2sbfOhP4b64L2asTijPi-B_yAD","LocationType":"point","DisplayPosition":{"Latitude":51.09206,"Longitude":9.53883},"MapView":{"TopLeft":{"Latitude":51.0931842,"Longitude":9.5370402},"BottomRight":{"Latitude":51.0909358,"Longitude":9.5406198}},"Address":{"Label":"Kirchstraße 20, 34323 Malsfeld, Deutschland","Country":"DEU","State":"Hessen","County":"Schwalm-Eder-Kreis","City":"Malsfeld","District":"Malsfeld","Street":"Kirchstraße","HouseNumber":"20","PostalCode":"34323","AdditionalData":[{"value":"Deutschland","key":"CountryName"},{"value":"Hessen","key":"StateName"},{"value":"Schwalm-Eder-Kreis","key":"CountyName"}]},"MapReference":{"ReferenceId":"567332598","Spot":0.47,"SideOfStreet":"left","CountryId":"20147700","StateId":"20160993","CountyId":"20163458","CityId":"20163572","DistrictId":"20163574","AddressId":"187035615","RoadLinkId":"371498319"}}},{"Relevance":1.0,"Distance":62.7,"MatchLevel":"houseNumber","MatchQuality":{"Country":1.0,"State":1.0,"County":1.0,"City":1.0,"District":1.0,"Street":[1.0],"HouseNumber":1.0,"PostalCode":1.0},"MatchType":"interpolated","Location":{"LocationId":"NT_2sbfOhP4b64L2asTijPi-B_0A","LocationType":"point","DisplayPosition":{"Latitude":51.09222,"Longitude":9.5392},"MapView":{"TopLeft":{"Latitude":51.0933442,"Longitude":9.5374101},"BottomRight":{"Latitude":51.0910958,"Longitude":9.5409899}},"Address":{"Label":"Kirchstraße 4, 34323 Malsfeld, Deutschland","Country":"DEU","State":"Hessen","County":"Schwalm-Eder-Kreis","City":"Malsfeld","District":"Malsfeld","Street":"Kirchstraße","HouseNumber":"4","PostalCode":"34323","AdditionalData":[{"value":"Deutschland","key":"CountryName"},{"value":"Hessen","key":"StateName"},{"value":"Schwalm-Eder-Kreis","key":"CountyName"}]},"MapReference":{"ReferenceId":"567332594","Spot":0.2,"SideOfStreet":"left","CountryId":"20147700","StateId":"20160993","CountyId":"20163458","CityId":"20163572","DistrictId":"20163574","AddressId":"187649924","RoadLinkId":"34534838"}}},{"Relevance":1.0,"Distance":63.3,"MatchLevel":"houseNumber","MatchQuality":{"Country":1.0,"State":1.0,"County":1.0,"City":1.0,"District":1.0,"Street":[1.0],"HouseNumber":1.0,"PostalCode":1.0},"MatchType":"interpolated","Location":{"LocationId":"NT_efQNk8bBf-bU-9ay8d.dvA_xA","LocationType":"point","DisplayPosition":{"Latitude":51.0926,"Longitude":9.53988},"MapView":{"TopLeft":{"Latitude":51.0937242,"Longitude":9.5380901},"BottomRight":{"Latitude":51.0914758,"Longitude":9.5416699}},"Address":{"Label":"Brauereistraße 1, 34323 Malsfeld, Deutschland","Country":"DEU","State":"Hessen","County":"Schwalm-Eder-Kreis","City":"Malsfeld","District":"Malsfeld","Street":"Brauereistraße","HouseNumber":"1","PostalCode":"34323","AdditionalData":[{"value":"Deutschland","key":"CountryName"},{"value":"Hessen","key":"StateName"},{"value":"Schwalm-Eder-Kreis","key":"CountyName"}]},"MapReference":{"ReferenceId":"62080765","Spot":0.75,"SideOfStreet":"left","CountryId":"20147700","StateId":"20160993","CountyId":"20163458","CityId":"20163572","DistrictId":"20163574","AddressId":"186694711","RoadLinkId":"34183443"}}},{"Relevance":1.0,"Distance":81.3,"MatchLevel":"houseNumber","MatchQuality":{"Country":1.0,"State":1.0,"County":1.0,"City":1.0,"District":1.0,"Street":[1.0],"HouseNumber":1.0,"PostalCode":1.0},"MatchType":"interpolated","Location":{"LocationId":"NT_2sbfOhP4b64L2asTijPi-B_2A","LocationType":"point","DisplayPosition":{"Latitude":51.0921,"Longitude":9.5394},"MapView":{"TopLeft":{"Latitude":51.0932242,"Longitude":9.5376101},"BottomRight":{"Latitude":51.0909758,"Longitude":9.5411899}},"Address":{"Label":"Kirchstraße 6, 34323 Malsfeld, Deutschland","Country":"DEU","State":"Hessen","County":"Schwalm-Eder-Kreis","City":"Malsfeld","District":"Malsfeld","Street":"Kirchstraße","HouseNumber":"6","PostalCode":"34323","AdditionalData":[{"value":"Deutschland","key":"CountryName"},{"value":"Hessen","key":"StateName"},{"value":"Schwalm-Eder-Kreis","key":"CountyName"}]},"MapReference":{"ReferenceId":"567332876","Spot":0.8,"SideOfStreet":"left","CountryId":"20147700","StateId":"20160993","CountyId":"20163458","CityId":"20163572","DistrictId":"20163574","AddressId":"187137193","RoadLinkId":"34352654"}}},{"Relevance":1.0,"Distance":84.8,"MatchLevel":"street","MatchQuality":{"Country":1.0,"State":1.0,"County":1.0,"City":1.0,"District":1.0,"Street":[1.0],"PostalCode":1.0},"Location":{"LocationId":"NT_2sbfOhP4b64L2asTijPi-B_l_567332595_L","LocationType":"point","DisplayPosition":{"Latitude":51.092,"Longitude":9.53919},"MapView":{"TopLeft":{"Latitude":51.092,"Longitude":9.53886},"BottomRight":{"Latitude":51.09186,"Longitude":9.53919}},"Address":{"Label":"Kirchstraße, 34323 Malsfeld, Deutschland","Country":"DEU","State":"Hessen","County":"Schwalm-Eder-Kreis","City":"Malsfeld","District":"Malsfeld","Street":"Kirchstraße","PostalCode":"34323","AdditionalData":[{"value":"Deutschland","key":"CountryName"},{"value":"Hessen","key":"StateName"},{"value":"Schwalm-Eder-Kreis","key":"CountyName"}]},"MapReference":{"ReferenceId":"567332595","Spot":1.0,"SideOfStreet":"left","CountryId":"20147700","StateId":"20160993","CountyId":"20163458","CityId":"20163572","DistrictId":"20163574"}}},{"Relevance":1.0,"Distance":86.1,"MatchLevel":"houseNumber","MatchQuality":{"Country":1.0,"State":1.0,"County":1.0,"City":1.0,"District":1.0,"Street":[1.0],"HouseNumber":1.0,"PostalCode":1.0},"MatchType":"interpolated","Location":{"LocationId":"NT_ZRXHYtK6NaUVrC6jhY0iwC_zA","LocationType":"point","DisplayPosition":{"Latitude":51.09345,"Longitude":9.53917},"MapView":{"TopLeft":{"Latitude":51.0945742,"Longitude":9.5373801},"BottomRight":{"Latitude":51.0923258,"Longitude":9.5409599}},"Address":{"Label":"Industriestraße 3, 34323 Malsfeld, Deutschland","Country":"DEU","State":"Hessen","County":"Schwalm-Eder-Kreis","City":"Malsfeld","District":"Malsfeld","Street":"Industriestraße","HouseNumber":"3","PostalCode":"34323","AdditionalData":[{"value":"Deutschland","key":"CountryName"},{"value":"Hessen","key":"StateName"},{"value":"Schwalm-Eder-Kreis","key":"CountyName"}]},"MapReference":{"ReferenceId":"567332693","Spot":0.82,"SideOfStreet":"right","CountryId":"20147700","StateId":"20160993","CountyId":"20163458","CityId":"20163572","DistrictId":"20163574","AddressId":"187591353","RoadLinkId":"34388742"}}}]}]}}