{"Response":{"MetaInfo":{"Timestamp":"2020-03-28T11:17:57.624+0000","NextPageInformation":"2"},"View":[{"_type":"SearchResultsViewType","ViewId":0,"Result":[{"Relevance":1.0,"Distance":0.0,"Direction":0.0,"MatchLevel":"postalCode","MatchQuality":{"Country":1.0,"State":1.0,"County":1.0,"PostalCode":1.0},"Location":{"LocationId":"NT_nmjDVsw7io0tkvajZkf1bA","LocationType":"point","DisplayPosition":{"Latitude":51.0314781,"Longitude":-1.762348},"MapView":{"TopLeft":{"Latitude":51.70328,"Longitude":-2.36566},"BottomRight":{"Latitude":50.94497,"Longitude":-1.48574}},"Address":{"Label":"SP5 4, England, United Kingdom","Country":"GBR","State":"England","County":"Wiltshire","PostalCode":"SP5 4","AdditionalData":[{"value":"United Kingdom","key":"CountryName"},{"value":"England","key":"StateName"},{"value":"Wiltshire","key":"CountyName"}]},"MapReference":{"ReferenceId":"26566138","SideOfStreet":"neither","StateId":"20248595","CountyId":"20338966"}}},{"Relevance":1.0,"Distance":148.9,"MatchLevel":"street","MatchQuality":{"Country":1.0,"State":1.0,"County":1.0,"City":1.0,"District":1.0,"PostalCode":1.0},"Location":{"LocationId":"NT_vfylnZCyVpluHw4KQHYIyA_l_897368949_R","LocationType":"point","DisplayPosition":{"Latitude":51.03248,"Longitude":-1.76376},"MapView":{"TopLeft":{"Latitude":51.03395,"Longitude":-1.76451},"BottomRight":{"Latitude":51.03248,"Longitude":-1.76376}},"Address":{"Label":"Salisbury, SP5 4, United Kingdom","Country":"GBR","State":"England","County":"Wiltshire","City":"Salisbury","District":"Bodenham","PostalCode":"SP5 4","AdditionalData":[{"value":"United Kingdom","key":"CountryName"},{"value":"England","key":"StateName"},{"value":"Wiltshire","key":"CountyName"}]},"MapReference":{"ReferenceId":"897368949","Spot":0.0,"SideOfStreet":"right","StateId":"20248595","CountyId":"20338966","CityId":"20338974","DistrictId":"20352086"}}},{"Relevance":1.0,"Distance":160.5,"MatchLevel":"street","MatchQuality":{"Country":1.0,"State":1.0,"County":1.0,"City":1.0,"District":1.0,"PostalCode":1.0},"Location":{"LocationId":"NT_vfylnZCyVpluHw4KQHYIyA_l_897368973_R","LocationType":"point","DisplayPosition":{"Latitude":51.03035,"Longitude":-1.76378},"MapView":{"TopLeft":{"Latitude":51.03035,"Longitude":-1.76417},"BottomRight":{"Latitude":51.02932,"Longitude":-1.76378}},"Address":{"Label":"Salisbury, SP5 4, United Kingdom","Country":"GBR","State":"England","County":"Wiltshire","City":"Salisbury","District":"Bodenham","PostalCode":"SP5 4","AdditionalData":[{"value":"United Kingdom","key":"CountryName"},{"value":"England","key":"StateName"},{"value":"Wiltshire","key":"CountyName"}]},"MapReference":{"ReferenceId":"897368973","Spot":1.0,"SideOfStreet":"right","StateId":"20248595","CountyId":"20338966","CityId":"20338974","DistrictId":"20352086"}}},{"Relevance":1.0,"Distance":163.0,"MatchLevel":"postalCode","MatchQuality":{"PostalCode":1.0},"Location":{"LocationId":"NT_vfylnZCyVpluHw4KQHYIyA_l_897368949_R","LocationType":"point","DisplayPosition":{"Latitude":51.03262,"Longitude":-1.76381},"MapView":{"TopLeft":{"Latitude":51.0416132,"Longitude":-1.7781104},"BottomRight":{"Latitude":51.0236268,"Longitude":-1.7495096}},"Address":{"Label":"SP5 4EW, Salisbury, England, United Kingdom","Country":"GBR","State":"England","County":"Wiltshire","City":"Salisbury","PostalCode":"SP5 4EW","AdditionalData":[{"value":"United Kingdom","key":"CountryName"},{"value":"England","key":"StateName"},{"value":"Wiltshire","key":"CountyName"}]},"MapReference":{"ReferenceId":"897368949","Spot":0.0,"SideOfStreet":"neither","StateId":"20248595","CountyId":"20338966","CityId":"20338974"}}},{"Relevance":1.0,"Distance":168.3,"MatchLevel":"street","MatchQuality":{"Country":1.0,"State":1.0,"County":1.0,"City":1.0,"District":1.0,"Street":[1.0],"PostalCode":1.0},"Location":{"LocationId":"NT_MxEhnUwwxf-WRsFB3xo7KC_l_1149552566_R","LocationType":"point","DisplayPosition":{"Latitude":51.0309421,"Longitude":-1.7645991},"MapView":{"TopLeft":{"Latitude":51.03226,"Longitude":-1.76507},"BottomRight":{"Latitude":51.03082,"Longitude":-1.76457}},"Address":{"Label":"A338, Salisbury, SP5 4, United Kingdom","Country":"GBR","State":"England","County":"Wiltshire","City":"Salisbury","District":"Nunton","Street":"A338","PostalCode":"SP5 4","AdditionalData":[{"value":"United Kingdom","key":"CountryName"},{"value":"England","key":"StateName"},{"value":"Wiltshire","key":"CountyName"}]},"MapReference":{"ReferenceId":"1149552566","Spot":0.08,"SideOfStreet":"right","StateId":"20248595","CountyId":"20338966","CityId":"20338974","DistrictId":"20352135"}}},{"Relevance":1.0,"Distance":171.8,"MatchLevel":"street","MatchQuality":{"Country":1.0,"State":1.0,"County":1.0,"City":1.0,"District":1.0,"Street":[1.0],"PostalCode":1.0},"Location":{"LocationId":"NT_MxEhnUwwxf-WRsFB3xo7KC_l_724925955_R","LocationType":"point","DisplayPosition":{"Latitude":51.03082,"Longitude":-1.76457},"MapView":{"TopLeft":{"Latitude":51.03156,"Longitude":-1.76496},"BottomRight":{"Latitude":51.03082,"Longitude":-1.76457}},"Address":{"Label":"A338, Salisbury, SP5 4, United Kingdom","Country":"GBR","State":"England","County":"Wiltshire","City":"Salisbury","District":"Nunton","Street":"A338","PostalCode":"SP5 4","AdditionalData":[{"value":"United Kingdom","key":"CountryName"},{"value":"England","key":"StateName"},{"value":"Wiltshire","key":"CountyName"}]},"MapReference":{"ReferenceId":"724925955","Spot":0.0,"SideOfStreet":"right","StateId":"20248595","CountyId":"20338966","CityId":"20338974","DistrictId":"20352135"}}},{"Relevance":1.0,"Distance":172.2,"MatchLevel":"street","MatchQuality":{"Country":1.0,"State":1.0,"County":1.0,"City":1.0,"District":1.0,"Street":[1.0],"PostalCode":1.0},"Location":{"LocationId":"NT_EBbHX5GANtVvHbkJ6klskC_l_897368972_R","LocationType":"point","DisplayPosition":{"Latitude":51.030806,"Longitude":-1.7645658},"MapView":{"TopLeft":{"Latitude":51.03082,"Longitude":-1.76457},"BottomRight":{"Latitude":51.02932,"Longitude":-1.76417}},"Address":{"Label":"A338, Salisbury, SP5 4, United Kingdom","Country":"GBR","State":"England","County":"Wiltshire","City":"Salisbury","District":"Bodenham","Street":"A338","PostalCode":"SP5 4","AdditionalData":[{"value":"United Kingdom","key":"CountryName"},{"value":"England","key":"StateName"},{"value":"Wiltshire","key":"CountyName"}]},"MapReference":{"ReferenceId":"897368972","Spot":0.99,"SideOfStreet":"right","StateId":"20248595","CountyId":"20338966","CityId":"20338974","DistrictId":"20352086"}}},{"Relevance":1.0,"Distance":182.9,"MatchLevel":"street","MatchQuality":{"Country":1.0,"State":1.0,"County":1.0,"City":1.0,"District":1.0,"Street":[1.0],"PostalCode":1.0},"Location":{"LocationId":"NT_MxEhnUwwxf-WRsFB3xo7KC_l_1149545615_R","LocationType":"point","DisplayPosition":{"Latitude":51.03156,"Longitude":-1.76496},"MapView":{"TopLeft":{"Latitude":51.03189,"Longitude":-1.76511},"BottomRight":{"Latitude":51.03156,"Longitude":-1.76496}},"Address":{"Label":"A338, Salisbury, SP5 4, United Kingdom","Country":"GBR","State":"England","County":"Wiltshire","City":"Salisbury","District":"Nunton","Street":"A338","PostalCode":"SP5 4","AdditionalData":[{"value":"United Kingdom","key":"CountryName"},{"value":"England","key":"StateName"},{"value":"Wiltshire","key":"CountyName"}]},"MapReference":{"ReferenceId":"1149545615","Spot":0.0,"SideOfStreet":"right","StateId":"20248595","CountyId":"20338966","CityId":"20338974","DistrictId":"20352135"}}},{"Relevance":1.0,"Distance":198.5,"MatchLevel":"street","MatchQuality":{"Country":1.0,"State":1.0,"County":1.0,"City":1.0,"District":1.0,"Street":[1.0],"PostalCode":1.0},"Location":{"LocationId":"NT_MxEhnUwwxf-WRsFB3xo7KC_l_1149545616_R","LocationType":"point","DisplayPosition":{"Latitude":51.03189,"Longitude":-1.76511},"MapView":{"TopLeft":{"Latitude":51.03222,"Longitude":-1.76529},"BottomRight":{"Latitude":51.03189,"Longitude":-1.76511}},"Address":{"Label":"A338, Salisbury, SP5 4, United Kingdom","Country":"GBR","State":"England","County":"Wiltshire","City":"Salisbury","District":"Nunton","Street":"A338","PostalCode":"SP5 4","AdditionalData":[{"value":"United Kingdom","key":"CountryName"},{"value":"England","key":"StateName"},{"value":"Wiltshire","key":"CountyName"}]},"MapReference":{"ReferenceId":"1149545616","Spot":0.0,"SideOfStreet":"right","StateId":"20248595","CountyId":"20338966","CityId":"20338974","DistrictId":"20352135"}}},{"Relevance":1.0,"Distance":209.3,"MatchLevel":"street","MatchQuality":{"Country":1.0,"State":1.0,"County":1.0,"City":1.0,"District":1.0,"Street":[1.0],"PostalCode":1.0},"Location":{"LocationId":"NT_MxEhnUwwxf-WRsFB3xo7KC_l_1149552567_R","LocationType":"point","DisplayPosition":{"Latitude":51.03226,"Longitude":-1.76507},"MapView":{"TopLeft":{"Latitude":51.03239,"Longitude":-1.76513},"BottomRight":{"Latitude":51.03226,"Longitude":-1.76507}},"Address":{"Label":"A338, Salisbury, SP5 4, United Kingdom","Country":"GBR","State":"England","County":"Wiltshire","City":"Salisbury","District":"Nunton","Street":"A338","PostalCode":"SP5 4","AdditionalData":[{"value":"United Kingdom","key":"CountryName"},{"value":"England","key":"StateName"},{"value":"Wiltshire","key":"CountyName"}]},"MapReference":{"ReferenceId":"1149552567","Spot":0.0,"SideOfStreet":"right","StateId":"20248595","CountyId":"20338966","CityId":"20338974","DistrictId":"20352135"}}}]}]}}