{"Response":{"MetaInfo":{"Timestamp":"2020-03-28T10:11:05.438+0000","NextPageInformation":"2"},"View":[{"_type":"SearchResultsViewType","ViewId":0,"Result":[{"Relevance":1.0,"Distance":0.0,"Direction":0.0,"MatchLevel":"district","MatchQuality":{"Country":1.0,"State":1.0,"County":1.0,"City":1.0,"District":1.0,"PostalCode":1.0},"Location":{"LocationId":"NT_O0xfMptYZcC6ci72eg32aB","LocationType":"point","DisplayPosition":{"Latitude":51.09603,"Longitude":0.5368814},"MapView":{"TopLeft":{"Latitude":51.1066,"Longitude":0.51007},"BottomRight":{"Latitude":51.08467,"Longitude":0.54412}},"Address":{"Label":"Cranbrook, England, United Kingdom","Country":"GBR","State":"England","County":"Kent","City":"Cranbrook","District":"Cranbrook","PostalCode":"TN17 3","AdditionalData":[{"value":"United Kingdom","key":"CountryName"},{"value":"England","key":"StateName"},{"value":"Kent","key":"CountyName"}]},"MapReference":{"ReferenceId":"25664569","SideOfStreet":"neither","StateId":"20248595","CountyId":"20336836","CityId":"20337002","DistrictId":"20337003"}}},{"Relevance":1.0,"Distance":4.9,"MatchLevel":"street","MatchQuality":{"Country":1.0,"State":1.0,"County":1.0,"City":1.0,"District":1.0,"Street":[1.0],"PostalCode":1.0},"Location":{"LocationId":"NT_oSsAAuim6M0dNc6BqCqy7C_l_77750394_L","LocationType":"point","DisplayPosition":{"Latitude":51.09599,"Longitude":0.53691},"MapView":{"TopLeft":{"Latitude":51.09599,"Longitude":0.53636},"BottomRight":{"Latitude":51.09539,"Longitude":0.53691}},"Address":{"Label":"The Tanyard, Cranbrook, TN17 3, United Kingdom","Country":"GBR","State":"England","County":"Kent","City":"Cranbrook","District":"Cranbrook","Street":"The Tanyard","PostalCode":"TN17 3","AdditionalData":[{"value":"United Kingdom","key":"CountryName"},{"value":"England","key":"StateName"},{"value":"Kent","key":"CountyName"}]},"MapReference":{"ReferenceId":"77750394","Spot":1.0,"SideOfStreet":"left","StateId":"20248595","CountyId":"20336836","CityId":"20337002","DistrictId":"20337003"}}},{"Relevance":1.0,"Distance":9.6,"MatchLevel":"postalCode","MatchQuality":{"PostalCode":1.0},"MatchType":"interpolated","Location":{"LocationId":"NT_k6CFthcWgbulWAMs8oae8D_l_1022677859_R_ykD","LocationType":"point","DisplayPosition":{"Latitude":51.0961,"Longitude":0.5368},"MapView":{"TopLeft":{"Latitude":51.1050932,"Longitude":0.52248},"BottomRight":{"Latitude":51.0871068,"Longitude":0.55112}},"Address":{"Label":"TN17 3HH, Cranbrook, England, United Kingdom","Country":"GBR","State":"England","County":"Kent","City":"Cranbrook","PostalCode":"TN17 3HH","AdditionalData":[{"value":"United Kingdom","key":"CountryName"},{"value":"England","key":"StateName"},{"value":"Kent","key":"CountyName"}]},"MapReference":{"ReferenceId":"1022677859","Spot":0.17,"SideOfStreet":"neither","StateId":"20248595","CountyId":"20336836","CityId":"20337002"}}},{"Relevance":1.0,"Distance":11.5,"MatchLevel":"houseNumber","MatchQuality":{"Country":1.0,"State":1.0,"County":1.0,"City":1.0,"District":1.0,"Street":[1.0],"HouseNumber":1.0,"PostalCode":1.0},"MatchType":"interpolated","Location":{"LocationId":"NT_k6CFthcWgbulWAMs8oae8D_l_1022677859_R_ykD","LocationType":"point","DisplayPosition":{"Latitude":51.0960501,"Longitude":0.5367197},"MapView":{"TopLeft":{"Latitude":51.0971743,"Longitude":0.5349297},"BottomRight":{"Latitude":51.094926,"Longitude":0.5385097}},"Address":{"Label":"29 Stone Street, Cranbrook, TN17 3HH, United Kingdom","Country":"GBR","State":"England","County":"Kent","City":"Cranbrook","District":"Cranbrook","Street":"Stone Street","HouseNumber":"29","PostalCode":"TN17 3HH","AdditionalData":[{"value":"United Kingdom","key":"CountryName"},{"value":"England","key":"StateName"},{"value":"Kent","key":"CountyName"}]},"MapReference":{"ReferenceId":"1022677859","Spot":0.17,"SideOfStreet":"right","StateId":"20248595","CountyId":"20336836","CityId":"20337002","DistrictId":"20337003"}}},{"Relevance":1.0,"Distance":18.9,"MatchLevel":"houseNumber","MatchQuality":{"Country":1.0,"State":1.0,"County":1.0,"City":1.0,"District":1.0,"Street":[1.0],"HouseNumber":1.0,"PostalCode":1.0},"MatchType":"interpolated","Location":{"LocationId":"NT_k6CFthcWgbulWAMs8oae8D_l_77750393_R_zAD","LocationType":"point","DisplayPosition":{"Latitude":51.0959288,"Longitude":0.5371037},"MapView":{"TopLeft":{"Latitude":51.0970529,"Longitude":0.5353137},"BottomRight":{"Latitude":51.0948046,"Longitude":0.5388937}},"Address":{"Label":"30 Stone Street, Cranbrook, TN17 3, United Kingdom","Country":"GBR","State":"England","County":"Kent","City":"Cranbrook","District":"Cranbrook","Street":"Stone Street","HouseNumber":"30","PostalCode":"TN17 3","AdditionalData":[{"value":"United Kingdom","key":"CountryName"},{"value":"England","key":"StateName"},{"value":"Kent","key":"CountyName"}]},"MapReference":{"ReferenceId":"77750393","Spot":0.54,"SideOfStreet":"right","StateId":"20248595","CountyId":"20336836","CityId":"20337002","DistrictId":"20337003"}}},{"Relevance":1.0,"Distance":30.8,"MatchLevel":"postalCode","MatchQuality":{"PostalCode":1.0},"Location":{"LocationId":"NT_oSsAAuim6M0dNc6BqCqy7C_l_77750394_L","LocationType":"point","DisplayPosition":{"Latitude":51.09578,"Longitude":0.53669},"MapView":{"TopLeft":{"Latitude":51.1047732,"Longitude":0.5223701},"BottomRight":{"Latitude":51.0867868,"Longitude":0.5510099}},"Address":{"Label":"TN17 3HY, Cranbrook, England, United Kingdom","Country":"GBR","State":"England","County":"Kent","City":"Cranbrook","PostalCode":"TN17 3HY","AdditionalData":[{"value":"United Kingdom","key":"CountryName"},{"value":"England","key":"StateName"},{"value":"Kent","key":"CountyName"}]},"MapReference":{"ReferenceId":"77750394","Spot":1.0,"SideOfStreet":"neither","StateId":"20248595","CountyId":"20336836","CityId":"20337002"}}},{"Relevance":1.0,"Distance":36.1,"MatchLevel":"street","MatchQuality":{"Country":1.0,"State":1.0,"County":1.0,"City":1.0,"District":1.0,"Street":[1.0],"PostalCode":1.0},"Location":{"LocationId":"NT_zC2Kw07eyALGXTnGqQbsHC_l_1022677861_L","LocationType":"point","DisplayPosition":{"Latitude":51.09588,"Longitude":0.53734},"MapView":{"TopLeft":{"Latitude":51.09593,"Longitude":0.53734},"BottomRight":{"Latitude":51.09588,"Longitude":0.53775}},"Address":{"Label":"Waterloo Road, Cranbrook, TN17 3, United Kingdom","Country":"GBR","State":"England","County":"Kent","City":"Cranbrook","District":"Cranbrook","Street":"Waterloo Road","PostalCode":"TN17 3","AdditionalData":[{"value":"United Kingdom","key":"CountryName"},{"value":"England","key":"StateName"},{"value":"Kent","key":"CountyName"}]},"MapReference":{"ReferenceId":"1022677861","Spot":0.0,"SideOfStreet":"left","StateId":"20248595","CountyId":"20336836","CityId":"20337002","DistrictId":"20337003"}}},{"Relevance":1.0,"Distance":36.1,"MatchLevel":"street","MatchQuality":{"Country":1.0,"State":1.0,"County":1.0,"City":1.0,"District":1.0,"Street":[1.0],"PostalCode":1.0},"Location":{"LocationId":"NT_I6ba2CK13wUJ6OdXSvCPfB_l_866889840_L","LocationType":"point","DisplayPosition":{"Latitude":51.09588,"Longitude":0.53734},"MapView":{"TopLeft":{"Latitude":51.09588,"Longitude":0.53734},"BottomRight":{"Latitude":51.09566,"Longitude":0.53752}},"Address":{"Label":"The Hill, Cranbrook, TN17 3, United Kingdom","Country":"GBR","State":"England","County":"Kent","City":"Cranbrook","District":"Cranbrook","Street":"The Hill","PostalCode":"TN17 3","AdditionalData":[{"value":"United Kingdom","key":"CountryName"},{"value":"England","key":"StateName"},{"value":"Kent","key":"CountyName"}]},"MapReference":{"ReferenceId":"866889840","Spot":1.0,"SideOfStreet":"left","StateId":"20248595","CountyId":"20336836","CityId":"20337002","DistrictId":"20337003"}}},{"Relevance":1.0,"Distance":39.6,"MatchLevel":"postalCode","MatchQuality":{"PostalCode":1.0},"Location":{"LocationId":"NT_I6ba2CK13wUJ6OdXSvCPfB_l_866889840_L","LocationType":"point","DisplayPosition":{"Latitude":51.09579,"Longitude":0.5373},"MapView":{"TopLeft":{"Latitude":51.1047832,"Longitude":0.5229801},"BottomRight":{"Latitude":51.0867968,"Longitude":0.5516199}},"Address":{"Label":"TN17 3HJ, Cranbrook, England, United Kingdom","Country":"GBR","State":"England","County":"Kent","City":"Cranbrook","PostalCode":"TN17 3HJ","AdditionalData":[{"value":"United Kingdom","key":"CountryName"},{"value":"England","key":"StateName"},{"value":"Kent","key":"CountyName"}]},"MapReference":{"ReferenceId":"866889840","Spot":1.0,"SideOfStreet":"neither","StateId":"20248595","CountyId":"20336836","CityId":"20337002"}}},{"Relevance":1.0,"Distance":56.2,"MatchLevel":"postalCode","MatchQuality":{"PostalCode":1.0},"MatchType":"interpolated","Location":{"LocationId":"NT_zC2Kw07eyALGXTnGqQbsHC_l_1022677862_R_xcD","LocationType":"point","DisplayPosition":{"Latitude":51.09597,"Longitude":0.53768},"MapView":{"TopLeft":{"Latitude":51.1049632,"Longitude":0.52336},"BottomRight":{"Latitude":51.0869768,"Longitude":0.552}},"Address":{"Label":"TN17 3JA, Cranbrook, England, United Kingdom","Country":"GBR","State":"England","County":"Kent","City":"Cranbrook","PostalCode":"TN17 3JA","AdditionalData":[{"value":"United Kingdom","key":"CountryName"},{"value":"England","key":"StateName"},{"value":"Kent","key":"CountyName"}]},"MapReference":{"ReferenceId":"1022677862","Spot":0.54,"SideOfStreet":"neither","StateId":"20248595","CountyId":"20336836","CityId":"20337002"}}}]}]}}