{"Response":{"MetaInfo":{"Timestamp":"2020-03-28T10:15:34.667+0000","NextPageInformation":"2"},"View":[{"_type":"SearchResultsViewType","ViewId":0,"Result":[{"Relevance":1.0,"Distance":0.0,"Direction":0.0,"MatchLevel":"district","MatchQuality":{"Country":1.0,"State":1.0,"County":1.0,"City":1.0,"District":1.0,"PostalCode":1.0},"Location":{"LocationId":"NT_jOlSd63V2PjmxNR6V.cseC","LocationType":"point","DisplayPosition":{"Latitude":51.0858367,"Longitude":3.6891187},"MapView":{"TopLeft":{"Latitude":51.09631,"Longitude":3.65927},"BottomRight":{"Latitude":51.06713,"Longitude":3.70557}},"Address":{"Label":"Mariakerke, Gent, Vlaanderen, België","Country":"BEL","State":"Vlaanderen","County":"Oost-Vlaanderen","City":"Gent","District":"Mariakerke","PostalCode":"9030","AdditionalData":[{"value":"België","key":"CountryName"},{"value":"Vlaanderen","key":"StateName"},{"value":"Oost-Vlaanderen","key":"CountyName"}]},"MapReference":{"ReferenceId":"53929618","SideOfStreet":"neither","CountryId":"20128886","StateId":"20204377","CountyId":"20205081","CityId":"20205306","DistrictId":"20205315"}}},{"Relevance":1.0,"Distance":12.0,"MatchLevel":"houseNumber","MatchQuality":{"Country":1.0,"State":1.0,"County":1.0,"City":1.0,"District":1.0,"Street":[1.0],"HouseNumber":1.0,"PostalCode":1.0},"MatchType":"interpolated","Location":{"LocationId":"NT_9J-s5vj3-NDuzNKSQEoKwB_yED","LocationType":"point","DisplayPosition":{"Latitude":51.08591,"Longitude":3.6895},"MapView":{"TopLeft":{"Latitude":51.0870342,"Longitude":3.6877104},"BottomRight":{"Latitude":51.0847858,"Longitude":3.6912896}},"Address":{"Label":"Mispelbilk 21, 9030 Gent, België","Country":"BEL","State":"Vlaanderen","County":"Oost-Vlaanderen","City":"Gent","District":"Mariakerke","Street":"Mispelbilk","HouseNumber":"21","PostalCode":"9030","AdditionalData":[{"value":"België","key":"CountryName"},{"value":"Vlaanderen","key":"StateName"},{"value":"Oost-Vlaanderen","key":"CountyName"}]},"MapReference":{"ReferenceId":"53919835","Spot":0.08,"SideOfStreet":"left","CountryId":"20128886","StateId":"20204377","CountyId":"20205081","CityId":"20205306","DistrictId":"20205315","AddressId":"399945999","RoadLinkId":"30457639"}}},{"Relevance":1.0,"Distance":25.0,"MatchLevel":"houseNumber","MatchQuality":{"Country":1.0,"State":1.0,"County":1.0,"City":1.0,"District":1.0,"Street":[1.0],"HouseNumber":1.0,"PostalCode":1.0},"MatchType":"interpolated","Location":{"LocationId":"NT_vU4Jv-4Ih6ac3uwZBHKj7C_xA","LocationType":"point","DisplayPosition":{"Latitude":51.08563,"Longitude":3.68926},"MapView":{"TopLeft":{"Latitude":51.0867542,"Longitude":3.6874704},"BottomRight":{"Latitude":51.0845058,"Longitude":3.6910496}},"Address":{"Label":"Oud-Mooreghemstraat 1, 9030 Gent, België","Country":"BEL","State":"Vlaanderen","County":"Oost-Vlaanderen","City":"Gent","District":"Mariakerke","Street":"Oud-Mooreghemstraat","HouseNumber":"1","PostalCode":"9030","AdditionalData":[{"value":"België","key":"CountryName"},{"value":"Vlaanderen","key":"StateName"},{"value":"Oost-Vlaanderen","key":"CountyName"}]},"MapReference":{"ReferenceId":"53919859","Spot":0.62,"SideOfStreet":"right","CountryId":"20128886","StateId":"20204377","CountyId":"20205081","CityId":"20205306","DistrictId":"20205315","AddressId":"400823037","RoadLinkId":"30586499"}}},{"Relevance":1.0,"Distance":32.2,"MatchLevel":"houseNumber","MatchQuality":{"Country":1.0,"State":1.0,"County":1.0,"City":1.0,"District":1.0,"Street":[1.0],"HouseNumber":1.0,"PostalCode":1.0},"MatchType":"interpolated","Location":{"LocationId":"NT_s9eiUq1VoG8Nk3lnbhDzjC_yA","LocationType":"point","DisplayPosition":{"Latitude":51.08555,"Longitude":3.68854},"MapView":{"TopLeft":{"Latitude":51.0866742,"Longitude":3.6867504},"BottomRight":{"Latitude":51.0844258,"Longitude":3.6903296}},"Address":{"Label":"Breebroekhof 2, 9030 Gent, België","Country":"BEL","State":"Vlaanderen","County":"Oost-Vlaanderen","City":"Gent","District":"Mariakerke","Street":"Breebroekhof","HouseNumber":"2","PostalCode":"9030","AdditionalData":[{"value":"België","key":"CountryName"},{"value":"Vlaanderen","key":"StateName"},{"value":"Oost-Vlaanderen","key":"CountyName"}]},"MapReference":{"ReferenceId":"53919860","Spot":0.32,"SideOfStreet":"right","CountryId":"20128886","StateId":"20204377","CountyId":"20205081","CityId":"20205306","DistrictId":"20205315","AddressId":"401418284","RoadLinkId":"30468102"}}},{"Relevance":1.0,"Distance":49.7,"MatchLevel":"houseNumber","MatchQuality":{"Country":1.0,"State":1.0,"County":1.0,"City":1.0,"District":1.0,"Street":[1.0],"HouseNumber":1.0,"PostalCode":1.0},"MatchType":"interpolated","Location":{"LocationId":"NT_s9eiUq1VoG8Nk3lnbhDzjC_2A","LocationType":"point","DisplayPosition":{"Latitude":51.08589,"Longitude":3.68824},"MapView":{"TopLeft":{"Latitude":51.0870142,"Longitude":3.6864504},"BottomRight":{"Latitude":51.0847658,"Longitude":3.6900296}},"Address":{"Label":"Breebroekhof 6, 9030 Gent, België","Country":"BEL","State":"Vlaanderen","County":"Oost-Vlaanderen","City":"Gent","District":"Mariakerke","Street":"Breebroekhof","HouseNumber":"6","PostalCode":"9030","AdditionalData":[{"value":"België","key":"CountryName"},{"value":"Vlaanderen","key":"StateName"},{"value":"Oost-Vlaanderen","key":"CountyName"}]},"MapReference":{"ReferenceId":"53919828","Spot":0.0,"SideOfStreet":"right","CountryId":"20128886","StateId":"20204377","CountyId":"20205081","CityId":"20205306","DistrictId":"20205315","AddressId":"399409803","RoadLinkId":"30802770"}}},{"Relevance":1.0,"Distance":52.2,"MatchLevel":"houseNumber","MatchQuality":{"Country":1.0,"State":1.0,"County":1.0,"City":1.0,"District":1.0,"Street":[1.0],"HouseNumber":1.0,"PostalCode":1.0},"MatchType":"interpolated","Location":{"LocationId":"NT_9J-s5vj3-NDuzNKSQEoKwB_yMD","LocationType":"point","DisplayPosition":{"Latitude":51.08564,"Longitude":3.68984},"MapView":{"TopLeft":{"Latitude":51.0867642,"Longitude":3.6880504},"BottomRight":{"Latitude":51.0845158,"Longitude":3.6916296}},"Address":{"Label":"Mispelbilk 23, 9030 Gent, België","Country":"BEL","State":"Vlaanderen","County":"Oost-Vlaanderen","City":"Gent","District":"Mariakerke","Street":"Mispelbilk","HouseNumber":"23","PostalCode":"9030","AdditionalData":[{"value":"België","key":"CountryName"},{"value":"Vlaanderen","key":"StateName"},{"value":"Oost-Vlaanderen","key":"CountyName"}]},"MapReference":{"ReferenceId":"53930085","Spot":0.89,"SideOfStreet":"left","CountryId":"20128886","StateId":"20204377","CountyId":"20205081","CityId":"20205306","DistrictId":"20205315","AddressId":"401455126","RoadLinkId":"30621066"}}},{"Relevance":1.0,"Distance":54.4,"MatchLevel":"houseNumber","MatchQuality":{"Country":1.0,"State":1.0,"County":1.0,"City":1.0,"District":1.0,"Street":[1.0],"HouseNumber":1.0,"PostalCode":1.0},"MatchType":"interpolated","Location":{"LocationId":"NT_tPBAy5pCSLIf.4yr0oSVWA_zID","LocationType":"point","DisplayPosition":{"Latitude":51.08526,"Longitude":3.68881},"MapView":{"TopLeft":{"Latitude":51.0863842,"Longitude":3.6870204},"BottomRight":{"Latitude":51.0841358,"Longitude":3.6905996}},"Address":{"Label":"Breebroekstraat 32, 9030 Gent, België","Country":"BEL","State":"Vlaanderen","County":"Oost-Vlaanderen","City":"Gent","District":"Mariakerke","Street":"Breebroekstraat","HouseNumber":"32","PostalCode":"9030","AdditionalData":[{"value":"België","key":"CountryName"},{"value":"Vlaanderen","key":"StateName"},{"value":"Oost-Vlaanderen","key":"CountyName"}]},"MapReference":{"ReferenceId":"53919934","Spot":0.88,"SideOfStreet":"right","CountryId":"20128886","StateId":"20204377","CountyId":"20205081","CityId":"20205306","DistrictId":"20205315","AddressId":"399501609","RoadLinkId":"30811963"}}},{"Relevance":1.0,"Distance":60.2,"MatchLevel":"houseNumber","MatchQuality":{"Country":1.0,"State":1.0,"County":1.0,"City":1.0,"District":1.0,"Street":[1.0],"HouseNumber":1.0,"PostalCode":1.0},"MatchType":"interpolated","Location":{"LocationId":"NT_tPBAy5pCSLIf.4yr0oSVWA_1UD","LocationType":"point","DisplayPosition":{"Latitude":51.08546,"Longitude":3.6885},"MapView":{"TopLeft":{"Latitude":51.0865842,"Longitude":3.6867104},"BottomRight":{"Latitude":51.0843358,"Longitude":3.6902896}},"Address":{"Label":"Breebroekstraat 55, 9030 Gent, België","Country":"BEL","State":"Vlaanderen","County":"Oost-Vlaanderen","City":"Gent","District":"Mariakerke","Street":"Breebroekstraat","HouseNumber":"55","PostalCode":"9030","AdditionalData":[{"value":"België","key":"CountryName"},{"value":"Vlaanderen","key":"StateName"},{"value":"Oost-Vlaanderen","key":"CountyName"}]},"MapReference":{"ReferenceId":"53919861","Spot":0.23,"SideOfStreet":"left","CountryId":"20128886","StateId":"20204377","CountyId":"20205081","CityId":"20205306","DistrictId":"20205315","AddressId":"401061811","RoadLinkId":"30360991"}}},{"Relevance":1.0,"Distance":72.6,"MatchLevel":"houseNumber","MatchQuality":{"Country":1.0,"State":1.0,"County":1.0,"City":1.0,"District":1.0,"Street":[1.0],"HouseNumber":1.0,"PostalCode":1.0},"MatchType":"interpolated","Location":{"LocationId":"NT_s9eiUq1VoG8Nk3lnbhDzjC_xA","LocationType":"point","DisplayPosition":{"Latitude":51.08582,"Longitude":3.68808},"MapView":{"TopLeft":{"Latitude":51.0869442,"Longitude":3.6862904},"BottomRight":{"Latitude":51.0846958,"Longitude":3.6898696}},"Address":{"Label":"Breebroekhof 1, 9030 Gent, België","Country":"BEL","State":"Vlaanderen","County":"Oost-Vlaanderen","City":"Gent","District":"Mariakerke","Street":"Breebroekhof","HouseNumber":"1","PostalCode":"9030","AdditionalData":[{"value":"België","key":"CountryName"},{"value":"Vlaanderen","key":"StateName"},{"value":"Oost-Vlaanderen","key":"CountyName"}]},"MapReference":{"ReferenceId":"53919844","Spot":0.6,"SideOfStreet":"left","CountryId":"20128886","StateId":"20204377","CountyId":"20205081","CityId":"20205306","DistrictId":"20205315","AddressId":"401423257","RoadLinkId":"30260578"}}},{"Relevance":1.0,"Distance":114.1,"MatchLevel":"houseNumber","MatchQuality":{"Country":1.0,"State":1.0,"County":1.0,"City":1.0,"District":1.0,"Street":[1.0],"HouseNumber":1.0,"PostalCode":1.0},"MatchType":"interpolated","Location":{"LocationId":"NT_UpFWUIKWVt0864L0qUWCtB_zcD","LocationType":"point","DisplayPosition":{"Latitude":51.08665,"Longitude":3.69036},"MapView":{"TopLeft":{"Latitude":51.0877742,"Longitude":3.6885704},"BottomRight":{"Latitude":51.0855258,"Longitude":3.6921496}},"Address":{"Label":"Haagstuk 37, 9032 Gent, België","Country":"BEL","State":"Vlaanderen","County":"Oost-Vlaanderen","City":"Gent","District":"Wondelgem","Street":"Haagstuk","HouseNumber":"37","PostalCode":"9032","AdditionalData":[{"value":"België","key":"CountryName"},{"value":"Vlaanderen","key":"StateName"},{"value":"Oost-Vlaanderen","key":"CountyName"}]},"MapReference":{"ReferenceId":"792377654","Spot":0.92,"SideOfStreet":"left","CountryId":"20128886","StateId":"20204377","CountyId":"20205081","CityId":"20205306","DistrictId":"20205321","AddressId":"399961656","RoadLinkId":"184528836"}}}]}]}}