{"Response":{"MetaInfo":{"Timestamp":"2020-03-28T09:51:15.783+0000","NextPageInformation":"2"},"View":[{"_type":"SearchResultsViewType","ViewId":0,"Result":[{"Relevance":1.0,"Distance":0.0,"Direction":0.0,"MatchLevel":"district","MatchQuality":{"Country":1.0,"State":1.0,"County":1.0,"City":1.0,"District":1.0,"PostalCode":1.0},"Location":{"LocationId":"NT_3sKbKmHIt.s0rDMPeY7W2B","LocationType":"point","DisplayPosition":{"Latitude":51.0008654,"Longitude":-0.1042132},"MapView":{"TopLeft":{"Latitude":51.01904,"Longitude":-0.12333},"BottomRight":{"Latitude":50.97913,"Longitude":-0.07056}},"Address":{"Label":"Haywards Heath, England, United Kingdom","Country":"GBR","State":"England","County":"West Sussex","City":"Haywards Heath","District":"Haywards Heath","PostalCode":"RH16 4","AdditionalData":[{"value":"United Kingdom","key":"CountryName"},{"value":"England","key":"StateName"},{"value":"West Sussex","key":"CountyName"}]},"MapReference":{"ReferenceId":"1090401073","SideOfStreet":"neither","StateId":"20248595","CountyId":"20338671","CityId":"20338822","DistrictId":"20338823"}}},{"Relevance":1.0,"Distance":30.1,"MatchLevel":"postalCode","MatchQuality":{"PostalCode":1.0},"MatchType":"interpolated","Location":{"LocationId":"NT_Z5tES1q5oHvvzJI1JHVmVD_l_565988303_R_zA","LocationType":"point","DisplayPosition":{"Latitude":51.00094,"Longitude":-0.1038},"MapView":{"TopLeft":{"Latitude":51.0099332,"Longitude":-0.1180907},"BottomRight":{"Latitude":50.9919468,"Longitude":-0.0895093}},"Address":{"Label":"RH16 3BB, Haywards Heath, England, United Kingdom","Country":"GBR","State":"England","County":"West Sussex","City":"Haywards Heath","PostalCode":"RH16 3BB","AdditionalData":[{"value":"United Kingdom","key":"CountryName"},{"value":"England","key":"StateName"},{"value":"West Sussex","key":"CountyName"}]},"MapReference":{"ReferenceId":"565988303","Spot":0.49,"SideOfStreet":"neither","StateId":"20248595","CountyId":"20338671","CityId":"20338822"}}},{"Relevance":1.0,"Distance":34.6,"MatchLevel":"houseNumber","MatchQuality":{"Country":1.0,"State":1.0,"County":1.0,"City":1.0,"District":1.0,"Street":[1.0],"HouseNumber":1.0,"PostalCode":1.0},"MatchType":"interpolated","Location":{"LocationId":"NT_Z5tES1q5oHvvzJI1JHVmVD_l_565988303_R_zA","LocationType":"point","DisplayPosition":{"Latitude":51.0009901,"Longitude":-0.1037605},"MapView":{"TopLeft":{"Latitude":51.0021142,"Longitude":-0.1055469},"BottomRight":{"Latitude":50.9998659,"Longitude":-0.1019742}},"Address":{"Label":"3 Heath Road, Haywards Heath, RH16 3AE, United Kingdom","Country":"GBR","State":"England","County":"West Sussex","City":"Haywards Heath","District":"Haywards Heath","Street":"Heath Road","HouseNumber":"3","PostalCode":"RH16 3AE","AdditionalData":[{"value":"United Kingdom","key":"CountryName"},{"value":"England","key":"StateName"},{"value":"West Sussex","key":"CountyName"}]},"MapReference":{"ReferenceId":"565988303","Spot":0.49,"SideOfStreet":"right","StateId":"20248595","CountyId":"20338671","CityId":"20338822","DistrictId":"20338823"}}},{"Relevance":1.0,"Distance":38.9,"MatchLevel":"street","MatchQuality":{"Country":1.0,"State":1.0,"County":1.0,"City":1.0,"District":1.0,"Street":[1.0],"PostalCode":1.0},"Location":{"LocationId":"NT_gxBnv85Wxk4A.AYDWktpfC_l_565988312_R","LocationType":"point","DisplayPosition":{"Latitude":51.0010249,"Longitude":-0.1047078},"MapView":{"TopLeft":{"Latitude":51.00108,"Longitude":-0.10511},"BottomRight":{"Latitude":51.00077,"Longitude":-0.10469}},"Address":{"Label":"Ashurst Place, Haywards Heath, RH16 3, United Kingdom","Country":"GBR","State":"England","County":"West Sussex","City":"Haywards Heath","District":"Haywards Heath","Street":"Ashurst Place","PostalCode":"RH16 3","AdditionalData":[{"value":"United Kingdom","key":"CountryName"},{"value":"England","key":"StateName"},{"value":"West Sussex","key":"CountyName"}]},"MapReference":{"ReferenceId":"565988312","Spot":0.91,"SideOfStreet":"right","StateId":"20248595","CountyId":"20338671","CityId":"20338822","DistrictId":"20338823"}}},{"Relevance":1.0,"Distance":49.5,"MatchLevel":"houseNumber","MatchQuality":{"Country":1.0,"State":1.0,"County":1.0,"City":1.0,"District":1.0,"Street":[1.0],"HouseNumber":1.0,"PostalCode":1.0},"MatchType":"interpolated","Location":{"LocationId":"NT_Z5tES1q5oHvvzJI1JHVmVD_l_565988313_R_xA","LocationType":"point","DisplayPosition":{"Latitude":51.001096,"Longitude":-0.1048179},"MapView":{"TopLeft":{"Latitude":51.0022201,"Longitude":-0.1066042},"BottomRight":{"Latitude":50.9999718,"Longitude":-0.1030315}},"Address":{"Label":"1 Heath Road, Haywards Heath, RH16 3AX, United Kingdom","Country":"GBR","State":"England","County":"West Sussex","City":"Haywards Heath","District":"Haywards Heath","Street":"Heath Road","HouseNumber":"1","PostalCode":"RH16 3AX","AdditionalData":[{"value":"United Kingdom","key":"CountryName"},{"value":"England","key":"StateName"},{"value":"West Sussex","key":"CountyName"}]},"MapReference":{"ReferenceId":"565988313","Spot":0.53,"SideOfStreet":"right","StateId":"20248595","CountyId":"20338671","CityId":"20338822","DistrictId":"20338823"}}},{"Relevance":1.0,"Distance":51.4,"MatchLevel":"postalCode","MatchQuality":{"PostalCode":1.0},"Location":{"LocationId":"NT_gxBnv85Wxk4A.AYDWktpfC_l_565988312_R","LocationType":"point","DisplayPosition":{"Latitude":51.00074,"Longitude":-0.10492},"MapView":{"TopLeft":{"Latitude":51.0097332,"Longitude":-0.1192106},"BottomRight":{"Latitude":50.9917468,"Longitude":-0.0906294}},"Address":{"Label":"RH16 3EJ, Haywards Heath, England, United Kingdom","Country":"GBR","State":"England","County":"West Sussex","City":"Haywards Heath","PostalCode":"RH16 3EJ","AdditionalData":[{"value":"United Kingdom","key":"CountryName"},{"value":"England","key":"StateName"},{"value":"West Sussex","key":"CountyName"}]},"MapReference":{"ReferenceId":"565988312","Spot":0.91,"SideOfStreet":"neither","StateId":"20248595","CountyId":"20338671","CityId":"20338822"}}},{"Relevance":1.0,"Distance":57.1,"MatchLevel":"street","MatchQuality":{"Country":1.0,"State":1.0,"County":1.0,"City":1.0,"District":1.0,"Street":[1.0],"PostalCode":1.0},"Location":{"LocationId":"NT_WEwVjXxgWsKnN.pKGuVJZA_l_565988315_R","LocationType":"point","DisplayPosition":{"Latitude":51.00111,"Longitude":-0.10493},"MapView":{"TopLeft":{"Latitude":51.00185,"Longitude":-0.10494},"BottomRight":{"Latitude":51.00111,"Longitude":-0.10414}},"Address":{"Label":"Ormerod Court, Haywards Heath, RH16 3, United Kingdom","Country":"GBR","State":"England","County":"West Sussex","City":"Haywards Heath","District":"Haywards Heath","Street":"Ormerod Court","PostalCode":"RH16 3","AdditionalData":[{"value":"United Kingdom","key":"CountryName"},{"value":"England","key":"StateName"},{"value":"West Sussex","key":"CountyName"}]},"MapReference":{"ReferenceId":"565988315","Spot":0.0,"SideOfStreet":"right","StateId":"20248595","CountyId":"20338671","CityId":"20338822","DistrictId":"20338823"}}},{"Relevance":1.0,"Distance":57.1,"MatchLevel":"street","MatchQuality":{"Country":1.0,"State":1.0,"County":1.0,"City":1.0,"District":1.0,"Street":[1.0],"PostalCode":1.0},"Location":{"LocationId":"NT_Z5tES1q5oHvvzJI1JHVmVD_l_565988314_L","LocationType":"point","DisplayPosition":{"Latitude":51.00111,"Longitude":-0.10493},"MapView":{"TopLeft":{"Latitude":51.00117,"Longitude":-0.10544},"BottomRight":{"Latitude":51.00111,"Longitude":-0.10493}},"Address":{"Label":"Heath Road, Haywards Heath, RH16 3, United Kingdom","Country":"GBR","State":"England","County":"West Sussex","City":"Haywards Heath","District":"Haywards Heath","Street":"Heath Road","PostalCode":"RH16 3","AdditionalData":[{"value":"United Kingdom","key":"CountryName"},{"value":"England","key":"StateName"},{"value":"West Sussex","key":"CountyName"}]},"MapReference":{"ReferenceId":"565988314","Spot":0.0,"SideOfStreet":"left","StateId":"20248595","CountyId":"20338671","CityId":"20338822","DistrictId":"20338823"}}},{"Relevance":1.0,"Distance":82.6,"MatchLevel":"postalCode","MatchQuality":{"PostalCode":1.0},"Location":{"LocationId":"NT_WEwVjXxgWsKnN.pKGuVJZA_l_565988315_R","LocationType":"point","DisplayPosition":{"Latitude":51.00156,"Longitude":-0.10463},"MapView":{"TopLeft":{"Latitude":51.0105532,"Longitude":-0.1189208},"BottomRight":{"Latitude":50.9925668,"Longitude":-0.0903392}},"Address":{"Label":"RH16 3AU, Haywards Heath, England, United Kingdom","Country":"GBR","State":"England","County":"West Sussex","City":"Haywards Heath","PostalCode":"RH16 3AU","AdditionalData":[{"value":"United Kingdom","key":"CountryName"},{"value":"England","key":"StateName"},{"value":"West Sussex","key":"CountyName"}]},"MapReference":{"ReferenceId":"565988315","Spot":0.0,"SideOfStreet":"neither","StateId":"20248595","CountyId":"20338671","CityId":"20338822"}}},{"Relevance":1.0,"Distance":86.5,"MatchLevel":"houseNumber","MatchQuality":{"Country":1.0,"State":1.0,"County":1.0,"City":1.0,"District":1.0,"Street":[1.0],"HouseNumber":1.0,"PostalCode":1.0},"MatchType":"interpolated","Location":{"LocationId":"NT_Oi8FoLM6-DgV3IlPqLLpnD_l_25595907_R_2AD","LocationType":"point","DisplayPosition":{"Latitude":51.001007,"Longitude":-0.105563},"MapView":{"TopLeft":{"Latitude":51.0021311,"Longitude":-0.1073494},"BottomRight":{"Latitude":50.9998828,"Longitude":-0.1037767}},"Address":{"Label":"60 The Broadway, Haywards Heath, RH16 3AL, United Kingdom","Country":"GBR","State":"England","County":"West Sussex","City":"Haywards Heath","District":"Haywards Heath","Street":"The Broadway","HouseNumber":"60","PostalCode":"RH16 3AL","AdditionalData":[{"value":"United Kingdom","key":"CountryName"},{"value":"England","key":"StateName"},{"value":"West Sussex","key":"CountyName"}]},"MapReference":{"ReferenceId":"25595907","Spot":0.84,"SideOfStreet":"right","StateId":"20248595","CountyId":"20338671","CityId":"20338822","DistrictId":"20338823"}}}]}]}}