{"Response":{"MetaInfo":{"Timestamp":"2020-03-28T11:43:02.209+0000","NextPageInformation":"2"},"View":[{"_type":"SearchResultsViewType","ViewId":0,"Result":[{"Relevance":1.0,"Distance":0.0,"Direction":0.0,"MatchLevel":"district","MatchQuality":{"Country":1.0,"State":1.0,"County":1.0,"City":1.0,"District":1.0,"PostalCode":1.0},"Location":{"LocationId":"NT_ywmZor3LjrJBbl2G-LCw6A","LocationType":"point","DisplayPosition":{"Latitude":51.0202034,"Longitude":10.5089925},"MapView":{"TopLeft":{"Latitude":51.0258,"Longitude":10.49557},"BottomRight":{"Latitude":51.01649,"Longitude":10.53417}},"Address":{"Label":"Behringen, Hörselberg-Hainich, Thüringen, Deutschland","Country":"DEU","State":"Thüringen","County":"Wartburgkreis","City":"Hörselberg-Hainich","District":"Behringen","PostalCode":"99820","AdditionalData":[{"value":"Deutschland","key":"CountryName"},{"value":"Thüringen","key":"StateName"},{"value":"Wartburgkreis","key":"CountyName"}]},"MapReference":{"ReferenceId":"565390478","SideOfStreet":"neither","CountryId":"20147700","StateId":"20196974","CountyId":"20197339","CityId":"23251185","DistrictId":"20197552"}}},{"Relevance":1.0,"Distance":6.2,"MatchLevel":"houseNumber","MatchQuality":{"Country":1.0,"State":1.0,"County":1.0,"City":1.0,"District":1.0,"Street":[1.0],"HouseNumber":1.0,"PostalCode":1.0},"MatchType":"interpolated","Location":{"LocationId":"NT_5RutM9EyYAs3KDbWqAprgD_xQDN","LocationType":"point","DisplayPosition":{"Latitude":51.02026,"Longitude":10.50867},"MapView":{"TopLeft":{"Latitude":51.0213842,"Longitude":10.5068829},"BottomRight":{"Latitude":51.0191358,"Longitude":10.5104571}},"Address":{"Label":"Hauptstraße 144, 99820 Hörselberg-Hainich, Deutschland","Country":"DEU","State":"Thüringen","County":"Wartburgkreis","City":"Hörselberg-Hainich","District":"Behringen","Street":"Hauptstraße","HouseNumber":"144","PostalCode":"99820","AdditionalData":[{"value":"Deutschland","key":"CountryName"},{"value":"Thüringen","key":"StateName"},{"value":"Wartburgkreis","key":"CountyName"}]},"MapReference":{"ReferenceId":"547996031","Spot":0.14,"SideOfStreet":"right","CountryId":"20147700","StateId":"20196974","CountyId":"20197339","CityId":"23251185","DistrictId":"20197552","AddressId":"189365104","RoadLinkId":"39656097"}}},{"Relevance":1.0,"Distance":16.5,"MatchLevel":"street","MatchQuality":{"Country":1.0,"State":1.0,"County":1.0,"City":1.0,"District":1.0,"Street":[1.0],"PostalCode":1.0},"Location":{"LocationId":"NT_fq9SjUKOY.JIiMWO9nGLuB_l_547996032_R","LocationType":"point","DisplayPosition":{"Latitude":51.02009,"Longitude":10.50884},"MapView":{"TopLeft":{"Latitude":51.02023,"Longitude":10.50865},"BottomRight":{"Latitude":51.01994,"Longitude":10.50884}},"Address":{"Label":"Bahnhofstraße, 99820 Hörselberg-Hainich, Deutschland","Country":"DEU","State":"Thüringen","County":"Wartburgkreis","City":"Hörselberg-Hainich","District":"Behringen","Street":"Bahnhofstraße","PostalCode":"99820","AdditionalData":[{"value":"Deutschland","key":"CountryName"},{"value":"Thüringen","key":"StateName"},{"value":"Wartburgkreis","key":"CountyName"}]},"MapReference":{"ReferenceId":"547996032","Spot":0.39,"SideOfStreet":"right","CountryId":"20147700","StateId":"20196974","CountyId":"20197339","CityId":"23251185","DistrictId":"20197552"}}},{"Relevance":1.0,"Distance":27.5,"MatchLevel":"houseNumber","MatchQuality":{"Country":1.0,"State":1.0,"County":1.0,"City":1.0,"District":1.0,"Street":[1.0],"HouseNumber":1.0,"PostalCode":1.0},"MatchType":"interpolated","Location":{"LocationId":"NT_5RutM9EyYAs3KDbWqAprgD_xQTM","LocationType":"point","DisplayPosition":{"Latitude":51.02048,"Longitude":10.50879},"MapView":{"TopLeft":{"Latitude":51.0216042,"Longitude":10.5070029},"BottomRight":{"Latitude":51.0193558,"Longitude":10.5105771}},"Address":{"Label":"Hauptstraße 141, 99820 Hörselberg-Hainich, Deutschland","Country":"DEU","State":"Thüringen","County":"Wartburgkreis","City":"Hörselberg-Hainich","District":"Behringen","Street":"Hauptstraße","HouseNumber":"141","PostalCode":"99820","AdditionalData":[{"value":"Deutschland","key":"CountryName"},{"value":"Thüringen","key":"StateName"},{"value":"Wartburgkreis","key":"CountyName"}]},"MapReference":{"ReferenceId":"547995405","Spot":0.08,"SideOfStreet":"right","CountryId":"20147700","StateId":"20196974","CountyId":"20197339","CityId":"23251185","DistrictId":"20197552","AddressId":"189416277","RoadLinkId":"39725013"}}},{"Relevance":1.0,"Distance":30.3,"MatchLevel":"houseNumber","MatchQuality":{"Country":1.0,"State":1.0,"County":1.0,"City":1.0,"District":1.0,"Street":[1.0],"HouseNumber":1.0,"PostalCode":1.0},"MatchType":"interpolated","Location":{"LocationId":"NT_5RutM9EyYAs3KDbWqAprgD_xQTN","LocationType":"point","DisplayPosition":{"Latitude":51.02012,"Longitude":10.50858},"MapView":{"TopLeft":{"Latitude":51.0212442,"Longitude":10.5067929},"BottomRight":{"Latitude":51.0189958,"Longitude":10.5103671}},"Address":{"Label":"Hauptstraße 145, 99820 Hörselberg-Hainich, Deutschland","Country":"DEU","State":"Thüringen","County":"Wartburgkreis","City":"Hörselberg-Hainich","District":"Behringen","Street":"Hauptstraße","HouseNumber":"145","PostalCode":"99820","AdditionalData":[{"value":"Deutschland","key":"CountryName"},{"value":"Thüringen","key":"StateName"},{"value":"Wartburgkreis","key":"CountyName"}]},"MapReference":{"ReferenceId":"961775155","Spot":0.38,"SideOfStreet":"left","CountryId":"20147700","StateId":"20196974","CountyId":"20197339","CityId":"23251185","DistrictId":"20197552","AddressId":"189557059","RoadLinkId":"303614764"}}},{"Relevance":1.0,"Distance":36.2,"MatchLevel":"houseNumber","MatchQuality":{"Country":1.0,"State":1.0,"County":1.0,"City":1.0,"District":1.0,"Street":[1.0],"HouseNumber":1.0,"PostalCode":1.0},"MatchType":"interpolated","Location":{"LocationId":"NT_WbP5PBZ2WIRiM22fRbZh2D_yA","LocationType":"point","DisplayPosition":{"Latitude":51.01992,"Longitude":10.50948},"MapView":{"TopLeft":{"Latitude":51.0210442,"Longitude":10.5076929},"BottomRight":{"Latitude":51.0187958,"Longitude":10.5112671}},"Address":{"Label":"Ziegeleistraße 2, 99820 Hörselberg-Hainich, Deutschland","Country":"DEU","State":"Thüringen","County":"Wartburgkreis","City":"Hörselberg-Hainich","District":"Behringen","Street":"Ziegeleistraße","HouseNumber":"2","PostalCode":"99820","AdditionalData":[{"value":"Deutschland","key":"CountryName"},{"value":"Thüringen","key":"StateName"},{"value":"Wartburgkreis","key":"CountyName"}]},"MapReference":{"ReferenceId":"547995401","Spot":0.73,"SideOfStreet":"right","CountryId":"20147700","StateId":"20196974","CountyId":"20197339","CityId":"23251185","DistrictId":"20197552","AddressId":"189282969","RoadLinkId":"39937960"}}},{"Relevance":1.0,"Distance":37.9,"MatchLevel":"houseNumber","MatchQuality":{"Country":1.0,"State":1.0,"County":1.0,"City":1.0,"District":1.0,"Street":[1.0],"HouseNumber":1.0,"PostalCode":1.0},"MatchType":"interpolated","Location":{"LocationId":"NT_fq9SjUKOY.JIiMWO9nGLuB_xA","LocationType":"point","DisplayPosition":{"Latitude":51.01987,"Longitude":10.50884},"MapView":{"TopLeft":{"Latitude":51.0209942,"Longitude":10.5070529},"BottomRight":{"Latitude":51.0187458,"Longitude":10.5106271}},"Address":{"Label":"Bahnhofstraße 1, 99820 Hörselberg-Hainich, Deutschland","Country":"DEU","State":"Thüringen","County":"Wartburgkreis","City":"Hörselberg-Hainich","District":"Behringen","Street":"Bahnhofstraße","HouseNumber":"1","PostalCode":"99820","AdditionalData":[{"value":"Deutschland","key":"CountryName"},{"value":"Thüringen","key":"StateName"},{"value":"Wartburgkreis","key":"CountyName"}]},"MapReference":{"ReferenceId":"547996035","Spot":0.91,"SideOfStreet":"right","CountryId":"20147700","StateId":"20196974","CountyId":"20197339","CityId":"23251185","DistrictId":"20197552","AddressId":"189550660","RoadLinkId":"39965089"}}},{"Relevance":1.0,"Distance":59.6,"MatchLevel":"houseNumber","MatchQuality":{"Country":1.0,"State":1.0,"County":1.0,"City":1.0,"District":1.0,"Street":[1.0],"HouseNumber":1.0,"PostalCode":1.0},"MatchType":"interpolated","Location":{"LocationId":"NT_dbcpxKom1hrO664stXna7A_yA","LocationType":"point","DisplayPosition":{"Latitude":51.02054,"Longitude":10.50833},"MapView":{"TopLeft":{"Latitude":51.0216642,"Longitude":10.5065429},"BottomRight":{"Latitude":51.0194158,"Longitude":10.5101171}},"Address":{"Label":"Planweg 2, 99820 Hörselberg-Hainich, Deutschland","Country":"DEU","State":"Thüringen","County":"Wartburgkreis","City":"Hörselberg-Hainich","District":"Behringen","Street":"Planweg","HouseNumber":"2","PostalCode":"99820","AdditionalData":[{"value":"Deutschland","key":"CountryName"},{"value":"Thüringen","key":"StateName"},{"value":"Wartburgkreis","key":"CountyName"}]},"MapReference":{"ReferenceId":"547995404","Spot":0.39,"SideOfStreet":"left","CountryId":"20147700","StateId":"20196974","CountyId":"20197339","CityId":"23251185","DistrictId":"20197552","AddressId":"189301482","RoadLinkId":"39601947"}}},{"Relevance":1.0,"Distance":64.0,"MatchLevel":"houseNumber","MatchQuality":{"Country":1.0,"State":1.0,"County":1.0,"City":1.0,"District":1.0,"Street":[1.0],"HouseNumber":1.0,"PostalCode":1.0},"MatchType":"interpolated","Location":{"LocationId":"NT_5RutM9EyYAs3KDbWqAprgD_xQzN","LocationType":"point","DisplayPosition":{"Latitude":51.0198,"Longitude":10.50834},"MapView":{"TopLeft":{"Latitude":51.0209242,"Longitude":10.5065529},"BottomRight":{"Latitude":51.0186758,"Longitude":10.5101271}},"Address":{"Label":"Hauptstraße 147, 99820 Hörselberg-Hainich, Deutschland","Country":"DEU","State":"Thüringen","County":"Wartburgkreis","City":"Hörselberg-Hainich","District":"Behringen","Street":"Hauptstraße","HouseNumber":"147","PostalCode":"99820","AdditionalData":[{"value":"Deutschland","key":"CountryName"},{"value":"Thüringen","key":"StateName"},{"value":"Wartburgkreis","key":"CountyName"}]},"MapReference":{"ReferenceId":"961775154","Spot":0.52,"SideOfStreet":"left","CountryId":"20147700","StateId":"20196974","CountyId":"20197339","CityId":"23251185","DistrictId":"20197552","AddressId":"189406320","RoadLinkId":"303614763"}}},{"Relevance":1.0,"Distance":69.7,"MatchLevel":"houseNumber","MatchQuality":{"Country":1.0,"State":1.0,"County":1.0,"City":1.0,"District":1.0,"Street":[1.0],"HouseNumber":1.0,"PostalCode":1.0},"MatchType":"interpolated","Location":{"LocationId":"NT_ZecdbzEdLds9uDpg299ElD_xA","LocationType":"point","DisplayPosition":{"Latitude":51.02082,"Longitude":10.5093},"MapView":{"TopLeft":{"Latitude":51.0219442,"Longitude":10.5075129},"BottomRight":{"Latitude":51.0196958,"Longitude":10.5110871}},"Address":{"Label":"Flehengasse 1, 99820 Hörselberg-Hainich, Deutschland","Country":"DEU","State":"Thüringen","County":"Wartburgkreis","City":"Hörselberg-Hainich","District":"Behringen","Street":"Flehengasse","HouseNumber":"1","PostalCode":"99820","AdditionalData":[{"value":"Deutschland","key":"CountryName"},{"value":"Thüringen","key":"StateName"},{"value":"Wartburgkreis","key":"CountyName"}]},"MapReference":{"ReferenceId":"547995383","Spot":0.71,"SideOfStreet":"left","CountryId":"20147700","StateId":"20196974","CountyId":"20197339","CityId":"23251185","DistrictId":"20197552","AddressId":"189634554","RoadLinkId":"40000936"}}}]}]}}