{"Response":{"MetaInfo":{"Timestamp":"2020-03-28T10:40:00.508+0000","NextPageInformation":"2"},"View":[{"_type":"SearchResultsViewType","ViewId":0,"Result":[{"Relevance":1.0,"Distance":0.0,"Direction":0.0,"MatchLevel":"district","MatchQuality":{"Country":1.0,"State":1.0,"County":1.0,"City":1.0,"District":1.0,"PostalCode":1.0},"Location":{"LocationId":"NT_8isNXbt8KmYYyc.WLorCHB","LocationType":"point","DisplayPosition":{"Latitude":51.0890218,"Longitude":-1.1616778},"MapView":{"TopLeft":{"Latitude":51.09568,"Longitude":-1.18185},"BottomRight":{"Latitude":51.07925,"Longitude":-1.15659}},"Address":{"Label":"New Alresford, England, United Kingdom","Country":"GBR","State":"England","County":"Hampshire","City":"New Alresford","District":"New Alresford","PostalCode":"SO24 9","AdditionalData":[{"value":"United Kingdom","key":"CountryName"},{"value":"England","key":"StateName"},{"value":"Hampshire","key":"CountyName"}]},"MapReference":{"ReferenceId":"25710643","SideOfStreet":"neither","StateId":"20248595","CountyId":"20335863","CityId":"20335868","DistrictId":"20335869"}}},{"Relevance":1.0,"Distance":2.4,"MatchLevel":"street","MatchQuality":{"Country":1.0,"State":1.0,"County":1.0,"City":1.0,"District":1.0,"PostalCode":1.0},"Location":{"LocationId":"NT_v8y3Z7saYYP2BeCCooA8VB_l_1069213144_L","LocationType":"point","DisplayPosition":{"Latitude":51.0890435,"Longitude":-1.1616829},"MapView":{"TopLeft":{"Latitude":51.0891,"Longitude":-1.1623},"BottomRight":{"Latitude":51.0889,"Longitude":-1.16144}},"Address":{"Label":"New Alresford, SO24 9, United Kingdom","Country":"GBR","State":"England","County":"Hampshire","City":"New Alresford","District":"New Alresford","PostalCode":"SO24 9","AdditionalData":[{"value":"United Kingdom","key":"CountryName"},{"value":"England","key":"StateName"},{"value":"Hampshire","key":"CountyName"}]},"MapReference":{"ReferenceId":"1069213144","Spot":0.72,"SideOfStreet":"neither","StateId":"20248595","CountyId":"20335863","CityId":"20335868","DistrictId":"20335869"}}},{"Relevance":1.0,"Distance":4.9,"MatchLevel":"postalCode","MatchQuality":{"PostalCode":1.0},"Location":{"LocationId":"NT_v8y3Z7saYYP2BeCCooA8VB_l_1069213144_L","LocationType":"point","DisplayPosition":{"Latitude":51.08901,"Longitude":-1.16161},"MapView":{"TopLeft":{"Latitude":51.0980032,"Longitude":-1.1759278},"BottomRight":{"Latitude":51.0800168,"Longitude":-1.1472922}},"Address":{"Label":"SO24 9JL, New Alresford, England, United Kingdom","Country":"GBR","State":"England","County":"Hampshire","City":"New Alresford","PostalCode":"SO24 9JL","AdditionalData":[{"value":"United Kingdom","key":"CountryName"},{"value":"England","key":"StateName"},{"value":"Hampshire","key":"CountyName"}]},"MapReference":{"ReferenceId":"1069213144","Spot":0.72,"SideOfStreet":"neither","StateId":"20248595","CountyId":"20335863","CityId":"20335868"}}},{"Relevance":1.0,"Distance":16.3,"MatchLevel":"houseNumber","MatchQuality":{"Country":1.0,"State":1.0,"County":1.0,"City":1.0,"District":1.0,"Street":[1.0],"HouseNumber":1.0,"PostalCode":1.0},"MatchType":"interpolated","Location":{"LocationId":"NT_VICGKIIBPczHv8xd8VnkLD_l_958390161_R_xA","LocationType":"point","DisplayPosition":{"Latitude":51.08878,"Longitude":-1.16187},"MapView":{"TopLeft":{"Latitude":51.0899042,"Longitude":-1.1636598},"BottomRight":{"Latitude":51.0876559,"Longitude":-1.1600803}},"Address":{"Label":"1 Station Approach, New Alresford, SO24 9FL, United Kingdom","Country":"GBR","State":"England","County":"Hampshire","City":"New Alresford","District":"New Alresford","Street":"Station Approach","HouseNumber":"1","PostalCode":"SO24 9FL","AdditionalData":[{"value":"United Kingdom","key":"CountryName"},{"value":"England","key":"StateName"},{"value":"Hampshire","key":"CountyName"}]},"MapReference":{"ReferenceId":"958390161","Spot":0.0,"SideOfStreet":"right","StateId":"20248595","CountyId":"20335863","CityId":"20335868","DistrictId":"20335869"}}},{"Relevance":1.0,"Distance":18.7,"MatchLevel":"street","MatchQuality":{"Country":1.0,"State":1.0,"County":1.0,"City":1.0,"District":1.0,"Street":[1.0],"PostalCode":1.0},"Location":{"LocationId":"NT_C-12FQPYKlb2sEiwcpC-lD_l_1069213136_L","LocationType":"point","DisplayPosition":{"Latitude":51.0891,"Longitude":-1.16144},"MapView":{"TopLeft":{"Latitude":51.0891,"Longitude":-1.16144},"BottomRight":{"Latitude":51.08881,"Longitude":-1.16129}},"Address":{"Label":"Station Road, New Alresford, SO24 9, United Kingdom","Country":"GBR","State":"England","County":"Hampshire","City":"New Alresford","District":"New Alresford","Street":"Station Road","PostalCode":"SO24 9","AdditionalData":[{"value":"United Kingdom","key":"CountryName"},{"value":"England","key":"StateName"},{"value":"Hampshire","key":"CountyName"}]},"MapReference":{"ReferenceId":"1069213136","Spot":1.0,"SideOfStreet":"left","StateId":"20248595","CountyId":"20335863","CityId":"20335868","DistrictId":"20335869"}}},{"Relevance":1.0,"Distance":19.6,"MatchLevel":"street","MatchQuality":{"Country":1.0,"State":1.0,"County":1.0,"City":1.0,"District":1.0,"Street":[1.0],"PostalCode":1.0},"Location":{"LocationId":"NT_C-12FQPYKlb2sEiwcpC-lD_l_1069213145_L","LocationType":"point","DisplayPosition":{"Latitude":51.0891276,"Longitude":-1.161453},"MapView":{"TopLeft":{"Latitude":51.08927,"Longitude":-1.16152},"BottomRight":{"Latitude":51.0891,"Longitude":-1.16144}},"Address":{"Label":"Station Road, New Alresford, SO24 9, United Kingdom","Country":"GBR","State":"England","County":"Hampshire","City":"New Alresford","District":"New Alresford","Street":"Station Road","PostalCode":"SO24 9","AdditionalData":[{"value":"United Kingdom","key":"CountryName"},{"value":"England","key":"StateName"},{"value":"Hampshire","key":"CountyName"}]},"MapReference":{"ReferenceId":"1069213145","Spot":0.16,"SideOfStreet":"left","StateId":"20248595","CountyId":"20335863","CityId":"20335868","DistrictId":"20335869"}}},{"Relevance":1.0,"Distance":23.0,"MatchLevel":"postalCode","MatchQuality":{"PostalCode":1.0},"Location":{"LocationId":"NT_C-12FQPYKlb2sEiwcpC-lD_l_1069213136_L","LocationType":"point","DisplayPosition":{"Latitude":51.08911,"Longitude":-1.16138},"MapView":{"TopLeft":{"Latitude":51.0981032,"Longitude":-1.1756979},"BottomRight":{"Latitude":51.0801168,"Longitude":-1.1470621}},"Address":{"Label":"SO24 9FS, New Alresford, England, United Kingdom","Country":"GBR","State":"England","County":"Hampshire","City":"New Alresford","PostalCode":"SO24 9FS","AdditionalData":[{"value":"United Kingdom","key":"CountryName"},{"value":"England","key":"StateName"},{"value":"Hampshire","key":"CountyName"}]},"MapReference":{"ReferenceId":"1069213136","Spot":1.0,"SideOfStreet":"neither","StateId":"20248595","CountyId":"20335863","CityId":"20335868"}}},{"Relevance":1.0,"Distance":29.7,"MatchLevel":"street","MatchQuality":{"Country":1.0,"State":1.0,"County":1.0,"City":1.0,"District":1.0,"Street":[1.0],"PostalCode":1.0},"Location":{"LocationId":"NT_C-12FQPYKlb2sEiwcpC-lD_l_1069213146_L","LocationType":"point","DisplayPosition":{"Latitude":51.08927,"Longitude":-1.16152},"MapView":{"TopLeft":{"Latitude":51.08938,"Longitude":-1.16157},"BottomRight":{"Latitude":51.08927,"Longitude":-1.16152}},"Address":{"Label":"Station Road, New Alresford, SO24 9, United Kingdom","Country":"GBR","State":"England","County":"Hampshire","City":"New Alresford","District":"New Alresford","Street":"Station Road","PostalCode":"SO24 9","AdditionalData":[{"value":"United Kingdom","key":"CountryName"},{"value":"England","key":"StateName"},{"value":"Hampshire","key":"CountyName"}]},"MapReference":{"ReferenceId":"1069213146","Spot":0.0,"SideOfStreet":"left","StateId":"20248595","CountyId":"20335863","CityId":"20335868","DistrictId":"20335869"}}},{"Relevance":1.0,"Distance":29.7,"MatchLevel":"street","MatchQuality":{"Country":1.0,"State":1.0,"County":1.0,"City":1.0,"District":1.0,"PostalCode":1.0},"Location":{"LocationId":"NT_v8y3Z7saYYP2BeCCooA8VB_l_1069213147_R","LocationType":"point","DisplayPosition":{"Latitude":51.08927,"Longitude":-1.16152},"MapView":{"TopLeft":{"Latitude":51.09037,"Longitude":-1.16152},"BottomRight":{"Latitude":51.08927,"Longitude":-1.16126}},"Address":{"Label":"New Alresford, SO24 9, United Kingdom","Country":"GBR","State":"England","County":"Hampshire","City":"New Alresford","District":"New Alresford","PostalCode":"SO24 9","AdditionalData":[{"value":"United Kingdom","key":"CountryName"},{"value":"England","key":"StateName"},{"value":"Hampshire","key":"CountyName"}]},"MapReference":{"ReferenceId":"1069213147","Spot":0.0,"SideOfStreet":"right","StateId":"20248595","CountyId":"20335863","CityId":"20335868","DistrictId":"20335869"}}},{"Relevance":1.0,"Distance":30.4,"MatchLevel":"postalCode","MatchQuality":{"PostalCode":1.0},"MatchType":"interpolated","Location":{"LocationId":"NT_C-12FQPYKlb2sEiwcpC-lD_l_1069213137_L_xA","LocationType":"point","DisplayPosition":{"Latitude":51.08923,"Longitude":-1.16196},"MapView":{"TopLeft":{"Latitude":51.0982232,"Longitude":-1.1762779},"BottomRight":{"Latitude":51.0802368,"Longitude":-1.1476421}},"Address":{"Label":"SO24 9JG, New Alresford, England, United Kingdom","Country":"GBR","State":"England","County":"Hampshire","City":"New Alresford","PostalCode":"SO24 9JG","AdditionalData":[{"value":"United Kingdom","key":"CountryName"},{"value":"England","key":"StateName"},{"value":"Hampshire","key":"CountyName"}]},"MapReference":{"ReferenceId":"1069213137","Spot":0.5,"SideOfStreet":"neither","StateId":"20248595","CountyId":"20335863","CityId":"20335868"}}}]}]}}