{"Response":{"MetaInfo":{"Timestamp":"2020-03-28T10:06:40.589+0000","NextPageInformation":"2"},"View":[{"_type":"SearchResultsViewType","ViewId":0,"Result":[{"Relevance":1.0,"Distance":0.0,"Direction":0.0,"MatchLevel":"city","MatchQuality":{"Country":1.0,"State":1.0,"County":1.0,"City":1.0,"PostalCode":1.0},"Location":{"LocationId":"NT_jTGTjzCwqcpPb1T20ubdyA","LocationType":"point","DisplayPosition":{"Latitude":51.0457952,"Longitude":2.4033552},"MapView":{"TopLeft":{"Latitude":51.06066,"Longitude":2.23958},"BottomRight":{"Latitude":50.97605,"Longitude":2.44653}},"Address":{"Label":"Dunkerque, Hauts-de-France, France","Country":"FRA","State":"Hauts-de-France","County":"Nord","City":"Dunkerque","PostalCode":"59140","AdditionalData":[{"value":"France","key":"CountryName"},{"value":"Hauts-de-France","key":"StateName"},{"value":"Nord","key":"CountyName"}]},"MapReference":{"ReferenceId":"58896496","SideOfStreet":"neither","CountryId":"20000001","StateId":"20000002","CountyId":"20000003","CityId":"20026771"}}},{"Relevance":1.0,"Distance":4.6,"MatchLevel":"houseNumber","MatchQuality":{"Country":1.0,"State":1.0,"County":1.0,"City":1.0,"Street":[1.0],"HouseNumber":1.0,"PostalCode":1.0},"MatchType":"interpolated","Location":{"LocationId":"NT_SlKyzJMR350ar4JxJIpalA_xQTM","LocationType":"point","DisplayPosition":{"Latitude":51.04575,"Longitude":2.40329},"MapView":{"TopLeft":{"Latitude":51.0468742,"Longitude":2.4015019},"BottomRight":{"Latitude":51.0446258,"Longitude":2.4050781}},"Address":{"Label":"141 Avenue de la Mer, 59240 Dunkerque, France","Country":"FRA","State":"Hauts-de-France","County":"Nord","City":"Dunkerque","Street":"Avenue de la Mer","HouseNumber":"141","PostalCode":"59240","AdditionalData":[{"value":"France","key":"CountryName"},{"value":"Hauts-de-France","key":"StateName"},{"value":"Nord","key":"CountyName"}]},"MapReference":{"ReferenceId":"1188703264","Spot":0.44,"SideOfStreet":"right","CountryId":"20000001","StateId":"20000002","CountyId":"20000003","CityId":"20026771","AddressId":"322395890","RoadLinkId":"497644182"}}},{"Relevance":1.0,"Distance":33.1,"MatchLevel":"street","MatchQuality":{"Country":1.0,"State":1.0,"County":1.0,"City":1.0,"Street":[1.0],"PostalCode":1.0},"Location":{"LocationId":"NT_54aDYB8fjd9MJQSTWEmfwB_l_1188703270_R","LocationType":"point","DisplayPosition":{"Latitude":51.04595,"Longitude":2.40376},"MapView":{"TopLeft":{"Latitude":51.04669,"Longitude":2.40376},"BottomRight":{"Latitude":51.04595,"Longitude":2.40513}},"Address":{"Label":"Rue André Devynck, 59240 Dunkerque, France","Country":"FRA","State":"Hauts-de-France","County":"Nord","City":"Dunkerque","Street":"Rue André Devynck","PostalCode":"59240","AdditionalData":[{"value":"France","key":"CountryName"},{"value":"Hauts-de-France","key":"StateName"},{"value":"Nord","key":"CountyName"}]},"MapReference":{"ReferenceId":"1188703270","Spot":0.0,"SideOfStreet":"right","CountryId":"20000001","StateId":"20000002","CountyId":"20000003","CityId":"20026771"}}},{"Relevance":1.0,"Distance":35.1,"MatchLevel":"street","MatchQuality":{"Country":1.0,"State":1.0,"County":1.0,"City":1.0,"Street":[1.0],"PostalCode":1.0},"Location":{"LocationId":"NT_54aDYB8fjd9MJQSTWEmfwB_l_1188703269_L","LocationType":"point","DisplayPosition":{"Latitude":51.0460068,"Longitude":2.4037277},"MapView":{"TopLeft":{"Latitude":51.04639,"Longitude":2.40351},"BottomRight":{"Latitude":51.04595,"Longitude":2.40376}},"Address":{"Label":"Rue André Devynck, 59240 Dunkerque, France","Country":"FRA","State":"Hauts-de-France","County":"Nord","City":"Dunkerque","Street":"Rue André Devynck","PostalCode":"59240","AdditionalData":[{"value":"France","key":"CountryName"},{"value":"Hauts-de-France","key":"StateName"},{"value":"Nord","key":"CountyName"}]},"MapReference":{"ReferenceId":"1188703269","Spot":0.13,"SideOfStreet":"left","CountryId":"20000001","StateId":"20000002","CountyId":"20000003","CityId":"20026771"}}},{"Relevance":1.0,"Distance":51.0,"MatchLevel":"houseNumber","MatchQuality":{"Country":1.0,"State":1.0,"County":1.0,"City":1.0,"Street":[1.0],"HouseNumber":1.0,"PostalCode":1.0},"MatchType":"interpolated","Location":{"LocationId":"NT_fqzciFBBCe3qEEMM6HgyzD_zA","LocationType":"point","DisplayPosition":{"Latitude":51.04544,"Longitude":2.40387},"MapView":{"TopLeft":{"Latitude":51.0465642,"Longitude":2.402082},"BottomRight":{"Latitude":51.0443158,"Longitude":2.405658}},"Address":{"Label":"3 Rue Maxence van der Meersch, 59240 Dunkerque, France","Country":"FRA","State":"Hauts-de-France","County":"Nord","City":"Dunkerque","Street":"Rue Maxence van der Meersch","HouseNumber":"3","PostalCode":"59240","AdditionalData":[{"value":"France","key":"CountryName"},{"value":"Hauts-de-France","key":"StateName"},{"value":"Nord","key":"CountyName"}]},"MapReference":{"ReferenceId":"58895552","Spot":0.16,"SideOfStreet":"left","CountryId":"20000001","StateId":"20000002","CountyId":"20000003","CityId":"20026771","AddressId":"376270115","RoadLinkId":"44614154"}}},{"Relevance":1.0,"Distance":52.3,"MatchLevel":"landmark","MatchQuality":{"Country":1.0,"State":1.0,"County":1.0,"City":1.0,"Street":[1.0],"PostalCode":1.0,"Name":1.0},"Location":{"LocationId":"NT_P5lwQALYgIug-m64pbSLfD_p_tZCQ8oHCh6UcwkXwU8UtjD","LocationType":"cemetery","Name":"Cimetière Dunkerque Malo Ancien","DisplayPosition":{"Latitude":51.045,"Longitude":2.4012},"MapView":{"TopLeft":{"Latitude":51.0461,"Longitude":2.40093},"BottomRight":{"Latitude":51.04464,"Longitude":2.40311}},"Address":{"Label":"Rue de Roubaix, 59240 Dunkerque, France","Country":"FRA","State":"Hauts-de-France","County":"Nord","City":"Dunkerque","Street":"Rue de Roubaix","PostalCode":"59240","AdditionalData":[{"value":"France","key":"CountryName"},{"value":"Hauts-de-France","key":"StateName"},{"value":"Nord","key":"CountyName"}]},"MapReference":{"CountryId":"20000001","StateId":"20000002","CountyId":"20000003","CityId":"20026771","PlaceId":"898993590"}}},{"Relevance":1.0,"Distance":53.8,"MatchLevel":"houseNumber","MatchQuality":{"Country":1.0,"State":1.0,"County":1.0,"City":1.0,"Street":[1.0],"HouseNumber":1.0,"PostalCode":1.0},"MatchType":"interpolated","Location":{"LocationId":"NT_SlKyzJMR350ar4JxJIpalA_xQDM","LocationType":"point","DisplayPosition":{"Latitude":51.04532,"Longitude":2.4035},"MapView":{"TopLeft":{"Latitude":51.0464442,"Longitude":2.401712},"BottomRight":{"Latitude":51.0441958,"Longitude":2.405288}},"Address":{"Label":"140 Avenue de la Mer, 59240 Dunkerque, France","Country":"FRA","State":"Hauts-de-France","County":"Nord","City":"Dunkerque","Street":"Avenue de la Mer","HouseNumber":"140","PostalCode":"59240","AdditionalData":[{"value":"France","key":"CountryName"},{"value":"Hauts-de-France","key":"StateName"},{"value":"Nord","key":"CountyName"}]},"MapReference":{"ReferenceId":"58895600","Spot":0.95,"SideOfStreet":"left","CountryId":"20000001","StateId":"20000002","CountyId":"20000003","CityId":"20026771","AddressId":"322477801","RoadLinkId":"45047911"}}},{"Relevance":1.0,"Distance":59.5,"MatchLevel":"street","MatchQuality":{"Country":1.0,"State":1.0,"County":1.0,"City":1.0,"Street":[1.0],"PostalCode":1.0},"Location":{"LocationId":"NT_8RRP1odXG-U8ofWx0bbDcD_l_1188703267_R","LocationType":"point","DisplayPosition":{"Latitude":51.0463248,"Longitude":2.4032313},"MapView":{"TopLeft":{"Latitude":51.04639,"Longitude":2.40304},"BottomRight":{"Latitude":51.04628,"Longitude":2.40351}},"Address":{"Label":"Parvis des Écrivains, 59240 Dunkerque, France","Country":"FRA","State":"Hauts-de-France","County":"Nord","City":"Dunkerque","Street":"Parvis des Écrivains","PostalCode":"59240","AdditionalData":[{"value":"France","key":"CountryName"},{"value":"Hauts-de-France","key":"StateName"},{"value":"Nord","key":"CountyName"}]},"MapReference":{"ReferenceId":"1188703267","Spot":0.41,"SideOfStreet":"right","CountryId":"20000001","StateId":"20000002","CountyId":"20000003","CityId":"20026771"}}},{"Relevance":1.0,"Distance":63.2,"MatchLevel":"houseNumber","MatchQuality":{"Country":1.0,"State":1.0,"County":1.0,"City":1.0,"Street":[1.0],"HouseNumber":1.0,"PostalCode":1.0},"MatchType":"interpolated","Location":{"LocationId":"NT_SlKyzJMR350ar4JxJIpalA_xIzN","LocationType":"point","DisplayPosition":{"Latitude":51.04632,"Longitude":2.40301},"MapView":{"TopLeft":{"Latitude":51.0474442,"Longitude":2.4012219},"BottomRight":{"Latitude":51.0451958,"Longitude":2.4047981}},"Address":{"Label":"127 Avenue de la Mer, 59240 Dunkerque, France","Country":"FRA","State":"Hauts-de-France","County":"Nord","City":"Dunkerque","Street":"Avenue de la Mer","HouseNumber":"127","PostalCode":"59240","AdditionalData":[{"value":"France","key":"CountryName"},{"value":"Hauts-de-France","key":"StateName"},{"value":"Nord","key":"CountyName"}]},"MapReference":{"ReferenceId":"1188703265","Spot":0.19,"SideOfStreet":"right","CountryId":"20000001","StateId":"20000002","CountyId":"20000003","CityId":"20026771","AddressId":"322395894","RoadLinkId":"497644183"}}},{"Relevance":1.0,"Distance":88.0,"MatchLevel":"houseNumber","MatchQuality":{"Country":1.0,"State":1.0,"County":1.0,"City":1.0,"Street":[1.0],"HouseNumber":1.0,"PostalCode":1.0},"MatchType":"interpolated","Location":{"LocationId":"NT_D6jH3L8o0hBD9exTEloLYC_xA","LocationType":"point","DisplayPosition":{"Latitude":51.04658,"Longitude":2.40319},"MapView":{"TopLeft":{"Latitude":51.0477042,"Longitude":2.4014019},"BottomRight":{"Latitude":51.0454558,"Longitude":2.4049781}},"Address":{"Label":"1 Rue Émile Verhaeren, 59240 Dunkerque, France","Country":"FRA","State":"Hauts-de-France","County":"Nord","City":"Dunkerque","Street":"Rue Émile Verhaeren","HouseNumber":"1","PostalCode":"59240","AdditionalData":[{"value":"France","key":"CountryName"},{"value":"Hauts-de-France","key":"StateName"},{"value":"Nord","key":"CountyName"}]},"MapReference":{"ReferenceId":"58901128","Spot":0.12,"SideOfStreet":"left","CountryId":"20000001","StateId":"20000002","CountyId":"20000003","CityId":"20026771","AddressId":"345141148","RoadLinkId":"44280640"}}}]}]}}