{"Response":{"MetaInfo":{"Timestamp":"2020-03-28T10:34:49.546+0000","NextPageInformation":"2"},"View":[{"_type":"SearchResultsViewType","ViewId":0,"Result":[{"Relevance":1.0,"Distance":0.0,"Direction":0.0,"MatchLevel":"district","MatchQuality":{"Country":1.0,"State":1.0,"County":1.0,"City":1.0,"District":1.0,"PostalCode":1.0},"Location":{"LocationId":"NT_UXWcnYO4oMkbL3UH-fkitA","LocationType":"point","DisplayPosition":{"Latitude":51.1488569,"Longitude":-2.7128487},"MapView":{"TopLeft":{"Latitude":51.16232,"Longitude":-2.73805},"BottomRight":{"Latitude":51.137,"Longitude":-2.69313}},"Address":{"Label":"Glastonbury, England, United Kingdom","Country":"GBR","State":"England","County":"Somerset","City":"Glastonbury","District":"Glastonbury","PostalCode":"BA6 9","AdditionalData":[{"value":"United Kingdom","key":"CountryName"},{"value":"England","key":"StateName"},{"value":"Somerset","key":"CountyName"}]},"MapReference":{"ReferenceId":"847718167","SideOfStreet":"neither","StateId":"20248595","CountyId":"20357053","CityId":"20357266","DistrictId":"20357267"}}},{"Relevance":1.0,"Distance":4.7,"MatchLevel":"postalCode","MatchQuality":{"PostalCode":1.0},"MatchType":"interpolated","Location":{"LocationId":"NT_AXc4lRTEp.wpvHq7S-f1MD_l_988604808_L_xA","LocationType":"point","DisplayPosition":{"Latitude":51.14884,"Longitude":-2.71291},"MapView":{"TopLeft":{"Latitude":51.1578332,"Longitude":-2.7272464},"BottomRight":{"Latitude":51.1398468,"Longitude":-2.6985736}},"Address":{"Label":"BA6 9DD, Glastonbury, England, United Kingdom","Country":"GBR","State":"England","County":"Somerset","City":"Glastonbury","PostalCode":"BA6 9DD","AdditionalData":[{"value":"United Kingdom","key":"CountryName"},{"value":"England","key":"StateName"},{"value":"Somerset","key":"CountyName"}]},"MapReference":{"ReferenceId":"988604808","Spot":0.54,"SideOfStreet":"neither","StateId":"20248595","CountyId":"20357053","CityId":"20357266"}}},{"Relevance":1.0,"Distance":6.0,"MatchLevel":"houseNumber","MatchQuality":{"Country":1.0,"State":1.0,"County":1.0,"City":1.0,"District":1.0,"Street":[1.0],"HouseNumber":1.0,"PostalCode":1.0},"MatchType":"interpolated","Location":{"LocationId":"NT_ll-fLo0zyfPiAup.y6bTsB_l_841399759_L_xYD","LocationType":"point","DisplayPosition":{"Latitude":51.1488833,"Longitude":-2.7129233},"MapView":{"TopLeft":{"Latitude":51.1500075,"Longitude":-2.7147154},"BottomRight":{"Latitude":51.1477592,"Longitude":-2.7111313}},"Address":{"Label":"16 Butt Close, Glastonbury, BA6 9HY, United Kingdom","Country":"GBR","State":"England","County":"Somerset","City":"Glastonbury","District":"Glastonbury","Street":"Butt Close","HouseNumber":"16","PostalCode":"BA6 9HY","AdditionalData":[{"value":"United Kingdom","key":"CountryName"},{"value":"England","key":"StateName"},{"value":"Somerset","key":"CountyName"}]},"MapReference":{"ReferenceId":"841399759","Spot":0.57,"SideOfStreet":"left","StateId":"20248595","CountyId":"20357053","CityId":"20357266","DistrictId":"20357267"}}},{"Relevance":1.0,"Distance":13.9,"MatchLevel":"houseNumber","MatchQuality":{"Country":1.0,"State":1.0,"County":1.0,"City":1.0,"District":1.0,"Street":[1.0],"HouseNumber":1.0,"PostalCode":1.0},"MatchType":"interpolated","Location":{"LocationId":"NT_AXc4lRTEp.wpvHq7S-f1MD_l_26700421_L_zA","LocationType":"point","DisplayPosition":{"Latitude":51.1490301,"Longitude":-2.71265},"MapView":{"TopLeft":{"Latitude":51.1501542,"Longitude":-2.7144421},"BottomRight":{"Latitude":51.1479059,"Longitude":-2.710858}},"Address":{"Label":"3 Wells Road, Glastonbury, BA6 9DN, United Kingdom","Country":"GBR","State":"England","County":"Somerset","City":"Glastonbury","District":"Glastonbury","Street":"Wells Road","HouseNumber":"3","PostalCode":"BA6 9DN","AdditionalData":[{"value":"United Kingdom","key":"CountryName"},{"value":"England","key":"StateName"},{"value":"Somerset","key":"CountyName"}]},"MapReference":{"ReferenceId":"26700421","Spot":0.1,"SideOfStreet":"left","StateId":"20248595","CountyId":"20357053","CityId":"20357266","DistrictId":"20357267"}}},{"Relevance":1.0,"Distance":16.7,"MatchLevel":"street","MatchQuality":{"Country":1.0,"State":1.0,"County":1.0,"City":1.0,"District":1.0,"Street":[1.0],"PostalCode":1.0},"Location":{"LocationId":"NT_AXc4lRTEp.wpvHq7S-f1MD_l_988604809_L","LocationType":"point","DisplayPosition":{"Latitude":51.1489,"Longitude":-2.71262},"MapView":{"TopLeft":{"Latitude":51.1489,"Longitude":-2.71262},"BottomRight":{"Latitude":51.14868,"Longitude":-2.71255}},"Address":{"Label":"Wells Road, Glastonbury, BA6 9, United Kingdom","Country":"GBR","State":"England","County":"Somerset","City":"Glastonbury","District":"Glastonbury","Street":"Wells Road","PostalCode":"BA6 9","AdditionalData":[{"value":"United Kingdom","key":"CountryName"},{"value":"England","key":"StateName"},{"value":"Somerset","key":"CountyName"}]},"MapReference":{"ReferenceId":"988604809","Spot":1.0,"SideOfStreet":"left","StateId":"20248595","CountyId":"20357053","CityId":"20357266","DistrictId":"20357267"}}},{"Relevance":1.0,"Distance":32.8,"MatchLevel":"street","MatchQuality":{"Country":1.0,"State":1.0,"County":1.0,"City":1.0,"District":1.0,"PostalCode":1.0},"Location":{"LocationId":"NT_18HI2vDgHj6rC7fBecRW1A_l_841399761_L","LocationType":"point","DisplayPosition":{"Latitude":51.14858,"Longitude":-2.71301},"MapView":{"TopLeft":{"Latitude":51.14858,"Longitude":-2.71321},"BottomRight":{"Latitude":51.14855,"Longitude":-2.71301}},"Address":{"Label":"Glastonbury, BA6 9, United Kingdom","Country":"GBR","State":"England","County":"Somerset","City":"Glastonbury","District":"Glastonbury","PostalCode":"BA6 9","AdditionalData":[{"value":"United Kingdom","key":"CountryName"},{"value":"England","key":"StateName"},{"value":"Somerset","key":"CountyName"}]},"MapReference":{"ReferenceId":"841399761","Spot":1.0,"SideOfStreet":"left","StateId":"20248595","CountyId":"20357053","CityId":"20357266","DistrictId":"20357267"}}},{"Relevance":1.0,"Distance":33.9,"MatchLevel":"street","MatchQuality":{"Country":1.0,"State":1.0,"County":1.0,"City":1.0,"District":1.0,"PostalCode":1.0},"Location":{"LocationId":"NT_18HI2vDgHj6rC7fBecRW1A_l_841399760_R","LocationType":"point","DisplayPosition":{"Latitude":51.1487003,"Longitude":-2.7132664},"MapView":{"TopLeft":{"Latitude":51.14887,"Longitude":-2.71333},"BottomRight":{"Latitude":51.14855,"Longitude":-2.71321}},"Address":{"Label":"Glastonbury, BA6 9, United Kingdom","Country":"GBR","State":"England","County":"Somerset","City":"Glastonbury","District":"Glastonbury","PostalCode":"BA6 9","AdditionalData":[{"value":"United Kingdom","key":"CountryName"},{"value":"England","key":"StateName"},{"value":"Somerset","key":"CountyName"}]},"MapReference":{"ReferenceId":"841399760","Spot":0.47,"SideOfStreet":"right","StateId":"20248595","CountyId":"20357053","CityId":"20357266","DistrictId":"20357267"}}},{"Relevance":1.0,"Distance":36.6,"MatchLevel":"houseNumber","MatchQuality":{"Country":1.0,"State":1.0,"County":1.0,"City":1.0,"District":1.0,"Street":[1.0],"HouseNumber":1.0,"PostalCode":1.0},"MatchType":"interpolated","Location":{"LocationId":"NT_AXc4lRTEp.wpvHq7S-f1MD_l_988604808_L_xA","LocationType":"point","DisplayPosition":{"Latitude":51.1486016,"Longitude":-2.7125177},"MapView":{"TopLeft":{"Latitude":51.1497258,"Longitude":-2.7143098},"BottomRight":{"Latitude":51.1474775,"Longitude":-2.7107257}},"Address":{"Label":"1 Wells Road, Glastonbury, BA6 9DD, United Kingdom","Country":"GBR","State":"England","County":"Somerset","City":"Glastonbury","District":"Glastonbury","Street":"Wells Road","HouseNumber":"1","PostalCode":"BA6 9DD","AdditionalData":[{"value":"United Kingdom","key":"CountryName"},{"value":"England","key":"StateName"},{"value":"Somerset","key":"CountyName"}]},"MapReference":{"ReferenceId":"988604808","Spot":0.54,"SideOfStreet":"left","StateId":"20248595","CountyId":"20357053","CityId":"20357266","DistrictId":"20357267"}}},{"Relevance":1.0,"Distance":42.4,"MatchLevel":"street","MatchQuality":{"Country":1.0,"State":1.0,"County":1.0,"City":1.0,"District":1.0,"PostalCode":1.0},"Location":{"LocationId":"NT_18HI2vDgHj6rC7fBecRW1A_l_1199044938_L","LocationType":"point","DisplayPosition":{"Latitude":51.14855,"Longitude":-2.71321},"MapView":{"TopLeft":{"Latitude":51.14855,"Longitude":-2.71347},"BottomRight":{"Latitude":51.14851,"Longitude":-2.71321}},"Address":{"Label":"Glastonbury, BA6 9, United Kingdom","Country":"GBR","State":"England","County":"Somerset","City":"Glastonbury","District":"Glastonbury","PostalCode":"BA6 9","AdditionalData":[{"value":"United Kingdom","key":"CountryName"},{"value":"England","key":"StateName"},{"value":"Somerset","key":"CountyName"}]},"MapReference":{"ReferenceId":"1199044938","Spot":1.0,"SideOfStreet":"left","StateId":"20248595","CountyId":"20357053","CityId":"20357266","DistrictId":"20357267"}}},{"Relevance":1.0,"Distance":46.4,"MatchLevel":"street","MatchQuality":{"Country":1.0,"State":1.0,"County":1.0,"City":1.0,"District":1.0,"Street":[1.0],"PostalCode":1.0},"Location":{"LocationId":"NT_AXc4lRTEp.wpvHq7S-f1MD_l_26700496_L","LocationType":"point","DisplayPosition":{"Latitude":51.14851,"Longitude":-2.71248},"MapView":{"TopLeft":{"Latitude":51.14851,"Longitude":-2.71248},"BottomRight":{"Latitude":51.14833,"Longitude":-2.71241}},"Address":{"Label":"Wells Road, Glastonbury, BA6 9, United Kingdom","Country":"GBR","State":"England","County":"Somerset","City":"Glastonbury","District":"Glastonbury","Street":"Wells Road","PostalCode":"BA6 9","AdditionalData":[{"value":"United Kingdom","key":"CountryName"},{"value":"England","key":"StateName"},{"value":"Somerset","key":"CountyName"}]},"MapReference":{"ReferenceId":"26700496","Spot":1.0,"SideOfStreet":"left","StateId":"20248595","CountyId":"20357053","CityId":"20357266","DistrictId":"20357267"}}}]}]}}