{"Response":{"MetaInfo":{"Timestamp":"2020-03-28T10:52:03.037+0000","NextPageInformation":"2"},"View":[{"_type":"SearchResultsViewType","ViewId":0,"Result":[{"Relevance":1.0,"Distance":0.0,"Direction":0.0,"MatchLevel":"city","MatchQuality":{"Country":1.0,"State":1.0,"County":1.0,"City":1.0,"PostalCode":1.0},"Location":{"LocationId":"NT_QfC73RFIhexCB4fdeJks7D","LocationType":"point","DisplayPosition":{"Latitude":51.1880408,"Longitude":5.114736},"MapView":{"TopLeft":{"Latitude":51.32266,"Longitude":5.03558},"BottomRight":{"Latitude":51.15365,"Longitude":5.24221}},"Address":{"Label":"Mol, Vlaanderen, België","Country":"BEL","State":"Vlaanderen","County":"Antwerpen","City":"Mol","PostalCode":"2400","AdditionalData":[{"value":"België","key":"CountryName"},{"value":"Vlaanderen","key":"StateName"},{"value":"Antwerpen","key":"CountyName"}]},"MapReference":{"ReferenceId":"59497867","SideOfStreet":"neither","CountryId":"20128886","StateId":"20204377","CountyId":"20204378","CityId":"20204641"}}},{"Relevance":1.0,"Distance":14.8,"MatchLevel":"houseNumber","MatchQuality":{"Country":1.0,"State":1.0,"County":1.0,"City":1.0,"Street":[1.0],"HouseNumber":1.0,"PostalCode":1.0},"MatchType":"interpolated","Location":{"LocationId":"NT_QiWSH-mrI9jtQSMjhbsd9C_xkD","LocationType":"point","DisplayPosition":{"Latitude":51.18794,"Longitude":5.11444},"MapView":{"TopLeft":{"Latitude":51.1890642,"Longitude":5.1126464},"BottomRight":{"Latitude":51.1868158,"Longitude":5.1162336}},"Address":{"Label":"St.-Pieterstraat 19, 2400 Mol, België","Country":"BEL","State":"Vlaanderen","County":"Antwerpen","City":"Mol","Street":"St.-Pieterstraat","HouseNumber":"19","PostalCode":"2400","AdditionalData":[{"value":"België","key":"CountryName"},{"value":"Vlaanderen","key":"StateName"},{"value":"Antwerpen","key":"CountyName"}]},"MapReference":{"ReferenceId":"59497888","Spot":0.54,"SideOfStreet":"right","CountryId":"20128886","StateId":"20204377","CountyId":"20204378","CityId":"20204641","AddressId":"401215252","RoadLinkId":"30714279"}}},{"Relevance":1.0,"Distance":60.0,"MatchLevel":"houseNumber","MatchQuality":{"Country":1.0,"State":1.0,"County":1.0,"City":1.0,"Street":[1.0],"HouseNumber":1.0,"PostalCode":1.0},"MatchType":"interpolated","Location":{"LocationId":"NT_wDoJnXRLtyBBpUzLj77gPC_yED","LocationType":"point","DisplayPosition":{"Latitude":51.18875,"Longitude":5.11435},"MapView":{"TopLeft":{"Latitude":51.1898742,"Longitude":5.1125564},"BottomRight":{"Latitude":51.1876258,"Longitude":5.1161436}},"Address":{"Label":"Adolf Reydamslaan 21, 2400 Mol, België","Country":"BEL","State":"Vlaanderen","County":"Antwerpen","City":"Mol","Street":"Adolf Reydamslaan","HouseNumber":"21","PostalCode":"2400","AdditionalData":[{"value":"België","key":"CountryName"},{"value":"Vlaanderen","key":"StateName"},{"value":"Antwerpen","key":"CountyName"}]},"MapReference":{"ReferenceId":"59497852","Spot":0.46,"SideOfStreet":"right","CountryId":"20128886","StateId":"20204377","CountyId":"20204378","CityId":"20204641","AddressId":"400376386","RoadLinkId":"30457372"}}},{"Relevance":1.0,"Distance":70.2,"MatchLevel":"houseNumber","MatchQuality":{"Country":1.0,"State":1.0,"County":1.0,"City":1.0,"Street":[1.0],"HouseNumber":1.0,"PostalCode":1.0},"MatchType":"interpolated","Location":{"LocationId":"NT_wDoJnXRLtyBBpUzLj77gPC_zED","LocationType":"point","DisplayPosition":{"Latitude":51.18841,"Longitude":5.11353},"MapView":{"TopLeft":{"Latitude":51.1895342,"Longitude":5.1117364},"BottomRight":{"Latitude":51.1872858,"Longitude":5.1153236}},"Address":{"Label":"Adolf Reydamslaan 31, 2400 Mol, België","Country":"BEL","State":"Vlaanderen","County":"Antwerpen","City":"Mol","Street":"Adolf Reydamslaan","HouseNumber":"31","PostalCode":"2400","AdditionalData":[{"value":"België","key":"CountryName"},{"value":"Vlaanderen","key":"StateName"},{"value":"Antwerpen","key":"CountyName"}]},"MapReference":{"ReferenceId":"59497800","Spot":0.91,"SideOfStreet":"right","CountryId":"20128886","StateId":"20204377","CountyId":"20204378","CityId":"20204641","AddressId":"399908911","RoadLinkId":"30400057"}}},{"Relevance":1.0,"Distance":79.5,"MatchLevel":"houseNumber","MatchQuality":{"Country":1.0,"State":1.0,"County":1.0,"City":1.0,"Street":[1.0],"HouseNumber":1.0,"PostalCode":1.0},"MatchType":"interpolated","Location":{"LocationId":"NT_XZgNb6uJag9Jr362GWpNxA_xAD","LocationType":"point","DisplayPosition":{"Latitude":51.18739,"Longitude":5.11569},"MapView":{"TopLeft":{"Latitude":51.1885142,"Longitude":5.1138965},"BottomRight":{"Latitude":51.1862658,"Longitude":5.1174835}},"Address":{"Label":"Rondplein 10, 2400 Mol, België","Country":"BEL","State":"Vlaanderen","County":"Antwerpen","City":"Mol","Street":"Rondplein","HouseNumber":"10","PostalCode":"2400","AdditionalData":[{"value":"België","key":"CountryName"},{"value":"Vlaanderen","key":"StateName"},{"value":"Antwerpen","key":"CountyName"}]},"MapReference":{"ReferenceId":"59497877","Spot":0.21,"SideOfStreet":"left","CountryId":"20128886","StateId":"20204377","CountyId":"20204378","CityId":"20204641","AddressId":"399978962","RoadLinkId":"30675043"}}},{"Relevance":1.0,"Distance":89.4,"MatchLevel":"houseNumber","MatchQuality":{"Country":1.0,"State":1.0,"County":1.0,"City":1.0,"Street":[1.0],"HouseNumber":1.0,"PostalCode":1.0},"MatchType":"interpolated","Location":{"LocationId":"NT_wDoJnXRLtyBBpUzLj77gPC_zA","LocationType":"point","DisplayPosition":{"Latitude":51.18894,"Longitude":5.11529},"MapView":{"TopLeft":{"Latitude":51.1900642,"Longitude":5.1134964},"BottomRight":{"Latitude":51.1878158,"Longitude":5.1170836}},"Address":{"Label":"Adolf Reydamslaan 3, 2400 Mol, België","Country":"BEL","State":"Vlaanderen","County":"Antwerpen","City":"Mol","Street":"Adolf Reydamslaan","HouseNumber":"3","PostalCode":"2400","AdditionalData":[{"value":"België","key":"CountryName"},{"value":"Vlaanderen","key":"StateName"},{"value":"Antwerpen","key":"CountyName"}]},"MapReference":{"ReferenceId":"59497817","Spot":0.09,"SideOfStreet":"right","CountryId":"20128886","StateId":"20204377","CountyId":"20204378","CityId":"20204641","AddressId":"399587796","RoadLinkId":"30608955"}}},{"Relevance":1.0,"Distance":100.2,"MatchLevel":"houseNumber","MatchQuality":{"Country":1.0,"State":1.0,"County":1.0,"City":1.0,"Street":[1.0],"HouseNumber":1.0,"PostalCode":1.0},"MatchType":"interpolated","Location":{"LocationId":"NT_kA6g.E5bX9ZCksPREMW-NB_yA","LocationType":"point","DisplayPosition":{"Latitude":51.18719,"Longitude":5.11521},"MapView":{"TopLeft":{"Latitude":51.1883142,"Longitude":5.1134165},"BottomRight":{"Latitude":51.1860658,"Longitude":5.1170035}},"Address":{"Label":"Gasthuisstraat 2, 2400 Mol, België","Country":"BEL","State":"Vlaanderen","County":"Antwerpen","City":"Mol","Street":"Gasthuisstraat","HouseNumber":"2","PostalCode":"2400","AdditionalData":[{"value":"België","key":"CountryName"},{"value":"Vlaanderen","key":"StateName"},{"value":"Antwerpen","key":"CountyName"}]},"MapReference":{"ReferenceId":"59497785","Spot":0.74,"SideOfStreet":"right","CountryId":"20128886","StateId":"20204377","CountyId":"20204378","CityId":"20204641","AddressId":"400439062","RoadLinkId":"30767111"}}},{"Relevance":1.0,"Distance":104.8,"MatchLevel":"houseNumber","MatchQuality":{"Country":1.0,"State":1.0,"County":1.0,"City":1.0,"Street":[1.0],"HouseNumber":1.0,"PostalCode":1.0},"MatchType":"interpolated","Location":{"LocationId":"NT_kA6g.E5bX9ZCksPREMW-NB_xA","LocationType":"point","DisplayPosition":{"Latitude":51.18685,"Longitude":5.11451},"MapView":{"TopLeft":{"Latitude":51.1879742,"Longitude":5.1127165},"BottomRight":{"Latitude":51.1857258,"Longitude":5.1163035}},"Address":{"Label":"Gasthuisstraat 1, 2400 Mol, België","Country":"BEL","State":"Vlaanderen","County":"Antwerpen","City":"Mol","Street":"Gasthuisstraat","HouseNumber":"1","PostalCode":"2400","AdditionalData":[{"value":"België","key":"CountryName"},{"value":"Vlaanderen","key":"StateName"},{"value":"Antwerpen","key":"CountyName"}]},"MapReference":{"ReferenceId":"59497857","Spot":0.78,"SideOfStreet":"left","CountryId":"20128886","StateId":"20204377","CountyId":"20204378","CityId":"20204641","AddressId":"626315370","RoadLinkId":"30863071"}}},{"Relevance":1.0,"Distance":113.8,"MatchLevel":"houseNumber","MatchQuality":{"Country":1.0,"State":1.0,"County":1.0,"City":1.0,"Street":[1.0],"HouseNumber":1.0,"PostalCode":1.0},"MatchType":"interpolated","Location":{"LocationId":"NT_reJP7xAt.V8b.qiWf2FI0B_yA","LocationType":"point","DisplayPosition":{"Latitude":51.18904,"Longitude":5.11509},"MapView":{"TopLeft":{"Latitude":51.1901642,"Longitude":5.1132964},"BottomRight":{"Latitude":51.1879158,"Longitude":5.1168836}},"Address":{"Label":"Gildestraat 2, 2400 Mol, België","Country":"BEL","State":"Vlaanderen","County":"Antwerpen","City":"Mol","Street":"Gildestraat","HouseNumber":"2","PostalCode":"2400","AdditionalData":[{"value":"België","key":"CountryName"},{"value":"Vlaanderen","key":"StateName"},{"value":"Antwerpen","key":"CountyName"}]},"MapReference":{"ReferenceId":"59497824","Spot":0.25,"SideOfStreet":"right","CountryId":"20128886","StateId":"20204377","CountyId":"20204378","CityId":"20204641","AddressId":"400773985","RoadLinkId":"30489774"}}},{"Relevance":1.0,"Distance":119.5,"MatchLevel":"houseNumber","MatchQuality":{"Country":1.0,"State":1.0,"County":1.0,"City":1.0,"Street":[1.0],"HouseNumber":1.0,"PostalCode":1.0},"MatchType":"interpolated","Location":{"LocationId":"NT_QiWSH-mrI9jtQSMjhbsd9C_zMD","LocationType":"point","DisplayPosition":{"Latitude":51.18873,"Longitude":5.11336},"MapView":{"TopLeft":{"Latitude":51.1898542,"Longitude":5.1115664},"BottomRight":{"Latitude":51.1876058,"Longitude":5.1151536}},"Address":{"Label":"St.-Pieterstraat 33, 2400 Mol, België","Country":"BEL","State":"Vlaanderen","County":"Antwerpen","City":"Mol","Street":"St.-Pieterstraat","HouseNumber":"33","PostalCode":"2400","AdditionalData":[{"value":"België","key":"CountryName"},{"value":"Vlaanderen","key":"StateName"},{"value":"Antwerpen","key":"CountyName"}]},"MapReference":{"ReferenceId":"59497859","Spot":0.36,"SideOfStreet":"right","CountryId":"20128886","StateId":"20204377","CountyId":"20204378","CityId":"20204641","AddressId":"400878629","RoadLinkId":"30292136"}}}]}]}}