{"Response":{"MetaInfo":{"Timestamp":"2020-03-28T11:43:13.873+0000","NextPageInformation":"2"},"View":[{"_type":"SearchResultsViewType","ViewId":0,"Result":[{"Relevance":1.0,"Distance":0.0,"Direction":0.0,"MatchLevel":"district","MatchQuality":{"Country":1.0,"State":1.0,"County":1.0,"City":1.0,"District":1.0,"PostalCode":1.0},"Location":{"LocationId":"NT_CUe0CgVtjmSrnaoQ07Ch9C","LocationType":"point","DisplayPosition":{"Latitude":51.1483065,"Longitude":6.3625634},"MapView":{"TopLeft":{"Latitude":51.15713,"Longitude":6.34984},"BottomRight":{"Latitude":51.14077,"Longitude":6.3743}},"Address":{"Label":"Rheindahlen, Mönchengladbach, Nordrhein-Westfalen, Deutschland","Country":"DEU","State":"Nordrhein-Westfalen","County":"Mönchengladbach","City":"Mönchengladbach","District":"Rheindahlen","PostalCode":"41179","AdditionalData":[{"value":"Deutschland","key":"CountryName"},{"value":"Nordrhein-Westfalen","key":"StateName"},{"value":"Mönchengladbach","key":"CountyName"}]},"MapReference":{"ReferenceId":"50938449","SideOfStreet":"neither","CountryId":"20147700","StateId":"20157369","CountyId":"20157440","CityId":"20157441","DistrictId":"20157443"}}},{"Relevance":1.0,"Distance":15.2,"MatchLevel":"houseNumber","MatchQuality":{"Country":1.0,"State":1.0,"County":1.0,"City":1.0,"District":1.0,"Street":[1.0],"HouseNumber":1.0,"PostalCode":1.0},"MatchType":"interpolated","Location":{"LocationId":"NT_Gf99Nd2tCVwKw0zwnaGGqA_3A","LocationType":"point","DisplayPosition":{"Latitude":51.14812,"Longitude":6.36261},"MapView":{"TopLeft":{"Latitude":51.1492442,"Longitude":6.360818},"BottomRight":{"Latitude":51.1469958,"Longitude":6.364402}},"Address":{"Label":"Plektrudisstraße 7, 41179 Mönchengladbach, Deutschland","Country":"DEU","State":"Nordrhein-Westfalen","County":"Mönchengladbach","City":"Mönchengladbach","District":"Rheindahlen","Street":"Plektrudisstraße","HouseNumber":"7","PostalCode":"41179","AdditionalData":[{"value":"Deutschland","key":"CountryName"},{"value":"Nordrhein-Westfalen","key":"StateName"},{"value":"Mönchengladbach","key":"CountyName"}]},"MapReference":{"ReferenceId":"50939827","Spot":0.51,"SideOfStreet":"left","CountryId":"20147700","StateId":"20157369","CountyId":"20157440","CityId":"20157441","DistrictId":"20157443","AddressId":"194746510","RoadLinkId":"39196169"}}},{"Relevance":1.0,"Distance":31.2,"MatchLevel":"houseNumber","MatchQuality":{"Country":1.0,"State":1.0,"County":1.0,"City":1.0,"District":1.0,"Street":[1.0],"HouseNumber":1.0,"PostalCode":1.0},"MatchType":"interpolated","Location":{"LocationId":"NT_Gf99Nd2tCVwKw0zwnaGGqA_xUD","LocationType":"point","DisplayPosition":{"Latitude":51.14825,"Longitude":6.36309},"MapView":{"TopLeft":{"Latitude":51.1493742,"Longitude":6.361298},"BottomRight":{"Latitude":51.1471258,"Longitude":6.364882}},"Address":{"Label":"Plektrudisstraße 15, 41179 Mönchengladbach, Deutschland","Country":"DEU","State":"Nordrhein-Westfalen","County":"Mönchengladbach","City":"Mönchengladbach","District":"Rheindahlen","Street":"Plektrudisstraße","HouseNumber":"15","PostalCode":"41179","AdditionalData":[{"value":"Deutschland","key":"CountryName"},{"value":"Nordrhein-Westfalen","key":"StateName"},{"value":"Mönchengladbach","key":"CountyName"}]},"MapReference":{"ReferenceId":"1256913353","Spot":0.04,"SideOfStreet":"left","CountryId":"20147700","StateId":"20157369","CountyId":"20157440","CityId":"20157441","DistrictId":"20157443","AddressId":"196635288","RoadLinkId":"580669444"}}},{"Relevance":1.0,"Distance":36.8,"MatchLevel":"houseNumber","MatchQuality":{"Country":1.0,"State":1.0,"County":1.0,"City":1.0,"District":1.0,"Street":[1.0],"HouseNumber":1.0,"PostalCode":1.0},"MatchType":"interpolated","Location":{"LocationId":"NT_t83JJCt8AKwIoY0onV449A_yA","LocationType":"point","DisplayPosition":{"Latitude":51.14817,"Longitude":6.36201},"MapView":{"TopLeft":{"Latitude":51.1492942,"Longitude":6.360218},"BottomRight":{"Latitude":51.1470458,"Longitude":6.363802}},"Address":{"Label":"Am Mühlentor 2, 41179 Mönchengladbach, Deutschland","Country":"DEU","State":"Nordrhein-Westfalen","County":"Mönchengladbach","City":"Mönchengladbach","District":"Rheindahlen","Street":"Am Mühlentor","HouseNumber":"2","PostalCode":"41179","AdditionalData":[{"value":"Deutschland","key":"CountryName"},{"value":"Nordrhein-Westfalen","key":"StateName"},{"value":"Mönchengladbach","key":"CountyName"}]},"MapReference":{"ReferenceId":"50938449","Spot":0.4,"SideOfStreet":"right","CountryId":"20147700","StateId":"20157369","CountyId":"20157440","CityId":"20157441","DistrictId":"20157443","AddressId":"196752115","RoadLinkId":"39098054"}}},{"Relevance":1.0,"Distance":41.8,"MatchLevel":"houseNumber","MatchQuality":{"Country":1.0,"State":1.0,"County":1.0,"City":1.0,"District":1.0,"Street":[1.0],"HouseNumber":1.0,"PostalCode":1.0},"MatchType":"interpolated","Location":{"LocationId":"NT_i2tkCkmde3A5rbtJsgMYmA_1A","LocationType":"point","DisplayPosition":{"Latitude":51.14869,"Longitude":6.36247},"MapView":{"TopLeft":{"Latitude":51.1498142,"Longitude":6.360678},"BottomRight":{"Latitude":51.1475658,"Longitude":6.364262}},"Address":{"Label":"Renne 5, 41179 Mönchengladbach, Deutschland","Country":"DEU","State":"Nordrhein-Westfalen","County":"Mönchengladbach","City":"Mönchengladbach","District":"Rheindahlen","Street":"Renne","HouseNumber":"5","PostalCode":"41179","AdditionalData":[{"value":"Deutschland","key":"CountryName"},{"value":"Nordrhein-Westfalen","key":"StateName"},{"value":"Mönchengladbach","key":"CountyName"}]},"MapReference":{"ReferenceId":"50939151","Spot":0.62,"SideOfStreet":"right","CountryId":"20147700","StateId":"20157369","CountyId":"20157440","CityId":"20157441","DistrictId":"20157443","AddressId":"199509453","RoadLinkId":"39103068"}}},{"Relevance":1.0,"Distance":42.3,"MatchLevel":"houseNumber","MatchQuality":{"Country":1.0,"State":1.0,"County":1.0,"City":1.0,"District":1.0,"Street":[1.0],"HouseNumber":1.0,"PostalCode":1.0},"MatchType":"interpolated","Location":{"LocationId":"NT_tJAkLoAj8ChYHTC3dbwxuB_xA","LocationType":"point","DisplayPosition":{"Latitude":51.14788,"Longitude":6.36227},"MapView":{"TopLeft":{"Latitude":51.1490042,"Longitude":6.360478},"BottomRight":{"Latitude":51.1467558,"Longitude":6.364062}},"Address":{"Label":"Sankt-Helena-Platz 1, 41179 Mönchengladbach, Deutschland","Country":"DEU","State":"Nordrhein-Westfalen","County":"Mönchengladbach","City":"Mönchengladbach","District":"Rheindahlen","Street":"Sankt-Helena-Platz","HouseNumber":"1","PostalCode":"41179","AdditionalData":[{"value":"Deutschland","key":"CountryName"},{"value":"Nordrhein-Westfalen","key":"StateName"},{"value":"Mönchengladbach","key":"CountyName"}]},"MapReference":{"ReferenceId":"50938777","Spot":0.72,"SideOfStreet":"right","CountryId":"20147700","StateId":"20157369","CountyId":"20157440","CityId":"20157441","DistrictId":"20157443","AddressId":"255675198","RoadLinkId":"241146022"}}},{"Relevance":1.0,"Distance":49.4,"MatchLevel":"houseNumber","MatchQuality":{"Country":1.0,"State":1.0,"County":1.0,"City":1.0,"District":1.0,"Street":[1.0],"HouseNumber":1.0,"PostalCode":1.0},"MatchType":"interpolated","Location":{"LocationId":"NT_HcLWsHTzMQVtNGzyx6Ay1A_zA","LocationType":"point","DisplayPosition":{"Latitude":51.14814,"Longitude":6.36322},"MapView":{"TopLeft":{"Latitude":51.1492642,"Longitude":6.361428},"BottomRight":{"Latitude":51.1470158,"Longitude":6.365012}},"Address":{"Label":"Am Wickrather Tor 3, 41179 Mönchengladbach, Deutschland","Country":"DEU","State":"Nordrhein-Westfalen","County":"Mönchengladbach","City":"Mönchengladbach","District":"Rheindahlen","Street":"Am Wickrather Tor","HouseNumber":"3","PostalCode":"41179","AdditionalData":[{"value":"Deutschland","key":"CountryName"},{"value":"Nordrhein-Westfalen","key":"StateName"},{"value":"Mönchengladbach","key":"CountyName"}]},"MapReference":{"ReferenceId":"50938478","Spot":0.52,"SideOfStreet":"right","CountryId":"20147700","StateId":"20157369","CountyId":"20157440","CityId":"20157441","DistrictId":"20157443","AddressId":"192622190","RoadLinkId":"39530716"}}},{"Relevance":1.0,"Distance":53.0,"MatchLevel":"houseNumber","MatchQuality":{"Country":1.0,"State":1.0,"County":1.0,"City":1.0,"District":1.0,"Street":[1.0],"HouseNumber":1.0,"PostalCode":1.0},"MatchType":"interpolated","Location":{"LocationId":"NT_t83JJCt8AKwIoY0onV449A_xAD","LocationType":"point","DisplayPosition":{"Latitude":51.14855,"Longitude":6.3618},"MapView":{"TopLeft":{"Latitude":51.1496742,"Longitude":6.360008},"BottomRight":{"Latitude":51.1474258,"Longitude":6.363592}},"Address":{"Label":"Am Mühlentor 10, 41179 Mönchengladbach, Deutschland","Country":"DEU","State":"Nordrhein-Westfalen","County":"Mönchengladbach","City":"Mönchengladbach","District":"Rheindahlen","Street":"Am Mühlentor","HouseNumber":"10","PostalCode":"41179","AdditionalData":[{"value":"Deutschland","key":"CountryName"},{"value":"Nordrhein-Westfalen","key":"StateName"},{"value":"Mönchengladbach","key":"CountyName"}]},"MapReference":{"ReferenceId":"50938451","Spot":0.0,"SideOfStreet":"right","CountryId":"20147700","StateId":"20157369","CountyId":"20157440","CityId":"20157441","DistrictId":"20157443","AddressId":"193599895","RoadLinkId":"39365224"}}},{"Relevance":1.0,"Distance":54.7,"MatchLevel":"street","MatchQuality":{"Country":1.0,"State":1.0,"County":1.0,"City":1.0,"District":1.0,"Street":[1.0],"PostalCode":1.0},"Location":{"LocationId":"NT_t83JJCt8AKwIoY0onV449A_l_50938450_R","LocationType":"point","DisplayPosition":{"Latitude":51.14848,"Longitude":6.36183},"MapView":{"TopLeft":{"Latitude":51.14855,"Longitude":6.3618},"BottomRight":{"Latitude":51.14848,"Longitude":6.36183}},"Address":{"Label":"Am Mühlentor, 41179 Mönchengladbach, Deutschland","Country":"DEU","State":"Nordrhein-Westfalen","County":"Mönchengladbach","City":"Mönchengladbach","District":"Rheindahlen","Street":"Am Mühlentor","PostalCode":"41179","AdditionalData":[{"value":"Deutschland","key":"CountryName"},{"value":"Nordrhein-Westfalen","key":"StateName"},{"value":"Mönchengladbach","key":"CountyName"}]},"MapReference":{"ReferenceId":"50938450","Spot":0.0,"SideOfStreet":"right","CountryId":"20147700","StateId":"20157369","CountyId":"20157440","CityId":"20157441","DistrictId":"20157443"}}},{"Relevance":1.0,"Distance":55.2,"MatchLevel":"houseNumber","MatchQuality":{"Country":1.0,"State":1.0,"County":1.0,"City":1.0,"District":1.0,"Street":[1.0],"HouseNumber":1.0,"PostalCode":1.0},"MatchType":"interpolated","Location":{"LocationId":"NT_A7rlAE5xBlceQb8JTdKrNA_l_50938514_R_xA","LocationType":"point","DisplayPosition":{"Latitude":51.1479533,"Longitude":6.3620067},"MapView":{"TopLeft":{"Latitude":51.1490775,"Longitude":6.3602147},"BottomRight":{"Latitude":51.1468292,"Longitude":6.3637987}},"Address":{"Label":"Beecker Straße 1, 41179 Mönchengladbach, Deutschland","Country":"DEU","State":"Nordrhein-Westfalen","County":"Mönchengladbach","City":"Mönchengladbach","District":"Rheindahlen","Street":"Beecker Straße","HouseNumber":"1","PostalCode":"41179","AdditionalData":[{"value":"Deutschland","key":"CountryName"},{"value":"Nordrhein-Westfalen","key":"StateName"},{"value":"Mönchengladbach","key":"CountyName"}]},"MapReference":{"ReferenceId":"50938514","Spot":0.67,"SideOfStreet":"right","CountryId":"20147700","StateId":"20157369","CountyId":"20157440","CityId":"20157441","DistrictId":"20157443"}}}]}]}}