{"Response":{"MetaInfo":{"Timestamp":"2020-03-28T11:44:10.460+0000","NextPageInformation":"2"},"View":[{"_type":"SearchResultsViewType","ViewId":0,"Result":[{"Relevance":1.0,"Distance":0.0,"Direction":0.0,"MatchLevel":"district","MatchQuality":{"Country":1.0,"State":1.0,"County":1.0,"City":1.0,"District":1.0,"PostalCode":1.0},"Location":{"LocationId":"NT_5Pzwer905-MaMdjse0aV6C","LocationType":"point","DisplayPosition":{"Latitude":51.1064432,"Longitude":6.6201172},"MapView":{"TopLeft":{"Latitude":51.11769,"Longitude":6.59993},"BottomRight":{"Latitude":51.09205,"Longitude":6.63598}},"Address":{"Label":"Wevelinghoven, Grevenbroich, Nordrhein-Westfalen, Deutschland","Country":"DEU","State":"Nordrhein-Westfalen","County":"Rhein-Kreis Neuss","City":"Grevenbroich","District":"Wevelinghoven","PostalCode":"41516","AdditionalData":[{"value":"Deutschland","key":"CountryName"},{"value":"Nordrhein-Westfalen","key":"StateName"},{"value":"Rhein-Kreis Neuss","key":"CountyName"}]},"MapReference":{"ReferenceId":"888395698","SideOfStreet":"neither","CountryId":"20147700","StateId":"20157369","CountyId":"20157687","CityId":"20157700","DistrictId":"20157704"}}},{"Relevance":1.0,"Distance":14.8,"MatchLevel":"houseNumber","MatchQuality":{"Country":1.0,"State":1.0,"County":1.0,"City":1.0,"District":1.0,"Street":[1.0],"HouseNumber":1.0,"PostalCode":1.0},"MatchType":"interpolated","Location":{"LocationId":"NT_eNd4k5MSK0slLvd-iM7AlC_5QD","LocationType":"point","DisplayPosition":{"Latitude":51.1063,"Longitude":6.62029},"MapView":{"TopLeft":{"Latitude":51.1074242,"Longitude":6.6184996},"BottomRight":{"Latitude":51.1051758,"Longitude":6.6220804}},"Address":{"Label":"Poststraße 94, 41516 Grevenbroich, Deutschland","Country":"DEU","State":"Nordrhein-Westfalen","County":"Rhein-Kreis Neuss","City":"Grevenbroich","District":"Wevelinghoven","Street":"Poststraße","HouseNumber":"94","PostalCode":"41516","AdditionalData":[{"value":"Deutschland","key":"CountryName"},{"value":"Nordrhein-Westfalen","key":"StateName"},{"value":"Rhein-Kreis Neuss","key":"CountyName"}]},"MapReference":{"ReferenceId":"50976166","Spot":0.06,"SideOfStreet":"left","CountryId":"20147700","StateId":"20157369","CountyId":"20157687","CityId":"20157700","DistrictId":"20157704","AddressId":"193498308","RoadLinkId":"39087970"}}},{"Relevance":1.0,"Distance":21.8,"MatchLevel":"street","MatchQuality":{"Country":1.0,"State":1.0,"County":1.0,"City":1.0,"District":1.0,"Street":[1.0],"PostalCode":1.0},"Location":{"LocationId":"NT_HfNp6EnRs8kE7l1yG1OMyC_l_50976335_R","LocationType":"point","DisplayPosition":{"Latitude":51.10626,"Longitude":6.62023},"MapView":{"TopLeft":{"Latitude":51.10626,"Longitude":6.62023},"BottomRight":{"Latitude":51.10609,"Longitude":6.62053}},"Address":{"Label":"Von-Heinsberg-Straße, 41516 Grevenbroich, Deutschland","Country":"DEU","State":"Nordrhein-Westfalen","County":"Rhein-Kreis Neuss","City":"Grevenbroich","District":"Wevelinghoven","Street":"Von-Heinsberg-Straße","PostalCode":"41516","AdditionalData":[{"value":"Deutschland","key":"CountryName"},{"value":"Nordrhein-Westfalen","key":"StateName"},{"value":"Rhein-Kreis Neuss","key":"CountyName"}]},"MapReference":{"ReferenceId":"50976335","Spot":1.0,"SideOfStreet":"right","CountryId":"20147700","StateId":"20157369","CountyId":"20157687","CityId":"20157700","DistrictId":"20157704"}}},{"Relevance":1.0,"Distance":42.0,"MatchLevel":"houseNumber","MatchQuality":{"Country":1.0,"State":1.0,"County":1.0,"City":1.0,"District":1.0,"Street":[1.0],"HouseNumber":1.0,"PostalCode":1.0},"MatchType":"interpolated","Location":{"LocationId":"NT_eNd4k5MSK0slLvd-iM7AlC_5YD","LocationType":"point","DisplayPosition":{"Latitude":51.10608,"Longitude":6.61995},"MapView":{"TopLeft":{"Latitude":51.1072042,"Longitude":6.6181596},"BottomRight":{"Latitude":51.1049558,"Longitude":6.6217404}},"Address":{"Label":"Poststraße 96, 41516 Grevenbroich, Deutschland","Country":"DEU","State":"Nordrhein-Westfalen","County":"Rhein-Kreis Neuss","City":"Grevenbroich","District":"Wevelinghoven","Street":"Poststraße","HouseNumber":"96","PostalCode":"41516","AdditionalData":[{"value":"Deutschland","key":"CountryName"},{"value":"Nordrhein-Westfalen","key":"StateName"},{"value":"Rhein-Kreis Neuss","key":"CountyName"}]},"MapReference":{"ReferenceId":"1198596980","Spot":0.65,"SideOfStreet":"left","CountryId":"20147700","StateId":"20157369","CountyId":"20157687","CityId":"20157700","DistrictId":"20157704","AddressId":"196303618","RoadLinkId":"509954963"}}},{"Relevance":1.0,"Distance":46.6,"MatchLevel":"houseNumber","MatchQuality":{"Country":1.0,"State":1.0,"County":1.0,"City":1.0,"District":1.0,"Street":[1.0],"HouseNumber":1.0,"PostalCode":1.0},"MatchType":"interpolated","Location":{"LocationId":"NT_Uj-PruoDGhnSAMjNswKczD_xgD","LocationType":"point","DisplayPosition":{"Latitude":51.10683,"Longitude":6.61963},"MapView":{"TopLeft":{"Latitude":51.1079542,"Longitude":6.6178396},"BottomRight":{"Latitude":51.1057058,"Longitude":6.6214204}},"Address":{"Label":"Unterstraße 18, 41516 Grevenbroich, Deutschland","Country":"DEU","State":"Nordrhein-Westfalen","County":"Rhein-Kreis Neuss","City":"Grevenbroich","District":"Wevelinghoven","Street":"Unterstraße","HouseNumber":"18","PostalCode":"41516","AdditionalData":[{"value":"Deutschland","key":"CountryName"},{"value":"Nordrhein-Westfalen","key":"StateName"},{"value":"Rhein-Kreis Neuss","key":"CountyName"}]},"MapReference":{"ReferenceId":"50976260","Spot":0.57,"SideOfStreet":"right","CountryId":"20147700","StateId":"20157369","CountyId":"20157687","CityId":"20157700","DistrictId":"20157704","AddressId":"192496405","RoadLinkId":"39296401"}}},{"Relevance":1.0,"Distance":49.4,"MatchLevel":"houseNumber","MatchQuality":{"Country":1.0,"State":1.0,"County":1.0,"City":1.0,"District":1.0,"Street":[1.0],"HouseNumber":1.0,"PostalCode":1.0},"MatchType":"interpolated","Location":{"LocationId":"NT_HfNp6EnRs8kE7l1yG1OMyC_0A","LocationType":"point","DisplayPosition":{"Latitude":51.10621,"Longitude":6.62072},"MapView":{"TopLeft":{"Latitude":51.1073342,"Longitude":6.6189296},"BottomRight":{"Latitude":51.1050858,"Longitude":6.6225104}},"Address":{"Label":"Von-Heinsberg-Straße 4, 41516 Grevenbroich, Deutschland","Country":"DEU","State":"Nordrhein-Westfalen","County":"Rhein-Kreis Neuss","City":"Grevenbroich","District":"Wevelinghoven","Street":"Von-Heinsberg-Straße","HouseNumber":"4","PostalCode":"41516","AdditionalData":[{"value":"Deutschland","key":"CountryName"},{"value":"Nordrhein-Westfalen","key":"StateName"},{"value":"Rhein-Kreis Neuss","key":"CountyName"}]},"MapReference":{"ReferenceId":"50976414","Spot":0.43,"SideOfStreet":"right","CountryId":"20147700","StateId":"20157369","CountyId":"20157687","CityId":"20157700","DistrictId":"20157704","AddressId":"195624763","RoadLinkId":"39523881"}}},{"Relevance":1.0,"Distance":76.2,"MatchLevel":"houseNumber","MatchQuality":{"Country":1.0,"State":1.0,"County":1.0,"City":1.0,"District":1.0,"Street":[1.0],"HouseNumber":1.0,"PostalCode":1.0},"MatchType":"interpolated","Location":{"LocationId":"NT_HfNp6EnRs8kE7l1yG1OMyC_2A","LocationType":"point","DisplayPosition":{"Latitude":51.10593,"Longitude":6.62084},"MapView":{"TopLeft":{"Latitude":51.1070542,"Longitude":6.6190496},"BottomRight":{"Latitude":51.1048058,"Longitude":6.6226304}},"Address":{"Label":"Von-Heinsberg-Straße 6, 41516 Grevenbroich, Deutschland","Country":"DEU","State":"Nordrhein-Westfalen","County":"Rhein-Kreis Neuss","City":"Grevenbroich","District":"Wevelinghoven","Street":"Von-Heinsberg-Straße","HouseNumber":"6","PostalCode":"41516","AdditionalData":[{"value":"Deutschland","key":"CountryName"},{"value":"Nordrhein-Westfalen","key":"StateName"},{"value":"Rhein-Kreis Neuss","key":"CountyName"}]},"MapReference":{"ReferenceId":"50976334","Spot":0.91,"SideOfStreet":"right","CountryId":"20147700","StateId":"20157369","CountyId":"20157687","CityId":"20157700","DistrictId":"20157704","AddressId":"193169291","RoadLinkId":"39456293"}}},{"Relevance":1.0,"Distance":96.9,"MatchLevel":"houseNumber","MatchQuality":{"Country":1.0,"State":1.0,"County":1.0,"City":1.0,"District":1.0,"Street":[1.0],"HouseNumber":1.0,"PostalCode":1.0},"MatchType":"interpolated","Location":{"LocationId":"NT_eNd4k5MSK0slLvd-iM7AlC_4AD","LocationType":"point","DisplayPosition":{"Latitude":51.10693,"Longitude":6.62128},"MapView":{"TopLeft":{"Latitude":51.1080542,"Longitude":6.6194896},"BottomRight":{"Latitude":51.1058058,"Longitude":6.6230704}},"Address":{"Label":"Poststraße 80, 41516 Grevenbroich, Deutschland","Country":"DEU","State":"Nordrhein-Westfalen","County":"Rhein-Kreis Neuss","City":"Grevenbroich","District":"Wevelinghoven","Street":"Poststraße","HouseNumber":"80","PostalCode":"41516","AdditionalData":[{"value":"Deutschland","key":"CountryName"},{"value":"Nordrhein-Westfalen","key":"StateName"},{"value":"Rhein-Kreis Neuss","key":"CountyName"}]},"MapReference":{"ReferenceId":"1198597916","Spot":0.14,"SideOfStreet":"left","CountryId":"20147700","StateId":"20157369","CountyId":"20157687","CityId":"20157700","DistrictId":"20157704","AddressId":"194519412","RoadLinkId":"509956147"}}},{"Relevance":1.0,"Distance":99.6,"MatchLevel":"houseNumber","MatchQuality":{"Country":1.0,"State":1.0,"County":1.0,"City":1.0,"District":1.0,"Street":[1.0],"HouseNumber":1.0,"PostalCode":1.0},"MatchType":"interpolated","Location":{"LocationId":"NT_eNd4k5MSK0slLvd-iM7AlC_xADN","LocationType":"point","DisplayPosition":{"Latitude":51.10568,"Longitude":6.61937},"MapView":{"TopLeft":{"Latitude":51.1068042,"Longitude":6.6175796},"BottomRight":{"Latitude":51.1045558,"Longitude":6.6211604}},"Address":{"Label":"Poststraße 104, 41516 Grevenbroich, Deutschland","Country":"DEU","State":"Nordrhein-Westfalen","County":"Rhein-Kreis Neuss","City":"Grevenbroich","District":"Wevelinghoven","Street":"Poststraße","HouseNumber":"104","PostalCode":"41516","AdditionalData":[{"value":"Deutschland","key":"CountryName"},{"value":"Nordrhein-Westfalen","key":"StateName"},{"value":"Rhein-Kreis Neuss","key":"CountyName"}]},"MapReference":{"ReferenceId":"1198596979","Spot":0.69,"SideOfStreet":"left","CountryId":"20147700","StateId":"20157369","CountyId":"20157687","CityId":"20157700","DistrictId":"20157704","AddressId":"195947751","RoadLinkId":"509954962"}}},{"Relevance":1.0,"Distance":102.9,"MatchLevel":"houseNumber","MatchQuality":{"Country":1.0,"State":1.0,"County":1.0,"City":1.0,"District":1.0,"Street":[1.0],"HouseNumber":1.0,"PostalCode":1.0},"MatchType":"interpolated","Location":{"LocationId":"NT_Uj-PruoDGhnSAMjNswKczD_1ATM","LocationType":"point","DisplayPosition":{"Latitude":51.10732,"Longitude":6.62059},"MapView":{"TopLeft":{"Latitude":51.1084442,"Longitude":6.6187996},"BottomRight":{"Latitude":51.1061958,"Longitude":6.6223804}},"Address":{"Label":"Unterstraße 501, 41516 Grevenbroich, Deutschland","Country":"DEU","State":"Nordrhein-Westfalen","County":"Rhein-Kreis Neuss","City":"Grevenbroich","District":"Wevelinghoven","Street":"Unterstraße","HouseNumber":"501","PostalCode":"41516","AdditionalData":[{"value":"Deutschland","key":"CountryName"},{"value":"Nordrhein-Westfalen","key":"StateName"},{"value":"Rhein-Kreis Neuss","key":"CountyName"}]},"MapReference":{"ReferenceId":"50976268","Spot":0.92,"SideOfStreet":"right","CountryId":"20147700","StateId":"20157369","CountyId":"20157687","CityId":"20157700","DistrictId":"20157704","AddressId":"622125886","RoadLinkId":"39216784"}}}]}]}}