{"Response":{"MetaInfo":{"Timestamp":"2020-03-28T10:13:02.626+0000","NextPageInformation":"2"},"View":[{"_type":"SearchResultsViewType","ViewId":0,"Result":[{"Relevance":1.0,"Distance":0.0,"Direction":0.0,"MatchLevel":"district","MatchQuality":{"Country":1.0,"State":1.0,"County":1.0,"City":1.0,"District":1.0,"PostalCode":1.0},"Location":{"LocationId":"NT_YHVkrVgVrU1C-krYI-pCeD","LocationType":"point","DisplayPosition":{"Latitude":51.1236919,"Longitude":20.8782774},"MapView":{"TopLeft":{"Latitude":51.15625,"Longitude":20.80435},"BottomRight":{"Latitude":51.0798,"Longitude":20.94941}},"Address":{"Label":"Skarżysko-Kamienna, Woj. Świętokrzyskie, Polska","Country":"POL","State":"Woj. Świętokrzyskie","County":"Powiat Skarżyski","City":"Skarżysko-Kamienna","District":"Skarżysko-Kamienna","PostalCode":"26-100","AdditionalData":[{"value":"Polska","key":"CountryName"},{"value":"Woj. Świętokrzyskie","key":"StateName"},{"value":"Powiat Skarżyski","key":"CountyName"}]},"MapReference":{"ReferenceId":"883684042","SideOfStreet":"neither","CountryId":"20624059","StateId":"20629406","CountyId":"20629591","CityId":"20629600","DistrictId":"20646811"}}},{"Relevance":1.0,"Distance":22.6,"MatchLevel":"houseNumber","MatchQuality":{"Country":1.0,"State":1.0,"County":1.0,"City":1.0,"District":1.0,"Street":[1.0],"HouseNumber":1.0,"PostalCode":1.0},"MatchType":"interpolated","Location":{"LocationId":"NT_08esZ22ANQrq6-LJp0JjyC_2cD","LocationType":"point","DisplayPosition":{"Latitude":51.12336,"Longitude":20.87854},"MapView":{"TopLeft":{"Latitude":51.1244842,"Longitude":20.8767489},"BottomRight":{"Latitude":51.1222358,"Longitude":20.8803311}},"Address":{"Label":"ulica Spółdzielcza 67, 26-100 Skarżysko-Kamienna, Polska","Country":"POL","State":"Woj. Świętokrzyskie","County":"Powiat Skarżyski","City":"Skarżysko-Kamienna","District":"Skarżysko-Kamienna","Street":"ulica Spółdzielcza","HouseNumber":"67","PostalCode":"26-100","AdditionalData":[{"value":"Polska","key":"CountryName"},{"value":"Woj. Świętokrzyskie","key":"StateName"},{"value":"Powiat Skarżyski","key":"CountyName"}]},"MapReference":{"ReferenceId":"1269035752","Spot":0.06,"SideOfStreet":"left","CountryId":"20624059","StateId":"20629406","CountyId":"20629591","CityId":"20629600","DistrictId":"20646811","AddressId":"702007381","RoadLinkId":"596252336"}}},{"Relevance":1.0,"Distance":25.6,"MatchLevel":"street","MatchQuality":{"Country":1.0,"State":1.0,"County":1.0,"City":1.0,"District":1.0,"PostalCode":1.0},"Location":{"LocationId":"NT_n6TZduN5vXYH4FzDrWzPqC_l_1158542413_R","LocationType":"point","DisplayPosition":{"Latitude":51.1235422,"Longitude":20.877999},"MapView":{"TopLeft":{"Latitude":51.12421,"Longitude":20.87764},"BottomRight":{"Latitude":51.12328,"Longitude":20.87814}},"Address":{"Label":"26-100 Skarżysko-Kamienna, Polska","Country":"POL","State":"Woj. Świętokrzyskie","County":"Powiat Skarżyski","City":"Skarżysko-Kamienna","District":"Skarżysko-Kamienna","PostalCode":"26-100","AdditionalData":[{"value":"Polska","key":"CountryName"},{"value":"Woj. Świętokrzyskie","key":"StateName"},{"value":"Powiat Skarżyski","key":"CountyName"}]},"MapReference":{"ReferenceId":"1158542413","Spot":0.28,"SideOfStreet":"right","CountryId":"20624059","StateId":"20629406","CountyId":"20629591","CityId":"20629600","DistrictId":"20646811"}}},{"Relevance":1.0,"Distance":26.3,"MatchLevel":"houseNumber","MatchQuality":{"Country":1.0,"State":1.0,"County":1.0,"City":1.0,"District":1.0,"Street":[1.0],"HouseNumber":1.0,"PostalCode":1.0},"MatchType":"interpolated","Location":{"LocationId":"NT_08esZ22ANQrq6-LJp0JjyC_2UD","LocationType":"point","DisplayPosition":{"Latitude":51.12329,"Longitude":20.8782},"MapView":{"TopLeft":{"Latitude":51.1244142,"Longitude":20.8764089},"BottomRight":{"Latitude":51.1221658,"Longitude":20.8799911}},"Address":{"Label":"ulica Spółdzielcza 65, 26-100 Skarżysko-Kamienna, Polska","Country":"POL","State":"Woj. Świętokrzyskie","County":"Powiat Skarżyski","City":"Skarżysko-Kamienna","District":"Skarżysko-Kamienna","Street":"ulica Spółdzielcza","HouseNumber":"65","PostalCode":"26-100","AdditionalData":[{"value":"Polska","key":"CountryName"},{"value":"Woj. Świętokrzyskie","key":"StateName"},{"value":"Powiat Skarżyski","key":"CountyName"}]},"MapReference":{"ReferenceId":"1269035751","Spot":0.2,"SideOfStreet":"left","CountryId":"20624059","StateId":"20629406","CountyId":"20629591","CityId":"20629600","DistrictId":"20646811","AddressId":"222222865","RoadLinkId":"596252335"}}},{"Relevance":1.0,"Distance":32.5,"MatchLevel":"houseNumber","MatchQuality":{"Country":1.0,"State":1.0,"County":1.0,"City":1.0,"District":1.0,"Street":[1.0],"HouseNumber":1.0,"PostalCode":1.0},"MatchType":"interpolated","Location":{"LocationId":"NT_08esZ22ANQrq6-LJp0JjyC_2MD","LocationType":"point","DisplayPosition":{"Latitude":51.12325,"Longitude":20.87803},"MapView":{"TopLeft":{"Latitude":51.1243742,"Longitude":20.8762389},"BottomRight":{"Latitude":51.1221258,"Longitude":20.8798211}},"Address":{"Label":"ulica Spółdzielcza 63, 26-100 Skarżysko-Kamienna, Polska","Country":"POL","State":"Woj. Świętokrzyskie","County":"Powiat Skarżyski","City":"Skarżysko-Kamienna","District":"Skarżysko-Kamienna","Street":"ulica Spółdzielcza","HouseNumber":"63","PostalCode":"26-100","AdditionalData":[{"value":"Polska","key":"CountryName"},{"value":"Woj. Świętokrzyskie","key":"StateName"},{"value":"Powiat Skarżyski","key":"CountyName"}]},"MapReference":{"ReferenceId":"1158542415","Spot":0.83,"SideOfStreet":"left","CountryId":"20624059","StateId":"20629406","CountyId":"20629591","CityId":"20629600","DistrictId":"20646811","AddressId":"702007379","RoadLinkId":"465053071"}}},{"Relevance":1.0,"Distance":54.8,"MatchLevel":"street","MatchQuality":{"Country":1.0,"State":1.0,"County":1.0,"City":1.0,"District":1.0,"PostalCode":1.0},"Location":{"LocationId":"NT_n6TZduN5vXYH4FzDrWzPqC_l_1158542416_R","LocationType":"point","DisplayPosition":{"Latitude":51.12376,"Longitude":20.8775},"MapView":{"TopLeft":{"Latitude":51.12476,"Longitude":20.87619},"BottomRight":{"Latitude":51.12314,"Longitude":20.8775}},"Address":{"Label":"26-100 Skarżysko-Kamienna, Polska","Country":"POL","State":"Woj. Świętokrzyskie","County":"Powiat Skarżyski","City":"Skarżysko-Kamienna","District":"Skarżysko-Kamienna","PostalCode":"26-100","AdditionalData":[{"value":"Polska","key":"CountryName"},{"value":"Woj. Świętokrzyskie","key":"StateName"},{"value":"Powiat Skarżyski","key":"CountyName"}]},"MapReference":{"ReferenceId":"1158542416","Spot":0.29,"SideOfStreet":"right","CountryId":"20624059","StateId":"20629406","CountyId":"20629591","CityId":"20629600","DistrictId":"20646811"}}},{"Relevance":1.0,"Distance":70.3,"MatchLevel":"street","MatchQuality":{"Country":1.0,"State":1.0,"County":1.0,"City":1.0,"District":1.0,"PostalCode":1.0},"Location":{"LocationId":"NT_n6TZduN5vXYH4FzDrWzPqC_l_1158542417_R","LocationType":"point","DisplayPosition":{"Latitude":51.1243183,"Longitude":20.8781423},"MapView":{"TopLeft":{"Latitude":51.12432,"Longitude":20.87764},"BottomRight":{"Latitude":51.12421,"Longitude":20.87815}},"Address":{"Label":"26-100 Skarżysko-Kamienna, Polska","Country":"POL","State":"Woj. Świętokrzyskie","County":"Powiat Skarżyski","City":"Skarżysko-Kamienna","District":"Skarżysko-Kamienna","PostalCode":"26-100","AdditionalData":[{"value":"Polska","key":"CountryName"},{"value":"Woj. Świętokrzyskie","key":"StateName"},{"value":"Powiat Skarżyski","key":"CountyName"}]},"MapReference":{"ReferenceId":"1158542417","Spot":0.98,"SideOfStreet":"right","CountryId":"20624059","StateId":"20629406","CountyId":"20629591","CityId":"20629600","DistrictId":"20646811"}}},{"Relevance":1.0,"Distance":70.4,"MatchLevel":"street","MatchQuality":{"Country":1.0,"State":1.0,"County":1.0,"City":1.0,"District":1.0,"PostalCode":1.0},"Location":{"LocationId":"NT_n6TZduN5vXYH4FzDrWzPqC_l_1158542418_R","LocationType":"point","DisplayPosition":{"Latitude":51.12432,"Longitude":20.87815},"MapView":{"TopLeft":{"Latitude":51.12462,"Longitude":20.87815},"BottomRight":{"Latitude":51.12432,"Longitude":20.87953}},"Address":{"Label":"26-100 Skarżysko-Kamienna, Polska","Country":"POL","State":"Woj. Świętokrzyskie","County":"Powiat Skarżyski","City":"Skarżysko-Kamienna","District":"Skarżysko-Kamienna","PostalCode":"26-100","AdditionalData":[{"value":"Polska","key":"CountryName"},{"value":"Woj. Świętokrzyskie","key":"StateName"},{"value":"Powiat Skarżyski","key":"CountyName"}]},"MapReference":{"ReferenceId":"1158542418","Spot":0.0,"SideOfStreet":"right","CountryId":"20624059","StateId":"20629406","CountyId":"20629591","CityId":"20629600","DistrictId":"20646811"}}},{"Relevance":1.0,"Distance":72.8,"MatchLevel":"street","MatchQuality":{"Country":1.0,"State":1.0,"County":1.0,"City":1.0,"District":1.0,"PostalCode":1.0},"Location":{"LocationId":"NT_n6TZduN5vXYH4FzDrWzPqC_l_1158542412_R","LocationType":"point","DisplayPosition":{"Latitude":51.12421,"Longitude":20.87764},"MapView":{"TopLeft":{"Latitude":51.12421,"Longitude":20.87748},"BottomRight":{"Latitude":51.12418,"Longitude":20.87764}},"Address":{"Label":"26-100 Skarżysko-Kamienna, Polska","Country":"POL","State":"Woj. Świętokrzyskie","County":"Powiat Skarżyski","City":"Skarżysko-Kamienna","District":"Skarżysko-Kamienna","PostalCode":"26-100","AdditionalData":[{"value":"Polska","key":"CountryName"},{"value":"Woj. Świętokrzyskie","key":"StateName"},{"value":"Powiat Skarżyski","key":"CountyName"}]},"MapReference":{"ReferenceId":"1158542412","Spot":1.0,"SideOfStreet":"right","CountryId":"20624059","StateId":"20629406","CountyId":"20629591","CityId":"20629600","DistrictId":"20646811"}}},{"Relevance":1.0,"Distance":105.7,"MatchLevel":"houseNumber","MatchQuality":{"Country":1.0,"State":1.0,"County":1.0,"City":1.0,"District":1.0,"Street":[1.0],"HouseNumber":1.0,"PostalCode":1.0},"MatchType":"interpolated","Location":{"LocationId":"NT_QnpX5SA-Ba1eW3LGC9p82C_0UD","LocationType":"point","DisplayPosition":{"Latitude":51.12431,"Longitude":20.8797},"MapView":{"TopLeft":{"Latitude":51.1254342,"Longitude":20.8779089},"BottomRight":{"Latitude":51.1231858,"Longitude":20.8814911}},"Address":{"Label":"ulica Zielna 45, 26-100 Skarżysko-Kamienna, Polska","Country":"POL","State":"Woj. Świętokrzyskie","County":"Powiat Skarżyski","City":"Skarżysko-Kamienna","District":"Skarżysko-Kamienna","Street":"ulica Zielna","HouseNumber":"45","PostalCode":"26-100","AdditionalData":[{"value":"Polska","key":"CountryName"},{"value":"Woj. Świętokrzyskie","key":"StateName"},{"value":"Powiat Skarżyski","key":"CountyName"}]},"MapReference":{"ReferenceId":"1158542409","Spot":0.66,"SideOfStreet":"left","CountryId":"20624059","StateId":"20629406","CountyId":"20629591","CityId":"20629600","DistrictId":"20646811","AddressId":"211310851","RoadLinkId":"465053065"}}}]}]}}