{"Response":{"MetaInfo":{"Timestamp":"2020-03-28T11:38:01.478+0000","NextPageInformation":"2"},"View":[{"_type":"SearchResultsViewType","ViewId":0,"Result":[{"Relevance":1.0,"Distance":0.0,"Direction":0.0,"MatchLevel":"city","MatchQuality":{"Country":1.0,"State":1.0,"County":1.0,"City":1.0,"PostalCode":1.0},"Location":{"LocationId":"NT_pQHjxSN2b3I0UDn.wbWkWC","LocationType":"point","DisplayPosition":{"Latitude":51.1544982,"Longitude":4.4727942},"MapView":{"TopLeft":{"Latitude":51.16327,"Longitude":4.45823},"BottomRight":{"Latitude":51.1304,"Longitude":4.51056}},"Address":{"Label":"Hove, Vlaanderen, België","Country":"BEL","State":"Vlaanderen","County":"Antwerpen","City":"Hove","PostalCode":"2540","AdditionalData":[{"value":"België","key":"CountryName"},{"value":"Vlaanderen","key":"StateName"},{"value":"Antwerpen","key":"CountyName"}]},"MapReference":{"ReferenceId":"53850399","SideOfStreet":"neither","CountryId":"20128886","StateId":"20204377","CountyId":"20204378","CityId":"20204423"}}},{"Relevance":1.0,"Distance":7.7,"MatchLevel":"houseNumber","MatchQuality":{"Country":1.0,"State":1.0,"County":1.0,"City":1.0,"Street":[1.0],"HouseNumber":1.0,"PostalCode":1.0},"MatchType":"interpolated","Location":{"LocationId":"NT_fEmZ8QIrr6Q-i1.TPYBWaC_xcD","LocationType":"point","DisplayPosition":{"Latitude":51.1543,"Longitude":4.47292},"MapView":{"TopLeft":{"Latitude":51.1554242,"Longitude":4.4711277},"BottomRight":{"Latitude":51.1531758,"Longitude":4.4747123}},"Address":{"Label":"Boechoutsesteenweg 17, 2540 Hove, België","Country":"BEL","State":"Vlaanderen","County":"Antwerpen","City":"Hove","Street":"Boechoutsesteenweg","HouseNumber":"17","PostalCode":"2540","AdditionalData":[{"value":"België","key":"CountryName"},{"value":"Vlaanderen","key":"StateName"},{"value":"Antwerpen","key":"CountyName"}]},"MapReference":{"ReferenceId":"764175831","Spot":0.34,"SideOfStreet":"left","CountryId":"20128886","StateId":"20204377","CountyId":"20204378","CityId":"20204423","AddressId":"401127126","RoadLinkId":"158511425"}}},{"Relevance":1.0,"Distance":26.2,"MatchLevel":"houseNumber","MatchQuality":{"Country":1.0,"State":1.0,"County":1.0,"City":1.0,"Street":[1.0],"HouseNumber":1.0,"PostalCode":1.0},"MatchType":"interpolated","Location":{"LocationId":"NT_fEmZ8QIrr6Q-i1.TPYBWaC_yMD","LocationType":"point","DisplayPosition":{"Latitude":51.15438,"Longitude":4.47325},"MapView":{"TopLeft":{"Latitude":51.1555042,"Longitude":4.4714577},"BottomRight":{"Latitude":51.1532558,"Longitude":4.4750423}},"Address":{"Label":"Boechoutsesteenweg 23, 2540 Hove, België","Country":"BEL","State":"Vlaanderen","County":"Antwerpen","City":"Hove","Street":"Boechoutsesteenweg","HouseNumber":"23","PostalCode":"2540","AdditionalData":[{"value":"België","key":"CountryName"},{"value":"Vlaanderen","key":"StateName"},{"value":"Antwerpen","key":"CountyName"}]},"MapReference":{"ReferenceId":"877611322","Spot":0.29,"SideOfStreet":"left","CountryId":"20128886","StateId":"20204377","CountyId":"20204378","CityId":"20204423","AddressId":"399854672","RoadLinkId":"247616641"}}},{"Relevance":1.0,"Distance":33.6,"MatchLevel":"houseNumber","MatchQuality":{"Country":1.0,"State":1.0,"County":1.0,"City":1.0,"Street":[1.0],"HouseNumber":1.0,"PostalCode":1.0},"MatchType":"interpolated","Location":{"LocationId":"NT_td0zId1ktyhdoUpiz33UbD_l_764175222_L_0A","LocationType":"point","DisplayPosition":{"Latitude":51.1541965,"Longitude":4.47278},"MapView":{"TopLeft":{"Latitude":51.1553207,"Longitude":4.4709877},"BottomRight":{"Latitude":51.1530724,"Longitude":4.4745723}},"Address":{"Label":"Lintsesteenweg 4, 2540 Hove, België","Country":"BEL","State":"Vlaanderen","County":"Antwerpen","City":"Hove","Street":"Lintsesteenweg","HouseNumber":"4","PostalCode":"2540","AdditionalData":[{"value":"België","key":"CountryName"},{"value":"Vlaanderen","key":"StateName"},{"value":"Antwerpen","key":"CountyName"}]},"MapReference":{"ReferenceId":"764175222","Spot":0.48,"SideOfStreet":"left","CountryId":"20128886","StateId":"20204377","CountyId":"20204378","CityId":"20204423"}}},{"Relevance":1.0,"Distance":40.4,"MatchLevel":"houseNumber","MatchQuality":{"Country":1.0,"State":1.0,"County":1.0,"City":1.0,"Street":[1.0],"HouseNumber":1.0,"PostalCode":1.0},"MatchType":"interpolated","Location":{"LocationId":"NT_fEmZ8QIrr6Q-i1.TPYBWaC_ycD","LocationType":"point","DisplayPosition":{"Latitude":51.15444,"Longitude":4.47346},"MapView":{"TopLeft":{"Latitude":51.1555642,"Longitude":4.4716677},"BottomRight":{"Latitude":51.1533158,"Longitude":4.4752523}},"Address":{"Label":"Boechoutsesteenweg 27, 2540 Hove, België","Country":"BEL","State":"Vlaanderen","County":"Antwerpen","City":"Hove","Street":"Boechoutsesteenweg","HouseNumber":"27","PostalCode":"2540","AdditionalData":[{"value":"België","key":"CountryName"},{"value":"Vlaanderen","key":"StateName"},{"value":"Antwerpen","key":"CountyName"}]},"MapReference":{"ReferenceId":"877611323","Spot":0.04,"SideOfStreet":"left","CountryId":"20128886","StateId":"20204377","CountyId":"20204378","CityId":"20204423","AddressId":"400825661","RoadLinkId":"247616642"}}},{"Relevance":1.0,"Distance":48.8,"MatchLevel":"houseNumber","MatchQuality":{"Country":1.0,"State":1.0,"County":1.0,"City":1.0,"Street":[1.0],"HouseNumber":1.0,"PostalCode":1.0},"MatchType":"interpolated","Location":{"LocationId":"NT_td0zId1ktyhdoUpiz33UbD_xA","LocationType":"point","DisplayPosition":{"Latitude":51.15406,"Longitude":4.47283},"MapView":{"TopLeft":{"Latitude":51.1551842,"Longitude":4.4710377},"BottomRight":{"Latitude":51.1529358,"Longitude":4.4746223}},"Address":{"Label":"Lintsesteenweg 1, 2540 Hove, België","Country":"BEL","State":"Vlaanderen","County":"Antwerpen","City":"Hove","Street":"Lintsesteenweg","HouseNumber":"1","PostalCode":"2540","AdditionalData":[{"value":"België","key":"CountryName"},{"value":"Vlaanderen","key":"StateName"},{"value":"Antwerpen","key":"CountyName"}]},"MapReference":{"ReferenceId":"1214846477","Spot":0.36,"SideOfStreet":"right","CountryId":"20128886","StateId":"20204377","CountyId":"20204378","CityId":"20204423","AddressId":"399348064","RoadLinkId":"530842566"}}},{"Relevance":1.0,"Distance":49.2,"MatchLevel":"houseNumber","MatchQuality":{"Country":1.0,"State":1.0,"County":1.0,"City":1.0,"Street":[1.0],"HouseNumber":1.0,"PostalCode":1.0},"MatchType":"interpolated","Location":{"LocationId":"NT_7cTfmjERKnZoVPhFBk0vLB_3A","LocationType":"point","DisplayPosition":{"Latitude":51.15414,"Longitude":4.47238},"MapView":{"TopLeft":{"Latitude":51.1552642,"Longitude":4.4705877},"BottomRight":{"Latitude":51.1530158,"Longitude":4.4741723}},"Address":{"Label":"Sint-Laureysplein 7, 2540 Hove, België","Country":"BEL","State":"Vlaanderen","County":"Antwerpen","City":"Hove","Street":"Sint-Laureysplein","HouseNumber":"7","PostalCode":"2540","AdditionalData":[{"value":"België","key":"CountryName"},{"value":"Vlaanderen","key":"StateName"},{"value":"Antwerpen","key":"CountyName"}]},"MapReference":{"ReferenceId":"1214846479","Spot":0.07,"SideOfStreet":"left","CountryId":"20128886","StateId":"20204377","CountyId":"20204378","CityId":"20204423","AddressId":"626329741","RoadLinkId":"530842568"}}},{"Relevance":1.0,"Distance":52.4,"MatchLevel":"street","MatchQuality":{"Country":1.0,"State":1.0,"County":1.0,"City":1.0,"Street":[1.0],"PostalCode":1.0},"Location":{"LocationId":"NT_td0zId1ktyhdoUpiz33UbD_l_1214846480_R","LocationType":"point","DisplayPosition":{"Latitude":51.1540366,"Longitude":4.4726403},"MapView":{"TopLeft":{"Latitude":51.15413,"Longitude":4.47235},"BottomRight":{"Latitude":51.15401,"Longitude":4.47287}},"Address":{"Label":"Lintsesteenweg, 2540 Hove, België","Country":"BEL","State":"Vlaanderen","County":"Antwerpen","City":"Hove","Street":"Lintsesteenweg","PostalCode":"2540","AdditionalData":[{"value":"België","key":"CountryName"},{"value":"Vlaanderen","key":"StateName"},{"value":"Antwerpen","key":"CountyName"}]},"MapReference":{"ReferenceId":"1214846480","Spot":0.43,"SideOfStreet":"right","CountryId":"20128886","StateId":"20204377","CountyId":"20204378","CityId":"20204423"}}},{"Relevance":1.0,"Distance":64.8,"MatchLevel":"houseNumber","MatchQuality":{"Country":1.0,"State":1.0,"County":1.0,"City":1.0,"Street":[1.0],"HouseNumber":1.0,"PostalCode":1.0},"MatchType":"interpolated","Location":{"LocationId":"NT_td0zId1ktyhdoUpiz33UbD_zA","LocationType":"point","DisplayPosition":{"Latitude":51.15386,"Longitude":4.47311},"MapView":{"TopLeft":{"Latitude":51.1549842,"Longitude":4.4713178},"BottomRight":{"Latitude":51.1527358,"Longitude":4.4749022}},"Address":{"Label":"Lintsesteenweg 3, 2540 Hove, België","Country":"BEL","State":"Vlaanderen","County":"Antwerpen","City":"Hove","Street":"Lintsesteenweg","HouseNumber":"3","PostalCode":"2540","AdditionalData":[{"value":"België","key":"CountryName"},{"value":"Vlaanderen","key":"StateName"},{"value":"Antwerpen","key":"CountyName"}]},"MapReference":{"ReferenceId":"1214846476","Spot":0.59,"SideOfStreet":"right","CountryId":"20128886","StateId":"20204377","CountyId":"20204378","CityId":"20204423","AddressId":"399348063","RoadLinkId":"530842565"}}},{"Relevance":1.0,"Distance":75.3,"MatchLevel":"houseNumber","MatchQuality":{"Country":1.0,"State":1.0,"County":1.0,"City":1.0,"Street":[1.0],"HouseNumber":1.0,"PostalCode":1.0},"MatchType":"interpolated","Location":{"LocationId":"NT_7cTfmjERKnZoVPhFBk0vLB_2A","LocationType":"point","DisplayPosition":{"Latitude":51.15404,"Longitude":4.472},"MapView":{"TopLeft":{"Latitude":51.1551642,"Longitude":4.4702077},"BottomRight":{"Latitude":51.1529158,"Longitude":4.4737923}},"Address":{"Label":"Sint-Laureysplein 6, 2540 Hove, België","Country":"BEL","State":"Vlaanderen","County":"Antwerpen","City":"Hove","Street":"Sint-Laureysplein","HouseNumber":"6","PostalCode":"2540","AdditionalData":[{"value":"België","key":"CountryName"},{"value":"Vlaanderen","key":"StateName"},{"value":"Antwerpen","key":"CountyName"}]},"MapReference":{"ReferenceId":"1214846478","Spot":0.69,"SideOfStreet":"left","CountryId":"20128886","StateId":"20204377","CountyId":"20204378","CityId":"20204423","AddressId":"400877313","RoadLinkId":"530842567"}}}]}]}}