{"Response":{"MetaInfo":{"Timestamp":"2020-03-28T10:52:15.306+0000","NextPageInformation":"2"},"View":[{"_type":"SearchResultsViewType","ViewId":0,"Result":[{"Relevance":1.0,"Distance":0.0,"Direction":0.0,"MatchLevel":"city","MatchQuality":{"Country":1.0,"State":1.0,"County":1.0,"City":1.0,"PostalCode":1.0},"Location":{"LocationId":"NT_o2sgwyX2DKtdDP7CXSrICC","LocationType":"point","DisplayPosition":{"Latitude":51.1243086,"Longitude":3.6674259},"MapView":{"TopLeft":{"Latitude":51.19864,"Longitude":3.6322},"BottomRight":{"Latitude":51.0879,"Longitude":3.79618}},"Address":{"Label":"Evergem, Vlaanderen, België","Country":"BEL","State":"Vlaanderen","County":"Oost-Vlaanderen","City":"Evergem","PostalCode":"9940","AdditionalData":[{"value":"België","key":"CountryName"},{"value":"Vlaanderen","key":"StateName"},{"value":"Oost-Vlaanderen","key":"CountyName"}]},"MapReference":{"ReferenceId":"759939412","SideOfStreet":"neither","CountryId":"20128886","StateId":"20204377","CountyId":"20205081","CityId":"20205291"}}},{"Relevance":1.0,"Distance":56.6,"MatchLevel":"houseNumber","MatchQuality":{"Country":1.0,"State":1.0,"County":1.0,"City":1.0,"District":1.0,"Street":[1.0],"HouseNumber":1.0,"PostalCode":1.0},"MatchType":"interpolated","Location":{"LocationId":"NT_2POz6ypvyPO4yyQMzl4i7B_xYD","LocationType":"point","DisplayPosition":{"Latitude":51.12459,"Longitude":3.66675},"MapView":{"TopLeft":{"Latitude":51.1257142,"Longitude":3.6649589},"BottomRight":{"Latitude":51.1234658,"Longitude":3.6685411}},"Address":{"Label":"Wurmstraat 16, 9940 Evergem, België","Country":"BEL","State":"Vlaanderen","County":"Oost-Vlaanderen","City":"Evergem","District":"Sleidinge","Street":"Wurmstraat","HouseNumber":"16","PostalCode":"9940","AdditionalData":[{"value":"België","key":"CountryName"},{"value":"Vlaanderen","key":"StateName"},{"value":"Oost-Vlaanderen","key":"CountyName"}]},"MapReference":{"ReferenceId":"55688948","Spot":0.29,"SideOfStreet":"left","CountryId":"20128886","StateId":"20204377","CountyId":"20205081","CityId":"20205291","DistrictId":"20205297","AddressId":"400079615","RoadLinkId":"30765878"}}},{"Relevance":1.0,"Distance":76.1,"MatchLevel":"houseNumber","MatchQuality":{"Country":1.0,"State":1.0,"County":1.0,"City":1.0,"District":1.0,"Street":[1.0],"HouseNumber":1.0,"PostalCode":1.0},"MatchType":"interpolated","Location":{"LocationId":"NT_zKjiJfBuNnpy-ElYDu.0QC_xMTN","LocationType":"point","DisplayPosition":{"Latitude":51.12519,"Longitude":3.66734},"MapView":{"TopLeft":{"Latitude":51.1263142,"Longitude":3.6655489},"BottomRight":{"Latitude":51.1240658,"Longitude":3.6691311}},"Address":{"Label":"Weststraat 135, 9940 Evergem, België","Country":"BEL","State":"Vlaanderen","County":"Oost-Vlaanderen","City":"Evergem","District":"Sleidinge","Street":"Weststraat","HouseNumber":"135","PostalCode":"9940","AdditionalData":[{"value":"België","key":"CountryName"},{"value":"Vlaanderen","key":"StateName"},{"value":"Oost-Vlaanderen","key":"CountyName"}]},"MapReference":{"ReferenceId":"1038916299","Spot":0.0,"SideOfStreet":"right","CountryId":"20128886","StateId":"20204377","CountyId":"20205081","CityId":"20205291","DistrictId":"20205297","AddressId":"737274253","RoadLinkId":"360777422"}}},{"Relevance":1.0,"Distance":95.7,"MatchLevel":"houseNumber","MatchQuality":{"Country":1.0,"State":1.0,"County":1.0,"City":1.0,"District":1.0,"Street":[1.0],"HouseNumber":1.0,"PostalCode":1.0},"MatchType":"interpolated","Location":{"LocationId":"NT_RVFXqreQbj-YPhXgrPIlIB_xA","LocationType":"point","DisplayPosition":{"Latitude":51.12345,"Longitude":3.66752},"MapView":{"TopLeft":{"Latitude":51.1245742,"Longitude":3.6657289},"BottomRight":{"Latitude":51.1223258,"Longitude":3.6693111}},"Address":{"Label":"August Ruyssenlaan 1, 9940 Evergem, België","Country":"BEL","State":"Vlaanderen","County":"Oost-Vlaanderen","City":"Evergem","District":"Sleidinge","Street":"August Ruyssenlaan","HouseNumber":"1","PostalCode":"9940","AdditionalData":[{"value":"België","key":"CountryName"},{"value":"Vlaanderen","key":"StateName"},{"value":"Oost-Vlaanderen","key":"CountyName"}]},"MapReference":{"ReferenceId":"55688949","Spot":0.13,"SideOfStreet":"right","CountryId":"20128886","StateId":"20204377","CountyId":"20205081","CityId":"20205291","DistrictId":"20205297","AddressId":"399451109","RoadLinkId":"30440441"}}},{"Relevance":1.0,"Distance":97.1,"MatchLevel":"houseNumber","MatchQuality":{"Country":1.0,"State":1.0,"County":1.0,"City":1.0,"District":1.0,"Street":[1.0],"HouseNumber":1.0,"PostalCode":1.0},"MatchType":"interpolated","Location":{"LocationId":"NT_2POz6ypvyPO4yyQMzl4i7B_xEE","LocationType":"point","DisplayPosition":{"Latitude":51.12386,"Longitude":3.66862},"MapView":{"TopLeft":{"Latitude":51.1249842,"Longitude":3.6668289},"BottomRight":{"Latitude":51.1227358,"Longitude":3.6704111}},"Address":{"Label":"Wurmstraat 1A, 9940 Evergem, België","Country":"BEL","State":"Vlaanderen","County":"Oost-Vlaanderen","City":"Evergem","District":"Sleidinge","Street":"Wurmstraat","HouseNumber":"1A","PostalCode":"9940","AdditionalData":[{"value":"België","key":"CountryName"},{"value":"Vlaanderen","key":"StateName"},{"value":"Oost-Vlaanderen","key":"CountyName"}]},"MapReference":{"ReferenceId":"55688947","Spot":0.52,"SideOfStreet":"right","CountryId":"20128886","StateId":"20204377","CountyId":"20205081","CityId":"20205291","DistrictId":"20205297","AddressId":"400828421","RoadLinkId":"30514919"}}},{"Relevance":1.0,"Distance":117.6,"MatchLevel":"houseNumber","MatchQuality":{"Country":1.0,"State":1.0,"County":1.0,"City":1.0,"District":1.0,"Street":[1.0],"HouseNumber":1.0,"PostalCode":1.0},"MatchType":"interpolated","Location":{"LocationId":"NT_KjP59-YnEfg8pPRv1x.ocD_0A","LocationType":"point","DisplayPosition":{"Latitude":51.12318,"Longitude":3.66704},"MapView":{"TopLeft":{"Latitude":51.1243042,"Longitude":3.6652489},"BottomRight":{"Latitude":51.1220558,"Longitude":3.6688311}},"Address":{"Label":"Emeric de Bruynelaan 4, 9940 Evergem, België","Country":"BEL","State":"Vlaanderen","County":"Oost-Vlaanderen","City":"Evergem","District":"Sleidinge","Street":"Emeric de Bruynelaan","HouseNumber":"4","PostalCode":"9940","AdditionalData":[{"value":"België","key":"CountryName"},{"value":"Vlaanderen","key":"StateName"},{"value":"Oost-Vlaanderen","key":"CountyName"}]},"MapReference":{"ReferenceId":"567250775","Spot":0.62,"SideOfStreet":"left","CountryId":"20128886","StateId":"20204377","CountyId":"20205081","CityId":"20205291","DistrictId":"20205297","AddressId":"401503376","RoadLinkId":"30664401"}}},{"Relevance":1.0,"Distance":123.2,"MatchLevel":"houseNumber","MatchQuality":{"Country":1.0,"State":1.0,"County":1.0,"City":1.0,"District":1.0,"Street":[1.0],"HouseNumber":1.0,"PostalCode":1.0},"MatchType":"interpolated","Location":{"LocationId":"NT_RVFXqreQbj-YPhXgrPIlIB_zA","LocationType":"point","DisplayPosition":{"Latitude":51.12321,"Longitude":3.66765},"MapView":{"TopLeft":{"Latitude":51.1243342,"Longitude":3.6658589},"BottomRight":{"Latitude":51.1220858,"Longitude":3.6694411}},"Address":{"Label":"August Ruyssenlaan 3, 9940 Evergem, België","Country":"BEL","State":"Vlaanderen","County":"Oost-Vlaanderen","City":"Evergem","District":"Sleidinge","Street":"August Ruyssenlaan","HouseNumber":"3","PostalCode":"9940","AdditionalData":[{"value":"België","key":"CountryName"},{"value":"Vlaanderen","key":"StateName"},{"value":"Oost-Vlaanderen","key":"CountyName"}]},"MapReference":{"ReferenceId":"567250777","Spot":0.96,"SideOfStreet":"right","CountryId":"20128886","StateId":"20204377","CountyId":"20205081","CityId":"20205291","DistrictId":"20205297","AddressId":"399757972","RoadLinkId":"30275606"}}},{"Relevance":1.0,"Distance":149.6,"MatchLevel":"houseNumber","MatchQuality":{"Country":1.0,"State":1.0,"County":1.0,"City":1.0,"District":1.0,"Street":[1.0],"HouseNumber":1.0,"PostalCode":1.0},"MatchType":"interpolated","Location":{"LocationId":"NT_BWMcytLrKhJqEUNzWHGPFD_4A","LocationType":"point","DisplayPosition":{"Latitude":51.12302,"Longitude":3.66914},"MapView":{"TopLeft":{"Latitude":51.1241442,"Longitude":3.667349},"BottomRight":{"Latitude":51.1218958,"Longitude":3.670931}},"Address":{"Label":"De Seillelaan 8, 9940 Evergem, België","Country":"BEL","State":"Vlaanderen","County":"Oost-Vlaanderen","City":"Evergem","District":"Sleidinge","Street":"De Seillelaan","HouseNumber":"8","PostalCode":"9940","AdditionalData":[{"value":"België","key":"CountryName"},{"value":"Vlaanderen","key":"StateName"},{"value":"Oost-Vlaanderen","key":"CountyName"}]},"MapReference":{"ReferenceId":"60052025","Spot":0.33,"SideOfStreet":"left","CountryId":"20128886","StateId":"20204377","CountyId":"20205081","CityId":"20205291","DistrictId":"20205297","AddressId":"401765126","RoadLinkId":"30922183"}}},{"Relevance":1.0,"Distance":150.4,"MatchLevel":"houseNumber","MatchQuality":{"Country":1.0,"State":1.0,"County":1.0,"City":1.0,"District":1.0,"Street":[1.0],"HouseNumber":1.0,"PostalCode":1.0},"MatchType":"interpolated","Location":{"LocationId":"NT_KjP59-YnEfg8pPRv1x.ocD_4A","LocationType":"point","DisplayPosition":{"Latitude":51.1231,"Longitude":3.66591},"MapView":{"TopLeft":{"Latitude":51.1242242,"Longitude":3.6641189},"BottomRight":{"Latitude":51.1219758,"Longitude":3.6677011}},"Address":{"Label":"Emeric de Bruynelaan 8, 9940 Evergem, België","Country":"BEL","State":"Vlaanderen","County":"Oost-Vlaanderen","City":"Evergem","District":"Sleidinge","Street":"Emeric de Bruynelaan","HouseNumber":"8","PostalCode":"9940","AdditionalData":[{"value":"België","key":"CountryName"},{"value":"Vlaanderen","key":"StateName"},{"value":"Oost-Vlaanderen","key":"CountyName"}]},"MapReference":{"ReferenceId":"567250776","Spot":0.32,"SideOfStreet":"right","CountryId":"20128886","StateId":"20204377","CountyId":"20205081","CityId":"20205291","DistrictId":"20205297","AddressId":"401429115","RoadLinkId":"30296235"}}},{"Relevance":1.0,"Distance":186.2,"MatchLevel":"houseNumber","MatchQuality":{"Country":1.0,"State":1.0,"County":1.0,"City":1.0,"District":1.0,"Street":[1.0],"HouseNumber":1.0,"PostalCode":1.0},"MatchType":"interpolated","Location":{"LocationId":"NT_zKjiJfBuNnpy-ElYDu.0QC_xgjM","LocationType":"point","DisplayPosition":{"Latitude":51.12566,"Longitude":3.66585},"MapView":{"TopLeft":{"Latitude":51.1267842,"Longitude":3.6640588},"BottomRight":{"Latitude":51.1245358,"Longitude":3.6676412}},"Address":{"Label":"Weststraat 182, 9940 Evergem, België","Country":"BEL","State":"Vlaanderen","County":"Oost-Vlaanderen","City":"Evergem","District":"Sleidinge","Street":"Weststraat","HouseNumber":"182","PostalCode":"9940","AdditionalData":[{"value":"België","key":"CountryName"},{"value":"Vlaanderen","key":"StateName"},{"value":"Oost-Vlaanderen","key":"CountyName"}]},"MapReference":{"ReferenceId":"759959120","Spot":0.96,"SideOfStreet":"left","CountryId":"20128886","StateId":"20204377","CountyId":"20205081","CityId":"20205291","DistrictId":"20205297","AddressId":"399917126","RoadLinkId":"154454108"}}}]}]}}