{"Response":{"MetaInfo":{"Timestamp":"2020-03-28T10:17:45.299+0000","NextPageInformation":"2"},"View":[{"_type":"SearchResultsViewType","ViewId":0,"Result":[{"Relevance":1.0,"Distance":0.0,"Direction":0.0,"MatchLevel":"district","MatchQuality":{"Country":1.0,"State":1.0,"County":1.0,"City":1.0,"District":1.0,"PostalCode":1.0},"Location":{"LocationId":"NT_Mwg3m.TNdQXo55gghPK92A","LocationType":"point","DisplayPosition":{"Latitude":51.1952074,"Longitude":6.4584039},"MapView":{"TopLeft":{"Latitude":51.19856,"Longitude":6.44309},"BottomRight":{"Latitude":51.18245,"Longitude":6.48903}},"Address":{"Label":"Hardterbroich-Pesch, Mönchengladbach, Nordrhein-Westfalen, Deutschland","Country":"DEU","State":"Nordrhein-Westfalen","County":"Mönchengladbach","City":"Mönchengladbach","District":"Hardterbroich-Pesch","PostalCode":"41065","AdditionalData":[{"value":"Deutschland","key":"CountryName"},{"value":"Nordrhein-Westfalen","key":"StateName"},{"value":"Mönchengladbach","key":"CountyName"}]},"MapReference":{"ReferenceId":"1048594165","SideOfStreet":"neither","CountryId":"20147700","StateId":"20157369","CountyId":"20157440","CityId":"20157441","DistrictId":"20300180"}}},{"Relevance":1.0,"Distance":12.1,"MatchLevel":"houseNumber","MatchQuality":{"Country":1.0,"State":1.0,"County":1.0,"City":1.0,"District":1.0,"Street":[1.0],"HouseNumber":1.0,"PostalCode":1.0},"MatchType":"interpolated","Location":{"LocationId":"NT_Nh.ToYAJDh1PR1QJFrbWOB_1gD","LocationType":"point","DisplayPosition":{"Latitude":51.19516,"Longitude":6.45874},"MapView":{"TopLeft":{"Latitude":51.1962842,"Longitude":6.4569461},"BottomRight":{"Latitude":51.1940358,"Longitude":6.4605339}},"Address":{"Label":"Reyerhütter Straße 58, 41065 Mönchengladbach, Deutschland","Country":"DEU","State":"Nordrhein-Westfalen","County":"Mönchengladbach","City":"Mönchengladbach","District":"Hardterbroich-Pesch","Street":"Reyerhütter Straße","HouseNumber":"58","PostalCode":"41065","AdditionalData":[{"value":"Deutschland","key":"CountryName"},{"value":"Nordrhein-Westfalen","key":"StateName"},{"value":"Mönchengladbach","key":"CountyName"}]},"MapReference":{"ReferenceId":"50910158","Spot":0.26,"SideOfStreet":"left","CountryId":"20147700","StateId":"20157369","CountyId":"20157440","CityId":"20157441","DistrictId":"20300180","AddressId":"193553748","RoadLinkId":"39337848"}}},{"Relevance":1.0,"Distance":34.3,"MatchLevel":"street","MatchQuality":{"Country":1.0,"State":1.0,"County":1.0,"City":1.0,"District":1.0,"Street":[1.0],"PostalCode":1.0},"Location":{"LocationId":"NT_lIQRmbMM7tpCkQjZm1EbhA_l_50909595_R","LocationType":"point","DisplayPosition":{"Latitude":51.1955129,"Longitude":6.4583405},"MapView":{"TopLeft":{"Latitude":51.1956,"Longitude":6.45746},"BottomRight":{"Latitude":51.19533,"Longitude":6.45876}},"Address":{"Label":"Stammesweg, 41065 Mönchengladbach, Deutschland","Country":"DEU","State":"Nordrhein-Westfalen","County":"Mönchengladbach","City":"Mönchengladbach","District":"Hardterbroich-Pesch","Street":"Stammesweg","PostalCode":"41065","AdditionalData":[{"value":"Deutschland","key":"CountryName"},{"value":"Nordrhein-Westfalen","key":"StateName"},{"value":"Mönchengladbach","key":"CountyName"}]},"MapReference":{"ReferenceId":"50909595","Spot":0.68,"SideOfStreet":"right","CountryId":"20147700","StateId":"20157369","CountyId":"20157440","CityId":"20157441","DistrictId":"20300180"}}},{"Relevance":1.0,"Distance":38.8,"MatchLevel":"houseNumber","MatchQuality":{"Country":1.0,"State":1.0,"County":1.0,"City":1.0,"District":1.0,"Street":[1.0],"HouseNumber":1.0,"PostalCode":1.0},"MatchType":"interpolated","Location":{"LocationId":"NT_Nh.ToYAJDh1PR1QJFrbWOB_2MTQ","LocationType":"point","DisplayPosition":{"Latitude":51.19492,"Longitude":6.45872},"MapView":{"TopLeft":{"Latitude":51.1960442,"Longitude":6.4569262},"BottomRight":{"Latitude":51.1937958,"Longitude":6.4605138}},"Address":{"Label":"Reyerhütter Straße 63A, 41065 Mönchengladbach, Deutschland","Country":"DEU","State":"Nordrhein-Westfalen","County":"Mönchengladbach","City":"Mönchengladbach","District":"Hardterbroich-Pesch","Street":"Reyerhütter Straße","HouseNumber":"63A","PostalCode":"41065","AdditionalData":[{"value":"Deutschland","key":"CountryName"},{"value":"Nordrhein-Westfalen","key":"StateName"},{"value":"Mönchengladbach","key":"CountyName"}]},"MapReference":{"ReferenceId":"50910159","Spot":0.63,"SideOfStreet":"right","CountryId":"20147700","StateId":"20157369","CountyId":"20157440","CityId":"20157441","DistrictId":"20300180","AddressId":"193203693","RoadLinkId":"39000917"}}},{"Relevance":1.0,"Distance":41.8,"MatchLevel":"houseNumber","MatchQuality":{"Country":1.0,"State":1.0,"County":1.0,"City":1.0,"District":1.0,"Street":[1.0],"HouseNumber":1.0,"PostalCode":1.0},"MatchType":"interpolated","Location":{"LocationId":"NT_ADLiYHQLnHh6XWdBd7k4IB_yUzM","LocationType":"point","DisplayPosition":{"Latitude":51.19475,"Longitude":6.45854},"MapView":{"TopLeft":{"Latitude":51.1958742,"Longitude":6.4567462},"BottomRight":{"Latitude":51.1936258,"Longitude":6.4603338}},"Address":{"Label":"Pescher Straße 253, 41065 Mönchengladbach, Deutschland","Country":"DEU","State":"Nordrhein-Westfalen","County":"Mönchengladbach","City":"Mönchengladbach","District":"Hardterbroich-Pesch","Street":"Pescher Straße","HouseNumber":"253","PostalCode":"41065","AdditionalData":[{"value":"Deutschland","key":"CountryName"},{"value":"Nordrhein-Westfalen","key":"StateName"},{"value":"Mönchengladbach","key":"CountyName"}]},"MapReference":{"ReferenceId":"1179449191","Spot":0.78,"SideOfStreet":"left","CountryId":"20147700","StateId":"20157369","CountyId":"20157440","CityId":"20157441","DistrictId":"20300180","AddressId":"193385984","RoadLinkId":"487240134"}}},{"Relevance":1.0,"Distance":43.2,"MatchLevel":"houseNumber","MatchQuality":{"Country":1.0,"State":1.0,"County":1.0,"City":1.0,"District":1.0,"Street":[1.0],"HouseNumber":1.0,"PostalCode":1.0},"MatchType":"interpolated","Location":{"LocationId":"NT_v2.YG2L3f1Bk0n.h7Ft10D_xEE","LocationType":"point","DisplayPosition":{"Latitude":51.19502,"Longitude":6.45901},"MapView":{"TopLeft":{"Latitude":51.1961442,"Longitude":6.4572162},"BottomRight":{"Latitude":51.1938958,"Longitude":6.4608038}},"Address":{"Label":"Flurstraße 1A, 41065 Mönchengladbach, Deutschland","Country":"DEU","State":"Nordrhein-Westfalen","County":"Mönchengladbach","City":"Mönchengladbach","District":"Hardterbroich-Pesch","Street":"Flurstraße","HouseNumber":"1A","PostalCode":"41065","AdditionalData":[{"value":"Deutschland","key":"CountryName"},{"value":"Nordrhein-Westfalen","key":"StateName"},{"value":"Mönchengladbach","key":"CountyName"}]},"MapReference":{"ReferenceId":"50910165","Spot":0.08,"SideOfStreet":"left","CountryId":"20147700","StateId":"20157369","CountyId":"20157440","CityId":"20157441","DistrictId":"20300180","AddressId":"195527667","RoadLinkId":"39363542"}}},{"Relevance":1.0,"Distance":54.1,"MatchLevel":"houseNumber","MatchQuality":{"Country":1.0,"State":1.0,"County":1.0,"City":1.0,"District":1.0,"Street":[1.0],"HouseNumber":1.0,"PostalCode":1.0},"MatchType":"interpolated","Location":{"LocationId":"NT_Nh.ToYAJDh1PR1QJFrbWOB_2cD","LocationType":"point","DisplayPosition":{"Latitude":51.19476,"Longitude":6.45871},"MapView":{"TopLeft":{"Latitude":51.1958842,"Longitude":6.4569162},"BottomRight":{"Latitude":51.1936358,"Longitude":6.4605038}},"Address":{"Label":"Reyerhütter Straße 67, 41065 Mönchengladbach, Deutschland","Country":"DEU","State":"Nordrhein-Westfalen","County":"Mönchengladbach","City":"Mönchengladbach","District":"Hardterbroich-Pesch","Street":"Reyerhütter Straße","HouseNumber":"67","PostalCode":"41065","AdditionalData":[{"value":"Deutschland","key":"CountryName"},{"value":"Nordrhein-Westfalen","key":"StateName"},{"value":"Mönchengladbach","key":"CountyName"}]},"MapReference":{"ReferenceId":"50910160","Spot":0.97,"SideOfStreet":"right","CountryId":"20147700","StateId":"20157369","CountyId":"20157440","CityId":"20157441","DistrictId":"20300180","AddressId":"196607208","RoadLinkId":"39381897"}}},{"Relevance":1.0,"Distance":57.0,"MatchLevel":"houseNumber","MatchQuality":{"Country":1.0,"State":1.0,"County":1.0,"City":1.0,"District":1.0,"Street":[1.0],"HouseNumber":1.0,"PostalCode":1.0},"MatchType":"interpolated","Location":{"LocationId":"NT_qak7ziNo-2U0bRxV3Bsj-D_yEE","LocationType":"point","DisplayPosition":{"Latitude":51.19563,"Longitude":6.45902},"MapView":{"TopLeft":{"Latitude":51.1967542,"Longitude":6.4572261},"BottomRight":{"Latitude":51.1945058,"Longitude":6.4608139}},"Address":{"Label":"Reyerstraße 2A, 41065 Mönchengladbach, Deutschland","Country":"DEU","State":"Nordrhein-Westfalen","County":"Mönchengladbach","City":"Mönchengladbach","District":"Hardterbroich-Pesch","Street":"Reyerstraße","HouseNumber":"2A","PostalCode":"41065","AdditionalData":[{"value":"Deutschland","key":"CountryName"},{"value":"Nordrhein-Westfalen","key":"StateName"},{"value":"Mönchengladbach","key":"CountyName"}]},"MapReference":{"ReferenceId":"990649596","Spot":0.11,"SideOfStreet":"right","CountryId":"20147700","StateId":"20157369","CountyId":"20157440","CityId":"20157441","DistrictId":"20300180","AddressId":"195493836","RoadLinkId":"319309419"}}},{"Relevance":1.0,"Distance":59.0,"MatchLevel":"houseNumber","MatchQuality":{"Country":1.0,"State":1.0,"County":1.0,"City":1.0,"District":1.0,"Street":[1.0],"HouseNumber":1.0,"PostalCode":1.0},"MatchType":"interpolated","Location":{"LocationId":"NT_Nh.ToYAJDh1PR1QJFrbWOB_0gD","LocationType":"point","DisplayPosition":{"Latitude":51.19573,"Longitude":6.45875},"MapView":{"TopLeft":{"Latitude":51.1968542,"Longitude":6.4569561},"BottomRight":{"Latitude":51.1946058,"Longitude":6.4605439}},"Address":{"Label":"Reyerhütter Straße 48, 41065 Mönchengladbach, Deutschland","Country":"DEU","State":"Nordrhein-Westfalen","County":"Mönchengladbach","City":"Mönchengladbach","District":"Hardterbroich-Pesch","Street":"Reyerhütter Straße","HouseNumber":"48","PostalCode":"41065","AdditionalData":[{"value":"Deutschland","key":"CountryName"},{"value":"Nordrhein-Westfalen","key":"StateName"},{"value":"Mönchengladbach","key":"CountyName"}]},"MapReference":{"ReferenceId":"1203288721","Spot":0.42,"SideOfStreet":"left","CountryId":"20147700","StateId":"20157369","CountyId":"20157440","CityId":"20157441","DistrictId":"20300180","AddressId":"194430350","RoadLinkId":"516281609"}}},{"Relevance":1.0,"Distance":59.5,"MatchLevel":"houseNumber","MatchQuality":{"Country":1.0,"State":1.0,"County":1.0,"City":1.0,"District":1.0,"Street":[1.0],"HouseNumber":1.0,"PostalCode":1.0},"MatchType":"interpolated","Location":{"LocationId":"NT_ADLiYHQLnHh6XWdBd7k4IB_yQzM","LocationType":"point","DisplayPosition":{"Latitude":51.19471,"Longitude":6.45788},"MapView":{"TopLeft":{"Latitude":51.1958342,"Longitude":6.4560862},"BottomRight":{"Latitude":51.1935858,"Longitude":6.4596738}},"Address":{"Label":"Pescher Straße 243, 41065 Mönchengladbach, Deutschland","Country":"DEU","State":"Nordrhein-Westfalen","County":"Mönchengladbach","City":"Mönchengladbach","District":"Hardterbroich-Pesch","Street":"Pescher Straße","HouseNumber":"243","PostalCode":"41065","AdditionalData":[{"value":"Deutschland","key":"CountryName"},{"value":"Nordrhein-Westfalen","key":"StateName"},{"value":"Mönchengladbach","key":"CountyName"}]},"MapReference":{"ReferenceId":"1179449190","Spot":0.95,"SideOfStreet":"left","CountryId":"20147700","StateId":"20157369","CountyId":"20157440","CityId":"20157441","DistrictId":"20300180","AddressId":"196522120","RoadLinkId":"487240133"}}}]}]}}