{"Response":{"MetaInfo":{"Timestamp":"2020-03-28T11:31:01.833+0000","NextPageInformation":"2"},"View":[{"_type":"SearchResultsViewType","ViewId":0,"Result":[{"Relevance":1.0,"Distance":0.0,"Direction":0.0,"MatchLevel":"district","MatchQuality":{"Country":1.0,"State":1.0,"County":1.0,"City":1.0,"District":1.0,"PostalCode":1.0},"Location":{"LocationId":"NT_H3uihOwqf.fwh.nQY6c6yB","LocationType":"point","DisplayPosition":{"Latitude":51.1442836,"Longitude":23.4581796},"MapView":{"TopLeft":{"Latitude":51.16763,"Longitude":23.41794},"BottomRight":{"Latitude":51.11059,"Longitude":23.55942}},"Address":{"Label":"Chełm, Woj. Lubelskie, Polska","Country":"POL","State":"Woj. Lubelskie","County":"Chełm","City":"Chełm","District":"Chełm","PostalCode":"22-100","AdditionalData":[{"value":"Polska","key":"CountryName"},{"value":"Woj. Lubelskie","key":"StateName"},{"value":"Chełm","key":"CountyName"}]},"MapReference":{"ReferenceId":"1158478719","SideOfStreet":"neither","CountryId":"20624059","StateId":"20626116","CountyId":"20626120","CityId":"20626121","DistrictId":"20646636"}}},{"Relevance":1.0,"Distance":14.5,"MatchLevel":"houseNumber","MatchQuality":{"Country":1.0,"State":1.0,"County":1.0,"City":1.0,"District":1.0,"Street":[1.0],"HouseNumber":1.0,"PostalCode":1.0},"MatchType":"interpolated","Location":{"LocationId":"NT_GZ4TEDFnitw8hOBBpaXQ4D_xIjN","LocationType":"point","DisplayPosition":{"Latitude":51.14439,"Longitude":23.45806},"MapView":{"TopLeft":{"Latitude":51.1455142,"Longitude":23.4562681},"BottomRight":{"Latitude":51.1432658,"Longitude":23.4598519}},"Address":{"Label":"ulica Rejowiecka 126, 22-100 Chełm, Polska","Country":"POL","State":"Woj. Lubelskie","County":"Chełm","City":"Chełm","District":"Chełm","Street":"ulica Rejowiecka","HouseNumber":"126","PostalCode":"22-100","AdditionalData":[{"value":"Polska","key":"CountryName"},{"value":"Woj. Lubelskie","key":"StateName"},{"value":"Chełm","key":"CountyName"}]},"MapReference":{"ReferenceId":"596281648","Spot":0.34,"SideOfStreet":"left","CountryId":"20624059","StateId":"20626116","CountyId":"20626120","CityId":"20626121","DistrictId":"20646636","AddressId":"211478460","RoadLinkId":"95522993"}}},{"Relevance":1.0,"Distance":23.2,"MatchLevel":"street","MatchQuality":{"Country":1.0,"State":1.0,"County":1.0,"City":1.0,"District":1.0,"Street":[1.0],"PostalCode":1.0},"Location":{"LocationId":"NT_x1ZjId2Rga60YZL9jpHGuB_l_1191527490_L","LocationType":"point","DisplayPosition":{"Latitude":51.1444918,"Longitude":23.4582002},"MapView":{"TopLeft":{"Latitude":51.14459,"Longitude":23.45721},"BottomRight":{"Latitude":51.14447,"Longitude":23.45842}},"Address":{"Label":"ulica Rejowiecka, 22-100 Chełm, Polska","Country":"POL","State":"Woj. Lubelskie","County":"Chełm","City":"Chełm","District":"Chełm","Street":"ulica Rejowiecka","PostalCode":"22-100","AdditionalData":[{"value":"Polska","key":"CountryName"},{"value":"Woj. Lubelskie","key":"StateName"},{"value":"Chełm","key":"CountyName"}]},"MapReference":{"ReferenceId":"1191527490","Spot":0.18,"SideOfStreet":"left","CountryId":"20624059","StateId":"20626116","CountyId":"20626120","CityId":"20626121","DistrictId":"20646636"}}},{"Relevance":1.0,"Distance":26.7,"MatchLevel":"street","MatchQuality":{"Country":1.0,"State":1.0,"County":1.0,"City":1.0,"District":1.0,"Street":[1.0],"PostalCode":1.0},"Location":{"LocationId":"NT_x1ZjId2Rga60YZL9jpHGuB_l_1191527489_L","LocationType":"point","DisplayPosition":{"Latitude":51.14447,"Longitude":23.45842},"MapView":{"TopLeft":{"Latitude":51.14447,"Longitude":23.45842},"BottomRight":{"Latitude":51.14444,"Longitude":23.45873}},"Address":{"Label":"ulica Rejowiecka, 22-100 Chełm, Polska","Country":"POL","State":"Woj. Lubelskie","County":"Chełm","City":"Chełm","District":"Chełm","Street":"ulica Rejowiecka","PostalCode":"22-100","AdditionalData":[{"value":"Polska","key":"CountryName"},{"value":"Woj. Lubelskie","key":"StateName"},{"value":"Chełm","key":"CountyName"}]},"MapReference":{"ReferenceId":"1191527489","Spot":1.0,"SideOfStreet":"left","CountryId":"20624059","StateId":"20626116","CountyId":"20626120","CityId":"20626121","DistrictId":"20646636"}}},{"Relevance":1.0,"Distance":36.7,"MatchLevel":"street","MatchQuality":{"Country":1.0,"State":1.0,"County":1.0,"City":1.0,"District":1.0,"Street":[1.0],"PostalCode":1.0},"Location":{"LocationId":"NT_-nqsgNS0ElQ7NzBVu3kIJA_l_758483036_L","LocationType":"point","DisplayPosition":{"Latitude":51.14433,"Longitude":23.4587},"MapView":{"TopLeft":{"Latitude":51.14444,"Longitude":23.4587},"BottomRight":{"Latitude":51.14433,"Longitude":23.45873}},"Address":{"Label":"ulica Przejazdowa, 22-100 Chełm, Polska","Country":"POL","State":"Woj. Lubelskie","County":"Chełm","City":"Chełm","District":"Chełm","Street":"ulica Przejazdowa","PostalCode":"22-100","AdditionalData":[{"value":"Polska","key":"CountryName"},{"value":"Woj. Lubelskie","key":"StateName"},{"value":"Chełm","key":"CountyName"}]},"MapReference":{"ReferenceId":"758483036","Spot":0.0,"SideOfStreet":"left","CountryId":"20624059","StateId":"20626116","CountyId":"20626120","CityId":"20626121","DistrictId":"20646636"}}},{"Relevance":1.0,"Distance":40.0,"MatchLevel":"houseNumber","MatchQuality":{"Country":1.0,"State":1.0,"County":1.0,"City":1.0,"District":1.0,"Street":[1.0],"HouseNumber":1.0,"PostalCode":1.0},"MatchType":"interpolated","Location":{"LocationId":"NT_GZ4TEDFnitw8hOBBpaXQ4D_xITM","LocationType":"point","DisplayPosition":{"Latitude":51.14464,"Longitude":23.4581},"MapView":{"TopLeft":{"Latitude":51.1457642,"Longitude":23.4563081},"BottomRight":{"Latitude":51.1435158,"Longitude":23.4598919}},"Address":{"Label":"ulica Rejowiecka 121, 22-100 Chełm, Polska","Country":"POL","State":"Woj. Lubelskie","County":"Chełm","City":"Chełm","District":"Chełm","Street":"ulica Rejowiecka","HouseNumber":"121","PostalCode":"22-100","AdditionalData":[{"value":"Polska","key":"CountryName"},{"value":"Woj. Lubelskie","key":"StateName"},{"value":"Chełm","key":"CountyName"}]},"MapReference":{"ReferenceId":"596281662","Spot":0.64,"SideOfStreet":"right","CountryId":"20624059","StateId":"20626116","CountyId":"20626120","CityId":"20626121","DistrictId":"20646636","AddressId":"701718970","RoadLinkId":"95898033"}}},{"Relevance":1.0,"Distance":42.2,"MatchLevel":"street","MatchQuality":{"Country":1.0,"State":1.0,"County":1.0,"City":1.0,"District":1.0,"Street":[1.0],"PostalCode":1.0},"Location":{"LocationId":"NT_x1ZjId2Rga60YZL9jpHGuB_l_1181093142_L","LocationType":"point","DisplayPosition":{"Latitude":51.14444,"Longitude":23.45873},"MapView":{"TopLeft":{"Latitude":51.14444,"Longitude":23.45873},"BottomRight":{"Latitude":51.14443,"Longitude":23.45887}},"Address":{"Label":"ulica Rejowiecka, 22-100 Chełm, Polska","Country":"POL","State":"Woj. Lubelskie","County":"Chełm","City":"Chełm","District":"Chełm","Street":"ulica Rejowiecka","PostalCode":"22-100","AdditionalData":[{"value":"Polska","key":"CountryName"},{"value":"Woj. Lubelskie","key":"StateName"},{"value":"Chełm","key":"CountyName"}]},"MapReference":{"ReferenceId":"1181093142","Spot":1.0,"SideOfStreet":"left","CountryId":"20624059","StateId":"20626116","CountyId":"20626120","CityId":"20626121","DistrictId":"20646636"}}},{"Relevance":1.0,"Distance":50.8,"MatchLevel":"street","MatchQuality":{"Country":1.0,"State":1.0,"County":1.0,"City":1.0,"District":1.0,"Street":[1.0],"PostalCode":1.0},"Location":{"LocationId":"NT_x1ZjId2Rga60YZL9jpHGuB_l_1191524731_L","LocationType":"point","DisplayPosition":{"Latitude":51.14443,"Longitude":23.45887},"MapView":{"TopLeft":{"Latitude":51.14443,"Longitude":23.45887},"BottomRight":{"Latitude":51.1444,"Longitude":23.45919}},"Address":{"Label":"ulica Rejowiecka, 22-100 Chełm, Polska","Country":"POL","State":"Woj. Lubelskie","County":"Chełm","City":"Chełm","District":"Chełm","Street":"ulica Rejowiecka","PostalCode":"22-100","AdditionalData":[{"value":"Polska","key":"CountryName"},{"value":"Woj. Lubelskie","key":"StateName"},{"value":"Chełm","key":"CountyName"}]},"MapReference":{"ReferenceId":"1191524731","Spot":1.0,"SideOfStreet":"left","CountryId":"20624059","StateId":"20626116","CountyId":"20626120","CityId":"20626121","DistrictId":"20646636"}}},{"Relevance":1.0,"Distance":50.8,"MatchLevel":"street","MatchQuality":{"Country":1.0,"State":1.0,"County":1.0,"City":1.0,"District":1.0,"Street":[1.0],"PostalCode":1.0},"Location":{"LocationId":"NT_GZ4TEDFnitw8hOBBpaXQ4D_l_1181093143_L","LocationType":"point","DisplayPosition":{"Latitude":51.14443,"Longitude":23.45887},"MapView":{"TopLeft":{"Latitude":51.14458,"Longitude":23.45887},"BottomRight":{"Latitude":51.14443,"Longitude":23.4589}},"Address":{"Label":"ulica Rejowiecka, 22-100 Chełm, Polska","Country":"POL","State":"Woj. Lubelskie","County":"Chełm","City":"Chełm","District":"Chełm","Street":"ulica Rejowiecka","PostalCode":"22-100","AdditionalData":[{"value":"Polska","key":"CountryName"},{"value":"Woj. Lubelskie","key":"StateName"},{"value":"Chełm","key":"CountyName"}]},"MapReference":{"ReferenceId":"1181093143","Spot":0.0,"SideOfStreet":"left","CountryId":"20624059","StateId":"20626116","CountyId":"20626120","CityId":"20626121","DistrictId":"20646636"}}},{"Relevance":1.0,"Distance":63.5,"MatchLevel":"houseNumber","MatchQuality":{"Country":1.0,"State":1.0,"County":1.0,"City":1.0,"District":1.0,"Street":[1.0],"HouseNumber":1.0,"PostalCode":1.0},"MatchType":"interpolated","Location":{"LocationId":"NT_nZVmS8cEgxByIvFUabYUwD_yA","LocationType":"point","DisplayPosition":{"Latitude":51.14478,"Longitude":23.45767},"MapView":{"TopLeft":{"Latitude":51.1459042,"Longitude":23.4558781},"BottomRight":{"Latitude":51.1436558,"Longitude":23.4594619}},"Address":{"Label":"ulica Działkowa 2, 22-100 Chełm, Polska","Country":"POL","State":"Woj. Lubelskie","County":"Chełm","City":"Chełm","District":"Chełm","Street":"ulica Działkowa","HouseNumber":"2","PostalCode":"22-100","AdditionalData":[{"value":"Polska","key":"CountryName"},{"value":"Woj. Lubelskie","key":"StateName"},{"value":"Chełm","key":"CountyName"}]},"MapReference":{"ReferenceId":"757353231","Spot":0.06,"SideOfStreet":"right","CountryId":"20624059","StateId":"20626116","CountyId":"20626120","CityId":"20626121","DistrictId":"20646636","AddressId":"209925981","RoadLinkId":"152329798"}}}]}]}}