{"Response":{"MetaInfo":{"Timestamp":"2020-03-28T10:36:02.645+0000","NextPageInformation":"2"},"View":[{"_type":"SearchResultsViewType","ViewId":0,"Result":[{"Relevance":1.0,"Distance":0.0,"Direction":0.0,"MatchLevel":"district","MatchQuality":{"Country":1.0,"State":1.0,"County":1.0,"City":1.0,"District":1.0,"PostalCode":1.0},"Location":{"LocationId":"NT_TFyF4OmGC9xL1miz7dyugB","LocationType":"point","DisplayPosition":{"Latitude":51.122049,"Longitude":0.8607991},"MapView":{"TopLeft":{"Latitude":51.12906,"Longitude":0.8375},"BottomRight":{"Latitude":51.11057,"Longitude":0.87923}},"Address":{"Label":"Kingsnorth, Ashford, England, United Kingdom","Country":"GBR","State":"England","County":"Kent","City":"Ashford","District":"Kingsnorth","PostalCode":"TN23 3","AdditionalData":[{"value":"United Kingdom","key":"CountryName"},{"value":"England","key":"StateName"},{"value":"Kent","key":"CountyName"}]},"MapReference":{"ReferenceId":"25662855","SideOfStreet":"neither","StateId":"20248595","CountyId":"20336836","CityId":"20336837","DistrictId":"20336869"}}},{"Relevance":1.0,"Distance":54.3,"MatchLevel":"street","MatchQuality":{"Country":1.0,"State":1.0,"County":1.0,"City":1.0,"District":1.0,"PostalCode":1.0},"Location":{"LocationId":"NT_PttD-dtZcWdE04yuUMoQyD_l_566021449_R","LocationType":"point","DisplayPosition":{"Latitude":51.12161,"Longitude":0.86114},"MapView":{"TopLeft":{"Latitude":51.12161,"Longitude":0.86114},"BottomRight":{"Latitude":51.12146,"Longitude":0.86148}},"Address":{"Label":"Ashford, TN23 3, United Kingdom","Country":"GBR","State":"England","County":"Kent","City":"Ashford","District":"Kingsnorth","PostalCode":"TN23 3","AdditionalData":[{"value":"United Kingdom","key":"CountryName"},{"value":"England","key":"StateName"},{"value":"Kent","key":"CountyName"}]},"MapReference":{"ReferenceId":"566021449","Spot":1.0,"SideOfStreet":"right","StateId":"20248595","CountyId":"20336836","CityId":"20336837","DistrictId":"20336869"}}},{"Relevance":1.0,"Distance":79.3,"MatchLevel":"street","MatchQuality":{"Country":1.0,"State":1.0,"County":1.0,"City":1.0,"District":1.0,"Street":[1.0],"PostalCode":1.0},"Location":{"LocationId":"NT_09spgapvjIEhxA8WsEwHfA_l_565982870_L","LocationType":"point","DisplayPosition":{"Latitude":51.12157,"Longitude":0.86164},"MapView":{"TopLeft":{"Latitude":51.12202,"Longitude":0.86164},"BottomRight":{"Latitude":51.12157,"Longitude":0.86229}},"Address":{"Label":"Ashford Road, Ashford, TN23 3, United Kingdom","Country":"GBR","State":"England","County":"Kent","City":"Ashford","District":"Kingsnorth","Street":"Ashford Road","PostalCode":"TN23 3","AdditionalData":[{"value":"United Kingdom","key":"CountryName"},{"value":"England","key":"StateName"},{"value":"Kent","key":"CountyName"}]},"MapReference":{"ReferenceId":"565982870","Spot":0.0,"SideOfStreet":"left","StateId":"20248595","CountyId":"20336836","CityId":"20336837","DistrictId":"20336869"}}},{"Relevance":1.0,"Distance":80.9,"MatchLevel":"street","MatchQuality":{"Country":1.0,"State":1.0,"County":1.0,"City":1.0,"District":1.0,"Street":[1.0],"PostalCode":1.0},"Location":{"LocationId":"NT_09spgapvjIEhxA8WsEwHfA_l_566021448_L","LocationType":"point","DisplayPosition":{"Latitude":51.12146,"Longitude":0.86148},"MapView":{"TopLeft":{"Latitude":51.12157,"Longitude":0.86148},"BottomRight":{"Latitude":51.12146,"Longitude":0.86164}},"Address":{"Label":"Ashford Road, Ashford, TN23 3, United Kingdom","Country":"GBR","State":"England","County":"Kent","City":"Ashford","District":"Kingsnorth","Street":"Ashford Road","PostalCode":"TN23 3","AdditionalData":[{"value":"United Kingdom","key":"CountryName"},{"value":"England","key":"StateName"},{"value":"Kent","key":"CountyName"}]},"MapReference":{"ReferenceId":"566021448","Spot":0.0,"SideOfStreet":"left","StateId":"20248595","CountyId":"20336836","CityId":"20336837","DistrictId":"20336869"}}},{"Relevance":1.0,"Distance":87.0,"MatchLevel":"street","MatchQuality":{"Country":1.0,"State":1.0,"County":1.0,"City":1.0,"District":1.0,"Street":[1.0],"PostalCode":1.0},"Location":{"LocationId":"NT_09spgapvjIEhxA8WsEwHfA_l_759302604_L","LocationType":"point","DisplayPosition":{"Latitude":51.1213301,"Longitude":0.8612897},"MapView":{"TopLeft":{"Latitude":51.12146,"Longitude":0.8606},"BottomRight":{"Latitude":51.12086,"Longitude":0.86148}},"Address":{"Label":"Ashford Road, Ashford, TN23 3, United Kingdom","Country":"GBR","State":"England","County":"Kent","City":"Ashford","District":"Kingsnorth","Street":"Ashford Road","PostalCode":"TN23 3","AdditionalData":[{"value":"United Kingdom","key":"CountryName"},{"value":"England","key":"StateName"},{"value":"Kent","key":"CountyName"}]},"MapReference":{"ReferenceId":"759302604","Spot":0.78,"SideOfStreet":"left","StateId":"20248595","CountyId":"20336836","CityId":"20336837","DistrictId":"20336869"}}},{"Relevance":1.0,"Distance":104.1,"MatchLevel":"street","MatchQuality":{"Country":1.0,"State":1.0,"County":1.0,"City":1.0,"District":1.0,"Street":[1.0],"PostalCode":1.0},"Location":{"LocationId":"NT_09spgapvjIEhxA8WsEwHfA_l_1037992742_L","LocationType":"point","DisplayPosition":{"Latitude":51.12202,"Longitude":0.86229},"MapView":{"TopLeft":{"Latitude":51.12223,"Longitude":0.86229},"BottomRight":{"Latitude":51.12202,"Longitude":0.86244}},"Address":{"Label":"Ashford Road, Ashford, TN23 3, United Kingdom","Country":"GBR","State":"England","County":"Kent","City":"Ashford","District":"Kingsnorth","Street":"Ashford Road","PostalCode":"TN23 3","AdditionalData":[{"value":"United Kingdom","key":"CountryName"},{"value":"England","key":"StateName"},{"value":"Kent","key":"CountyName"}]},"MapReference":{"ReferenceId":"1037992742","Spot":0.0,"SideOfStreet":"left","StateId":"20248595","CountyId":"20336836","CityId":"20336837","DistrictId":"20336869"}}},{"Relevance":1.0,"Distance":104.1,"MatchLevel":"street","MatchQuality":{"Country":1.0,"State":1.0,"County":1.0,"City":1.0,"District":1.0,"Street":[1.0],"PostalCode":1.0},"Location":{"LocationId":"NT_09spgapvjIEhxA8WsEwHfA_l_25662507_L","LocationType":"point","DisplayPosition":{"Latitude":51.12202,"Longitude":0.86229},"MapView":{"TopLeft":{"Latitude":51.12236,"Longitude":0.86229},"BottomRight":{"Latitude":51.12202,"Longitude":0.86301}},"Address":{"Label":"Ashford Road, Ashford, TN23 3, United Kingdom","Country":"GBR","State":"England","County":"Kent","City":"Ashford","District":"Kingsnorth","Street":"Ashford Road","PostalCode":"TN23 3","AdditionalData":[{"value":"United Kingdom","key":"CountryName"},{"value":"England","key":"StateName"},{"value":"Kent","key":"CountyName"}]},"MapReference":{"ReferenceId":"25662507","Spot":0.0,"SideOfStreet":"left","StateId":"20248595","CountyId":"20336836","CityId":"20336837","DistrictId":"20336869"}}},{"Relevance":1.0,"Distance":116.3,"MatchLevel":"street","MatchQuality":{"Country":1.0,"State":1.0,"County":1.0,"City":1.0,"District":1.0,"Street":[1.0],"PostalCode":1.0},"Location":{"LocationId":"NT_09spgapvjIEhxA8WsEwHfA_l_1037992743_L","LocationType":"point","DisplayPosition":{"Latitude":51.12223,"Longitude":0.86244},"MapView":{"TopLeft":{"Latitude":51.12251,"Longitude":0.86244},"BottomRight":{"Latitude":51.12223,"Longitude":0.86259}},"Address":{"Label":"Ashford Road, Ashford, TN23 3, United Kingdom","Country":"GBR","State":"England","County":"Kent","City":"Ashford","District":"Kingsnorth","Street":"Ashford Road","PostalCode":"TN23 3","AdditionalData":[{"value":"United Kingdom","key":"CountryName"},{"value":"England","key":"StateName"},{"value":"Kent","key":"CountyName"}]},"MapReference":{"ReferenceId":"1037992743","Spot":0.0,"SideOfStreet":"left","StateId":"20248595","CountyId":"20336836","CityId":"20336837","DistrictId":"20336869"}}},{"Relevance":1.0,"Distance":132.9,"MatchLevel":"street","MatchQuality":{"Country":1.0,"State":1.0,"County":1.0,"City":1.0,"District":1.0,"Street":[1.0],"PostalCode":1.0},"Location":{"LocationId":"NT_09spgapvjIEhxA8WsEwHfA_l_1156966166_L","LocationType":"point","DisplayPosition":{"Latitude":51.12086,"Longitude":0.8606},"MapView":{"TopLeft":{"Latitude":51.12086,"Longitude":0.85988},"BottomRight":{"Latitude":51.12031,"Longitude":0.8606}},"Address":{"Label":"Ashford Road, Ashford, TN23 3, United Kingdom","Country":"GBR","State":"England","County":"Kent","City":"Ashford","District":"Kingsnorth","Street":"Ashford Road","PostalCode":"TN23 3","AdditionalData":[{"value":"United Kingdom","key":"CountryName"},{"value":"England","key":"StateName"},{"value":"Kent","key":"CountyName"}]},"MapReference":{"ReferenceId":"1156966166","Spot":1.0,"SideOfStreet":"left","StateId":"20248595","CountyId":"20336836","CityId":"20336837","DistrictId":"20336869"}}},{"Relevance":1.0,"Distance":135.1,"MatchLevel":"street","MatchQuality":{"Country":1.0,"State":1.0,"County":1.0,"City":1.0,"District":1.0,"PostalCode":1.0},"Location":{"LocationId":"NT_PttD-dtZcWdE04yuUMoQyD_l_25662465_L","LocationType":"point","DisplayPosition":{"Latitude":51.12251,"Longitude":0.86259},"MapView":{"TopLeft":{"Latitude":51.12251,"Longitude":0.86259},"BottomRight":{"Latitude":51.12236,"Longitude":0.86301}},"Address":{"Label":"Ashford, TN23 3, United Kingdom","Country":"GBR","State":"England","County":"Kent","City":"Ashford","District":"Kingsnorth","PostalCode":"TN23 3","AdditionalData":[{"value":"United Kingdom","key":"CountryName"},{"value":"England","key":"StateName"},{"value":"Kent","key":"CountyName"}]},"MapReference":{"ReferenceId":"25662465","Spot":1.0,"SideOfStreet":"left","StateId":"20248595","CountyId":"20336836","CityId":"20336837","DistrictId":"20336869"}}}]}]}}