{"Response":{"MetaInfo":{"Timestamp":"2020-03-28T10:56:18.238+0000","NextPageInformation":"2"},"View":[{"_type":"SearchResultsViewType","ViewId":0,"Result":[{"Relevance":1.0,"Distance":0.0,"Direction":0.0,"MatchLevel":"district","MatchQuality":{"Country":1.0,"State":1.0,"County":1.0,"City":1.0,"District":1.0,"PostalCode":1.0},"Location":{"LocationId":"NT_0qnr1..VRZRaqsTDCXTKBB","LocationType":"point","DisplayPosition":{"Latitude":51.1312862,"Longitude":13.5964179},"MapView":{"TopLeft":{"Latitude":51.15218,"Longitude":13.55715},"BottomRight":{"Latitude":51.10647,"Longitude":13.60439}},"Address":{"Label":"Coswig, Sachsen, Deutschland","Country":"DEU","State":"Sachsen","County":"Meißen","City":"Coswig","District":"Coswig","PostalCode":"01640","AdditionalData":[{"value":"Deutschland","key":"CountryName"},{"value":"Sachsen","key":"StateName"},{"value":"Meißen","key":"CountyName"}]},"MapReference":{"ReferenceId":"1190411109","SideOfStreet":"neither","CountryId":"20147700","StateId":"20191185","CountyId":"20192409","CityId":"20192414","DistrictId":"20192416"}}},{"Relevance":1.0,"Distance":26.6,"MatchLevel":"houseNumber","MatchQuality":{"Country":1.0,"State":1.0,"County":1.0,"City":1.0,"District":1.0,"Street":[1.0],"HouseNumber":1.0,"PostalCode":1.0},"MatchType":"interpolated","Location":{"LocationId":"NT_R62dMzfRCdJcLnX9Gta-yA_zEE","LocationType":"point","DisplayPosition":{"Latitude":51.13155,"Longitude":13.59668},"MapView":{"TopLeft":{"Latitude":51.1326742,"Longitude":13.5948886},"BottomRight":{"Latitude":51.1304258,"Longitude":13.5984714}},"Address":{"Label":"Gartenstraße 3A, 01640 Coswig, Deutschland","Country":"DEU","State":"Sachsen","County":"Meißen","City":"Coswig","District":"Coswig","Street":"Gartenstraße","HouseNumber":"3A","PostalCode":"01640","AdditionalData":[{"value":"Deutschland","key":"CountryName"},{"value":"Sachsen","key":"StateName"},{"value":"Meißen","key":"CountyName"}]},"MapReference":{"ReferenceId":"565386227","Spot":0.84,"SideOfStreet":"left","CountryId":"20147700","StateId":"20191185","CountyId":"20192409","CityId":"20192414","DistrictId":"20192416","AddressId":"189782049","RoadLinkId":"39842434"}}},{"Relevance":1.0,"Distance":40.7,"MatchLevel":"houseNumber","MatchQuality":{"Country":1.0,"State":1.0,"County":1.0,"City":1.0,"District":1.0,"Street":[1.0],"HouseNumber":1.0,"PostalCode":1.0},"MatchType":"interpolated","Location":{"LocationId":"NT_JuuenL5vgXdImthl8ZiFhD_xkDR","LocationType":"point","DisplayPosition":{"Latitude":51.13061,"Longitude":13.59747},"MapView":{"TopLeft":{"Latitude":51.1317342,"Longitude":13.5956787},"BottomRight":{"Latitude":51.1294858,"Longitude":13.5992613}},"Address":{"Label":"Steinstraße 19D, 01640 Coswig, Deutschland","Country":"DEU","State":"Sachsen","County":"Meißen","City":"Coswig","District":"Coswig","Street":"Steinstraße","HouseNumber":"19D","PostalCode":"01640","AdditionalData":[{"value":"Deutschland","key":"CountryName"},{"value":"Sachsen","key":"StateName"},{"value":"Meißen","key":"CountyName"}]},"MapReference":{"ReferenceId":"994039938","Spot":0.0,"SideOfStreet":"left","CountryId":"20147700","StateId":"20191185","CountyId":"20192409","CityId":"20192414","DistrictId":"20192416","AddressId":"190239996","RoadLinkId":"322564553"}}},{"Relevance":1.0,"Distance":44.3,"MatchLevel":"houseNumber","MatchQuality":{"Country":1.0,"State":1.0,"County":1.0,"City":1.0,"District":1.0,"Street":[1.0],"HouseNumber":1.0,"PostalCode":1.0},"MatchType":"interpolated","Location":{"LocationId":"NT_R62dMzfRCdJcLnX9Gta-yA_zQE","LocationType":"point","DisplayPosition":{"Latitude":51.13173,"Longitude":13.59639},"MapView":{"TopLeft":{"Latitude":51.1328542,"Longitude":13.5945986},"BottomRight":{"Latitude":51.1306058,"Longitude":13.5981814}},"Address":{"Label":"Gartenstraße 3D, 01640 Coswig, Deutschland","Country":"DEU","State":"Sachsen","County":"Meißen","City":"Coswig","District":"Coswig","Street":"Gartenstraße","HouseNumber":"3D","PostalCode":"01640","AdditionalData":[{"value":"Deutschland","key":"CountryName"},{"value":"Sachsen","key":"StateName"},{"value":"Meißen","key":"CountyName"}]},"MapReference":{"ReferenceId":"565386228","Spot":0.08,"SideOfStreet":"left","CountryId":"20147700","StateId":"20191185","CountyId":"20192409","CityId":"20192414","DistrictId":"20192416","AddressId":"189982913","RoadLinkId":"39792730"}}},{"Relevance":1.0,"Distance":57.6,"MatchLevel":"houseNumber","MatchQuality":{"Country":1.0,"State":1.0,"County":1.0,"City":1.0,"District":1.0,"Street":[1.0],"HouseNumber":1.0,"PostalCode":1.0},"MatchType":"interpolated","Location":{"LocationId":"NT_acMK34F0J6YqCLcpfdr3SC_yA","LocationType":"point","DisplayPosition":{"Latitude":51.1318,"Longitude":13.59672},"MapView":{"TopLeft":{"Latitude":51.1329242,"Longitude":13.5949286},"BottomRight":{"Latitude":51.1306758,"Longitude":13.5985114}},"Address":{"Label":"Siedlung Gartenstraße 2, 01640 Coswig, Deutschland","Country":"DEU","State":"Sachsen","County":"Meißen","City":"Coswig","District":"Coswig","Street":"Siedlung Gartenstraße","HouseNumber":"2","PostalCode":"01640","AdditionalData":[{"value":"Deutschland","key":"CountryName"},{"value":"Sachsen","key":"StateName"},{"value":"Meißen","key":"CountyName"}]},"MapReference":{"ReferenceId":"565386229","Spot":0.32,"SideOfStreet":"right","CountryId":"20147700","StateId":"20191185","CountyId":"20192409","CityId":"20192414","DistrictId":"20192416","AddressId":"190181826","RoadLinkId":"39721220"}}},{"Relevance":1.0,"Distance":95.1,"MatchLevel":"houseNumber","MatchQuality":{"Country":1.0,"State":1.0,"County":1.0,"City":1.0,"District":1.0,"Street":[1.0],"HouseNumber":1.0,"PostalCode":1.0},"MatchType":"interpolated","Location":{"LocationId":"NT_kWGbW.hhdnQHA0Y6ieA7CB_xA","LocationType":"point","DisplayPosition":{"Latitude":51.13096,"Longitude":13.59801},"MapView":{"TopLeft":{"Latitude":51.1320842,"Longitude":13.5962186},"BottomRight":{"Latitude":51.1298358,"Longitude":13.5998014}},"Address":{"Label":"Geschwister-Scholl-Platz 1, 01640 Coswig, Deutschland","Country":"DEU","State":"Sachsen","County":"Meißen","City":"Coswig","District":"Coswig","Street":"Geschwister-Scholl-Platz","HouseNumber":"1","PostalCode":"01640","AdditionalData":[{"value":"Deutschland","key":"CountryName"},{"value":"Sachsen","key":"StateName"},{"value":"Meißen","key":"CountyName"}]},"MapReference":{"ReferenceId":"64978295","Spot":1.0,"SideOfStreet":"left","CountryId":"20147700","StateId":"20191185","CountyId":"20192409","CityId":"20192414","DistrictId":"20192416","AddressId":"249733471","RoadLinkId":"40063002"}}},{"Relevance":1.0,"Distance":108.6,"MatchLevel":"houseNumber","MatchQuality":{"Country":1.0,"State":1.0,"County":1.0,"City":1.0,"District":1.0,"Street":[1.0],"HouseNumber":1.0,"PostalCode":1.0},"MatchType":"interpolated","Location":{"LocationId":"NT_JuuenL5vgXdImthl8ZiFhD_yAD","LocationType":"point","DisplayPosition":{"Latitude":51.13036,"Longitude":13.59691},"MapView":{"TopLeft":{"Latitude":51.1314842,"Longitude":13.5951187},"BottomRight":{"Latitude":51.1292358,"Longitude":13.5987013}},"Address":{"Label":"Steinstraße 20, 01640 Coswig, Deutschland","Country":"DEU","State":"Sachsen","County":"Meißen","City":"Coswig","District":"Coswig","Street":"Steinstraße","HouseNumber":"20","PostalCode":"01640","AdditionalData":[{"value":"Deutschland","key":"CountryName"},{"value":"Sachsen","key":"StateName"},{"value":"Meißen","key":"CountyName"}]},"MapReference":{"ReferenceId":"994039941","Spot":0.45,"SideOfStreet":"right","CountryId":"20147700","StateId":"20191185","CountyId":"20192409","CityId":"20192414","DistrictId":"20192416","AddressId":"190239995","RoadLinkId":"322564555"}}},{"Relevance":1.0,"Distance":109.5,"MatchLevel":"houseNumber","MatchQuality":{"Country":1.0,"State":1.0,"County":1.0,"City":1.0,"District":1.0,"Street":[1.0],"HouseNumber":1.0,"PostalCode":1.0},"MatchType":"interpolated","Location":{"LocationId":"NT_UBpltbOlaxJmBdADTWIz3A_yA","LocationType":"point","DisplayPosition":{"Latitude":51.13236,"Longitude":13.5964},"MapView":{"TopLeft":{"Latitude":51.1334842,"Longitude":13.5946086},"BottomRight":{"Latitude":51.1312358,"Longitude":13.5981914}},"Address":{"Label":"Bergstraße 2, 01640 Coswig, Deutschland","Country":"DEU","State":"Sachsen","County":"Meißen","City":"Coswig","District":"Coswig","Street":"Bergstraße","HouseNumber":"2","PostalCode":"01640","AdditionalData":[{"value":"Deutschland","key":"CountryName"},{"value":"Sachsen","key":"StateName"},{"value":"Meißen","key":"CountyName"}]},"MapReference":{"ReferenceId":"64964912","Spot":0.47,"SideOfStreet":"right","CountryId":"20147700","StateId":"20191185","CountyId":"20192409","CityId":"20192414","DistrictId":"20192416","AddressId":"190280918","RoadLinkId":"39725369"}}},{"Relevance":1.0,"Distance":118.2,"MatchLevel":"houseNumber","MatchQuality":{"Country":1.0,"State":1.0,"County":1.0,"City":1.0,"District":1.0,"Street":[1.0],"HouseNumber":1.0,"PostalCode":1.0},"MatchType":"interpolated","Location":{"LocationId":"NT_R62dMzfRCdJcLnX9Gta-yA_3A","LocationType":"point","DisplayPosition":{"Latitude":51.13221,"Longitude":13.59558},"MapView":{"TopLeft":{"Latitude":51.1333342,"Longitude":13.5937886},"BottomRight":{"Latitude":51.1310858,"Longitude":13.5973714}},"Address":{"Label":"Gartenstraße 7, 01640 Coswig, Deutschland","Country":"DEU","State":"Sachsen","County":"Meißen","City":"Coswig","District":"Coswig","Street":"Gartenstraße","HouseNumber":"7","PostalCode":"01640","AdditionalData":[{"value":"Deutschland","key":"CountryName"},{"value":"Sachsen","key":"StateName"},{"value":"Meißen","key":"CountyName"}]},"MapReference":{"ReferenceId":"64964910","Spot":0.07,"SideOfStreet":"left","CountryId":"20147700","StateId":"20191185","CountyId":"20192409","CityId":"20192414","DistrictId":"20192416","AddressId":"190338458","RoadLinkId":"39961009"}}},{"Relevance":1.0,"Distance":125.3,"MatchLevel":"street","MatchQuality":{"Country":1.0,"State":1.0,"County":1.0,"City":1.0,"District":1.0,"Street":[1.0],"PostalCode":1.0},"Location":{"LocationId":"NT_JuuenL5vgXdImthl8ZiFhD_l_994039940_L","LocationType":"point","DisplayPosition":{"Latitude":51.13016,"Longitude":13.59646},"MapView":{"TopLeft":{"Latitude":51.13016,"Longitude":13.59624},"BottomRight":{"Latitude":51.13005,"Longitude":13.59646}},"Address":{"Label":"Steinstraße, 01640 Coswig, Deutschland","Country":"DEU","State":"Sachsen","County":"Meißen","City":"Coswig","District":"Coswig","Street":"Steinstraße","PostalCode":"01640","AdditionalData":[{"value":"Deutschland","key":"CountryName"},{"value":"Sachsen","key":"StateName"},{"value":"Meißen","key":"CountyName"}]},"MapReference":{"ReferenceId":"994039940","Spot":1.0,"SideOfStreet":"left","CountryId":"20147700","StateId":"20191185","CountyId":"20192409","CityId":"20192414","DistrictId":"20192416"}}}]}]}}