{"Response":{"MetaInfo":{"Timestamp":"2020-03-28T10:25:15.517+0000","NextPageInformation":"2"},"View":[{"_type":"SearchResultsViewType","ViewId":0,"Result":[{"Relevance":1.0,"Distance":0.0,"Direction":0.0,"MatchLevel":"district","MatchQuality":{"Country":1.0,"State":1.0,"County":1.0,"City":1.0,"District":1.0,"PostalCode":1.0},"Location":{"LocationId":"NT_L6QRLXZ9bZpKSkqo6DkTfA","LocationType":"point","DisplayPosition":{"Latitude":51.1948365,"Longitude":11.9574839},"MapView":{"TopLeft":{"Latitude":51.22969,"Longitude":11.93192},"BottomRight":{"Latitude":51.17923,"Longitude":11.99831}},"Address":{"Label":"Weißenfels, Sachsen-Anhalt, Deutschland","Country":"DEU","State":"Sachsen-Anhalt","County":"Burgenlandkreis","City":"Weißenfels","District":"Weißenfels","PostalCode":"06667","AdditionalData":[{"value":"Deutschland","key":"CountryName"},{"value":"Sachsen-Anhalt","key":"StateName"},{"value":"Burgenlandkreis","key":"CountyName"}]},"MapReference":{"ReferenceId":"541261914","SideOfStreet":"neither","CountryId":"20147700","StateId":"20194537","CountyId":"20195315","CityId":"20195776","DistrictId":"20195778"}}},{"Relevance":1.0,"Distance":22.6,"MatchLevel":"street","MatchQuality":{"Country":1.0,"State":1.0,"County":1.0,"City":1.0,"District":1.0,"PostalCode":1.0},"Location":{"LocationId":"NT_5SrISciE93TizAT6ZVUNWA_l_544590428_R","LocationType":"point","DisplayPosition":{"Latitude":51.19504,"Longitude":11.9574839},"MapView":{"TopLeft":{"Latitude":51.19577,"Longitude":11.95694},"BottomRight":{"Latitude":51.19504,"Longitude":11.95968}},"Address":{"Label":"06667 Weißenfels, Deutschland","Country":"DEU","State":"Sachsen-Anhalt","County":"Burgenlandkreis","City":"Weißenfels","District":"Weißenfels","PostalCode":"06667","AdditionalData":[{"value":"Deutschland","key":"CountryName"},{"value":"Sachsen-Anhalt","key":"StateName"},{"value":"Burgenlandkreis","key":"CountyName"}]},"MapReference":{"ReferenceId":"544590428","Spot":0.2,"SideOfStreet":"right","CountryId":"20147700","StateId":"20194537","CountyId":"20195315","CityId":"20195776","DistrictId":"20195778"}}},{"Relevance":1.0,"Distance":24.7,"MatchLevel":"houseNumber","MatchQuality":{"Country":1.0,"State":1.0,"County":1.0,"City":1.0,"District":1.0,"Street":[1.0],"HouseNumber":1.0,"PostalCode":1.0},"MatchType":"interpolated","Location":{"LocationId":"NT_fAGniVPPsKjJZE3r54-EOC_3QD","LocationType":"point","DisplayPosition":{"Latitude":51.19515,"Longitude":11.9567},"MapView":{"TopLeft":{"Latitude":51.1962742,"Longitude":11.9549061},"BottomRight":{"Latitude":51.1940258,"Longitude":11.9584939}},"Address":{"Label":"Naumburger Straße 74, 06667 Weißenfels, Deutschland","Country":"DEU","State":"Sachsen-Anhalt","County":"Burgenlandkreis","City":"Weißenfels","District":"Weißenfels","Street":"Naumburger Straße","HouseNumber":"74","PostalCode":"06667","AdditionalData":[{"value":"Deutschland","key":"CountryName"},{"value":"Sachsen-Anhalt","key":"StateName"},{"value":"Burgenlandkreis","key":"CountyName"}]},"MapReference":{"ReferenceId":"541261794","Spot":0.54,"SideOfStreet":"right","CountryId":"20147700","StateId":"20194537","CountyId":"20195315","CityId":"20195776","DistrictId":"20195778","AddressId":"186204959","RoadLinkId":"37441877"}}},{"Relevance":1.0,"Distance":27.3,"MatchLevel":"street","MatchQuality":{"Country":1.0,"State":1.0,"County":1.0,"City":1.0,"District":1.0,"PostalCode":1.0},"Location":{"LocationId":"NT_5SrISciE93TizAT6ZVUNWA_l_541261800_R","LocationType":"point","DisplayPosition":{"Latitude":51.194592,"Longitude":11.9574494},"MapView":{"TopLeft":{"Latitude":51.19463,"Longitude":11.95718},"BottomRight":{"Latitude":51.19451,"Longitude":11.95803}},"Address":{"Label":"06667 Weißenfels, Deutschland","Country":"DEU","State":"Sachsen-Anhalt","County":"Burgenlandkreis","City":"Weißenfels","District":"Weißenfels","PostalCode":"06667","AdditionalData":[{"value":"Deutschland","key":"CountryName"},{"value":"Sachsen-Anhalt","key":"StateName"},{"value":"Burgenlandkreis","key":"CountyName"}]},"MapReference":{"ReferenceId":"541261800","Spot":0.68,"SideOfStreet":"right","CountryId":"20147700","StateId":"20194537","CountyId":"20195315","CityId":"20195776","DistrictId":"20195778"}}},{"Relevance":1.0,"Distance":31.2,"MatchLevel":"street","MatchQuality":{"Country":1.0,"State":1.0,"County":1.0,"City":1.0,"District":1.0,"PostalCode":1.0},"Location":{"LocationId":"NT_5SrISciE93TizAT6ZVUNWA_l_541261784_R","LocationType":"point","DisplayPosition":{"Latitude":51.19463,"Longitude":11.95718},"MapView":{"TopLeft":{"Latitude":51.19468,"Longitude":11.95688},"BottomRight":{"Latitude":51.19463,"Longitude":11.95718}},"Address":{"Label":"06667 Weißenfels, Deutschland","Country":"DEU","State":"Sachsen-Anhalt","County":"Burgenlandkreis","City":"Weißenfels","District":"Weißenfels","PostalCode":"06667","AdditionalData":[{"value":"Deutschland","key":"CountryName"},{"value":"Sachsen-Anhalt","key":"StateName"},{"value":"Burgenlandkreis","key":"CountyName"}]},"MapReference":{"ReferenceId":"541261784","Spot":0.0,"SideOfStreet":"right","CountryId":"20147700","StateId":"20194537","CountyId":"20195315","CityId":"20195776","DistrictId":"20195778"}}},{"Relevance":1.0,"Distance":45.5,"MatchLevel":"street","MatchQuality":{"Country":1.0,"State":1.0,"County":1.0,"City":1.0,"District":1.0,"Street":[1.0],"PostalCode":1.0},"Location":{"LocationId":"NT_fAGniVPPsKjJZE3r54-EOC_l_541261793_R","LocationType":"point","DisplayPosition":{"Latitude":51.19468,"Longitude":11.95688},"MapView":{"TopLeft":{"Latitude":51.19504,"Longitude":11.95641},"BottomRight":{"Latitude":51.19468,"Longitude":11.95688}},"Address":{"Label":"Naumburger Straße, 06667 Weißenfels, Deutschland","Country":"DEU","State":"Sachsen-Anhalt","County":"Burgenlandkreis","City":"Weißenfels","District":"Weißenfels","Street":"Naumburger Straße","PostalCode":"06667","AdditionalData":[{"value":"Deutschland","key":"CountryName"},{"value":"Sachsen-Anhalt","key":"StateName"},{"value":"Burgenlandkreis","key":"CountyName"}]},"MapReference":{"ReferenceId":"541261793","Spot":0.0,"SideOfStreet":"right","CountryId":"20147700","StateId":"20194537","CountyId":"20195315","CityId":"20195776","DistrictId":"20195778"}}},{"Relevance":1.0,"Distance":45.5,"MatchLevel":"street","MatchQuality":{"Country":1.0,"State":1.0,"County":1.0,"City":1.0,"District":1.0,"Street":[1.0],"PostalCode":1.0},"Location":{"LocationId":"NT_fAGniVPPsKjJZE3r54-EOC_l_541261791_R","LocationType":"point","DisplayPosition":{"Latitude":51.19468,"Longitude":11.95688},"MapView":{"TopLeft":{"Latitude":51.19468,"Longitude":11.95685},"BottomRight":{"Latitude":51.19441,"Longitude":11.95688}},"Address":{"Label":"Naumburger Straße, 06667 Weißenfels, Deutschland","Country":"DEU","State":"Sachsen-Anhalt","County":"Burgenlandkreis","City":"Weißenfels","District":"Weißenfels","Street":"Naumburger Straße","PostalCode":"06667","AdditionalData":[{"value":"Deutschland","key":"CountryName"},{"value":"Sachsen-Anhalt","key":"StateName"},{"value":"Burgenlandkreis","key":"CountyName"}]},"MapReference":{"ReferenceId":"541261791","Spot":1.0,"SideOfStreet":"right","CountryId":"20147700","StateId":"20194537","CountyId":"20195315","CityId":"20195776","DistrictId":"20195778"}}},{"Relevance":1.0,"Distance":52.6,"MatchLevel":"street","MatchQuality":{"Country":1.0,"State":1.0,"County":1.0,"City":1.0,"District":1.0,"PostalCode":1.0},"Location":{"LocationId":"NT_5SrISciE93TizAT6ZVUNWA_l_541261801_R","LocationType":"point","DisplayPosition":{"Latitude":51.19451,"Longitude":11.95803},"MapView":{"TopLeft":{"Latitude":51.19451,"Longitude":11.95803},"BottomRight":{"Latitude":51.19441,"Longitude":11.95856}},"Address":{"Label":"06667 Weißenfels, Deutschland","Country":"DEU","State":"Sachsen-Anhalt","County":"Burgenlandkreis","City":"Weißenfels","District":"Weißenfels","PostalCode":"06667","AdditionalData":[{"value":"Deutschland","key":"CountryName"},{"value":"Sachsen-Anhalt","key":"StateName"},{"value":"Burgenlandkreis","key":"CountyName"}]},"MapReference":{"ReferenceId":"541261801","Spot":1.0,"SideOfStreet":"right","CountryId":"20147700","StateId":"20194537","CountyId":"20195315","CityId":"20195776","DistrictId":"20195778"}}},{"Relevance":1.0,"Distance":52.6,"MatchLevel":"street","MatchQuality":{"Country":1.0,"State":1.0,"County":1.0,"City":1.0,"District":1.0,"PostalCode":1.0},"Location":{"LocationId":"NT_5SrISciE93TizAT6ZVUNWA_l_541261786_L","LocationType":"point","DisplayPosition":{"Latitude":51.19451,"Longitude":11.95803},"MapView":{"TopLeft":{"Latitude":51.19451,"Longitude":11.95803},"BottomRight":{"Latitude":51.19419,"Longitude":11.95826}},"Address":{"Label":"06667 Weißenfels, Deutschland","Country":"DEU","State":"Sachsen-Anhalt","County":"Burgenlandkreis","City":"Weißenfels","District":"Weißenfels","PostalCode":"06667","AdditionalData":[{"value":"Deutschland","key":"CountryName"},{"value":"Sachsen-Anhalt","key":"StateName"},{"value":"Burgenlandkreis","key":"CountyName"}]},"MapReference":{"ReferenceId":"541261786","Spot":1.0,"SideOfStreet":"left","CountryId":"20147700","StateId":"20194537","CountyId":"20195315","CityId":"20195776","DistrictId":"20195778"}}},{"Relevance":1.0,"Distance":59.8,"MatchLevel":"houseNumber","MatchQuality":{"Country":1.0,"State":1.0,"County":1.0,"City":1.0,"District":1.0,"Street":[1.0],"HouseNumber":1.0,"PostalCode":1.0},"MatchType":"interpolated","Location":{"LocationId":"NT_fAGniVPPsKjJZE3r54-EOC_2YD","LocationType":"point","DisplayPosition":{"Latitude":51.19545,"Longitude":11.95727},"MapView":{"TopLeft":{"Latitude":51.1965742,"Longitude":11.9554761},"BottomRight":{"Latitude":51.1943258,"Longitude":11.9590639}},"Address":{"Label":"Naumburger Straße 66, 06667 Weißenfels, Deutschland","Country":"DEU","State":"Sachsen-Anhalt","County":"Burgenlandkreis","City":"Weißenfels","District":"Weißenfels","Street":"Naumburger Straße","HouseNumber":"66","PostalCode":"06667","AdditionalData":[{"value":"Deutschland","key":"CountryName"},{"value":"Sachsen-Anhalt","key":"StateName"},{"value":"Burgenlandkreis","key":"CountyName"}]},"MapReference":{"ReferenceId":"541261799","Spot":0.91,"SideOfStreet":"right","CountryId":"20147700","StateId":"20194537","CountyId":"20195315","CityId":"20195776","DistrictId":"20195778","AddressId":"185743616","RoadLinkId":"37384071"}}}]}]}}