{"Response":{"MetaInfo":{"Timestamp":"2020-03-28T09:35:49.465+0000","NextPageInformation":"2"},"View":[{"_type":"SearchResultsViewType","ViewId":0,"Result":[{"Relevance":1.0,"Distance":0.0,"Direction":0.0,"MatchLevel":"district","MatchQuality":{"Country":1.0,"State":1.0,"County":1.0,"City":1.0,"District":1.0,"PostalCode":1.0},"Location":{"LocationId":"NT_mtSkPnZOUYv50UIjnSTyMC","LocationType":"point","DisplayPosition":{"Latitude":51.1575602,"Longitude":6.4202167},"MapView":{"TopLeft":{"Latitude":51.16004,"Longitude":6.40848},"BottomRight":{"Latitude":51.14869,"Longitude":6.42902}},"Address":{"Label":"Hockstein, Mönchengladbach, Nordrhein-Westfalen, Deutschland","Country":"DEU","State":"Nordrhein-Westfalen","County":"Mönchengladbach","City":"Mönchengladbach","District":"Hockstein","PostalCode":"41239","AdditionalData":[{"value":"Deutschland","key":"CountryName"},{"value":"Nordrhein-Westfalen","key":"StateName"},{"value":"Mönchengladbach","key":"CountyName"}]},"MapReference":{"ReferenceId":"764725809","SideOfStreet":"neither","CountryId":"20147700","StateId":"20157369","CountyId":"20157440","CityId":"20157441","DistrictId":"27006615"}}},{"Relevance":1.0,"Distance":19.0,"MatchLevel":"street","MatchQuality":{"Country":1.0,"State":1.0,"County":1.0,"City":1.0,"District":1.0,"Street":[1.0],"PostalCode":1.0},"Location":{"LocationId":"NT_t6vwZVbodWqMbiC0Is9XMC_l_572296624_R","LocationType":"point","DisplayPosition":{"Latitude":51.15773,"Longitude":6.42019},"MapView":{"TopLeft":{"Latitude":51.15773,"Longitude":6.41941},"BottomRight":{"Latitude":51.15761,"Longitude":6.42019}},"Address":{"Label":"Hubertusstraße, 41239 Mönchengladbach, Deutschland","Country":"DEU","State":"Nordrhein-Westfalen","County":"Mönchengladbach","City":"Mönchengladbach","District":"Hockstein","Street":"Hubertusstraße","PostalCode":"41239","AdditionalData":[{"value":"Deutschland","key":"CountryName"},{"value":"Nordrhein-Westfalen","key":"StateName"},{"value":"Mönchengladbach","key":"CountyName"}]},"MapReference":{"ReferenceId":"572296624","Spot":1.0,"SideOfStreet":"right","CountryId":"20147700","StateId":"20157369","CountyId":"20157440","CityId":"20157441","DistrictId":"27006615"}}},{"Relevance":1.0,"Distance":19.0,"MatchLevel":"street","MatchQuality":{"Country":1.0,"State":1.0,"County":1.0,"City":1.0,"District":1.0,"Street":[1.0],"PostalCode":1.0},"Location":{"LocationId":"NT_t6vwZVbodWqMbiC0Is9XMC_l_50903166_R","LocationType":"point","DisplayPosition":{"Latitude":51.15773,"Longitude":6.42019},"MapView":{"TopLeft":{"Latitude":51.15822,"Longitude":6.42019},"BottomRight":{"Latitude":51.15773,"Longitude":6.42081}},"Address":{"Label":"Hubertusstraße, 41239 Mönchengladbach, Deutschland","Country":"DEU","State":"Nordrhein-Westfalen","County":"Mönchengladbach","City":"Mönchengladbach","District":"Hockstein","Street":"Hubertusstraße","PostalCode":"41239","AdditionalData":[{"value":"Deutschland","key":"CountryName"},{"value":"Nordrhein-Westfalen","key":"StateName"},{"value":"Mönchengladbach","key":"CountyName"}]},"MapReference":{"ReferenceId":"50903166","Spot":0.0,"SideOfStreet":"right","CountryId":"20147700","StateId":"20157369","CountyId":"20157440","CityId":"20157441","DistrictId":"27006615"}}},{"Relevance":1.0,"Distance":56.5,"MatchLevel":"street","MatchQuality":{"Country":1.0,"State":1.0,"County":1.0,"City":1.0,"District":1.0,"Street":[1.0],"PostalCode":1.0},"Location":{"LocationId":"NT_t6vwZVbodWqMbiC0Is9XMC_l_572296625_R","LocationType":"point","DisplayPosition":{"Latitude":51.15761,"Longitude":6.41941},"MapView":{"TopLeft":{"Latitude":51.15775,"Longitude":6.41935},"BottomRight":{"Latitude":51.15761,"Longitude":6.41941}},"Address":{"Label":"Hubertusstraße, 41239 Mönchengladbach, Deutschland","Country":"DEU","State":"Nordrhein-Westfalen","County":"Mönchengladbach","City":"Mönchengladbach","District":"Hockstein","Street":"Hubertusstraße","PostalCode":"41239","AdditionalData":[{"value":"Deutschland","key":"CountryName"},{"value":"Nordrhein-Westfalen","key":"StateName"},{"value":"Mönchengladbach","key":"CountyName"}]},"MapReference":{"ReferenceId":"572296625","Spot":0.0,"SideOfStreet":"right","CountryId":"20147700","StateId":"20157369","CountyId":"20157440","CityId":"20157441","DistrictId":"27006615"}}},{"Relevance":1.0,"Distance":56.5,"MatchLevel":"street","MatchQuality":{"Country":1.0,"State":1.0,"County":1.0,"City":1.0,"District":1.0,"Street":[1.0],"PostalCode":1.0},"Location":{"LocationId":"NT_t6vwZVbodWqMbiC0Is9XMC_l_572296623_L","LocationType":"point","DisplayPosition":{"Latitude":51.15761,"Longitude":6.41941},"MapView":{"TopLeft":{"Latitude":51.15766,"Longitude":6.41685},"BottomRight":{"Latitude":51.15727,"Longitude":6.41941}},"Address":{"Label":"Hubertusstraße, 41239 Mönchengladbach, Deutschland","Country":"DEU","State":"Nordrhein-Westfalen","County":"Mönchengladbach","City":"Mönchengladbach","District":"Hockstein","Street":"Hubertusstraße","PostalCode":"41239","AdditionalData":[{"value":"Deutschland","key":"CountryName"},{"value":"Nordrhein-Westfalen","key":"StateName"},{"value":"Mönchengladbach","key":"CountyName"}]},"MapReference":{"ReferenceId":"572296623","Spot":0.0,"SideOfStreet":"left","CountryId":"20147700","StateId":"20157369","CountyId":"20157440","CityId":"20157441","DistrictId":"27006615"}}},{"Relevance":1.0,"Distance":58.0,"MatchLevel":"street","MatchQuality":{"Country":1.0,"State":1.0,"County":1.0,"City":1.0,"District":1.0,"PostalCode":1.0},"Location":{"LocationId":"NT_tqmjT2R6WzOYT6QzMFZAzA_l_1048282034_L","LocationType":"point","DisplayPosition":{"Latitude":51.1570669,"Longitude":6.420488},"MapView":{"TopLeft":{"Latitude":51.15776,"Longitude":6.41888},"BottomRight":{"Latitude":51.15636,"Longitude":6.42213}},"Address":{"Label":"41239 Mönchengladbach, Deutschland","Country":"DEU","State":"Nordrhein-Westfalen","County":"Mönchengladbach","City":"Mönchengladbach","District":"Hockstein","PostalCode":"41239","AdditionalData":[{"value":"Deutschland","key":"CountryName"},{"value":"Nordrhein-Westfalen","key":"StateName"},{"value":"Mönchengladbach","key":"CountyName"}]},"MapReference":{"ReferenceId":"1048282034","Spot":0.5,"SideOfStreet":"left","CountryId":"20147700","StateId":"20157369","CountyId":"20157440","CityId":"20157441","DistrictId":"27006615"}}},{"Relevance":1.0,"Distance":61.4,"MatchLevel":"houseNumber","MatchQuality":{"Country":1.0,"State":1.0,"County":1.0,"City":1.0,"District":1.0,"Street":[1.0],"HouseNumber":1.0,"PostalCode":1.0},"MatchType":"interpolated","Location":{"LocationId":"NT_t6vwZVbodWqMbiC0Is9XMC_xADM","LocationType":"point","DisplayPosition":{"Latitude":51.1581,"Longitude":6.42003},"MapView":{"TopLeft":{"Latitude":51.1592242,"Longitude":6.4182376},"BottomRight":{"Latitude":51.1569758,"Longitude":6.4218224}},"Address":{"Label":"Hubertusstraße 100, 41239 Mönchengladbach, Deutschland","Country":"DEU","State":"Nordrhein-Westfalen","County":"Mönchengladbach","City":"Mönchengladbach","District":"Hockstein","Street":"Hubertusstraße","HouseNumber":"100","PostalCode":"41239","AdditionalData":[{"value":"Deutschland","key":"CountryName"},{"value":"Nordrhein-Westfalen","key":"StateName"},{"value":"Mönchengladbach","key":"CountyName"}]},"MapReference":{"ReferenceId":"50903165","Spot":0.47,"SideOfStreet":"left","CountryId":"20147700","StateId":"20157369","CountyId":"20157440","CityId":"20157441","DistrictId":"27006615","AddressId":"196542347","RoadLinkId":"39161472"}}},{"Relevance":1.0,"Distance":79.7,"MatchLevel":"houseNumber","MatchQuality":{"Country":1.0,"State":1.0,"County":1.0,"City":1.0,"District":1.0,"Street":[1.0],"HouseNumber":1.0,"PostalCode":1.0},"MatchType":"interpolated","Location":{"LocationId":"NT_iArERti0ZTPpO2SmP8kqlD_xME","LocationType":"point","DisplayPosition":{"Latitude":51.15702,"Longitude":6.4212},"MapView":{"TopLeft":{"Latitude":51.1581442,"Longitude":6.4194076},"BottomRight":{"Latitude":51.1558958,"Longitude":6.4229924}},"Address":{"Label":"Hirschweg 1C, 41239 Mönchengladbach, Deutschland","Country":"DEU","State":"Nordrhein-Westfalen","County":"Mönchengladbach","City":"Mönchengladbach","District":"Hockstein","Street":"Hirschweg","HouseNumber":"1C","PostalCode":"41239","AdditionalData":[{"value":"Deutschland","key":"CountryName"},{"value":"Nordrhein-Westfalen","key":"StateName"},{"value":"Mönchengladbach","key":"CountyName"}]},"MapReference":{"ReferenceId":"50903172","Spot":0.0,"SideOfStreet":"left","CountryId":"20147700","StateId":"20157369","CountyId":"20157440","CityId":"20157441","DistrictId":"27006615","AddressId":"209667932","RoadLinkId":"39382090"}}},{"Relevance":1.0,"Distance":80.0,"MatchLevel":"street","MatchQuality":{"Country":1.0,"State":1.0,"County":1.0,"City":1.0,"District":1.0,"Street":[1.0],"PostalCode":1.0},"Location":{"LocationId":"NT_t6vwZVbodWqMbiC0Is9XMC_l_50903160_L","LocationType":"point","DisplayPosition":{"Latitude":51.1582439,"Longitude":6.4205754},"MapView":{"TopLeft":{"Latitude":51.15853,"Longitude":6.41984},"BottomRight":{"Latitude":51.15821,"Longitude":6.42079}},"Address":{"Label":"Hubertusstraße, 41239 Mönchengladbach, Deutschland","Country":"DEU","State":"Nordrhein-Westfalen","County":"Mönchengladbach","City":"Mönchengladbach","District":"Hockstein","Street":"Hubertusstraße","PostalCode":"41239","AdditionalData":[{"value":"Deutschland","key":"CountryName"},{"value":"Nordrhein-Westfalen","key":"StateName"},{"value":"Mönchengladbach","key":"CountyName"}]},"MapReference":{"ReferenceId":"50903160","Spot":0.22,"SideOfStreet":"left","CountryId":"20147700","StateId":"20157369","CountyId":"20157440","CityId":"20157441","DistrictId":"27006615"}}},{"Relevance":1.0,"Distance":83.6,"MatchLevel":"street","MatchQuality":{"Country":1.0,"State":1.0,"County":1.0,"City":1.0,"District":1.0,"Street":[1.0],"PostalCode":1.0},"Location":{"LocationId":"NT_t6vwZVbodWqMbiC0Is9XMC_l_50903159_R","LocationType":"point","DisplayPosition":{"Latitude":51.15822,"Longitude":6.42079},"MapView":{"TopLeft":{"Latitude":51.15848,"Longitude":6.42079},"BottomRight":{"Latitude":51.15822,"Longitude":6.4214}},"Address":{"Label":"Hubertusstraße, 41239 Mönchengladbach, Deutschland","Country":"DEU","State":"Nordrhein-Westfalen","County":"Mönchengladbach","City":"Mönchengladbach","District":"Hockstein","Street":"Hubertusstraße","PostalCode":"41239","AdditionalData":[{"value":"Deutschland","key":"CountryName"},{"value":"Nordrhein-Westfalen","key":"StateName"},{"value":"Mönchengladbach","key":"CountyName"}]},"MapReference":{"ReferenceId":"50903159","Spot":0.0,"SideOfStreet":"right","CountryId":"20147700","StateId":"20157369","CountyId":"20157440","CityId":"20157441","DistrictId":"27006615"}}}]}]}}