{"Response":{"MetaInfo":{"Timestamp":"2020-03-28T11:30:55.201+0000","NextPageInformation":"2"},"View":[{"_type":"SearchResultsViewType","ViewId":0,"Result":[{"Relevance":1.0,"Distance":0.0,"Direction":0.0,"MatchLevel":"district","MatchQuality":{"Country":1.0,"State":1.0,"County":1.0,"City":1.0,"District":1.0,"PostalCode":1.0},"Location":{"LocationId":"NT_8PAy8z6bR0E8UewpIWbluC","LocationType":"point","DisplayPosition":{"Latitude":51.2259467,"Longitude":20.8629514},"MapView":{"TopLeft":{"Latitude":51.24998,"Longitude":20.80938},"BottomRight":{"Latitude":51.20251,"Longitude":20.88326}},"Address":{"Label":"Szydłowiec, Woj. Mazowieckie, Polska","Country":"POL","State":"Woj. Mazowieckie","County":"Powiat Szydłowiecki","City":"Szydłowiec","District":"Szydłowiec","PostalCode":"26-500","AdditionalData":[{"value":"Polska","key":"CountryName"},{"value":"Woj. Mazowieckie","key":"StateName"},{"value":"Powiat Szydłowiecki","key":"CountyName"}]},"MapReference":{"ReferenceId":"958242402","SideOfStreet":"neither","CountryId":"20624059","StateId":"20627182","CountyId":"20627756","CityId":"20627767","DistrictId":"20689533"}}},{"Relevance":1.0,"Distance":10.4,"MatchLevel":"houseNumber","MatchQuality":{"Country":1.0,"State":1.0,"County":1.0,"City":1.0,"District":1.0,"Street":[1.0],"HouseNumber":1.0,"PostalCode":1.0},"MatchType":"interpolated","Location":{"LocationId":"NT_SScVQ-tpfN-eVfedzYYREA_yMD","LocationType":"point","DisplayPosition":{"Latitude":51.22594,"Longitude":20.86335},"MapView":{"TopLeft":{"Latitude":51.2270642,"Longitude":20.8615549},"BottomRight":{"Latitude":51.2248158,"Longitude":20.8651451}},"Address":{"Label":"ulica Wschodnia 23, 26-500 Szydłowiec, Polska","Country":"POL","State":"Woj. Mazowieckie","County":"Powiat Szydłowiecki","City":"Szydłowiec","District":"Szydłowiec","Street":"ulica Wschodnia","HouseNumber":"23","PostalCode":"26-500","AdditionalData":[{"value":"Polska","key":"CountryName"},{"value":"Woj. Mazowieckie","key":"StateName"},{"value":"Powiat Szydłowiecki","key":"CountyName"}]},"MapReference":{"ReferenceId":"778809597","Spot":0.58,"SideOfStreet":"left","CountryId":"20624059","StateId":"20627182","CountyId":"20627756","CityId":"20627767","DistrictId":"20689533","AddressId":"689323277","RoadLinkId":"172293332"}}},{"Relevance":1.0,"Distance":102.6,"MatchLevel":"houseNumber","MatchQuality":{"Country":1.0,"State":1.0,"County":1.0,"City":1.0,"District":1.0,"Street":[1.0],"HouseNumber":1.0,"PostalCode":1.0},"MatchType":"interpolated","Location":{"LocationId":"NT_g57C-hB6PsE4clxwYCBZZA_xgDOBB","LocationType":"point","DisplayPosition":{"Latitude":51.22537,"Longitude":20.86069},"MapView":{"TopLeft":{"Latitude":51.2264942,"Longitude":20.858895},"BottomRight":{"Latitude":51.2242458,"Longitude":20.862485}},"Address":{"Label":"ulica Tadeusza Kościuszki 188A, 26-500 Szydłowiec, Polska","Country":"POL","State":"Woj. Mazowieckie","County":"Powiat Szydłowiecki","City":"Szydłowiec","District":"Szydłowiec","Street":"ulica Tadeusza Kościuszki","HouseNumber":"188A","PostalCode":"26-500","AdditionalData":[{"value":"Polska","key":"CountryName"},{"value":"Woj. Mazowieckie","key":"StateName"},{"value":"Powiat Szydłowiecki","key":"CountyName"}]},"MapReference":{"ReferenceId":"958244883","Spot":0.43,"SideOfStreet":"right","CountryId":"20624059","StateId":"20627182","CountyId":"20627756","CityId":"20627767","DistrictId":"20689533","AddressId":"741693672","RoadLinkId":"361760104"}}},{"Relevance":1.0,"Distance":104.4,"MatchLevel":"houseNumber","MatchQuality":{"Country":1.0,"State":1.0,"County":1.0,"City":1.0,"District":1.0,"Street":[1.0],"HouseNumber":1.0,"PostalCode":1.0},"MatchType":"interpolated","Location":{"LocationId":"NT_dzPQHsXzyQtPeuE69c5TIA_yIE","LocationType":"point","DisplayPosition":{"Latitude":51.22701,"Longitude":20.86246},"MapView":{"TopLeft":{"Latitude":51.2281342,"Longitude":20.8606649},"BottomRight":{"Latitude":51.2258858,"Longitude":20.8642551}},"Address":{"Label":"ulica Spółdzielcza 2B, 26-500 Szydłowiec, Polska","Country":"POL","State":"Woj. Mazowieckie","County":"Powiat Szydłowiecki","City":"Szydłowiec","District":"Szydłowiec","Street":"ulica Spółdzielcza","HouseNumber":"2B","PostalCode":"26-500","AdditionalData":[{"value":"Polska","key":"CountryName"},{"value":"Woj. Mazowieckie","key":"StateName"},{"value":"Powiat Szydłowiecki","key":"CountyName"}]},"MapReference":{"ReferenceId":"1269645872","Spot":0.59,"SideOfStreet":"right","CountryId":"20624059","StateId":"20627182","CountyId":"20627756","CityId":"20627767","DistrictId":"20689533","AddressId":"688953265","RoadLinkId":"596941547"}}},{"Relevance":1.0,"Distance":113.1,"MatchLevel":"houseNumber","MatchQuality":{"Country":1.0,"State":1.0,"County":1.0,"City":1.0,"District":1.0,"Street":[1.0],"HouseNumber":1.0,"PostalCode":1.0},"MatchType":"interpolated","Location":{"LocationId":"NT_g57C-hB6PsE4clxwYCBZZA_xkjN","LocationType":"point","DisplayPosition":{"Latitude":51.22604,"Longitude":20.86083},"MapView":{"TopLeft":{"Latitude":51.2271642,"Longitude":20.8590349},"BottomRight":{"Latitude":51.2249158,"Longitude":20.8626251}},"Address":{"Label":"ulica Tadeusza Kościuszki 196, 26-500 Szydłowiec, Polska","Country":"POL","State":"Woj. Mazowieckie","County":"Powiat Szydłowiecki","City":"Szydłowiec","District":"Szydłowiec","Street":"ulica Tadeusza Kościuszki","HouseNumber":"196","PostalCode":"26-500","AdditionalData":[{"value":"Polska","key":"CountryName"},{"value":"Woj. Mazowieckie","key":"StateName"},{"value":"Powiat Szydłowiecki","key":"CountyName"}]},"MapReference":{"ReferenceId":"958244885","Spot":0.52,"SideOfStreet":"right","CountryId":"20624059","StateId":"20627182","CountyId":"20627756","CityId":"20627767","DistrictId":"20689533","AddressId":"689166845","RoadLinkId":"361760099"}}},{"Relevance":1.0,"Distance":114.5,"MatchLevel":"houseNumber","MatchQuality":{"Country":1.0,"State":1.0,"County":1.0,"City":1.0,"District":1.0,"Street":[1.0],"HouseNumber":1.0,"PostalCode":1.0},"MatchType":"interpolated","Location":{"LocationId":"NT_g57C-hB6PsE4clxwYCBZZA_xkDO","LocationType":"point","DisplayPosition":{"Latitude":51.22631,"Longitude":20.86089},"MapView":{"TopLeft":{"Latitude":51.2274342,"Longitude":20.8590949},"BottomRight":{"Latitude":51.2251858,"Longitude":20.8626851}},"Address":{"Label":"ulica Tadeusza Kościuszki 198, 26-500 Szydłowiec, Polska","Country":"POL","State":"Woj. Mazowieckie","County":"Powiat Szydłowiecki","City":"Szydłowiec","District":"Szydłowiec","Street":"ulica Tadeusza Kościuszki","HouseNumber":"198","PostalCode":"26-500","AdditionalData":[{"value":"Polska","key":"CountryName"},{"value":"Woj. Mazowieckie","key":"StateName"},{"value":"Powiat Szydłowiecki","key":"CountyName"}]},"MapReference":{"ReferenceId":"958245765","Spot":0.28,"SideOfStreet":"right","CountryId":"20624059","StateId":"20627182","CountyId":"20627756","CityId":"20627767","DistrictId":"20689533","AddressId":"689253149","RoadLinkId":"361760109"}}},{"Relevance":1.0,"Distance":118.9,"MatchLevel":"houseNumber","MatchQuality":{"Country":1.0,"State":1.0,"County":1.0,"City":1.0,"District":1.0,"Street":[1.0],"HouseNumber":1.0,"PostalCode":1.0},"MatchType":"interpolated","Location":{"LocationId":"NT_g57C-hB6PsE4clxwYCBZZA_xkDN","LocationType":"point","DisplayPosition":{"Latitude":51.22577,"Longitude":20.86078},"MapView":{"TopLeft":{"Latitude":51.2268942,"Longitude":20.858985},"BottomRight":{"Latitude":51.2246458,"Longitude":20.862575}},"Address":{"Label":"ulica Tadeusza Kościuszki 194, 26-500 Szydłowiec, Polska","Country":"POL","State":"Woj. Mazowieckie","County":"Powiat Szydłowiecki","City":"Szydłowiec","District":"Szydłowiec","Street":"ulica Tadeusza Kościuszki","HouseNumber":"194","PostalCode":"26-500","AdditionalData":[{"value":"Polska","key":"CountryName"},{"value":"Woj. Mazowieckie","key":"StateName"},{"value":"Powiat Szydłowiecki","key":"CountyName"}]},"MapReference":{"ReferenceId":"958244884","Spot":0.43,"SideOfStreet":"right","CountryId":"20624059","StateId":"20627182","CountyId":"20627756","CityId":"20627767","DistrictId":"20689533","AddressId":"689209430","RoadLinkId":"361760106"}}},{"Relevance":1.0,"Distance":125.4,"MatchLevel":"street","MatchQuality":{"Country":1.0,"State":1.0,"County":1.0,"City":1.0,"District":1.0,"Street":[1.0],"PostalCode":1.0},"Location":{"LocationId":"NT_SScVQ-tpfN-eVfedzYYREA_l_778800265_L","LocationType":"point","DisplayPosition":{"Latitude":51.22706,"Longitude":20.86324},"MapView":{"TopLeft":{"Latitude":51.22729,"Longitude":20.8632},"BottomRight":{"Latitude":51.22706,"Longitude":20.86324}},"Address":{"Label":"ulica Wschodnia, 26-500 Szydłowiec, Polska","Country":"POL","State":"Woj. Mazowieckie","County":"Powiat Szydłowiecki","City":"Szydłowiec","District":"Szydłowiec","Street":"ulica Wschodnia","PostalCode":"26-500","AdditionalData":[{"value":"Polska","key":"CountryName"},{"value":"Woj. Mazowieckie","key":"StateName"},{"value":"Powiat Szydłowiecki","key":"CountyName"}]},"MapReference":{"ReferenceId":"778800265","Spot":0.0,"SideOfStreet":"left","CountryId":"20624059","StateId":"20627182","CountyId":"20627756","CityId":"20627767","DistrictId":"20689533"}}},{"Relevance":1.0,"Distance":150.9,"MatchLevel":"street","MatchQuality":{"Country":1.0,"State":1.0,"County":1.0,"City":1.0,"District":1.0,"PostalCode":1.0},"Location":{"LocationId":"NT_4SHX5C2PQngUxhnsmlOATD_l_778800267_L","LocationType":"point","DisplayPosition":{"Latitude":51.2272999,"Longitude":20.8631206},"MapView":{"TopLeft":{"Latitude":51.22732,"Longitude":20.86296},"BottomRight":{"Latitude":51.22729,"Longitude":20.8632}},"Address":{"Label":"26-500 Szydłowiec, Polska","Country":"POL","State":"Woj. Mazowieckie","County":"Powiat Szydłowiecki","City":"Szydłowiec","District":"Szydłowiec","PostalCode":"26-500","AdditionalData":[{"value":"Polska","key":"CountryName"},{"value":"Woj. Mazowieckie","key":"StateName"},{"value":"Powiat Szydłowiecki","key":"CountyName"}]},"MapReference":{"ReferenceId":"778800267","Spot":0.33,"SideOfStreet":"left","CountryId":"20624059","StateId":"20627182","CountyId":"20627756","CityId":"20627767","DistrictId":"20689533"}}},{"Relevance":1.0,"Distance":152.7,"MatchLevel":"street","MatchQuality":{"Country":1.0,"State":1.0,"County":1.0,"City":1.0,"District":1.0,"PostalCode":1.0},"Location":{"LocationId":"NT_4SHX5C2PQngUxhnsmlOATD_l_778800269_L","LocationType":"point","DisplayPosition":{"Latitude":51.22732,"Longitude":20.86296},"MapView":{"TopLeft":{"Latitude":51.22779,"Longitude":20.86289},"BottomRight":{"Latitude":51.22732,"Longitude":20.86296}},"Address":{"Label":"26-500 Szydłowiec, Polska","Country":"POL","State":"Woj. Mazowieckie","County":"Powiat Szydłowiecki","City":"Szydłowiec","District":"Szydłowiec","PostalCode":"26-500","AdditionalData":[{"value":"Polska","key":"CountryName"},{"value":"Woj. Mazowieckie","key":"StateName"},{"value":"Powiat Szydłowiecki","key":"CountyName"}]},"MapReference":{"ReferenceId":"778800269","Spot":0.0,"SideOfStreet":"left","CountryId":"20624059","StateId":"20627182","CountyId":"20627756","CityId":"20627767","DistrictId":"20689533"}}}]}]}}