{"Response":{"MetaInfo":{"Timestamp":"2020-03-28T10:41:22.695+0000","NextPageInformation":"2"},"View":[{"_type":"SearchResultsViewType","ViewId":0,"Result":[{"Relevance":1.0,"Distance":0.0,"Direction":0.0,"MatchLevel":"district","MatchQuality":{"Country":1.0,"State":1.0,"County":1.0,"City":1.0,"District":1.0,"PostalCode":1.0},"Location":{"LocationId":"NT_Vro.elwcsBbibCG7DWNz6D","LocationType":"point","DisplayPosition":{"Latitude":51.227286,"Longitude":-2.8148329},"MapView":{"TopLeft":{"Latitude":51.23053,"Longitude":-2.82406},"BottomRight":{"Latitude":51.22151,"Longitude":-2.79741}},"Address":{"Label":"Wedmore, England, United Kingdom","Country":"GBR","State":"England","County":"Somerset","City":"Wedmore","District":"Wedmore","PostalCode":"BS28 4","AdditionalData":[{"value":"United Kingdom","key":"CountryName"},{"value":"England","key":"StateName"},{"value":"Somerset","key":"CountyName"}]},"MapReference":{"ReferenceId":"26695387","SideOfStreet":"neither","StateId":"20248595","CountyId":"20357053","CityId":"20357604","DistrictId":"20357605"}}},{"Relevance":1.0,"Distance":18.9,"MatchLevel":"houseNumber","MatchQuality":{"Country":1.0,"State":1.0,"County":1.0,"City":1.0,"District":1.0,"Street":[1.0],"HouseNumber":1.0,"PostalCode":1.0},"MatchType":"interpolated","Location":{"LocationId":"NT_RVjJPkbheMpYIzos8j3VjD_l_26695412_L_xA","LocationType":"point","DisplayPosition":{"Latitude":51.2272672,"Longitude":-2.8145227},"MapView":{"TopLeft":{"Latitude":51.2283914,"Longitude":-2.8163178},"BottomRight":{"Latitude":51.2261431,"Longitude":-2.8127276}},"Address":{"Label":"1 St Medard Road, Wedmore, BS28 4AY, United Kingdom","Country":"GBR","State":"England","County":"Somerset","City":"Wedmore","District":"Wedmore","Street":"St Medard Road","HouseNumber":"1","PostalCode":"BS28 4AY","AdditionalData":[{"value":"United Kingdom","key":"CountryName"},{"value":"England","key":"StateName"},{"value":"Somerset","key":"CountyName"}]},"MapReference":{"ReferenceId":"26695412","Spot":0.51,"SideOfStreet":"left","StateId":"20248595","CountyId":"20357053","CityId":"20357604","DistrictId":"20357605"}}},{"Relevance":1.0,"Distance":22.6,"MatchLevel":"houseNumber","MatchQuality":{"Country":1.0,"State":1.0,"County":1.0,"City":1.0,"District":1.0,"Street":[1.0],"HouseNumber":1.0,"PostalCode":1.0},"MatchType":"interpolated","Location":{"LocationId":"NT_RVjJPkbheMpYIzos8j3VjD_l_26695377_R_1A","LocationType":"point","DisplayPosition":{"Latitude":51.2275303,"Longitude":-2.8151542},"MapView":{"TopLeft":{"Latitude":51.2286545,"Longitude":-2.8169493},"BottomRight":{"Latitude":51.2264062,"Longitude":-2.8133591}},"Address":{"Label":"5 St Medard Road, Wedmore, BS28 4AY, United Kingdom","Country":"GBR","State":"England","County":"Somerset","City":"Wedmore","District":"Wedmore","Street":"St Medard Road","HouseNumber":"5","PostalCode":"BS28 4AY","AdditionalData":[{"value":"United Kingdom","key":"CountryName"},{"value":"England","key":"StateName"},{"value":"Somerset","key":"CountyName"}]},"MapReference":{"ReferenceId":"26695377","Spot":0.49,"SideOfStreet":"right","StateId":"20248595","CountyId":"20357053","CityId":"20357604","DistrictId":"20357605"}}},{"Relevance":1.0,"Distance":34.5,"MatchLevel":"houseNumber","MatchQuality":{"Country":1.0,"State":1.0,"County":1.0,"City":1.0,"District":1.0,"Street":[1.0],"HouseNumber":1.0,"PostalCode":1.0},"MatchType":"interpolated","Location":{"LocationId":"NT_YO5yETqoZYGV3rNujZSeNA_l_26695374_R_yA","LocationType":"point","DisplayPosition":{"Latitude":51.22768,"Longitude":-2.81483},"MapView":{"TopLeft":{"Latitude":51.2288042,"Longitude":-2.8166251},"BottomRight":{"Latitude":51.2265559,"Longitude":-2.8130349}},"Address":{"Label":"2 Hervey Close, Wedmore, BS28 4AU, United Kingdom","Country":"GBR","State":"England","County":"Somerset","City":"Wedmore","District":"Wedmore","Street":"Hervey Close","HouseNumber":"2","PostalCode":"BS28 4AU","AdditionalData":[{"value":"United Kingdom","key":"CountryName"},{"value":"England","key":"StateName"},{"value":"Somerset","key":"CountyName"}]},"MapReference":{"ReferenceId":"26695374","Spot":0.4,"SideOfStreet":"right","StateId":"20248595","CountyId":"20357053","CityId":"20357604","DistrictId":"20357605"}}},{"Relevance":1.0,"Distance":49.6,"MatchLevel":"houseNumber","MatchQuality":{"Country":1.0,"State":1.0,"County":1.0,"City":1.0,"District":1.0,"Street":[1.0],"HouseNumber":1.0,"PostalCode":1.0},"MatchType":"interpolated","Location":{"LocationId":"NT_RVjJPkbheMpYIzos8j3VjD_l_26695418_R_3A","LocationType":"point","DisplayPosition":{"Latitude":51.2273358,"Longitude":-2.8155983},"MapView":{"TopLeft":{"Latitude":51.22846,"Longitude":-2.8173934},"BottomRight":{"Latitude":51.2262117,"Longitude":-2.8138032}},"Address":{"Label":"7 St Medard Road, Wedmore, BS28 4AY, United Kingdom","Country":"GBR","State":"England","County":"Somerset","City":"Wedmore","District":"Wedmore","Street":"St Medard Road","HouseNumber":"7","PostalCode":"BS28 4AY","AdditionalData":[{"value":"United Kingdom","key":"CountryName"},{"value":"England","key":"StateName"},{"value":"Somerset","key":"CountyName"}]},"MapReference":{"ReferenceId":"26695418","Spot":0.82,"SideOfStreet":"right","StateId":"20248595","CountyId":"20357053","CityId":"20357604","DistrictId":"20357605"}}},{"Relevance":1.0,"Distance":55.6,"MatchLevel":"houseNumber","MatchQuality":{"Country":1.0,"State":1.0,"County":1.0,"City":1.0,"District":1.0,"Street":[1.0],"HouseNumber":1.0,"PostalCode":1.0},"MatchType":"interpolated","Location":{"LocationId":"NT_WqcRA9zELgaD6QDnAYBxVD_l_26695378_R_xcD","LocationType":"point","DisplayPosition":{"Latitude":51.2275601,"Longitude":-2.8155001},"MapView":{"TopLeft":{"Latitude":51.2286842,"Longitude":-2.8172952},"BottomRight":{"Latitude":51.2264359,"Longitude":-2.813705}},"Address":{"Label":"17 Dane's Lea, Wedmore, BS28 4, United Kingdom","Country":"GBR","State":"England","County":"Somerset","City":"Wedmore","District":"Wedmore","Street":"Dane's Lea","HouseNumber":"17","PostalCode":"BS28 4","AdditionalData":[{"value":"United Kingdom","key":"CountryName"},{"value":"England","key":"StateName"},{"value":"Somerset","key":"CountyName"}]},"MapReference":{"ReferenceId":"26695378","Spot":0.15,"SideOfStreet":"right","StateId":"20248595","CountyId":"20357053","CityId":"20357604","DistrictId":"20357605"}}},{"Relevance":1.0,"Distance":60.3,"MatchLevel":"street","MatchQuality":{"Country":1.0,"State":1.0,"County":1.0,"City":1.0,"District":1.0,"Street":[1.0],"PostalCode":1.0},"Location":{"LocationId":"NT_AHZgt94IUy2sKpnYdcJLvA_l_26695411_L","LocationType":"point","DisplayPosition":{"Latitude":51.22703,"Longitude":-2.81407},"MapView":{"TopLeft":{"Latitude":51.22756,"Longitude":-2.81407},"BottomRight":{"Latitude":51.22703,"Longitude":-2.81269}},"Address":{"Label":"Pilcorn Street, Wedmore, BS28 4, United Kingdom","Country":"GBR","State":"England","County":"Somerset","City":"Wedmore","District":"Wedmore","Street":"Pilcorn Street","PostalCode":"BS28 4","AdditionalData":[{"value":"United Kingdom","key":"CountryName"},{"value":"England","key":"StateName"},{"value":"Somerset","key":"CountyName"}]},"MapReference":{"ReferenceId":"26695411","Spot":0.0,"SideOfStreet":"left","StateId":"20248595","CountyId":"20357053","CityId":"20357604","DistrictId":"20357605"}}},{"Relevance":1.0,"Distance":60.3,"MatchLevel":"street","MatchQuality":{"Country":1.0,"State":1.0,"County":1.0,"City":1.0,"District":1.0,"Street":[1.0],"PostalCode":1.0},"Location":{"LocationId":"NT_AHZgt94IUy2sKpnYdcJLvA_l_26695462_L","LocationType":"point","DisplayPosition":{"Latitude":51.2267971,"Longitude":-2.8144568},"MapView":{"TopLeft":{"Latitude":51.22703,"Longitude":-2.81499},"BottomRight":{"Latitude":51.22639,"Longitude":-2.81407}},"Address":{"Label":"Pilcorn Street, Wedmore, BS28 4, United Kingdom","Country":"GBR","State":"England","County":"Somerset","City":"Wedmore","District":"Wedmore","Street":"Pilcorn Street","PostalCode":"BS28 4","AdditionalData":[{"value":"United Kingdom","key":"CountryName"},{"value":"England","key":"StateName"},{"value":"Somerset","key":"CountyName"}]},"MapReference":{"ReferenceId":"26695462","Spot":0.6,"SideOfStreet":"left","StateId":"20248595","CountyId":"20357053","CityId":"20357604","DistrictId":"20357605"}}},{"Relevance":1.0,"Distance":68.6,"MatchLevel":"postalCode","MatchQuality":{"PostalCode":1.0},"MatchType":"interpolated","Location":{"LocationId":"NT_YO5yETqoZYGV3rNujZSeNA_l_26695374_R_yA","LocationType":"point","DisplayPosition":{"Latitude":51.2279,"Longitude":-2.81474},"MapView":{"TopLeft":{"Latitude":51.2368932,"Longitude":-2.829101},"BottomRight":{"Latitude":51.2189068,"Longitude":-2.800379}},"Address":{"Label":"BS28 4AU, Wedmore, England, United Kingdom","Country":"GBR","State":"England","County":"Somerset","City":"Wedmore","PostalCode":"BS28 4AU","AdditionalData":[{"value":"United Kingdom","key":"CountryName"},{"value":"England","key":"StateName"},{"value":"Somerset","key":"CountyName"}]},"MapReference":{"ReferenceId":"26695374","Spot":0.4,"SideOfStreet":"neither","StateId":"20248595","CountyId":"20357053","CityId":"20357604"}}},{"Relevance":1.0,"Distance":85.9,"MatchLevel":"postalCode","MatchQuality":{"PostalCode":1.0},"Location":{"LocationId":"NT_AHZgt94IUy2sKpnYdcJLvA_l_26695411_L","LocationType":"point","DisplayPosition":{"Latitude":51.22731,"Longitude":-2.8136},"MapView":{"TopLeft":{"Latitude":51.2363032,"Longitude":-2.8279608},"BottomRight":{"Latitude":51.2183168,"Longitude":-2.7992392}},"Address":{"Label":"BS28 4AN, Wedmore, England, United Kingdom","Country":"GBR","State":"England","County":"Somerset","City":"Wedmore","PostalCode":"BS28 4AN","AdditionalData":[{"value":"United Kingdom","key":"CountryName"},{"value":"England","key":"StateName"},{"value":"Somerset","key":"CountyName"}]},"MapReference":{"ReferenceId":"26695411","Spot":0.0,"SideOfStreet":"neither","StateId":"20248595","CountyId":"20357053","CityId":"20357604"}}}]}]}}