{"Response":{"MetaInfo":{"Timestamp":"2020-03-28T10:51:37.532+0000","NextPageInformation":"2"},"View":[{"_type":"SearchResultsViewType","ViewId":0,"Result":[{"Relevance":1.0,"Distance":-72.9,"MatchLevel":"landmark","MatchQuality":{"Country":1.0,"State":1.0,"County":1.0,"City":1.0,"PostalCode":1.0,"Name":1.0},"Location":{"LocationId":"NT_Th34nIxbkowf2P9UEi4ErC_p_g21p1djUD6uHSryUCgl9MA","LocationType":"hospital","Name":"A.Z. Klina","DisplayPosition":{"Latitude":51.29851,"Longitude":4.48891},"MapView":{"TopLeft":{"Latitude":51.30031,"Longitude":4.48767},"BottomRight":{"Latitude":51.29686,"Longitude":4.49267}},"Address":{"Label":"2930 Brasschaat, België","Country":"BEL","State":"Vlaanderen","County":"Antwerpen","City":"Brasschaat","PostalCode":"2930","AdditionalData":[{"value":"België","key":"CountryName"},{"value":"Vlaanderen","key":"StateName"},{"value":"Antwerpen","key":"CountyName"}]},"MapReference":{"CountryId":"20128886","StateId":"20204377","CountyId":"20204378","CityId":"20204403","PlaceId":"50751949"}}},{"Relevance":1.0,"Distance":0.0,"Direction":0.0,"MatchLevel":"city","MatchQuality":{"Country":1.0,"State":1.0,"County":1.0,"City":1.0,"PostalCode":1.0},"Location":{"LocationId":"NT_BSh0ntLOrjPAhycgtzyEXA","LocationType":"point","DisplayPosition":{"Latitude":51.2989382,"Longitude":4.4888286},"MapView":{"TopLeft":{"Latitude":51.3506,"Longitude":4.44024},"BottomRight":{"Latitude":51.26861,"Longitude":4.55885}},"Address":{"Label":"Brasschaat, Vlaanderen, België","Country":"BEL","State":"Vlaanderen","County":"Antwerpen","City":"Brasschaat","PostalCode":"2930","AdditionalData":[{"value":"België","key":"CountryName"},{"value":"Vlaanderen","key":"StateName"},{"value":"Antwerpen","key":"CountyName"}]},"MapReference":{"ReferenceId":"53843821","SideOfStreet":"neither","CountryId":"20128886","StateId":"20204377","CountyId":"20204378","CityId":"20204403"}}},{"Relevance":1.0,"Distance":44.3,"MatchLevel":"street","MatchQuality":{"Country":1.0,"State":1.0,"County":1.0,"City":1.0,"PostalCode":1.0},"Location":{"LocationId":"NT_Z64AdgV90-G61zYYUpadbC_l_580429341_L","LocationType":"point","DisplayPosition":{"Latitude":51.29854,"Longitude":4.4888286},"MapView":{"TopLeft":{"Latitude":51.29854,"Longitude":4.48865},"BottomRight":{"Latitude":51.29848,"Longitude":4.48889}},"Address":{"Label":"2930 Brasschaat, België","Country":"BEL","State":"Vlaanderen","County":"Antwerpen","City":"Brasschaat","PostalCode":"2930","AdditionalData":[{"value":"België","key":"CountryName"},{"value":"Vlaanderen","key":"StateName"},{"value":"Antwerpen","key":"CountyName"}]},"MapReference":{"ReferenceId":"580429341","Spot":0.76,"SideOfStreet":"left","CountryId":"20128886","StateId":"20204377","CountyId":"20204378","CityId":"20204403"}}},{"Relevance":1.0,"Distance":44.5,"MatchLevel":"street","MatchQuality":{"Country":1.0,"State":1.0,"County":1.0,"City":1.0,"PostalCode":1.0},"Location":{"LocationId":"NT_Z64AdgV90-G61zYYUpadbC_l_580429340_R","LocationType":"point","DisplayPosition":{"Latitude":51.29854,"Longitude":4.48889},"MapView":{"TopLeft":{"Latitude":51.29854,"Longitude":4.48881},"BottomRight":{"Latitude":51.29825,"Longitude":4.48896}},"Address":{"Label":"2930 Brasschaat, België","Country":"BEL","State":"Vlaanderen","County":"Antwerpen","City":"Brasschaat","PostalCode":"2930","AdditionalData":[{"value":"België","key":"CountryName"},{"value":"Vlaanderen","key":"StateName"},{"value":"Antwerpen","key":"CountyName"}]},"MapReference":{"ReferenceId":"580429340","Spot":1.0,"SideOfStreet":"right","CountryId":"20128886","StateId":"20204377","CountyId":"20204378","CityId":"20204403"}}},{"Relevance":1.0,"Distance":45.9,"MatchLevel":"houseNumber","MatchQuality":{"Country":1.0,"State":1.0,"County":1.0,"City":1.0,"Street":[1.0],"HouseNumber":1.0,"PostalCode":1.0},"MatchType":"interpolated","Location":{"LocationId":"NT_gXFy2.V20LXWwI3AKAA9iC_xADM","LocationType":"point","DisplayPosition":{"Latitude":51.29825,"Longitude":4.48881},"MapView":{"TopLeft":{"Latitude":51.2993742,"Longitude":4.4870121},"BottomRight":{"Latitude":51.2971258,"Longitude":4.4906079}},"Address":{"Label":"Augustijnslei 100, 2930 Brasschaat, België","Country":"BEL","State":"Vlaanderen","County":"Antwerpen","City":"Brasschaat","Street":"Augustijnslei","HouseNumber":"100","PostalCode":"2930","AdditionalData":[{"value":"België","key":"CountryName"},{"value":"Vlaanderen","key":"StateName"},{"value":"Antwerpen","key":"CountyName"}]},"MapReference":{"ReferenceId":"580429339","Spot":1.0,"SideOfStreet":"right","CountryId":"20128886","StateId":"20204377","CountyId":"20204378","CityId":"20204403","AddressId":"776621216","RoadLinkId":"30314868"}}},{"Relevance":1.0,"Distance":52.4,"MatchLevel":"street","MatchQuality":{"Country":1.0,"State":1.0,"County":1.0,"City":1.0,"PostalCode":1.0},"Location":{"LocationId":"NT_Z64AdgV90-G61zYYUpadbC_l_580429342_R","LocationType":"point","DisplayPosition":{"Latitude":51.29848,"Longitude":4.48865},"MapView":{"TopLeft":{"Latitude":51.29848,"Longitude":4.48865},"BottomRight":{"Latitude":51.29825,"Longitude":4.48881}},"Address":{"Label":"2930 Brasschaat, België","Country":"BEL","State":"Vlaanderen","County":"Antwerpen","City":"Brasschaat","PostalCode":"2930","AdditionalData":[{"value":"België","key":"CountryName"},{"value":"Vlaanderen","key":"StateName"},{"value":"Antwerpen","key":"CountyName"}]},"MapReference":{"ReferenceId":"580429342","Spot":1.0,"SideOfStreet":"right","CountryId":"20128886","StateId":"20204377","CountyId":"20204378","CityId":"20204403"}}},{"Relevance":1.0,"Distance":62.9,"MatchLevel":"street","MatchQuality":{"Country":1.0,"State":1.0,"County":1.0,"City":1.0,"PostalCode":1.0},"Location":{"LocationId":"NT_Z64AdgV90-G61zYYUpadbC_l_580429343_R","LocationType":"point","DisplayPosition":{"Latitude":51.2994984,"Longitude":4.4886988},"MapView":{"TopLeft":{"Latitude":51.29982,"Longitude":4.48767},"BottomRight":{"Latitude":51.29926,"Longitude":4.4907}},"Address":{"Label":"2930 Brasschaat, België","Country":"BEL","State":"Vlaanderen","County":"Antwerpen","City":"Brasschaat","PostalCode":"2930","AdditionalData":[{"value":"België","key":"CountryName"},{"value":"Vlaanderen","key":"StateName"},{"value":"Antwerpen","key":"CountyName"}]},"MapReference":{"ReferenceId":"580429343","Spot":0.31,"SideOfStreet":"right","CountryId":"20128886","StateId":"20204377","CountyId":"20204378","CityId":"20204403"}}},{"Relevance":1.0,"Distance":69.6,"MatchLevel":"houseNumber","MatchQuality":{"Country":1.0,"State":1.0,"County":1.0,"City":1.0,"Street":[1.0],"HouseNumber":1.0,"PostalCode":1.0},"MatchType":"interpolated","Location":{"LocationId":"NT_gXFy2.V20LXWwI3AKAA9iC_xkzN","LocationType":"point","DisplayPosition":{"Latitude":51.29865,"Longitude":4.48794},"MapView":{"TopLeft":{"Latitude":51.2997742,"Longitude":4.4861421},"BottomRight":{"Latitude":51.2975258,"Longitude":4.4897379}},"Address":{"Label":"Augustijnslei 197, 2930 Brasschaat, België","Country":"BEL","State":"Vlaanderen","County":"Antwerpen","City":"Brasschaat","Street":"Augustijnslei","HouseNumber":"197","PostalCode":"2930","AdditionalData":[{"value":"België","key":"CountryName"},{"value":"Vlaanderen","key":"StateName"},{"value":"Antwerpen","key":"CountyName"}]},"MapReference":{"ReferenceId":"877811201","Spot":0.51,"SideOfStreet":"left","CountryId":"20128886","StateId":"20204377","CountyId":"20204378","CityId":"20204403","AddressId":"400482602","RoadLinkId":"247743993"}}},{"Relevance":1.0,"Distance":77.3,"MatchLevel":"houseNumber","MatchQuality":{"Country":1.0,"State":1.0,"County":1.0,"City":1.0,"Street":[1.0],"HouseNumber":1.0,"PostalCode":1.0},"MatchType":"interpolated","Location":{"LocationId":"NT_gXFy2.V20LXWwI3AKAA9iC_l_877811202_L_yAzM","LocationType":"point","DisplayPosition":{"Latitude":51.29908,"Longitude":4.48774},"MapView":{"TopLeft":{"Latitude":51.3002042,"Longitude":4.4859421},"BottomRight":{"Latitude":51.2979559,"Longitude":4.4895379}},"Address":{"Label":"Augustijnslei 203, 2930 Brasschaat, België","Country":"BEL","State":"Vlaanderen","County":"Antwerpen","City":"Brasschaat","Street":"Augustijnslei","HouseNumber":"203","PostalCode":"2930","AdditionalData":[{"value":"België","key":"CountryName"},{"value":"Vlaanderen","key":"StateName"},{"value":"Antwerpen","key":"CountyName"}]},"MapReference":{"ReferenceId":"877811202","Spot":0.0,"SideOfStreet":"left","CountryId":"20128886","StateId":"20204377","CountyId":"20204378","CityId":"20204403"}}},{"Relevance":1.0,"Distance":79.8,"MatchLevel":"houseNumber","MatchQuality":{"Country":1.0,"State":1.0,"County":1.0,"City":1.0,"Street":[1.0],"HouseNumber":1.0,"PostalCode":1.0},"MatchType":"interpolated","Location":{"LocationId":"NT_gXFy2.V20LXWwI3AKAA9iC_xIjN","LocationType":"point","DisplayPosition":{"Latitude":51.2994,"Longitude":4.48768},"MapView":{"TopLeft":{"Latitude":51.3005242,"Longitude":4.4858821},"BottomRight":{"Latitude":51.2982758,"Longitude":4.4894779}},"Address":{"Label":"Augustijnslei 126, 2930 Brasschaat, België","Country":"BEL","State":"Vlaanderen","County":"Antwerpen","City":"Brasschaat","Street":"Augustijnslei","HouseNumber":"126","PostalCode":"2930","AdditionalData":[{"value":"België","key":"CountryName"},{"value":"Vlaanderen","key":"StateName"},{"value":"Antwerpen","key":"CountyName"}]},"MapReference":{"ReferenceId":"567232286","Spot":0.09,"SideOfStreet":"right","CountryId":"20128886","StateId":"20204377","CountyId":"20204378","CityId":"20204403","AddressId":"737213914","RoadLinkId":"30491512"}}}]}]}}