{"Response":{"MetaInfo":{"Timestamp":"2020-03-28T11:16:34.490+0000","NextPageInformation":"2"},"View":[{"_type":"SearchResultsViewType","ViewId":0,"Result":[{"Relevance":1.0,"Distance":0.0,"Direction":0.0,"MatchLevel":"district","MatchQuality":{"Country":1.0,"State":1.0,"County":1.0,"City":1.0,"District":1.0,"PostalCode":1.0},"Location":{"LocationId":"NT_46wF9fVsktVwgBUKZuyPMB","LocationType":"point","DisplayPosition":{"Latitude":51.2359609,"Longitude":-0.5866282},"MapView":{"TopLeft":{"Latitude":51.26755,"Longitude":-0.6209},"BottomRight":{"Latitude":51.20513,"Longitude":-0.51942}},"Address":{"Label":"Guildford, England, United Kingdom","Country":"GBR","State":"England","County":"Surrey","City":"Guildford","District":"Guildford","PostalCode":"GU1 4","AdditionalData":[{"value":"United Kingdom","key":"CountryName"},{"value":"England","key":"StateName"},{"value":"Surrey","key":"CountyName"}]},"MapReference":{"ReferenceId":"25547906","SideOfStreet":"neither","StateId":"20248595","CountyId":"20338357","CityId":"20338497","DistrictId":"20338498"}}},{"Relevance":1.0,"Distance":1.5,"MatchLevel":"houseNumber","MatchQuality":{"Country":1.0,"State":1.0,"County":1.0,"City":1.0,"District":1.0,"Street":[1.0],"HouseNumber":1.0,"PostalCode":1.0},"MatchType":"interpolated","Location":{"LocationId":"NT_z62RT5HAy2pgsJfYDvdzqD_l_25548221_R_0A","LocationType":"point","DisplayPosition":{"Latitude":51.2359675,"Longitude":-0.58661},"MapView":{"TopLeft":{"Latitude":51.2370917,"Longitude":-0.5884055},"BottomRight":{"Latitude":51.2348434,"Longitude":-0.5848146}},"Address":{"Label":"4 Bray Road, Guildford, GU2 7LH, United Kingdom","Country":"GBR","State":"England","County":"Surrey","City":"Guildford","District":"Guildford","Street":"Bray Road","HouseNumber":"4","PostalCode":"GU2 7LH","AdditionalData":[{"value":"United Kingdom","key":"CountryName"},{"value":"England","key":"StateName"},{"value":"Surrey","key":"CountyName"}]},"MapReference":{"ReferenceId":"25548221","Spot":0.33,"SideOfStreet":"right","StateId":"20248595","CountyId":"20338357","CityId":"20338497","DistrictId":"20338498"}}},{"Relevance":1.0,"Distance":15.7,"MatchLevel":"postalCode","MatchQuality":{"PostalCode":1.0},"MatchType":"interpolated","Location":{"LocationId":"NT_z62RT5HAy2pgsJfYDvdzqD_l_25548221_R_0A","LocationType":"point","DisplayPosition":{"Latitude":51.23609,"Longitude":-0.58672},"MapView":{"TopLeft":{"Latitude":51.2450832,"Longitude":-0.6010836},"BottomRight":{"Latitude":51.2270968,"Longitude":-0.5723564}},"Address":{"Label":"GU2 7LH, Guildford, England, United Kingdom","Country":"GBR","State":"England","County":"Surrey","City":"Guildford","PostalCode":"GU2 7LH","AdditionalData":[{"value":"United Kingdom","key":"CountryName"},{"value":"England","key":"StateName"},{"value":"Surrey","key":"CountyName"}]},"MapReference":{"ReferenceId":"25548221","Spot":0.33,"SideOfStreet":"neither","StateId":"20248595","CountyId":"20338357","CityId":"20338497"}}},{"Relevance":1.0,"Distance":27.2,"MatchLevel":"street","MatchQuality":{"Country":1.0,"State":1.0,"County":1.0,"City":1.0,"District":1.0,"Street":[1.0],"PostalCode":1.0},"Location":{"LocationId":"NT_msHaZk0QkYEvlzDmvJgtgB_l_25548285_L","LocationType":"point","DisplayPosition":{"Latitude":51.2357188,"Longitude":-0.5865727},"MapView":{"TopLeft":{"Latitude":51.23574,"Longitude":-0.58744},"BottomRight":{"Latitude":51.23552,"Longitude":-0.58648}},"Address":{"Label":"Poltimore Road, Guildford, GU2 4, United Kingdom","Country":"GBR","State":"England","County":"Surrey","City":"Guildford","District":"Guildford","Street":"Poltimore Road","PostalCode":"GU2 4","AdditionalData":[{"value":"United Kingdom","key":"CountryName"},{"value":"England","key":"StateName"},{"value":"Surrey","key":"CountyName"}]},"MapReference":{"ReferenceId":"25548285","Spot":0.9,"SideOfStreet":"left","StateId":"20248595","CountyId":"20338357","CityId":"20338497","DistrictId":"20338498"}}},{"Relevance":1.0,"Distance":40.6,"MatchLevel":"houseNumber","MatchQuality":{"Country":1.0,"State":1.0,"County":1.0,"City":1.0,"District":1.0,"Street":[1.0],"HouseNumber":1.0,"PostalCode":1.0},"MatchType":"interpolated","Location":{"LocationId":"NT_nNumzBX2P8BK5q3KcLWyVB_l_25548037_R_yED","LocationType":"point","DisplayPosition":{"Latitude":51.23646,"Longitude":-0.58666},"MapView":{"TopLeft":{"Latitude":51.2375842,"Longitude":-0.5884554},"BottomRight":{"Latitude":51.2353359,"Longitude":-0.5848645}},"Address":{"Label":"21 Dunsdon Avenue, Guildford, GU2 7NX, United Kingdom","Country":"GBR","State":"England","County":"Surrey","City":"Guildford","District":"Guildford","Street":"Dunsdon Avenue","HouseNumber":"21","PostalCode":"GU2 7NX","AdditionalData":[{"value":"United Kingdom","key":"CountryName"},{"value":"England","key":"StateName"},{"value":"Surrey","key":"CountyName"}]},"MapReference":{"ReferenceId":"25548037","Spot":0.22,"SideOfStreet":"right","StateId":"20248595","CountyId":"20338357","CityId":"20338497","DistrictId":"20338498"}}},{"Relevance":1.0,"Distance":45.9,"MatchLevel":"houseNumber","MatchQuality":{"Country":1.0,"State":1.0,"County":1.0,"City":1.0,"District":1.0,"Street":[1.0],"HouseNumber":1.0,"PostalCode":1.0},"MatchType":"interpolated","Location":{"LocationId":"NT_z62RT5HAy2pgsJfYDvdzqD_l_25548391_L_yUD","LocationType":"point","DisplayPosition":{"Latitude":51.2355785,"Longitude":-0.58638},"MapView":{"TopLeft":{"Latitude":51.2367026,"Longitude":-0.5881754},"BottomRight":{"Latitude":51.2344543,"Longitude":-0.5845846}},"Address":{"Label":"25 Bray Road, Guildford, GU2 7LQ, United Kingdom","Country":"GBR","State":"England","County":"Surrey","City":"Guildford","District":"Guildford","Street":"Bray Road","HouseNumber":"25","PostalCode":"GU2 7LQ","AdditionalData":[{"value":"United Kingdom","key":"CountryName"},{"value":"England","key":"StateName"},{"value":"Surrey","key":"CountyName"}]},"MapReference":{"ReferenceId":"25548391","Spot":0.75,"SideOfStreet":"left","StateId":"20248595","CountyId":"20338357","CityId":"20338497","DistrictId":"20338498"}}},{"Relevance":1.0,"Distance":56.3,"MatchLevel":"houseNumber","MatchQuality":{"Country":1.0,"State":1.0,"County":1.0,"City":1.0,"District":1.0,"Street":[1.0],"HouseNumber":1.0,"PostalCode":1.0},"MatchType":"interpolated","Location":{"LocationId":"NT_41SX6chzTqqzYei8dDPNqB_l_25548286_R_ygD","LocationType":"point","DisplayPosition":{"Latitude":51.2356916,"Longitude":-0.5875415},"MapView":{"TopLeft":{"Latitude":51.2368158,"Longitude":-0.589337},"BottomRight":{"Latitude":51.2345675,"Longitude":-0.5857461}},"Address":{"Label":"28 Agraria Road, Guildford, GU2 4LF, United Kingdom","Country":"GBR","State":"England","County":"Surrey","City":"Guildford","District":"Onslow Village","Street":"Agraria Road","HouseNumber":"28","PostalCode":"GU2 4LF","AdditionalData":[{"value":"United Kingdom","key":"CountryName"},{"value":"England","key":"StateName"},{"value":"Surrey","key":"CountyName"}]},"MapReference":{"ReferenceId":"25548286","Spot":0.1,"SideOfStreet":"right","StateId":"20248595","CountyId":"20338357","CityId":"20338497","DistrictId":"20338510"}}},{"Relevance":1.0,"Distance":63.7,"MatchLevel":"houseNumber","MatchQuality":{"Country":1.0,"State":1.0,"County":1.0,"City":1.0,"District":1.0,"Street":[1.0],"HouseNumber":1.0,"PostalCode":1.0},"MatchType":"interpolated","Location":{"LocationId":"NT_z62RT5HAy2pgsJfYDvdzqD_l_25548038_L_1MD","LocationType":"point","DisplayPosition":{"Latitude":51.2365401,"Longitude":-0.5869401},"MapView":{"TopLeft":{"Latitude":51.2376643,"Longitude":-0.5887355},"BottomRight":{"Latitude":51.2354159,"Longitude":-0.5851446}},"Address":{"Label":"53 Bray Road, Guildford, GU2 7LH, United Kingdom","Country":"GBR","State":"England","County":"Surrey","City":"Guildford","District":"Guildford","Street":"Bray Road","HouseNumber":"53","PostalCode":"GU2 7LH","AdditionalData":[{"value":"United Kingdom","key":"CountryName"},{"value":"England","key":"StateName"},{"value":"Surrey","key":"CountyName"}]},"MapReference":{"ReferenceId":"25548038","Spot":0.11,"SideOfStreet":"left","StateId":"20248595","CountyId":"20338357","CityId":"20338497","DistrictId":"20338498"}}},{"Relevance":1.0,"Distance":68.5,"MatchLevel":"postalCode","MatchQuality":{"PostalCode":1.0},"MatchType":"interpolated","Location":{"LocationId":"NT_41SX6chzTqqzYei8dDPNqB_l_25548286_R_ygD","LocationType":"point","DisplayPosition":{"Latitude":51.23592,"Longitude":-0.58761},"MapView":{"TopLeft":{"Latitude":51.2449132,"Longitude":-0.6019735},"BottomRight":{"Latitude":51.2269268,"Longitude":-0.5732465}},"Address":{"Label":"GU2 4LF, Guildford, England, United Kingdom","Country":"GBR","State":"England","County":"Surrey","City":"Guildford","PostalCode":"GU2 4LF","AdditionalData":[{"value":"United Kingdom","key":"CountryName"},{"value":"England","key":"StateName"},{"value":"Surrey","key":"CountyName"}]},"MapReference":{"ReferenceId":"25548286","Spot":0.1,"SideOfStreet":"neither","StateId":"20248595","CountyId":"20338357","CityId":"20338497"}}},{"Relevance":1.0,"Distance":68.5,"MatchLevel":"postalCode","MatchQuality":{"PostalCode":1.0},"MatchType":"interpolated","Location":{"LocationId":"NT_z62RT5HAy2pgsJfYDvdzqD_l_25548391_L_yUD","LocationType":"point","DisplayPosition":{"Latitude":51.23538,"Longitude":-0.5863},"MapView":{"TopLeft":{"Latitude":51.2443732,"Longitude":-0.6006634},"BottomRight":{"Latitude":51.2263868,"Longitude":-0.5719366}},"Address":{"Label":"GU2 7LQ, Guildford, England, United Kingdom","Country":"GBR","State":"England","County":"Surrey","City":"Guildford","PostalCode":"GU2 7LQ","AdditionalData":[{"value":"United Kingdom","key":"CountryName"},{"value":"England","key":"StateName"},{"value":"Surrey","key":"CountyName"}]},"MapReference":{"ReferenceId":"25548391","Spot":0.75,"SideOfStreet":"neither","StateId":"20248595","CountyId":"20338357","CityId":"20338497"}}}]}]}}