{"Response":{"MetaInfo":{"Timestamp":"2020-03-28T11:02:53.063+0000","NextPageInformation":"2"},"View":[{"_type":"SearchResultsViewType","ViewId":0,"Result":[{"Relevance":1.0,"Distance":0.0,"Direction":0.0,"MatchLevel":"district","MatchQuality":{"Country":1.0,"State":1.0,"County":1.0,"City":1.0,"District":1.0,"PostalCode":1.0},"Location":{"LocationId":"NT_FvpkS0oIURcE0q6.6zdc6B","LocationType":"point","DisplayPosition":{"Latitude":51.2064838,"Longitude":10.4010117},"MapView":{"TopLeft":{"Latitude":51.213,"Longitude":10.39375},"BottomRight":{"Latitude":51.20568,"Longitude":10.40715}},"Address":{"Label":"Pfafferode, Mühlhausen/Thüringen, Thüringen, Deutschland","Country":"DEU","State":"Thüringen","County":"Unstrut-Hainich-Kreis","City":"Mühlhausen/Thüringen","District":"Pfafferode","PostalCode":"99974","AdditionalData":[{"value":"Deutschland","key":"CountryName"},{"value":"Thüringen","key":"StateName"},{"value":"Unstrut-Hainich-Kreis","key":"CountyName"}]},"MapReference":{"ReferenceId":"548088479","SideOfStreet":"neither","CountryId":"20147700","StateId":"20196974","CountyId":"20197560","CityId":"20197649","DistrictId":"20413755"}}},{"Relevance":1.0,"Distance":36.7,"MatchLevel":"houseNumber","MatchQuality":{"Country":1.0,"State":1.0,"County":1.0,"City":1.0,"District":1.0,"Street":[1.0],"HouseNumber":1.0,"PostalCode":1.0},"MatchType":"interpolated","Location":{"LocationId":"NT_akEabcqS6Zc-C5G4Bjcu4A_xED","LocationType":"point","DisplayPosition":{"Latitude":51.2069,"Longitude":10.40146},"MapView":{"TopLeft":{"Latitude":51.2080242,"Longitude":10.3996657},"BottomRight":{"Latitude":51.2057758,"Longitude":10.4032543}},"Address":{"Label":"Pfafferode 11, 99974 Mühlhausen/Thüringen, Deutschland","Country":"DEU","State":"Thüringen","County":"Unstrut-Hainich-Kreis","City":"Mühlhausen/Thüringen","District":"Pfafferode","Street":"Pfafferode","HouseNumber":"11","PostalCode":"99974","AdditionalData":[{"value":"Deutschland","key":"CountryName"},{"value":"Thüringen","key":"StateName"},{"value":"Unstrut-Hainich-Kreis","key":"CountyName"}]},"MapReference":{"ReferenceId":"543983018","Spot":0.46,"SideOfStreet":"left","CountryId":"20147700","StateId":"20196974","CountyId":"20197560","CityId":"20197649","DistrictId":"20413755","AddressId":"742289109","RoadLinkId":"39538540"}}},{"Relevance":1.0,"Distance":68.2,"MatchLevel":"street","MatchQuality":{"Country":1.0,"State":1.0,"County":1.0,"City":1.0,"District":1.0,"Street":[1.0],"PostalCode":1.0},"Location":{"LocationId":"NT_rz47SKGwn3umf6r2S6hN3C_l_543983064_R","LocationType":"point","DisplayPosition":{"Latitude":51.2065954,"Longitude":10.4000487},"MapView":{"TopLeft":{"Latitude":51.20721,"Longitude":10.40004},"BottomRight":{"Latitude":51.20652,"Longitude":10.40012}},"Address":{"Label":"Wanfrieder Landstraße, 99974 Mühlhausen/Thüringen, Deutschland","Country":"DEU","State":"Thüringen","County":"Unstrut-Hainich-Kreis","City":"Mühlhausen/Thüringen","District":"Pfafferode","Street":"Wanfrieder Landstraße","PostalCode":"99974","AdditionalData":[{"value":"Deutschland","key":"CountryName"},{"value":"Thüringen","key":"StateName"},{"value":"Unstrut-Hainich-Kreis","key":"CountyName"}]},"MapReference":{"ReferenceId":"543983064","Spot":0.11,"SideOfStreet":"right","CountryId":"20147700","StateId":"20196974","CountyId":"20197560","CityId":"20197649","DistrictId":"20413755"}}},{"Relevance":1.0,"Distance":70.9,"MatchLevel":"houseNumber","MatchQuality":{"Country":1.0,"State":1.0,"County":1.0,"City":1.0,"District":1.0,"Street":[1.0],"HouseNumber":1.0,"PostalCode":1.0},"MatchType":"interpolated","Location":{"LocationId":"NT_rz47SKGwn3umf6r2S6hN3C_3kD","LocationType":"point","DisplayPosition":{"Latitude":51.20627,"Longitude":10.40197},"MapView":{"TopLeft":{"Latitude":51.2073942,"Longitude":10.4001757},"BottomRight":{"Latitude":51.2051458,"Longitude":10.4037643}},"Address":{"Label":"Wanfrieder Landstraße 79, 99974 Mühlhausen/Thüringen, Deutschland","Country":"DEU","State":"Thüringen","County":"Unstrut-Hainich-Kreis","City":"Mühlhausen/Thüringen","District":"Pfafferode","Street":"Wanfrieder Landstraße","HouseNumber":"79","PostalCode":"99974","AdditionalData":[{"value":"Deutschland","key":"CountryName"},{"value":"Thüringen","key":"StateName"},{"value":"Unstrut-Hainich-Kreis","key":"CountyName"}]},"MapReference":{"ReferenceId":"1184964902","Spot":0.21,"SideOfStreet":"right","CountryId":"20147700","StateId":"20196974","CountyId":"20197560","CityId":"20197649","DistrictId":"20413755","AddressId":"622377827","RoadLinkId":"493210317"}}},{"Relevance":1.0,"Distance":104.1,"MatchLevel":"houseNumber","MatchQuality":{"Country":1.0,"State":1.0,"County":1.0,"City":1.0,"District":1.0,"Street":[1.0],"HouseNumber":1.0,"PostalCode":1.0},"MatchType":"interpolated","Location":{"LocationId":"NT_akEabcqS6Zc-C5G4Bjcu4A_5A","LocationType":"point","DisplayPosition":{"Latitude":51.2075,"Longitude":10.40163},"MapView":{"TopLeft":{"Latitude":51.2086242,"Longitude":10.3998357},"BottomRight":{"Latitude":51.2063758,"Longitude":10.4034243}},"Address":{"Label":"Pfafferode 9, 99974 Mühlhausen/Thüringen, Deutschland","Country":"DEU","State":"Thüringen","County":"Unstrut-Hainich-Kreis","City":"Mühlhausen/Thüringen","District":"Pfafferode","Street":"Pfafferode","HouseNumber":"9","PostalCode":"99974","AdditionalData":[{"value":"Deutschland","key":"CountryName"},{"value":"Thüringen","key":"StateName"},{"value":"Unstrut-Hainich-Kreis","key":"CountyName"}]},"MapReference":{"ReferenceId":"543983015","Spot":0.46,"SideOfStreet":"left","CountryId":"20147700","StateId":"20196974","CountyId":"20197560","CityId":"20197649","DistrictId":"20413755","AddressId":"742287334","RoadLinkId":"39963733"}}},{"Relevance":1.0,"Distance":110.3,"MatchLevel":"street","MatchQuality":{"Country":1.0,"State":1.0,"County":1.0,"City":1.0,"District":1.0,"Street":[1.0],"PostalCode":1.0},"Location":{"LocationId":"NT_akEabcqS6Zc-C5G4Bjcu4A_l_543983053_L","LocationType":"point","DisplayPosition":{"Latitude":51.20662,"Longitude":10.40258},"MapView":{"TopLeft":{"Latitude":51.20662,"Longitude":10.40258},"BottomRight":{"Latitude":51.2065,"Longitude":10.40328}},"Address":{"Label":"Pfafferode, 99974 Mühlhausen/Thüringen, Deutschland","Country":"DEU","State":"Thüringen","County":"Unstrut-Hainich-Kreis","City":"Mühlhausen/Thüringen","District":"Pfafferode","Street":"Pfafferode","PostalCode":"99974","AdditionalData":[{"value":"Deutschland","key":"CountryName"},{"value":"Thüringen","key":"StateName"},{"value":"Unstrut-Hainich-Kreis","key":"CountyName"}]},"MapReference":{"ReferenceId":"543983053","Spot":1.0,"SideOfStreet":"left","CountryId":"20147700","StateId":"20196974","CountyId":"20197560","CityId":"20197649","DistrictId":"20413755"}}},{"Relevance":1.0,"Distance":110.3,"MatchLevel":"street","MatchQuality":{"Country":1.0,"State":1.0,"County":1.0,"City":1.0,"District":1.0,"Street":[1.0],"PostalCode":1.0},"Location":{"LocationId":"NT_akEabcqS6Zc-C5G4Bjcu4A_l_543983014_L","LocationType":"point","DisplayPosition":{"Latitude":51.20662,"Longitude":10.40258},"MapView":{"TopLeft":{"Latitude":51.20693,"Longitude":10.40258},"BottomRight":{"Latitude":51.20662,"Longitude":10.40291}},"Address":{"Label":"Pfafferode, 99974 Mühlhausen/Thüringen, Deutschland","Country":"DEU","State":"Thüringen","County":"Unstrut-Hainich-Kreis","City":"Mühlhausen/Thüringen","District":"Pfafferode","Street":"Pfafferode","PostalCode":"99974","AdditionalData":[{"value":"Deutschland","key":"CountryName"},{"value":"Thüringen","key":"StateName"},{"value":"Unstrut-Hainich-Kreis","key":"CountyName"}]},"MapReference":{"ReferenceId":"543983014","Spot":0.0,"SideOfStreet":"left","CountryId":"20147700","StateId":"20196974","CountyId":"20197560","CityId":"20197649","DistrictId":"20413755"}}},{"Relevance":1.0,"Distance":115.0,"MatchLevel":"houseNumber","MatchQuality":{"Country":1.0,"State":1.0,"County":1.0,"City":1.0,"District":1.0,"Street":[1.0],"HouseNumber":1.0,"PostalCode":1.0},"MatchType":"interpolated","Location":{"LocationId":"NT_rz47SKGwn3umf6r2S6hN3C_4ED","LocationType":"point","DisplayPosition":{"Latitude":51.2066,"Longitude":10.39937},"MapView":{"TopLeft":{"Latitude":51.2077242,"Longitude":10.3975757},"BottomRight":{"Latitude":51.2054758,"Longitude":10.4011643}},"Address":{"Label":"Wanfrieder Landstraße 81, 99974 Mühlhausen/Thüringen, Deutschland","Country":"DEU","State":"Thüringen","County":"Unstrut-Hainich-Kreis","City":"Mühlhausen/Thüringen","District":"Pfafferode","Street":"Wanfrieder Landstraße","HouseNumber":"81","PostalCode":"99974","AdditionalData":[{"value":"Deutschland","key":"CountryName"},{"value":"Thüringen","key":"StateName"},{"value":"Unstrut-Hainich-Kreis","key":"CountyName"}]},"MapReference":{"ReferenceId":"1186892210","Spot":0.53,"SideOfStreet":"right","CountryId":"20147700","StateId":"20196974","CountyId":"20197560","CityId":"20197649","DistrictId":"20413755","AddressId":"189184771","RoadLinkId":"495504327"}}},{"Relevance":1.0,"Distance":115.3,"MatchLevel":"houseNumber","MatchQuality":{"Country":1.0,"State":1.0,"County":1.0,"City":1.0,"District":1.0,"Street":[1.0],"HouseNumber":1.0,"PostalCode":1.0},"MatchType":"interpolated","Location":{"LocationId":"NT_rz47SKGwn3umf6r2S6hN3C_3QD","LocationType":"point","DisplayPosition":{"Latitude":51.20615,"Longitude":10.40284},"MapView":{"TopLeft":{"Latitude":51.2072742,"Longitude":10.4010457},"BottomRight":{"Latitude":51.2050258,"Longitude":10.4046343}},"Address":{"Label":"Wanfrieder Landstraße 74, 99974 Mühlhausen/Thüringen, Deutschland","Country":"DEU","State":"Thüringen","County":"Unstrut-Hainich-Kreis","City":"Mühlhausen/Thüringen","District":"Pfafferode","Street":"Wanfrieder Landstraße","HouseNumber":"74","PostalCode":"99974","AdditionalData":[{"value":"Deutschland","key":"CountryName"},{"value":"Thüringen","key":"StateName"},{"value":"Unstrut-Hainich-Kreis","key":"CountyName"}]},"MapReference":{"ReferenceId":"1184964208","Spot":1.0,"SideOfStreet":"left","CountryId":"20147700","StateId":"20196974","CountyId":"20197560","CityId":"20197649","DistrictId":"20413755","AddressId":"199133555","RoadLinkId":"493209396"}}},{"Relevance":1.0,"Distance":118.6,"MatchLevel":"houseNumber","MatchQuality":{"Country":1.0,"State":1.0,"County":1.0,"City":1.0,"District":1.0,"Street":[1.0],"HouseNumber":1.0,"PostalCode":1.0},"MatchType":"interpolated","Location":{"LocationId":"NT_rz47SKGwn3umf6r2S6hN3C_5kD","LocationType":"point","DisplayPosition":{"Latitude":51.2074,"Longitude":10.40014},"MapView":{"TopLeft":{"Latitude":51.2085242,"Longitude":10.3983457},"BottomRight":{"Latitude":51.2062758,"Longitude":10.4019343}},"Address":{"Label":"Wanfrieder Landstraße 99, 99974 Mühlhausen/Thüringen, Deutschland","Country":"DEU","State":"Thüringen","County":"Unstrut-Hainich-Kreis","City":"Mühlhausen/Thüringen","District":"Pfafferode","Street":"Wanfrieder Landstraße","HouseNumber":"99","PostalCode":"99974","AdditionalData":[{"value":"Deutschland","key":"CountryName"},{"value":"Thüringen","key":"StateName"},{"value":"Unstrut-Hainich-Kreis","key":"CountyName"}]},"MapReference":{"ReferenceId":"543983030","Spot":0.32,"SideOfStreet":"left","CountryId":"20147700","StateId":"20196974","CountyId":"20197560","CityId":"20197649","DistrictId":"20413755","AddressId":"189394143","RoadLinkId":"144126268"}}}]}]}}