{"Response":{"MetaInfo":{"Timestamp":"2020-03-28T10:45:50.789+0000","NextPageInformation":"2"},"View":[{"_type":"SearchResultsViewType","ViewId":0,"Result":[{"Relevance":1.0,"Distance":0.0,"Direction":0.0,"MatchLevel":"district","MatchQuality":{"Country":1.0,"State":1.0,"County":1.0,"City":1.0,"District":1.0,"PostalCode":1.0},"Location":{"LocationId":"NT_Egp7tbY1yKMsyU-k6nOs.B","LocationType":"point","DisplayPosition":{"Latitude":51.2787373,"Longitude":22.6611287},"MapView":{"TopLeft":{"Latitude":51.29543,"Longitude":22.65679},"BottomRight":{"Latitude":51.27096,"Longitude":22.71632}},"Address":{"Label":"Turka, Wólka, Woj. Lubelskie, Polska","Country":"POL","State":"Woj. Lubelskie","County":"Powiat Lubelski","City":"Wólka","District":"Turka","PostalCode":"20-258","AdditionalData":[{"value":"Polska","key":"CountryName"},{"value":"Woj. Lubelskie","key":"StateName"},{"value":"Powiat Lubelski","key":"CountyName"}]},"MapReference":{"ReferenceId":"1167597322","SideOfStreet":"neither","CountryId":"20624059","StateId":"20626116","CountyId":"20626341","CityId":"20626370","DistrictId":"20684423"}}},{"Relevance":1.0,"Distance":9.8,"MatchLevel":"houseNumber","MatchQuality":{"Country":1.0,"State":1.0,"County":1.0,"City":1.0,"District":1.0,"Street":[1.0],"HouseNumber":1.0,"PostalCode":1.0},"MatchType":"interpolated","Location":{"LocationId":"NT_fj6JIfDmt2DLR1GMBbGcLA_2ED","LocationType":"point","DisplayPosition":{"Latitude":51.27858,"Longitude":22.66117},"MapView":{"TopLeft":{"Latitude":51.2797042,"Longitude":22.6593729},"BottomRight":{"Latitude":51.2774558,"Longitude":22.6629671}},"Address":{"Label":"ulica Klonowa 61, 20-258 Turka, Polska","Country":"POL","State":"Woj. Lubelskie","County":"Powiat Lubelski","City":"Wólka","District":"Turka","Street":"ulica Klonowa","HouseNumber":"61","PostalCode":"20-258","AdditionalData":[{"value":"Polska","key":"CountryName"},{"value":"Woj. Lubelskie","key":"StateName"},{"value":"Powiat Lubelski","key":"CountyName"}]},"MapReference":{"ReferenceId":"762810183","Spot":0.8,"SideOfStreet":"left","CountryId":"20624059","StateId":"20626116","CountyId":"20626341","CityId":"20626370","DistrictId":"20684423","AddressId":"266545473","RoadLinkId":"157046672"}}},{"Relevance":1.0,"Distance":37.6,"MatchLevel":"street","MatchQuality":{"Country":1.0,"State":1.0,"County":1.0,"City":1.0,"District":1.0,"Street":[1.0],"PostalCode":1.0},"Location":{"LocationId":"NT_mhbfS8cHjQrzjQeMf5mQ5B_l_716393730_L","LocationType":"point","DisplayPosition":{"Latitude":51.2788,"Longitude":22.66166},"MapView":{"TopLeft":{"Latitude":51.2788,"Longitude":22.66166},"BottomRight":{"Latitude":51.27819,"Longitude":22.66242}},"Address":{"Label":"ulica Dębowa, 20-258 Turka, Polska","Country":"POL","State":"Woj. Lubelskie","County":"Powiat Lubelski","City":"Wólka","District":"Turka","Street":"ulica Dębowa","PostalCode":"20-258","AdditionalData":[{"value":"Polska","key":"CountryName"},{"value":"Woj. Lubelskie","key":"StateName"},{"value":"Powiat Lubelski","key":"CountyName"}]},"MapReference":{"ReferenceId":"716393730","Spot":1.0,"SideOfStreet":"left","CountryId":"20624059","StateId":"20626116","CountyId":"20626341","CityId":"20626370","DistrictId":"20684423"}}},{"Relevance":1.0,"Distance":38.8,"MatchLevel":"street","MatchQuality":{"Country":1.0,"State":1.0,"County":1.0,"City":1.0,"District":1.0,"Street":[1.0],"PostalCode":1.0},"Location":{"LocationId":"NT_mhbfS8cHjQrzjQeMf5mQ5B_l_1167597341_L","LocationType":"point","DisplayPosition":{"Latitude":51.279035,"Longitude":22.6614193},"MapView":{"TopLeft":{"Latitude":51.27921,"Longitude":22.66124},"BottomRight":{"Latitude":51.2788,"Longitude":22.66166}},"Address":{"Label":"ulica Dębowa, 20-258 Turka, Polska","Country":"POL","State":"Woj. Lubelskie","County":"Powiat Lubelski","City":"Wólka","District":"Turka","Street":"ulica Dębowa","PostalCode":"20-258","AdditionalData":[{"value":"Polska","key":"CountryName"},{"value":"Woj. Lubelskie","key":"StateName"},{"value":"Powiat Lubelski","key":"CountyName"}]},"MapReference":{"ReferenceId":"1167597341","Spot":0.57,"SideOfStreet":"left","CountryId":"20624059","StateId":"20626116","CountyId":"20626341","CityId":"20626370","DistrictId":"20684423"}}},{"Relevance":1.0,"Distance":53.1,"MatchLevel":"street","MatchQuality":{"Country":1.0,"State":1.0,"County":1.0,"City":1.0,"District":1.0,"Street":[1.0],"PostalCode":1.0},"Location":{"LocationId":"NT_jF.We0a7Xrrjd-GsUlIKpD_l_1167597342_L","LocationType":"point","DisplayPosition":{"Latitude":51.27921,"Longitude":22.66124},"MapView":{"TopLeft":{"Latitude":51.2794,"Longitude":22.66101},"BottomRight":{"Latitude":51.27921,"Longitude":22.66124}},"Address":{"Label":"ulica Dębowa, 20-258 Turka, Polska","Country":"POL","State":"Woj. Lubelskie","County":"Powiat Lubelski","City":"Wólka","District":"Turka","Street":"ulica Dębowa","PostalCode":"20-258","AdditionalData":[{"value":"Polska","key":"CountryName"},{"value":"Woj. Lubelskie","key":"StateName"},{"value":"Powiat Lubelski","key":"CountyName"}]},"MapReference":{"ReferenceId":"1167597342","Spot":0.0,"SideOfStreet":"left","CountryId":"20624059","StateId":"20626116","CountyId":"20626341","CityId":"20626370","DistrictId":"20684423"}}},{"Relevance":1.0,"Distance":53.1,"MatchLevel":"street","MatchQuality":{"Country":1.0,"State":1.0,"County":1.0,"City":1.0,"District":1.0,"PostalCode":1.0},"Location":{"LocationId":"NT_oTXr.KoEdpIz5.7Ey2tOxB_l_1231524802_R","LocationType":"point","DisplayPosition":{"Latitude":51.27921,"Longitude":22.66124},"MapView":{"TopLeft":{"Latitude":51.28033,"Longitude":22.66124},"BottomRight":{"Latitude":51.27921,"Longitude":22.66372}},"Address":{"Label":"20-258 Turka, Polska","Country":"POL","State":"Woj. Lubelskie","County":"Powiat Lubelski","City":"Wólka","District":"Turka","PostalCode":"20-258","AdditionalData":[{"value":"Polska","key":"CountryName"},{"value":"Woj. Lubelskie","key":"StateName"},{"value":"Powiat Lubelski","key":"CountyName"}]},"MapReference":{"ReferenceId":"1231524802","Spot":0.0,"SideOfStreet":"right","CountryId":"20624059","StateId":"20626116","CountyId":"20626341","CityId":"20626370","DistrictId":"20684423"}}},{"Relevance":1.0,"Distance":64.0,"MatchLevel":"street","MatchQuality":{"Country":1.0,"State":1.0,"County":1.0,"City":1.0,"District":1.0,"Street":[1.0],"PostalCode":1.0},"Location":{"LocationId":"NT_H4aNwihcylNVcYKc1H9R3D_l_1079375485_R","LocationType":"point","DisplayPosition":{"Latitude":51.27924,"Longitude":22.66068},"MapView":{"TopLeft":{"Latitude":51.27924,"Longitude":22.65982},"BottomRight":{"Latitude":51.27884,"Longitude":22.66068}},"Address":{"Label":"82, 20-258 Turka, Polska","Country":"POL","State":"Woj. Lubelskie","County":"Powiat Lubelski","City":"Wólka","District":"Turka","Street":"82","PostalCode":"20-258","AdditionalData":[{"value":"Polska","key":"CountryName"},{"value":"Woj. Lubelskie","key":"StateName"},{"value":"Powiat Lubelski","key":"CountyName"}]},"MapReference":{"ReferenceId":"1079375485","Spot":1.0,"SideOfStreet":"right","CountryId":"20624059","StateId":"20626116","CountyId":"20626341","CityId":"20626370","DistrictId":"20684423"}}},{"Relevance":1.0,"Distance":64.1,"MatchLevel":"houseNumber","MatchQuality":{"Country":1.0,"State":1.0,"County":1.0,"City":1.0,"District":1.0,"Street":[1.0],"HouseNumber":1.0,"PostalCode":1.0},"MatchType":"interpolated","Location":{"LocationId":"NT_XLNvqbDOfDY7P74c4mLTtB_xA","LocationType":"point","DisplayPosition":{"Latitude":51.27895,"Longitude":22.66201},"MapView":{"TopLeft":{"Latitude":51.2800742,"Longitude":22.6602129},"BottomRight":{"Latitude":51.2778258,"Longitude":22.6638071}},"Address":{"Label":"ulica Jeżynowa 1, 20-258 Turka, Polska","Country":"POL","State":"Woj. Lubelskie","County":"Powiat Lubelski","City":"Wólka","District":"Turka","Street":"ulica Jeżynowa","HouseNumber":"1","PostalCode":"20-258","AdditionalData":[{"value":"Polska","key":"CountryName"},{"value":"Woj. Lubelskie","key":"StateName"},{"value":"Powiat Lubelski","key":"CountyName"}]},"MapReference":{"ReferenceId":"762810189","Spot":0.48,"SideOfStreet":"left","CountryId":"20624059","StateId":"20626116","CountyId":"20626341","CityId":"20626370","DistrictId":"20684423","AddressId":"266676391","RoadLinkId":"157046679"}}},{"Relevance":1.0,"Distance":67.8,"MatchLevel":"street","MatchQuality":{"Country":1.0,"State":1.0,"County":1.0,"City":1.0,"District":1.0,"Street":[1.0],"PostalCode":1.0},"Location":{"LocationId":"NT_H4aNwihcylNVcYKc1H9R3D_l_1079375486_R","LocationType":"point","DisplayPosition":{"Latitude":51.2793205,"Longitude":22.660846},"MapView":{"TopLeft":{"Latitude":51.2794,"Longitude":22.66068},"BottomRight":{"Latitude":51.27924,"Longitude":22.66101}},"Address":{"Label":"82, 20-258 Turka, Polska","Country":"POL","State":"Woj. Lubelskie","County":"Powiat Lubelski","City":"Wólka","District":"Turka","Street":"82","PostalCode":"20-258","AdditionalData":[{"value":"Polska","key":"CountryName"},{"value":"Woj. Lubelskie","key":"StateName"},{"value":"Powiat Lubelski","key":"CountyName"}]},"MapReference":{"ReferenceId":"1079375486","Spot":0.5,"SideOfStreet":"right","CountryId":"20624059","StateId":"20626116","CountyId":"20626341","CityId":"20626370","DistrictId":"20684423"}}},{"Relevance":1.0,"Distance":74.1,"MatchLevel":"street","MatchQuality":{"Country":1.0,"State":1.0,"County":1.0,"City":1.0,"District":1.0,"Street":[1.0],"PostalCode":1.0},"Location":{"LocationId":"NT_H4aNwihcylNVcYKc1H9R3D_l_1079375487_R","LocationType":"point","DisplayPosition":{"Latitude":51.2794,"Longitude":22.66101},"MapView":{"TopLeft":{"Latitude":51.27966,"Longitude":22.66101},"BottomRight":{"Latitude":51.2794,"Longitude":22.66153}},"Address":{"Label":"82, 20-258 Turka, Polska","Country":"POL","State":"Woj. Lubelskie","County":"Powiat Lubelski","City":"Wólka","District":"Turka","Street":"82","PostalCode":"20-258","AdditionalData":[{"value":"Polska","key":"CountryName"},{"value":"Woj. Lubelskie","key":"StateName"},{"value":"Powiat Lubelski","key":"CountyName"}]},"MapReference":{"ReferenceId":"1079375487","Spot":0.0,"SideOfStreet":"right","CountryId":"20624059","StateId":"20626116","CountyId":"20626341","CityId":"20626370","DistrictId":"20684423"}}}]}]}}