{"Response":{"MetaInfo":{"Timestamp":"2020-03-28T10:09:18.567+0000","NextPageInformation":"2"},"View":[{"_type":"SearchResultsViewType","ViewId":0,"Result":[{"Relevance":1.0,"Distance":0.0,"Direction":0.0,"MatchLevel":"district","MatchQuality":{"Country":1.0,"State":1.0,"County":1.0,"City":1.0,"District":1.0,"PostalCode":1.0},"Location":{"LocationId":"NT_BisHytb1-R.CYf0j1RtmDA","LocationType":"point","DisplayPosition":{"Latitude":51.2001306,"Longitude":-0.6125257},"MapView":{"TopLeft":{"Latitude":51.20833,"Longitude":-0.64572},"BottomRight":{"Latitude":51.16644,"Longitude":-0.58108}},"Address":{"Label":"Godalming, England, United Kingdom","Country":"GBR","State":"England","County":"Surrey","City":"Godalming","District":"Godalming","PostalCode":"GU7 1","AdditionalData":[{"value":"United Kingdom","key":"CountryName"},{"value":"England","key":"StateName"},{"value":"Surrey","key":"CountyName"}]},"MapReference":{"ReferenceId":"25554497","SideOfStreet":"neither","StateId":"20248595","CountyId":"20338357","CityId":"20338472","DistrictId":"20338473"}}},{"Relevance":1.0,"Distance":1.7,"MatchLevel":"houseNumber","MatchQuality":{"Country":1.0,"State":1.0,"County":1.0,"City":1.0,"District":1.0,"Street":[1.0],"HouseNumber":1.0,"PostalCode":1.0},"MatchType":"interpolated","Location":{"LocationId":"NT_SQCbSrRvsy-H-JXcjj1vyC_l_25552793_R_1ED","LocationType":"point","DisplayPosition":{"Latitude":51.2,"Longitude":-0.612645},"MapView":{"TopLeft":{"Latitude":51.2011242,"Longitude":-0.6144391},"BottomRight":{"Latitude":51.1988759,"Longitude":-0.610851}},"Address":{"Label":"51 Binscombe Lane, Godalming, GU7 3, United Kingdom","Country":"GBR","State":"England","County":"Surrey","City":"Godalming","District":"Godalming","Street":"Binscombe Lane","HouseNumber":"51","PostalCode":"GU7 3","AdditionalData":[{"value":"United Kingdom","key":"CountryName"},{"value":"England","key":"StateName"},{"value":"Surrey","key":"CountyName"}]},"MapReference":{"ReferenceId":"25552793","Spot":0.3,"SideOfStreet":"right","StateId":"20248595","CountyId":"20338357","CityId":"20338472","DistrictId":"20338473"}}},{"Relevance":1.0,"Distance":15.6,"MatchLevel":"houseNumber","MatchQuality":{"Country":1.0,"State":1.0,"County":1.0,"City":1.0,"District":1.0,"Street":[1.0],"HouseNumber":1.0,"PostalCode":1.0},"MatchType":"interpolated","Location":{"LocationId":"NT_5QU3rQCgnWOzWKvNLR7UkA_l_25552792_L_1ID","LocationType":"point","DisplayPosition":{"Latitude":51.1999101,"Longitude":-0.6122997},"MapView":{"TopLeft":{"Latitude":51.2010343,"Longitude":-0.6140938},"BottomRight":{"Latitude":51.198786,"Longitude":-0.6105057}},"Address":{"Label":"52 Binscombe Crescent, Godalming, GU7 3, United Kingdom","Country":"GBR","State":"England","County":"Surrey","City":"Godalming","District":"Godalming","Street":"Binscombe Crescent","HouseNumber":"52","PostalCode":"GU7 3","AdditionalData":[{"value":"United Kingdom","key":"CountryName"},{"value":"England","key":"StateName"},{"value":"Surrey","key":"CountyName"}]},"MapReference":{"ReferenceId":"25552792","Spot":0.06,"SideOfStreet":"left","StateId":"20248595","CountyId":"20338357","CityId":"20338472","DistrictId":"20338473"}}},{"Relevance":1.0,"Distance":42.7,"MatchLevel":"houseNumber","MatchQuality":{"Country":1.0,"State":1.0,"County":1.0,"City":1.0,"District":1.0,"Street":[1.0],"HouseNumber":1.0,"PostalCode":1.0},"MatchType":"interpolated","Location":{"LocationId":"NT_yScRV29.3DW3QTxpgQkkdA_l_25552839_R_0ED","LocationType":"point","DisplayPosition":{"Latitude":51.1996825,"Longitude":-0.6123175},"MapView":{"TopLeft":{"Latitude":51.2008067,"Longitude":-0.6141115},"BottomRight":{"Latitude":51.1985584,"Longitude":-0.6105235}},"Address":{"Label":"41 Binscombe Lane, Godalming, GU7 3PP, United Kingdom","Country":"GBR","State":"England","County":"Surrey","City":"Godalming","District":"Farncombe","Street":"Binscombe Lane","HouseNumber":"41","PostalCode":"GU7 3PP","AdditionalData":[{"value":"United Kingdom","key":"CountryName"},{"value":"England","key":"StateName"},{"value":"Surrey","key":"CountyName"}]},"MapReference":{"ReferenceId":"25552839","Spot":0.59,"SideOfStreet":"right","StateId":"20248595","CountyId":"20338357","CityId":"20338472","DistrictId":"20338481"}}},{"Relevance":1.0,"Distance":58.1,"MatchLevel":"houseNumber","MatchQuality":{"Country":1.0,"State":1.0,"County":1.0,"City":1.0,"District":1.0,"Street":[1.0],"HouseNumber":1.0,"PostalCode":1.0},"MatchType":"interpolated","Location":{"LocationId":"NT_SQCbSrRvsy-H-JXcjj1vyC_l_25552734_R_0kD","LocationType":"point","DisplayPosition":{"Latitude":51.20049,"Longitude":-0.61313},"MapView":{"TopLeft":{"Latitude":51.2016142,"Longitude":-0.6149241},"BottomRight":{"Latitude":51.1993659,"Longitude":-0.611336}},"Address":{"Label":"49 Binscombe Lane, Godalming, GU7 3QG, United Kingdom","Country":"GBR","State":"England","County":"Surrey","City":"Godalming","District":"Godalming","Street":"Binscombe Lane","HouseNumber":"49","PostalCode":"GU7 3QG","AdditionalData":[{"value":"United Kingdom","key":"CountryName"},{"value":"England","key":"StateName"},{"value":"Surrey","key":"CountyName"}]},"MapReference":{"ReferenceId":"25552734","Spot":0.3,"SideOfStreet":"right","StateId":"20248595","CountyId":"20338357","CityId":"20338472","DistrictId":"20338473"}}},{"Relevance":1.0,"Distance":73.7,"MatchLevel":"houseNumber","MatchQuality":{"Country":1.0,"State":1.0,"County":1.0,"City":1.0,"District":1.0,"Street":[1.0],"HouseNumber":1.0,"PostalCode":1.0},"MatchType":"interpolated","Location":{"LocationId":"NT_XnHHhT1e1GlQO63Wg4dYPC_l_25552693_R_xA","LocationType":"point","DisplayPosition":{"Latitude":51.20082,"Longitude":-0.61314},"MapView":{"TopLeft":{"Latitude":51.2019442,"Longitude":-0.614934},"BottomRight":{"Latitude":51.1996959,"Longitude":-0.6113459}},"Address":{"Label":"1 Clover Lea, Godalming, GU7 3QQ, United Kingdom","Country":"GBR","State":"England","County":"Surrey","City":"Godalming","District":"Godalming","Street":"Clover Lea","HouseNumber":"1","PostalCode":"GU7 3QQ","AdditionalData":[{"value":"United Kingdom","key":"CountryName"},{"value":"England","key":"StateName"},{"value":"Surrey","key":"CountyName"}]},"MapReference":{"ReferenceId":"25552693","Spot":0.17,"SideOfStreet":"right","StateId":"20248595","CountyId":"20338357","CityId":"20338472","DistrictId":"20338473"}}},{"Relevance":1.0,"Distance":77.7,"MatchLevel":"houseNumber","MatchQuality":{"Country":1.0,"State":1.0,"County":1.0,"City":1.0,"District":1.0,"Street":[1.0],"HouseNumber":1.0,"PostalCode":1.0},"MatchType":"interpolated","Location":{"LocationId":"NT_amfreWxwWacNuIaZuKxykA_l_25552872_L_0A","LocationType":"point","DisplayPosition":{"Latitude":51.1993067,"Longitude":-0.61236},"MapView":{"TopLeft":{"Latitude":51.2004308,"Longitude":-0.614154},"BottomRight":{"Latitude":51.1981825,"Longitude":-0.610566}},"Address":{"Label":"4 Meadow Close, Godalming, GU7 3PS, United Kingdom","Country":"GBR","State":"England","County":"Surrey","City":"Godalming","District":"Farncombe","Street":"Meadow Close","HouseNumber":"4","PostalCode":"GU7 3PS","AdditionalData":[{"value":"United Kingdom","key":"CountryName"},{"value":"England","key":"StateName"},{"value":"Surrey","key":"CountyName"}]},"MapReference":{"ReferenceId":"25552872","Spot":0.59,"SideOfStreet":"left","StateId":"20248595","CountyId":"20338357","CityId":"20338472","DistrictId":"20338481"}}},{"Relevance":1.0,"Distance":79.5,"MatchLevel":"postalCode","MatchQuality":{"PostalCode":1.0},"MatchType":"interpolated","Location":{"LocationId":"NT_yScRV29.3DW3QTxpgQkkdA_l_25552867_R_zMD","LocationType":"point","DisplayPosition":{"Latitude":51.19949,"Longitude":-0.61202},"MapView":{"TopLeft":{"Latitude":51.2084832,"Longitude":-0.6263722},"BottomRight":{"Latitude":51.1904968,"Longitude":-0.5976678}},"Address":{"Label":"GU7 3PP, Godalming, England, United Kingdom","Country":"GBR","State":"England","County":"Surrey","City":"Godalming","PostalCode":"GU7 3PP","AdditionalData":[{"value":"United Kingdom","key":"CountryName"},{"value":"England","key":"StateName"},{"value":"Surrey","key":"CountyName"}]},"MapReference":{"ReferenceId":"25552867","Spot":0.56,"SideOfStreet":"neither","StateId":"20248595","CountyId":"20338357","CityId":"20338472"}}},{"Relevance":1.0,"Distance":82.3,"MatchLevel":"houseNumber","MatchQuality":{"Country":1.0,"State":1.0,"County":1.0,"City":1.0,"District":1.0,"Street":[1.0],"HouseNumber":1.0,"PostalCode":1.0},"MatchType":"interpolated","Location":{"LocationId":"NT_XnHHhT1e1GlQO63Wg4dYPC_l_25552680_L_4A","LocationType":"point","DisplayPosition":{"Latitude":51.20094,"Longitude":-0.6120001},"MapView":{"TopLeft":{"Latitude":51.2020642,"Longitude":-0.6137941},"BottomRight":{"Latitude":51.1998159,"Longitude":-0.610206}},"Address":{"Label":"8 Clover Lea, Godalming, GU7 3QQ, United Kingdom","Country":"GBR","State":"England","County":"Surrey","City":"Godalming","District":"Godalming","Street":"Clover Lea","HouseNumber":"8","PostalCode":"GU7 3QQ","AdditionalData":[{"value":"United Kingdom","key":"CountryName"},{"value":"England","key":"StateName"},{"value":"Surrey","key":"CountyName"}]},"MapReference":{"ReferenceId":"25552680","Spot":0.36,"SideOfStreet":"left","StateId":"20248595","CountyId":"20338357","CityId":"20338472","DistrictId":"20338473"}}},{"Relevance":1.0,"Distance":90.7,"MatchLevel":"houseNumber","MatchQuality":{"Country":1.0,"State":1.0,"County":1.0,"City":1.0,"District":1.0,"Street":[1.0],"HouseNumber":1.0,"PostalCode":1.0},"MatchType":"interpolated","Location":{"LocationId":"NT_yScRV29.3DW3QTxpgQkkdA_l_25552867_R_zMD","LocationType":"point","DisplayPosition":{"Latitude":51.1993275,"Longitude":-0.6119125},"MapView":{"TopLeft":{"Latitude":51.2004517,"Longitude":-0.6137065},"BottomRight":{"Latitude":51.1982034,"Longitude":-0.6101185}},"Address":{"Label":"33 Binscombe Lane, Godalming, GU7 3PP, United Kingdom","Country":"GBR","State":"England","County":"Surrey","City":"Godalming","District":"Farncombe","Street":"Binscombe Lane","HouseNumber":"33","PostalCode":"GU7 3PP","AdditionalData":[{"value":"United Kingdom","key":"CountryName"},{"value":"England","key":"StateName"},{"value":"Surrey","key":"CountyName"}]},"MapReference":{"ReferenceId":"25552867","Spot":0.56,"SideOfStreet":"right","StateId":"20248595","CountyId":"20338357","CityId":"20338472","DistrictId":"20338481"}}}]}]}}