{"Response":{"MetaInfo":{"Timestamp":"2020-03-28T11:01:11.651+0000","NextPageInformation":"2"},"View":[{"_type":"SearchResultsViewType","ViewId":0,"Result":[{"Relevance":1.0,"Distance":0.0,"Direction":0.0,"MatchLevel":"district","MatchQuality":{"Country":1.0,"State":1.0,"County":1.0,"City":1.0,"District":1.0,"PostalCode":1.0},"Location":{"LocationId":"NT_O6O5GN8BzC-Xh4FzIjN4tB","LocationType":"point","DisplayPosition":{"Latitude":51.2503167,"Longitude":7.143924},"MapView":{"TopLeft":{"Latitude":51.27068,"Longitude":7.1288},"BottomRight":{"Latitude":51.22864,"Longitude":7.17493}},"Address":{"Label":"Elberfeld, Wuppertal, Nordrhein-Westfalen, Deutschland","Country":"DEU","State":"Nordrhein-Westfalen","County":"Wuppertal","City":"Wuppertal","District":"Elberfeld","PostalCode":"42103","AdditionalData":[{"value":"Deutschland","key":"CountryName"},{"value":"Nordrhein-Westfalen","key":"StateName"},{"value":"Wuppertal","key":"CountyName"}]},"MapReference":{"ReferenceId":"1156001370","SideOfStreet":"neither","CountryId":"20147700","StateId":"20157369","CountyId":"20157493","CityId":"20157494","DistrictId":"20329203"}}},{"Relevance":1.0,"Distance":8.4,"MatchLevel":"houseNumber","MatchQuality":{"Country":1.0,"State":1.0,"County":1.0,"City":1.0,"District":1.0,"Street":[1.0],"HouseNumber":1.0,"PostalCode":1.0},"MatchType":"interpolated","Location":{"LocationId":"NT_5b15GqcBcW6Q5AB-NzY5FC_xAzM","LocationType":"point","DisplayPosition":{"Latitude":51.25037,"Longitude":7.14401},"MapView":{"TopLeft":{"Latitude":51.2514942,"Longitude":7.142214},"BottomRight":{"Latitude":51.2492458,"Longitude":7.145806}},"Address":{"Label":"Weststraße 103, 42119 Wuppertal, Deutschland","Country":"DEU","State":"Nordrhein-Westfalen","County":"Wuppertal","City":"Wuppertal","District":"Elberfeld","Street":"Weststraße","HouseNumber":"103","PostalCode":"42119","AdditionalData":[{"value":"Deutschland","key":"CountryName"},{"value":"Nordrhein-Westfalen","key":"StateName"},{"value":"Wuppertal","key":"CountyName"}]},"MapReference":{"ReferenceId":"1179242925","Spot":0.61,"SideOfStreet":"right","CountryId":"20147700","StateId":"20157369","CountyId":"20157493","CityId":"20157494","DistrictId":"20329203","AddressId":"192634036","RoadLinkId":"487023094"}}},{"Relevance":1.0,"Distance":38.1,"MatchLevel":"houseNumber","MatchQuality":{"Country":1.0,"State":1.0,"County":1.0,"City":1.0,"District":1.0,"Street":[1.0],"HouseNumber":1.0,"PostalCode":1.0},"MatchType":"interpolated","Location":{"LocationId":"NT_5Cxk-TbVjQ60rR-adBMJYA_0A","LocationType":"point","DisplayPosition":{"Latitude":51.24999,"Longitude":7.14325},"MapView":{"TopLeft":{"Latitude":51.2511142,"Longitude":7.141454},"BottomRight":{"Latitude":51.2488658,"Longitude":7.145046}},"Address":{"Label":"Kölner Straße 4, 42119 Wuppertal, Deutschland","Country":"DEU","State":"Nordrhein-Westfalen","County":"Wuppertal","City":"Wuppertal","District":"Elberfeld","Street":"Kölner Straße","HouseNumber":"4","PostalCode":"42119","AdditionalData":[{"value":"Deutschland","key":"CountryName"},{"value":"Nordrhein-Westfalen","key":"StateName"},{"value":"Wuppertal","key":"CountyName"}]},"MapReference":{"ReferenceId":"1244882604","Spot":0.78,"SideOfStreet":"right","CountryId":"20147700","StateId":"20157369","CountyId":"20157493","CityId":"20157494","DistrictId":"20329203","AddressId":"196149369","RoadLinkId":"566280222"}}},{"Relevance":1.0,"Distance":44.1,"MatchLevel":"houseNumber","MatchQuality":{"Country":1.0,"State":1.0,"County":1.0,"City":1.0,"District":1.0,"Street":[1.0],"HouseNumber":1.0,"PostalCode":1.0},"MatchType":"interpolated","Location":{"LocationId":"NT_5Cxk-TbVjQ60rR-adBMJYA_xAD","LocationType":"point","DisplayPosition":{"Latitude":51.25053,"Longitude":7.14317},"MapView":{"TopLeft":{"Latitude":51.2516542,"Longitude":7.141374},"BottomRight":{"Latitude":51.2494058,"Longitude":7.144966}},"Address":{"Label":"Kölner Straße 10, 42119 Wuppertal, Deutschland","Country":"DEU","State":"Nordrhein-Westfalen","County":"Wuppertal","City":"Wuppertal","District":"Elberfeld","Street":"Kölner Straße","HouseNumber":"10","PostalCode":"42119","AdditionalData":[{"value":"Deutschland","key":"CountryName"},{"value":"Nordrhein-Westfalen","key":"StateName"},{"value":"Wuppertal","key":"CountyName"}]},"MapReference":{"ReferenceId":"51274643","Spot":0.4,"SideOfStreet":"right","CountryId":"20147700","StateId":"20157369","CountyId":"20157493","CityId":"20157494","DistrictId":"20329203","AddressId":"194442013","RoadLinkId":"39029970"}}},{"Relevance":1.0,"Distance":50.1,"MatchLevel":"street","MatchQuality":{"Country":1.0,"State":1.0,"County":1.0,"City":1.0,"District":1.0,"Street":[1.0],"PostalCode":1.0},"Location":{"LocationId":"NT_5Cxk-TbVjQ60rR-adBMJYA_l_1244882606_R","LocationType":"point","DisplayPosition":{"Latitude":51.25026,"Longitude":7.14321},"MapView":{"TopLeft":{"Latitude":51.25031,"Longitude":7.1432},"BottomRight":{"Latitude":51.25026,"Longitude":7.14321}},"Address":{"Label":"Kölner Straße, 42119 Wuppertal, Deutschland","Country":"DEU","State":"Nordrhein-Westfalen","County":"Wuppertal","City":"Wuppertal","District":"Elberfeld","Street":"Kölner Straße","PostalCode":"42119","AdditionalData":[{"value":"Deutschland","key":"CountryName"},{"value":"Nordrhein-Westfalen","key":"StateName"},{"value":"Wuppertal","key":"CountyName"}]},"MapReference":{"ReferenceId":"1244882606","Spot":0.0,"SideOfStreet":"right","CountryId":"20147700","StateId":"20157369","CountyId":"20157493","CityId":"20157494","DistrictId":"20329203"}}},{"Relevance":1.0,"Distance":50.1,"MatchLevel":"street","MatchQuality":{"Country":1.0,"State":1.0,"County":1.0,"City":1.0,"District":1.0,"PostalCode":1.0},"Location":{"LocationId":"NT_-h8J8XGaIz-kRTuOD0xWbD_l_1245407264_R","LocationType":"point","DisplayPosition":{"Latitude":51.25026,"Longitude":7.14321},"MapView":{"TopLeft":{"Latitude":51.25026,"Longitude":7.14282},"BottomRight":{"Latitude":51.25013,"Longitude":7.14321}},"Address":{"Label":"42119 Wuppertal, Deutschland","Country":"DEU","State":"Nordrhein-Westfalen","County":"Wuppertal","City":"Wuppertal","District":"Elberfeld","PostalCode":"42119","AdditionalData":[{"value":"Deutschland","key":"CountryName"},{"value":"Nordrhein-Westfalen","key":"StateName"},{"value":"Wuppertal","key":"CountyName"}]},"MapReference":{"ReferenceId":"1245407264","Spot":1.0,"SideOfStreet":"right","CountryId":"20147700","StateId":"20157369","CountyId":"20157493","CityId":"20157494","DistrictId":"20329203"}}},{"Relevance":1.0,"Distance":50.4,"MatchLevel":"street","MatchQuality":{"Country":1.0,"State":1.0,"County":1.0,"City":1.0,"District":1.0,"Street":[1.0],"PostalCode":1.0},"Location":{"LocationId":"NT_5b15GqcBcW6Q5AB-NzY5FC_l_51274658_R","LocationType":"point","DisplayPosition":{"Latitude":51.25031,"Longitude":7.1432},"MapView":{"TopLeft":{"Latitude":51.25031,"Longitude":7.14243},"BottomRight":{"Latitude":51.25009,"Longitude":7.1432}},"Address":{"Label":"Weststraße, 42119 Wuppertal, Deutschland","Country":"DEU","State":"Nordrhein-Westfalen","County":"Wuppertal","City":"Wuppertal","District":"Elberfeld","Street":"Weststraße","PostalCode":"42119","AdditionalData":[{"value":"Deutschland","key":"CountryName"},{"value":"Nordrhein-Westfalen","key":"StateName"},{"value":"Wuppertal","key":"CountyName"}]},"MapReference":{"ReferenceId":"51274658","Spot":1.0,"SideOfStreet":"right","CountryId":"20147700","StateId":"20157369","CountyId":"20157493","CityId":"20157494","DistrictId":"20329203"}}},{"Relevance":1.0,"Distance":50.8,"MatchLevel":"street","MatchQuality":{"Country":1.0,"State":1.0,"County":1.0,"City":1.0,"District":1.0,"Street":[1.0],"PostalCode":1.0},"Location":{"LocationId":"NT_5Cxk-TbVjQ60rR-adBMJYA_l_1244882605_R","LocationType":"point","DisplayPosition":{"Latitude":51.2501928,"Longitude":7.1432219},"MapView":{"TopLeft":{"Latitude":51.25026,"Longitude":7.14321},"BottomRight":{"Latitude":51.25009,"Longitude":7.14324}},"Address":{"Label":"Kölner Straße, 42119 Wuppertal, Deutschland","Country":"DEU","State":"Nordrhein-Westfalen","County":"Wuppertal","City":"Wuppertal","District":"Elberfeld","Street":"Kölner Straße","PostalCode":"42119","AdditionalData":[{"value":"Deutschland","key":"CountryName"},{"value":"Nordrhein-Westfalen","key":"StateName"},{"value":"Wuppertal","key":"CountyName"}]},"MapReference":{"ReferenceId":"1244882605","Spot":0.6,"SideOfStreet":"right","CountryId":"20147700","StateId":"20157369","CountyId":"20157493","CityId":"20157494","DistrictId":"20329203"}}},{"Relevance":1.0,"Distance":51.1,"MatchLevel":"houseNumber","MatchQuality":{"Country":1.0,"State":1.0,"County":1.0,"City":1.0,"District":1.0,"Street":[1.0],"HouseNumber":1.0,"PostalCode":1.0},"MatchType":"interpolated","Location":{"LocationId":"NT_5b15GqcBcW6Q5AB-NzY5FC_5kD","LocationType":"point","DisplayPosition":{"Latitude":51.25042,"Longitude":7.14464},"MapView":{"TopLeft":{"Latitude":51.2515442,"Longitude":7.142844},"BottomRight":{"Latitude":51.2492958,"Longitude":7.146436}},"Address":{"Label":"Weststraße 99, 42119 Wuppertal, Deutschland","Country":"DEU","State":"Nordrhein-Westfalen","County":"Wuppertal","City":"Wuppertal","District":"Elberfeld","Street":"Weststraße","HouseNumber":"99","PostalCode":"42119","AdditionalData":[{"value":"Deutschland","key":"CountryName"},{"value":"Nordrhein-Westfalen","key":"StateName"},{"value":"Wuppertal","key":"CountyName"}]},"MapReference":{"ReferenceId":"1179242926","Spot":0.06,"SideOfStreet":"right","CountryId":"20147700","StateId":"20157369","CountyId":"20157493","CityId":"20157494","DistrictId":"20329203","AddressId":"196018622","RoadLinkId":"487023095"}}},{"Relevance":1.0,"Distance":53.9,"MatchLevel":"street","MatchQuality":{"Country":1.0,"State":1.0,"County":1.0,"City":1.0,"District":1.0,"PostalCode":1.0},"Location":{"LocationId":"NT_-h8J8XGaIz-kRTuOD0xWbD_l_1245407203_R","LocationType":"point","DisplayPosition":{"Latitude":51.25009,"Longitude":7.14324},"MapView":{"TopLeft":{"Latitude":51.25009,"Longitude":7.14312},"BottomRight":{"Latitude":51.24982,"Longitude":7.14324}},"Address":{"Label":"42119 Wuppertal, Deutschland","Country":"DEU","State":"Nordrhein-Westfalen","County":"Wuppertal","City":"Wuppertal","District":"Elberfeld","PostalCode":"42119","AdditionalData":[{"value":"Deutschland","key":"CountryName"},{"value":"Nordrhein-Westfalen","key":"StateName"},{"value":"Wuppertal","key":"CountyName"}]},"MapReference":{"ReferenceId":"1245407203","Spot":1.0,"SideOfStreet":"right","CountryId":"20147700","StateId":"20157369","CountyId":"20157493","CityId":"20157494","DistrictId":"20329203"}}}]}]}}