{"Response":{"MetaInfo":{"Timestamp":"2020-03-28T10:57:09.017+0000","NextPageInformation":"2"},"View":[{"_type":"SearchResultsViewType","ViewId":0,"Result":[{"Relevance":1.0,"Distance":0.0,"Direction":0.0,"MatchLevel":"district","MatchQuality":{"Country":1.0,"State":1.0,"County":1.0,"City":1.0,"District":1.0,"PostalCode":1.0},"Location":{"LocationId":"NT_VD38SO4DaW4217RV3F-yNA","LocationType":"point","DisplayPosition":{"Latitude":51.2027956,"Longitude":10.466786},"MapView":{"TopLeft":{"Latitude":51.23313,"Longitude":10.4119},"BottomRight":{"Latitude":51.19307,"Longitude":10.48787}},"Address":{"Label":"Mühlhausen/Thüringen, Thüringen, Deutschland","Country":"DEU","State":"Thüringen","County":"Unstrut-Hainich-Kreis","City":"Mühlhausen/Thüringen","District":"Mühlhausen/Thüringen","PostalCode":"99974","AdditionalData":[{"value":"Deutschland","key":"CountryName"},{"value":"Thüringen","key":"StateName"},{"value":"Unstrut-Hainich-Kreis","key":"CountyName"}]},"MapReference":{"ReferenceId":"1061136526","SideOfStreet":"neither","CountryId":"20147700","StateId":"20196974","CountyId":"20197560","CityId":"20197649","DistrictId":"20197652"}}},{"Relevance":1.0,"Distance":8.2,"MatchLevel":"street","MatchQuality":{"Country":1.0,"State":1.0,"County":1.0,"City":1.0,"District":1.0,"Street":[1.0],"PostalCode":1.0},"Location":{"LocationId":"NT_O-BDaSjeAwJLQeP5bQ5eYD_l_543985493_L","LocationType":"point","DisplayPosition":{"Latitude":51.202867,"Longitude":10.4668123},"MapView":{"TopLeft":{"Latitude":51.20324,"Longitude":10.46618},"BottomRight":{"Latitude":51.20243,"Longitude":10.46823}},"Address":{"Label":"Langensalzaer Landstraße, 99974 Mühlhausen/Thüringen, Deutschland","Country":"DEU","State":"Thüringen","County":"Unstrut-Hainich-Kreis","City":"Mühlhausen/Thüringen","District":"Mühlhausen/Thüringen","Street":"Langensalzaer Landstraße","PostalCode":"99974","AdditionalData":[{"value":"Deutschland","key":"CountryName"},{"value":"Thüringen","key":"StateName"},{"value":"Unstrut-Hainich-Kreis","key":"CountyName"}]},"MapReference":{"ReferenceId":"543985493","Spot":0.67,"SideOfStreet":"left","CountryId":"20147700","StateId":"20196974","CountyId":"20197560","CityId":"20197649","DistrictId":"20197652"}}},{"Relevance":1.0,"Distance":20.0,"MatchLevel":"street","MatchQuality":{"Country":1.0,"State":1.0,"County":1.0,"City":1.0,"District":1.0,"Street":[1.0],"PostalCode":1.0},"Location":{"LocationId":"NT_EVear2wlBhpOFUz5CG052D_l_1061227577_L","LocationType":"point","DisplayPosition":{"Latitude":51.2029687,"Longitude":10.4668629},"MapView":{"TopLeft":{"Latitude":51.20331,"Longitude":10.4663},"BottomRight":{"Latitude":51.20283,"Longitude":10.46721}},"Address":{"Label":"Langensalzaer Landstraße, 99974 Mühlhausen/Thüringen, Deutschland","Country":"DEU","State":"Thüringen","County":"Unstrut-Hainich-Kreis","City":"Mühlhausen/Thüringen","District":"Mühlhausen/Thüringen","Street":"Langensalzaer Landstraße","PostalCode":"99974","AdditionalData":[{"value":"Deutschland","key":"CountryName"},{"value":"Thüringen","key":"StateName"},{"value":"Unstrut-Hainich-Kreis","key":"CountyName"}]},"MapReference":{"ReferenceId":"1061227577","Spot":0.36,"SideOfStreet":"left","CountryId":"20147700","StateId":"20196974","CountyId":"20197560","CityId":"20197649","DistrictId":"20197652"}}},{"Relevance":1.0,"Distance":29.8,"MatchLevel":"houseNumber","MatchQuality":{"Country":1.0,"State":1.0,"County":1.0,"City":1.0,"District":1.0,"Street":[1.0],"HouseNumber":1.0,"PostalCode":1.0},"MatchType":"interpolated","Location":{"LocationId":"NT_EVear2wlBhpOFUz5CG052D_xQD","LocationType":"point","DisplayPosition":{"Latitude":51.20283,"Longitude":10.46721},"MapView":{"TopLeft":{"Latitude":51.2039542,"Longitude":10.4654159},"BottomRight":{"Latitude":51.2017058,"Longitude":10.4690041}},"Address":{"Label":"Langensalzaer Landstraße 14, 99974 Mühlhausen/Thüringen, Deutschland","Country":"DEU","State":"Thüringen","County":"Unstrut-Hainich-Kreis","City":"Mühlhausen/Thüringen","District":"Mühlhausen/Thüringen","Street":"Langensalzaer Landstraße","HouseNumber":"14","PostalCode":"99974","AdditionalData":[{"value":"Deutschland","key":"CountryName"},{"value":"Thüringen","key":"StateName"},{"value":"Unstrut-Hainich-Kreis","key":"CountyName"}]},"MapReference":{"ReferenceId":"1061227576","Spot":1.0,"SideOfStreet":"right","CountryId":"20147700","StateId":"20196974","CountyId":"20197560","CityId":"20197649","DistrictId":"20197652","AddressId":"189596907","RoadLinkId":"383304644"}}},{"Relevance":1.0,"Distance":52.1,"MatchLevel":"street","MatchQuality":{"Country":1.0,"State":1.0,"County":1.0,"City":1.0,"District":1.0,"Street":[1.0],"PostalCode":1.0},"Location":{"LocationId":"NT_elyy8w6Y2-.PAXDwRVa2TC_l_1187829761_L","LocationType":"point","DisplayPosition":{"Latitude":51.20233,"Longitude":10.46687},"MapView":{"TopLeft":{"Latitude":51.20236,"Longitude":10.4667},"BottomRight":{"Latitude":51.20227,"Longitude":10.4679}},"Address":{"Label":"Erfurter Höhle, 99974 Mühlhausen/Thüringen, Deutschland","Country":"DEU","State":"Thüringen","County":"Unstrut-Hainich-Kreis","City":"Mühlhausen/Thüringen","District":"Mühlhausen/Thüringen","Street":"Erfurter Höhle","PostalCode":"99974","AdditionalData":[{"value":"Deutschland","key":"CountryName"},{"value":"Thüringen","key":"StateName"},{"value":"Unstrut-Hainich-Kreis","key":"CountyName"}]},"MapReference":{"ReferenceId":"1187829761","Spot":0.15,"SideOfStreet":"left","CountryId":"20147700","StateId":"20196974","CountyId":"20197560","CityId":"20197649","DistrictId":"20197652"}}},{"Relevance":1.0,"Distance":64.2,"MatchLevel":"houseNumber","MatchQuality":{"Country":1.0,"State":1.0,"County":1.0,"City":1.0,"District":1.0,"Street":[1.0],"HouseNumber":1.0,"PostalCode":1.0},"MatchType":"interpolated","Location":{"LocationId":"NT_elyy8w6Y2-.PAXDwRVa2TC_yQE","LocationType":"point","DisplayPosition":{"Latitude":51.20222,"Longitude":10.46671},"MapView":{"TopLeft":{"Latitude":51.2033442,"Longitude":10.4649159},"BottomRight":{"Latitude":51.2010958,"Longitude":10.4685041}},"Address":{"Label":"Erfurter Höhle 2D, 99974 Mühlhausen/Thüringen, Deutschland","Country":"DEU","State":"Thüringen","County":"Unstrut-Hainich-Kreis","City":"Mühlhausen/Thüringen","District":"Mühlhausen/Thüringen","Street":"Erfurter Höhle","HouseNumber":"2D","PostalCode":"99974","AdditionalData":[{"value":"Deutschland","key":"CountryName"},{"value":"Thüringen","key":"StateName"},{"value":"Unstrut-Hainich-Kreis","key":"CountyName"}]},"MapReference":{"ReferenceId":"548115984","Spot":0.95,"SideOfStreet":"left","CountryId":"20147700","StateId":"20196974","CountyId":"20197560","CityId":"20197649","DistrictId":"20197652","AddressId":"364920829","RoadLinkId":"39922865"}}},{"Relevance":1.0,"Distance":64.5,"MatchLevel":"houseNumber","MatchQuality":{"Country":1.0,"State":1.0,"County":1.0,"City":1.0,"District":1.0,"Street":[1.0],"HouseNumber":1.0,"PostalCode":1.0},"MatchType":"interpolated","Location":{"LocationId":"NT_EVear2wlBhpOFUz5CG052D_4A","LocationType":"point","DisplayPosition":{"Latitude":51.20302,"Longitude":10.4677},"MapView":{"TopLeft":{"Latitude":51.2041442,"Longitude":10.4659058},"BottomRight":{"Latitude":51.2018958,"Longitude":10.4694942}},"Address":{"Label":"Langensalzaer Landstraße 8, 99974 Mühlhausen/Thüringen, Deutschland","Country":"DEU","State":"Thüringen","County":"Unstrut-Hainich-Kreis","City":"Mühlhausen/Thüringen","District":"Mühlhausen/Thüringen","Street":"Langensalzaer Landstraße","HouseNumber":"8","PostalCode":"99974","AdditionalData":[{"value":"Deutschland","key":"CountryName"},{"value":"Thüringen","key":"StateName"},{"value":"Unstrut-Hainich-Kreis","key":"CountyName"}]},"MapReference":{"ReferenceId":"917810374","Spot":0.28,"SideOfStreet":"left","CountryId":"20147700","StateId":"20196974","CountyId":"20197560","CityId":"20197649","DistrictId":"20197652","AddressId":"199135577","RoadLinkId":"275410420"}}},{"Relevance":1.0,"Distance":65.0,"MatchLevel":"street","MatchQuality":{"Country":1.0,"State":1.0,"County":1.0,"City":1.0,"District":1.0,"Street":[1.0],"PostalCode":1.0},"Location":{"LocationId":"NT_iHGgHq-pn233X7yo0jjURD_l_1061555399_R","LocationType":"point","DisplayPosition":{"Latitude":51.20324,"Longitude":10.46618},"MapView":{"TopLeft":{"Latitude":51.20324,"Longitude":10.4657},"BottomRight":{"Latitude":51.20298,"Longitude":10.46618}},"Address":{"Label":"Martinistraße, 99974 Mühlhausen/Thüringen, Deutschland","Country":"DEU","State":"Thüringen","County":"Unstrut-Hainich-Kreis","City":"Mühlhausen/Thüringen","District":"Mühlhausen/Thüringen","Street":"Martinistraße","PostalCode":"99974","AdditionalData":[{"value":"Deutschland","key":"CountryName"},{"value":"Thüringen","key":"StateName"},{"value":"Unstrut-Hainich-Kreis","key":"CountyName"}]},"MapReference":{"ReferenceId":"1061555399","Spot":1.0,"SideOfStreet":"right","CountryId":"20147700","StateId":"20196974","CountyId":"20197560","CityId":"20197649","DistrictId":"20197652"}}},{"Relevance":1.0,"Distance":65.0,"MatchLevel":"street","MatchQuality":{"Country":1.0,"State":1.0,"County":1.0,"City":1.0,"District":1.0,"Street":[1.0],"PostalCode":1.0},"Location":{"LocationId":"NT_RCj01bm5OXJ8K0E.BLrUiA_l_1061212225_R","LocationType":"point","DisplayPosition":{"Latitude":51.20324,"Longitude":10.46618},"MapView":{"TopLeft":{"Latitude":51.20401,"Longitude":10.46559},"BottomRight":{"Latitude":51.20324,"Longitude":10.46618}},"Address":{"Label":"Langensalzaer Straße, 99974 Mühlhausen/Thüringen, Deutschland","Country":"DEU","State":"Thüringen","County":"Unstrut-Hainich-Kreis","City":"Mühlhausen/Thüringen","District":"Mühlhausen/Thüringen","Street":"Langensalzaer Straße","PostalCode":"99974","AdditionalData":[{"value":"Deutschland","key":"CountryName"},{"value":"Thüringen","key":"StateName"},{"value":"Unstrut-Hainich-Kreis","key":"CountyName"}]},"MapReference":{"ReferenceId":"1061212225","Spot":0.0,"SideOfStreet":"right","CountryId":"20147700","StateId":"20196974","CountyId":"20197560","CityId":"20197649","DistrictId":"20197652"}}},{"Relevance":1.0,"Distance":66.5,"MatchLevel":"street","MatchQuality":{"Country":1.0,"State":1.0,"County":1.0,"City":1.0,"District":1.0,"Street":[1.0],"PostalCode":1.0},"Location":{"LocationId":"NT_O-BDaSjeAwJLQeP5bQ5eYD_l_1061555402_L","LocationType":"point","DisplayPosition":{"Latitude":51.20331,"Longitude":10.4663},"MapView":{"TopLeft":{"Latitude":51.20359,"Longitude":10.46601},"BottomRight":{"Latitude":51.20331,"Longitude":10.4663}},"Address":{"Label":"Langensalzaer Straße, 99974 Mühlhausen/Thüringen, Deutschland","Country":"DEU","State":"Thüringen","County":"Unstrut-Hainich-Kreis","City":"Mühlhausen/Thüringen","District":"Mühlhausen/Thüringen","Street":"Langensalzaer Straße","PostalCode":"99974","AdditionalData":[{"value":"Deutschland","key":"CountryName"},{"value":"Thüringen","key":"StateName"},{"value":"Unstrut-Hainich-Kreis","key":"CountyName"}]},"MapReference":{"ReferenceId":"1061555402","Spot":0.0,"SideOfStreet":"left","CountryId":"20147700","StateId":"20196974","CountyId":"20197560","CityId":"20197649","DistrictId":"20197652"}}}]}]}}