{"Response":{"MetaInfo":{"Timestamp":"2020-03-28T09:33:55.391+0000","NextPageInformation":"2"},"View":[{"_type":"SearchResultsViewType","ViewId":0,"Result":[{"Relevance":1.0,"Distance":0.0,"Direction":0.0,"MatchLevel":"district","MatchQuality":{"Country":1.0,"State":1.0,"County":1.0,"City":1.0,"District":1.0,"PostalCode":1.0},"Location":{"LocationId":"NT_dxuORSFfqIa4HUFH0jcQrB","LocationType":"point","DisplayPosition":{"Latitude":51.2188461,"Longitude":3.2220604},"MapView":{"TopLeft":{"Latitude":51.2213,"Longitude":3.22018},"BottomRight":{"Latitude":51.21487,"Longitude":3.23107}},"Address":{"Label":"Sint-Jozef Kliniek, Brugge, Vlaanderen, België","Country":"BEL","State":"Vlaanderen","County":"West-Vlaanderen","City":"Brugge","District":"Sint-Jozef Kliniek","PostalCode":"8000","AdditionalData":[{"value":"België","key":"CountryName"},{"value":"Vlaanderen","key":"StateName"},{"value":"West-Vlaanderen","key":"CountyName"}]},"MapReference":{"ReferenceId":"580416443","SideOfStreet":"neither","CountryId":"20128886","StateId":"20204377","CountyId":"20204694","CityId":"20204703"}}},{"Relevance":1.0,"Distance":5.1,"MatchLevel":"houseNumber","MatchQuality":{"Country":1.0,"State":1.0,"County":1.0,"City":1.0,"District":1.0,"Street":[1.0],"HouseNumber":1.0,"PostalCode":1.0},"MatchType":"interpolated","Location":{"LocationId":"NT_pPPfR-cVoalBSj6o9kWJOB_3cD","LocationType":"point","DisplayPosition":{"Latitude":51.21889,"Longitude":3.22208},"MapView":{"TopLeft":{"Latitude":51.2200142,"Longitude":3.2202852},"BottomRight":{"Latitude":51.2177658,"Longitude":3.2238748}},"Address":{"Label":"Sint-Claradreef 77, 8000 Brugge, België","Country":"BEL","State":"Vlaanderen","County":"West-Vlaanderen","City":"Brugge","District":"Sint-Jozef Kliniek","Street":"Sint-Claradreef","HouseNumber":"77","PostalCode":"8000","AdditionalData":[{"value":"België","key":"CountryName"},{"value":"Vlaanderen","key":"StateName"},{"value":"West-Vlaanderen","key":"CountyName"}]},"MapReference":{"ReferenceId":"580416421","Spot":0.19,"SideOfStreet":"right","CountryId":"20128886","StateId":"20204377","CountyId":"20204694","CityId":"20204703","AddressId":"400920123","RoadLinkId":"30893580"}}},{"Relevance":1.0,"Distance":38.5,"MatchLevel":"street","MatchQuality":{"Country":1.0,"State":1.0,"County":1.0,"City":1.0,"District":1.0,"Street":[1.0],"PostalCode":1.0},"Location":{"LocationId":"NT_pPPfR-cVoalBSj6o9kWJOB_l_53960037_R","LocationType":"point","DisplayPosition":{"Latitude":51.21888,"Longitude":3.22151},"MapView":{"TopLeft":{"Latitude":51.21901,"Longitude":3.2213},"BottomRight":{"Latitude":51.21888,"Longitude":3.22151}},"Address":{"Label":"Sint-Claradreef, 8000 Brugge, België","Country":"BEL","State":"Vlaanderen","County":"West-Vlaanderen","City":"Brugge","District":"Sint-Jozef Kliniek","Street":"Sint-Claradreef","PostalCode":"8000","AdditionalData":[{"value":"België","key":"CountryName"},{"value":"Vlaanderen","key":"StateName"},{"value":"West-Vlaanderen","key":"CountyName"}]},"MapReference":{"ReferenceId":"53960037","Spot":0.0,"SideOfStreet":"right","CountryId":"20128886","StateId":"20204377","CountyId":"20204694","CityId":"20204703"}}},{"Relevance":1.0,"Distance":38.5,"MatchLevel":"houseNumber","MatchQuality":{"Country":1.0,"State":1.0,"County":1.0,"City":1.0,"District":1.0,"Street":[1.0],"HouseNumber":1.0,"PostalCode":1.0},"MatchType":"interpolated","Location":{"LocationId":"NT_t2SPdKzqDv4u-Pv8HsqOjC_l_819395398_R_zQD","LocationType":"point","DisplayPosition":{"Latitude":51.2192206,"Longitude":3.2215908},"MapView":{"TopLeft":{"Latitude":51.2203447,"Longitude":3.219796},"BottomRight":{"Latitude":51.2180964,"Longitude":3.2233856}},"Address":{"Label":"Komvest 34, 8000 Brugge, België","Country":"BEL","State":"Vlaanderen","County":"West-Vlaanderen","City":"Brugge","District":"Sint-Jozef Kliniek","Street":"Komvest","HouseNumber":"34","PostalCode":"8000","AdditionalData":[{"value":"België","key":"CountryName"},{"value":"Vlaanderen","key":"StateName"},{"value":"West-Vlaanderen","key":"CountyName"}]},"MapReference":{"ReferenceId":"819395398","Spot":0.49,"SideOfStreet":"right","CountryId":"20128886","StateId":"20204377","CountyId":"20204694","CityId":"20204703"}}},{"Relevance":1.0,"Distance":42.8,"MatchLevel":"houseNumber","MatchQuality":{"Country":1.0,"State":1.0,"County":1.0,"City":1.0,"District":1.0,"Street":[1.0],"HouseNumber":1.0,"PostalCode":1.0},"MatchType":"interpolated","Location":{"LocationId":"NT_t2SPdKzqDv4u-Pv8HsqOjC_zID","LocationType":"point","DisplayPosition":{"Latitude":51.21879,"Longitude":3.22142},"MapView":{"TopLeft":{"Latitude":51.2199142,"Longitude":3.2196252},"BottomRight":{"Latitude":51.2176658,"Longitude":3.2232148}},"Address":{"Label":"Komvest 32, 8000 Brugge, België","Country":"BEL","State":"Vlaanderen","County":"West-Vlaanderen","City":"Brugge","District":"Sint-Jozef Kliniek","Street":"Komvest","HouseNumber":"32","PostalCode":"8000","AdditionalData":[{"value":"België","key":"CountryName"},{"value":"Vlaanderen","key":"StateName"},{"value":"West-Vlaanderen","key":"CountyName"}]},"MapReference":{"ReferenceId":"716467775","Spot":0.8,"SideOfStreet":"right","CountryId":"20128886","StateId":"20204377","CountyId":"20204694","CityId":"20204703","AddressId":"626363290","RoadLinkId":"121413385"}}},{"Relevance":1.0,"Distance":56.0,"MatchLevel":"houseNumber","MatchQuality":{"Country":1.0,"State":1.0,"County":1.0,"City":1.0,"District":1.0,"Street":[1.0],"HouseNumber":1.0,"PostalCode":1.0},"MatchType":"interpolated","Location":{"LocationId":"NT_t2SPdKzqDv4u-Pv8HsqOjC_l_819395399_R_zQD","LocationType":"point","DisplayPosition":{"Latitude":51.2194684,"Longitude":3.2219241},"MapView":{"TopLeft":{"Latitude":51.2205926,"Longitude":3.2201293},"BottomRight":{"Latitude":51.2183443,"Longitude":3.2237189}},"Address":{"Label":"Komvest 34, 8000 Brugge, België","Country":"BEL","State":"Vlaanderen","County":"West-Vlaanderen","City":"Brugge","District":"Sint-Jozef Kliniek","Street":"Komvest","HouseNumber":"34","PostalCode":"8000","AdditionalData":[{"value":"België","key":"CountryName"},{"value":"Vlaanderen","key":"StateName"},{"value":"West-Vlaanderen","key":"CountyName"}]},"MapReference":{"ReferenceId":"819395399","Spot":0.57,"SideOfStreet":"right","CountryId":"20128886","StateId":"20204377","CountyId":"20204694","CityId":"20204703"}}},{"Relevance":1.0,"Distance":56.0,"MatchLevel":"street","MatchQuality":{"Country":1.0,"State":1.0,"County":1.0,"City":1.0,"District":1.0,"Street":[1.0],"PostalCode":1.0},"Location":{"LocationId":"NT_kQ6S9dyK-w7qXHibWe74sC_l_53960034_R","LocationType":"point","DisplayPosition":{"Latitude":51.21901,"Longitude":3.2213},"MapView":{"TopLeft":{"Latitude":51.21901,"Longitude":3.22078},"BottomRight":{"Latitude":51.21862,"Longitude":3.2213}},"Address":{"Label":"Komvest, 8000 Brugge, België","Country":"BEL","State":"Vlaanderen","County":"West-Vlaanderen","City":"Brugge","District":"Sint-Jozef Kliniek","Street":"Komvest","PostalCode":"8000","AdditionalData":[{"value":"België","key":"CountryName"},{"value":"Vlaanderen","key":"StateName"},{"value":"West-Vlaanderen","key":"CountyName"}]},"MapReference":{"ReferenceId":"53960034","Spot":1.0,"SideOfStreet":"right","CountryId":"20128886","StateId":"20204377","CountyId":"20204694","CityId":"20204703"}}},{"Relevance":1.0,"Distance":62.5,"MatchLevel":"houseNumber","MatchQuality":{"Country":1.0,"State":1.0,"County":1.0,"City":1.0,"District":1.0,"Street":[1.0],"HouseNumber":1.0,"PostalCode":1.0},"MatchType":"interpolated","Location":{"LocationId":"NT_t2SPdKzqDv4u-Pv8HsqOjC_zQD","LocationType":"point","DisplayPosition":{"Latitude":51.21959,"Longitude":3.22209},"MapView":{"TopLeft":{"Latitude":51.2207142,"Longitude":3.2202952},"BottomRight":{"Latitude":51.2184658,"Longitude":3.2238848}},"Address":{"Label":"Komvest 34, 8000 Brugge, België","Country":"BEL","State":"Vlaanderen","County":"West-Vlaanderen","City":"Brugge","District":"Sint-Jozef Kliniek","Street":"Komvest","HouseNumber":"34","PostalCode":"8000","AdditionalData":[{"value":"België","key":"CountryName"},{"value":"Vlaanderen","key":"StateName"},{"value":"West-Vlaanderen","key":"CountyName"}]},"MapReference":{"ReferenceId":"60827329","Spot":0.56,"SideOfStreet":"right","CountryId":"20128886","StateId":"20204377","CountyId":"20204694","CityId":"20204703","AddressId":"400699226","RoadLinkId":"30236383"}}},{"Relevance":1.0,"Distance":67.1,"MatchLevel":"street","MatchQuality":{"Country":1.0,"State":1.0,"County":1.0,"City":1.0,"District":1.0,"PostalCode":1.0},"Location":{"LocationId":"NT_.jlP7car5FUJCBh-jRmySD_l_819395400_L","LocationType":"point","DisplayPosition":{"Latitude":51.21944,"Longitude":3.22189},"MapView":{"TopLeft":{"Latitude":51.21954,"Longitude":3.22173},"BottomRight":{"Latitude":51.21944,"Longitude":3.22189}},"Address":{"Label":"8000 Brugge, België","Country":"BEL","State":"Vlaanderen","County":"West-Vlaanderen","City":"Brugge","District":"Sint-Jozef Kliniek","PostalCode":"8000","AdditionalData":[{"value":"België","key":"CountryName"},{"value":"Vlaanderen","key":"StateName"},{"value":"West-Vlaanderen","key":"CountyName"}]},"MapReference":{"ReferenceId":"819395400","Spot":0.0,"SideOfStreet":"left","CountryId":"20128886","StateId":"20204377","CountyId":"20204694","CityId":"20204703"}}},{"Relevance":1.0,"Distance":72.0,"MatchLevel":"street","MatchQuality":{"Country":1.0,"State":1.0,"County":1.0,"City":1.0,"District":1.0,"Street":[1.0],"PostalCode":1.0},"Location":{"LocationId":"NT_ALQaceQI1.8oetoMZ55pVD_l_60827327_L","LocationType":"point","DisplayPosition":{"Latitude":51.21949,"Longitude":3.22195},"MapView":{"TopLeft":{"Latitude":51.21959,"Longitude":3.2218},"BottomRight":{"Latitude":51.21949,"Longitude":3.22195}},"Address":{"Label":"Leopold II-Laan, 8000 Brugge, België","Country":"BEL","State":"Vlaanderen","County":"West-Vlaanderen","City":"Brugge","District":"Sint-Jozef Kliniek","Street":"Leopold II-Laan","PostalCode":"8000","AdditionalData":[{"value":"België","key":"CountryName"},{"value":"Vlaanderen","key":"StateName"},{"value":"West-Vlaanderen","key":"CountyName"}]},"MapReference":{"ReferenceId":"60827327","Spot":0.0,"SideOfStreet":"left","CountryId":"20128886","StateId":"20204377","CountyId":"20204694","CityId":"20204703"}}}]}]}}