{"Response":{"MetaInfo":{"Timestamp":"2020-03-28T10:48:27.286+0000","NextPageInformation":"2"},"View":[{"_type":"SearchResultsViewType","ViewId":0,"Result":[{"Relevance":1.0,"Distance":0.0,"Direction":0.0,"MatchLevel":"district","MatchQuality":{"Country":1.0,"State":1.0,"County":1.0,"City":1.0,"District":1.0,"PostalCode":1.0},"Location":{"LocationId":"NT_sR5RS3o4I2xKWNR-M3p1jA","LocationType":"point","DisplayPosition":{"Latitude":51.2298116,"Longitude":22.5099156},"MapView":{"TopLeft":{"Latitude":51.29638,"Longitude":22.45388},"BottomRight":{"Latitude":51.15212,"Longitude":22.67337}},"Address":{"Label":"Lublin, Woj. Lubelskie, Polska","Country":"POL","State":"Woj. Lubelskie","County":"Lublin","City":"Lublin","District":"Lublin","PostalCode":"20-115","AdditionalData":[{"value":"Polska","key":"CountryName"},{"value":"Woj. Lubelskie","key":"StateName"},{"value":"Lublin","key":"CountyName"}]},"MapReference":{"ReferenceId":"1112486877","SideOfStreet":"neither","CountryId":"20624059","StateId":"20626116","CountyId":"20626123","CityId":"20626124","DistrictId":"20646762"}}},{"Relevance":1.0,"Distance":7.7,"MatchLevel":"houseNumber","MatchQuality":{"Country":1.0,"State":1.0,"County":1.0,"City":1.0,"District":1.0,"Street":[1.0],"HouseNumber":1.0,"PostalCode":1.0},"MatchType":"interpolated","Location":{"LocationId":"NT_QGRfQXX.u5U28vDZdhANkC_3A","LocationType":"point","DisplayPosition":{"Latitude":51.22929,"Longitude":22.5101},"MapView":{"TopLeft":{"Latitude":51.2304142,"Longitude":22.5083048},"BottomRight":{"Latitude":51.2281658,"Longitude":22.5118952}},"Address":{"Label":"ulica Tymiankowa 7, 20-542 Lublin, Polska","Country":"POL","State":"Woj. Lubelskie","County":"Lublin","City":"Lublin","District":"Lublin","Street":"ulica Tymiankowa","HouseNumber":"7","PostalCode":"20-542","AdditionalData":[{"value":"Polska","key":"CountryName"},{"value":"Woj. Lubelskie","key":"StateName"},{"value":"Lublin","key":"CountyName"}]},"MapReference":{"ReferenceId":"983389314","Spot":0.59,"SideOfStreet":"left","CountryId":"20624059","StateId":"20626116","CountyId":"20626123","CityId":"20626124","DistrictId":"20646762","AddressId":"210192441","RoadLinkId":"329291211"}}},{"Relevance":1.0,"Distance":28.3,"MatchLevel":"houseNumber","MatchQuality":{"Country":1.0,"State":1.0,"County":1.0,"City":1.0,"District":1.0,"Street":[1.0],"HouseNumber":1.0,"PostalCode":1.0},"MatchType":"interpolated","Location":{"LocationId":"NT_E7C7NOcREWnu6yHG3ScggA_2AD","LocationType":"point","DisplayPosition":{"Latitude":51.22966,"Longitude":22.50959},"MapView":{"TopLeft":{"Latitude":51.2307842,"Longitude":22.5077948},"BottomRight":{"Latitude":51.2285358,"Longitude":22.5113852}},"Address":{"Label":"aleja Jana Pawła II 60, 20-542 Lublin, Polska","Country":"POL","State":"Woj. Lubelskie","County":"Lublin","City":"Lublin","District":"Lublin","Street":"aleja Jana Pawła II","HouseNumber":"60","PostalCode":"20-542","AdditionalData":[{"value":"Polska","key":"CountryName"},{"value":"Woj. Lubelskie","key":"StateName"},{"value":"Lublin","key":"CountyName"}]},"MapReference":{"ReferenceId":"1155458132","Spot":0.91,"SideOfStreet":"left","CountryId":"20624059","StateId":"20626116","CountyId":"20626123","CityId":"20626124","DistrictId":"20646762","AddressId":"353127868","RoadLinkId":"461668325"}}},{"Relevance":1.0,"Distance":112.2,"MatchLevel":"houseNumber","MatchQuality":{"Country":1.0,"State":1.0,"County":1.0,"City":1.0,"District":1.0,"Street":[1.0],"HouseNumber":1.0,"PostalCode":1.0},"MatchType":"interpolated","Location":{"LocationId":"NT_4o47nIUoU63PwLMCRhCvJD_xQD","LocationType":"point","DisplayPosition":{"Latitude":51.23107,"Longitude":22.50857},"MapView":{"TopLeft":{"Latitude":51.2321942,"Longitude":22.5067747},"BottomRight":{"Latitude":51.2299458,"Longitude":22.5103653}},"Address":{"Label":"ulica Tatarakowa 14, 20-541 Lublin, Polska","Country":"POL","State":"Woj. Lubelskie","County":"Lublin","City":"Lublin","District":"Lublin","Street":"ulica Tatarakowa","HouseNumber":"14","PostalCode":"20-541","AdditionalData":[{"value":"Polska","key":"CountryName"},{"value":"Woj. Lubelskie","key":"StateName"},{"value":"Lublin","key":"CountyName"}]},"MapReference":{"ReferenceId":"1204035366","Spot":0.32,"SideOfStreet":"right","CountryId":"20624059","StateId":"20626116","CountyId":"20626123","CityId":"20626124","DistrictId":"20646762","AddressId":"211156334","RoadLinkId":"517198543"}}},{"Relevance":1.0,"Distance":126.1,"MatchLevel":"houseNumber","MatchQuality":{"Country":1.0,"State":1.0,"County":1.0,"City":1.0,"District":1.0,"Street":[1.0],"HouseNumber":1.0,"PostalCode":1.0},"MatchType":"interpolated","Location":{"LocationId":"NT_E7C7NOcREWnu6yHG3ScggA_1gD","LocationType":"point","DisplayPosition":{"Latitude":51.2287,"Longitude":22.50956},"MapView":{"TopLeft":{"Latitude":51.2298242,"Longitude":22.5077648},"BottomRight":{"Latitude":51.2275758,"Longitude":22.5113552}},"Address":{"Label":"aleja Jana Pawła II 58, 20-542 Lublin, Polska","Country":"POL","State":"Woj. Lubelskie","County":"Lublin","City":"Lublin","District":"Lublin","Street":"aleja Jana Pawła II","HouseNumber":"58","PostalCode":"20-542","AdditionalData":[{"value":"Polska","key":"CountryName"},{"value":"Woj. Lubelskie","key":"StateName"},{"value":"Lublin","key":"CountyName"}]},"MapReference":{"ReferenceId":"1156048424","Spot":0.0,"SideOfStreet":"left","CountryId":"20624059","StateId":"20626116","CountyId":"20626123","CityId":"20626124","DistrictId":"20646762","AddressId":"353127867","RoadLinkId":"462286156"}}},{"Relevance":1.0,"Distance":126.1,"MatchLevel":"street","MatchQuality":{"Country":1.0,"State":1.0,"County":1.0,"City":1.0,"District":1.0,"Street":[1.0],"PostalCode":1.0},"Location":{"LocationId":"NT_QGRfQXX.u5U28vDZdhANkC_l_1156048426_L","LocationType":"point","DisplayPosition":{"Latitude":51.2287,"Longitude":22.50956},"MapView":{"TopLeft":{"Latitude":51.2287,"Longitude":22.5095},"BottomRight":{"Latitude":51.22853,"Longitude":22.50956}},"Address":{"Label":"aleja Jana Pawła II, 20-542 Lublin, Polska","Country":"POL","State":"Woj. Lubelskie","County":"Lublin","City":"Lublin","District":"Lublin","Street":"aleja Jana Pawła II","PostalCode":"20-542","AdditionalData":[{"value":"Polska","key":"CountryName"},{"value":"Woj. Lubelskie","key":"StateName"},{"value":"Lublin","key":"CountyName"}]},"MapReference":{"ReferenceId":"1156048426","Spot":1.0,"SideOfStreet":"left","CountryId":"20624059","StateId":"20626116","CountyId":"20626123","CityId":"20626124","DistrictId":"20646762"}}},{"Relevance":1.0,"Distance":134.6,"MatchLevel":"houseNumber","MatchQuality":{"Country":1.0,"State":1.0,"County":1.0,"City":1.0,"District":1.0,"Street":[1.0],"HouseNumber":1.0,"PostalCode":1.0},"MatchType":"interpolated","Location":{"LocationId":"NT_4o47nIUoU63PwLMCRhCvJD_xAD","LocationType":"point","DisplayPosition":{"Latitude":51.23123,"Longitude":22.51013},"MapView":{"TopLeft":{"Latitude":51.2323542,"Longitude":22.5083347},"BottomRight":{"Latitude":51.2301058,"Longitude":22.5119253}},"Address":{"Label":"ulica Tatarakowa 10, 20-541 Lublin, Polska","Country":"POL","State":"Woj. Lubelskie","County":"Lublin","City":"Lublin","District":"Lublin","Street":"ulica Tatarakowa","HouseNumber":"10","PostalCode":"20-541","AdditionalData":[{"value":"Polska","key":"CountryName"},{"value":"Woj. Lubelskie","key":"StateName"},{"value":"Lublin","key":"CountyName"}]},"MapReference":{"ReferenceId":"1203313854","Spot":0.97,"SideOfStreet":"left","CountryId":"20624059","StateId":"20626116","CountyId":"20626123","CityId":"20626124","DistrictId":"20646762","AddressId":"210491110","RoadLinkId":"516316479"}}},{"Relevance":1.0,"Distance":158.8,"MatchLevel":"street","MatchQuality":{"Country":1.0,"State":1.0,"County":1.0,"City":1.0,"District":1.0,"PostalCode":1.0},"Location":{"LocationId":"NT_vykmSQCcjNPhcjWbtm3MYB_l_1203313846_L","LocationType":"point","DisplayPosition":{"Latitude":51.23112,"Longitude":22.51083},"MapView":{"TopLeft":{"Latitude":51.23132,"Longitude":22.51083},"BottomRight":{"Latitude":51.23112,"Longitude":22.51093}},"Address":{"Label":"20-541 Lublin, Polska","Country":"POL","State":"Woj. Lubelskie","County":"Lublin","City":"Lublin","District":"Lublin","PostalCode":"20-541","AdditionalData":[{"value":"Polska","key":"CountryName"},{"value":"Woj. Lubelskie","key":"StateName"},{"value":"Lublin","key":"CountyName"}]},"MapReference":{"ReferenceId":"1203313846","Spot":0.0,"SideOfStreet":"left","CountryId":"20624059","StateId":"20626116","CountyId":"20626123","CityId":"20626124","DistrictId":"20646762"}}},{"Relevance":1.0,"Distance":159.4,"MatchLevel":"street","MatchQuality":{"Country":1.0,"State":1.0,"County":1.0,"City":1.0,"District":1.0,"PostalCode":1.0},"Location":{"LocationId":"NT_vykmSQCcjNPhcjWbtm3MYB_l_1203313856_R","LocationType":"point","DisplayPosition":{"Latitude":51.23124,"Longitude":22.51011},"MapView":{"TopLeft":{"Latitude":51.23169,"Longitude":22.51011},"BottomRight":{"Latitude":51.23124,"Longitude":22.51028}},"Address":{"Label":"20-541 Lublin, Polska","Country":"POL","State":"Woj. Lubelskie","County":"Lublin","City":"Lublin","District":"Lublin","PostalCode":"20-541","AdditionalData":[{"value":"Polska","key":"CountryName"},{"value":"Woj. Lubelskie","key":"StateName"},{"value":"Lublin","key":"CountyName"}]},"MapReference":{"ReferenceId":"1203313856","Spot":0.0,"SideOfStreet":"right","CountryId":"20624059","StateId":"20626116","CountyId":"20626123","CityId":"20626124","DistrictId":"20646762"}}},{"Relevance":1.0,"Distance":159.5,"MatchLevel":"street","MatchQuality":{"Country":1.0,"State":1.0,"County":1.0,"City":1.0,"District":1.0,"Street":[1.0],"PostalCode":1.0},"Location":{"LocationId":"NT_4o47nIUoU63PwLMCRhCvJD_l_1203313855_L","LocationType":"point","DisplayPosition":{"Latitude":51.231242,"Longitude":22.5100944},"MapView":{"TopLeft":{"Latitude":51.23125,"Longitude":22.51003},"BottomRight":{"Latitude":51.23124,"Longitude":22.51011}},"Address":{"Label":"ulica Tatarakowa, 20-541 Lublin, Polska","Country":"POL","State":"Woj. Lubelskie","County":"Lublin","City":"Lublin","District":"Lublin","Street":"ulica Tatarakowa","PostalCode":"20-541","AdditionalData":[{"value":"Polska","key":"CountryName"},{"value":"Woj. Lubelskie","key":"StateName"},{"value":"Lublin","key":"CountyName"}]},"MapReference":{"ReferenceId":"1203313855","Spot":0.2,"SideOfStreet":"left","CountryId":"20624059","StateId":"20626116","CountyId":"20626123","CityId":"20626124","DistrictId":"20646762"}}}]}]}}