{"Response":{"MetaInfo":{"Timestamp":"2020-03-28T10:36:49.134+0000","NextPageInformation":"2"},"View":[{"_type":"SearchResultsViewType","ViewId":0,"Result":[{"Relevance":1.0,"Distance":0.0,"Direction":0.0,"MatchLevel":"district","MatchQuality":{"Country":1.0,"State":1.0,"County":1.0,"City":1.0,"District":1.0,"PostalCode":1.0},"Location":{"LocationId":"NT_46wF9fVsktVwgBUKZuyPMB","LocationType":"point","DisplayPosition":{"Latitude":51.2414857,"Longitude":-0.5840291},"MapView":{"TopLeft":{"Latitude":51.26755,"Longitude":-0.6209},"BottomRight":{"Latitude":51.20513,"Longitude":-0.51942}},"Address":{"Label":"Guildford, England, United Kingdom","Country":"GBR","State":"England","County":"Surrey","City":"Guildford","District":"Guildford","PostalCode":"GU1 4","AdditionalData":[{"value":"United Kingdom","key":"CountryName"},{"value":"England","key":"StateName"},{"value":"Surrey","key":"CountyName"}]},"MapReference":{"ReferenceId":"25547906","SideOfStreet":"neither","StateId":"20248595","CountyId":"20338357","CityId":"20338497","DistrictId":"20338498"}}},{"Relevance":1.0,"Distance":4.5,"MatchLevel":"street","MatchQuality":{"Country":1.0,"State":1.0,"County":1.0,"City":1.0,"District":1.0,"PostalCode":1.0},"Location":{"LocationId":"NT_y9Xla9PvXRLFqArAiib3rB_l_566032081_L","LocationType":"point","DisplayPosition":{"Latitude":51.2415039,"Longitude":-0.5839708},"MapView":{"TopLeft":{"Latitude":51.24214,"Longitude":-0.58417},"BottomRight":{"Latitude":51.24103,"Longitude":-0.58377}},"Address":{"Label":"Guildford, GU2 7, United Kingdom","Country":"GBR","State":"England","County":"Surrey","City":"Guildford","District":"Guildford","PostalCode":"GU2 7","AdditionalData":[{"value":"United Kingdom","key":"CountryName"},{"value":"England","key":"StateName"},{"value":"Surrey","key":"CountyName"}]},"MapReference":{"ReferenceId":"566032081","Spot":0.44,"SideOfStreet":"left","StateId":"20248595","CountyId":"20338357","CityId":"20338497","DistrictId":"20338498"}}},{"Relevance":1.0,"Distance":27.1,"MatchLevel":"postalCode","MatchQuality":{"PostalCode":1.0},"Location":{"LocationId":"NT_y9Xla9PvXRLFqArAiib3rB_l_566032081_L","LocationType":"point","DisplayPosition":{"Latitude":51.24125,"Longitude":-0.58393},"MapView":{"TopLeft":{"Latitude":51.2502432,"Longitude":-0.5982952},"BottomRight":{"Latitude":51.2322568,"Longitude":-0.5695648}},"Address":{"Label":"GU2 7JN, Guildford, England, United Kingdom","Country":"GBR","State":"England","County":"Surrey","City":"Guildford","PostalCode":"GU2 7JN","AdditionalData":[{"value":"United Kingdom","key":"CountryName"},{"value":"England","key":"StateName"},{"value":"Surrey","key":"CountyName"}]},"MapReference":{"ReferenceId":"566032081","Spot":0.44,"SideOfStreet":"neither","StateId":"20248595","CountyId":"20338357","CityId":"20338497"}}},{"Relevance":1.0,"Distance":53.8,"MatchLevel":"street","MatchQuality":{"Country":1.0,"State":1.0,"County":1.0,"City":1.0,"District":1.0,"PostalCode":1.0},"Location":{"LocationId":"NT_58W9xCRFaWntkM.oZAmnHA_l_1078777256_L","LocationType":"point","DisplayPosition":{"Latitude":51.24103,"Longitude":-0.58377},"MapView":{"TopLeft":{"Latitude":51.24155,"Longitude":-0.58377},"BottomRight":{"Latitude":51.24103,"Longitude":-0.58224}},"Address":{"Label":"Guildford, GU1 4, United Kingdom","Country":"GBR","State":"England","County":"Surrey","City":"Guildford","District":"Guildford","PostalCode":"GU1 4","AdditionalData":[{"value":"United Kingdom","key":"CountryName"},{"value":"England","key":"StateName"},{"value":"Surrey","key":"CountyName"}]},"MapReference":{"ReferenceId":"1078777256","Spot":0.0,"SideOfStreet":"left","StateId":"20248595","CountyId":"20338357","CityId":"20338497","DistrictId":"20338498"}}},{"Relevance":1.0,"Distance":53.8,"MatchLevel":"street","MatchQuality":{"Country":1.0,"State":1.0,"County":1.0,"City":1.0,"District":1.0,"PostalCode":1.0},"Location":{"LocationId":"NT_y9Xla9PvXRLFqArAiib3rB_l_566032084_R","LocationType":"point","DisplayPosition":{"Latitude":51.24103,"Longitude":-0.58377},"MapView":{"TopLeft":{"Latitude":51.24103,"Longitude":-0.58377},"BottomRight":{"Latitude":51.24085,"Longitude":-0.58364}},"Address":{"Label":"Guildford, GU2 7, United Kingdom","Country":"GBR","State":"England","County":"Surrey","City":"Guildford","District":"Guildford","PostalCode":"GU2 7","AdditionalData":[{"value":"United Kingdom","key":"CountryName"},{"value":"England","key":"StateName"},{"value":"Surrey","key":"CountyName"}]},"MapReference":{"ReferenceId":"566032084","Spot":1.0,"SideOfStreet":"right","StateId":"20248595","CountyId":"20338357","CityId":"20338497","DistrictId":"20338498"}}},{"Relevance":1.0,"Distance":55.0,"MatchLevel":"street","MatchQuality":{"Country":1.0,"State":1.0,"County":1.0,"City":1.0,"District":1.0,"PostalCode":1.0},"Location":{"LocationId":"NT_y9Xla9PvXRLFqArAiib3rB_l_566032082_L","LocationType":"point","DisplayPosition":{"Latitude":51.2410094,"Longitude":-0.5838159},"MapView":{"TopLeft":{"Latitude":51.24103,"Longitude":-0.58482},"BottomRight":{"Latitude":51.24056,"Longitude":-0.58377}},"Address":{"Label":"Guildford, GU2 7, United Kingdom","Country":"GBR","State":"England","County":"Surrey","City":"Guildford","District":"Guildford","PostalCode":"GU2 7","AdditionalData":[{"value":"United Kingdom","key":"CountryName"},{"value":"England","key":"StateName"},{"value":"Surrey","key":"CountyName"}]},"MapReference":{"ReferenceId":"566032082","Spot":0.96,"SideOfStreet":"left","StateId":"20248595","CountyId":"20338357","CityId":"20338497","DistrictId":"20338498"}}},{"Relevance":1.0,"Distance":72.2,"MatchLevel":"landmark","MatchQuality":{"Country":1.0,"State":1.0,"County":1.0,"City":1.0,"District":1.0,"PostalCode":1.0,"Name":1.0},"Location":{"LocationId":"NT_2HMDrbfEXjejXlR2hV2fIB_p_7YhkrkMbNYkcPftBRQOwfB","LocationType":"universityCollege","Name":"University of Surrey","DisplayPosition":{"Latitude":51.24346,"Longitude":-0.5955},"MapView":{"TopLeft":{"Latitude":51.24564,"Longitude":-0.59552},"BottomRight":{"Latitude":51.24193,"Longitude":-0.58328}},"Address":{"Label":"Guildford, GU2 7, United Kingdom","Country":"GBR","State":"England","County":"Surrey","City":"Guildford","District":"Guildford","PostalCode":"GU2 7","AdditionalData":[{"value":"United Kingdom","key":"CountryName"},{"value":"England","key":"StateName"},{"value":"Surrey","key":"CountyName"}]},"MapReference":{"StateId":"20248595","CountyId":"20338357","CityId":"20338497","DistrictId":"20338498","PlaceId":"18028324"}}},{"Relevance":1.0,"Distance":72.2,"MatchLevel":"landmark","MatchQuality":{"Country":1.0,"State":1.0,"County":1.0,"City":1.0,"District":1.0,"PostalCode":1.0,"Name":1.0},"Location":{"LocationId":"NT_tDAXKf8ibtqp6Y.mLkHumC","LocationType":"industrialComplex","Name":"The Riverside Business Centre","DisplayPosition":{"Latitude":51.24232,"Longitude":-0.5816},"MapView":{"TopLeft":{"Latitude":51.24465,"Longitude":-0.58306},"BottomRight":{"Latitude":51.23998,"Longitude":-0.5792}},"Address":{"Label":"Guildford, GU1 4, United Kingdom","Country":"GBR","State":"England","County":"Surrey","City":"Guildford","District":"Guildford","PostalCode":"GU1 4","AdditionalData":[{"value":"United Kingdom","key":"CountryName"},{"value":"England","key":"StateName"},{"value":"Surrey","key":"CountyName"}]},"MapReference":{"StateId":"20248595","CountyId":"20338357","CityId":"20338497","DistrictId":"20338498","PlaceId":"1407256338"}}},{"Relevance":1.0,"Distance":73.4,"MatchLevel":"street","MatchQuality":{"Country":1.0,"State":1.0,"County":1.0,"City":1.0,"District":1.0,"PostalCode":1.0},"Location":{"LocationId":"NT_y9Xla9PvXRLFqArAiib3rB_l_1032567483_R","LocationType":"point","DisplayPosition":{"Latitude":51.24214,"Longitude":-0.58417},"MapView":{"TopLeft":{"Latitude":51.24218,"Longitude":-0.58671},"BottomRight":{"Latitude":51.24195,"Longitude":-0.58417}},"Address":{"Label":"Guildford, GU2 7, United Kingdom","Country":"GBR","State":"England","County":"Surrey","City":"Guildford","District":"Guildford","PostalCode":"GU2 7","AdditionalData":[{"value":"United Kingdom","key":"CountryName"},{"value":"England","key":"StateName"},{"value":"Surrey","key":"CountyName"}]},"MapReference":{"ReferenceId":"1032567483","Spot":1.0,"SideOfStreet":"right","StateId":"20248595","CountyId":"20338357","CityId":"20338497","DistrictId":"20338498"}}},{"Relevance":1.0,"Distance":73.4,"MatchLevel":"street","MatchQuality":{"Country":1.0,"State":1.0,"County":1.0,"City":1.0,"District":1.0,"PostalCode":1.0},"Location":{"LocationId":"NT_y9Xla9PvXRLFqArAiib3rB_l_25546742_L","LocationType":"point","DisplayPosition":{"Latitude":51.24214,"Longitude":-0.58417},"MapView":{"TopLeft":{"Latitude":51.24328,"Longitude":-0.58769},"BottomRight":{"Latitude":51.24214,"Longitude":-0.58417}},"Address":{"Label":"Guildford, GU2 7, United Kingdom","Country":"GBR","State":"England","County":"Surrey","City":"Guildford","District":"Guildford","PostalCode":"GU2 7","AdditionalData":[{"value":"United Kingdom","key":"CountryName"},{"value":"England","key":"StateName"},{"value":"Surrey","key":"CountyName"}]},"MapReference":{"ReferenceId":"25546742","Spot":0.0,"SideOfStreet":"left","StateId":"20248595","CountyId":"20338357","CityId":"20338497","DistrictId":"20338498"}}}]}]}}