{"Response":{"MetaInfo":{"Timestamp":"2020-03-28T11:00:23.688+0000","NextPageInformation":"2"},"View":[{"_type":"SearchResultsViewType","ViewId":0,"Result":[{"Relevance":1.0,"Distance":-9.3,"MatchLevel":"landmark","MatchQuality":{"Country":1.0,"State":1.0,"Name":1.0},"Location":{"LocationId":"NT_v7NT-ShDzhTfdXP-QSTOLC","LocationType":"woodland","Name":"Kaufunger Wald","DisplayPosition":{"Latitude":51.22193,"Longitude":9.63126},"MapView":{"TopLeft":{"Latitude":51.32837,"Longitude":9.49901},"BottomRight":{"Latitude":51.11548,"Longitude":9.99668}},"Address":{"Label":"Deutschland","Country":"DEU","State":"Hessen","AdditionalData":[{"value":"Deutschland","key":"CountryName"},{"value":"Hessen","key":"StateName"}]},"MapReference":{"CountryId":"20147700","StateId":"20160993","PlaceId":"77684973"}}},{"Relevance":1.0,"Distance":0.0,"Direction":0.0,"MatchLevel":"district","MatchQuality":{"Country":1.0,"State":1.0,"County":1.0,"City":1.0,"District":1.0,"PostalCode":1.0},"Location":{"LocationId":"NT_GcALvQpRTvFPHxnkUIjAjD","LocationType":"point","DisplayPosition":{"Latitude":51.2097605,"Longitude":9.710282},"MapView":{"TopLeft":{"Latitude":51.21562,"Longitude":9.70337},"BottomRight":{"Latitude":51.20973,"Longitude":9.7109}},"Address":{"Label":"Mühlenberg, Hessisch Lichtenau, Hessen, Deutschland","Country":"DEU","State":"Hessen","County":"Werra-Meißner-Kreis","City":"Hessisch Lichtenau","District":"Mühlenberg","PostalCode":"37235","AdditionalData":[{"value":"Deutschland","key":"CountryName"},{"value":"Hessen","key":"StateName"},{"value":"Werra-Meißner-Kreis","key":"CountyName"}]},"MapReference":{"ReferenceId":"1051843179","SideOfStreet":"neither","CountryId":"20147700","StateId":"20160993","CountyId":"20163869","CityId":"20163904","DistrictId":"20226893"}}},{"Relevance":1.0,"Distance":0.8,"MatchLevel":"street","MatchQuality":{"Country":1.0,"State":1.0,"County":1.0,"City":1.0,"Street":[1.0],"PostalCode":1.0},"Location":{"LocationId":"NT_bf4LKcrm0-hl75q6yGPR2B_l_61988811_L","LocationType":"point","DisplayPosition":{"Latitude":51.2097678,"Longitude":9.7102834},"MapView":{"TopLeft":{"Latitude":51.20978,"Longitude":9.71022},"BottomRight":{"Latitude":51.20963,"Longitude":9.711}},"Address":{"Label":"Am Mühlenberg, 37235 Hessisch Lichtenau, Deutschland","Country":"DEU","State":"Hessen","County":"Werra-Meißner-Kreis","City":"Hessisch Lichtenau","Street":"Am Mühlenberg","PostalCode":"37235","AdditionalData":[{"value":"Deutschland","key":"CountryName"},{"value":"Hessen","key":"StateName"},{"value":"Werra-Meißner-Kreis","key":"CountyName"}]},"MapReference":{"ReferenceId":"61988811","Spot":0.92,"SideOfStreet":"neither","CountryId":"20147700","StateId":"20160993","CountyId":"20163869","CityId":"20163904"}}},{"Relevance":1.0,"Distance":4.8,"MatchLevel":"street","MatchQuality":{"Country":1.0,"State":1.0,"County":1.0,"City":1.0,"District":1.0,"Street":[1.0],"PostalCode":1.0},"Location":{"LocationId":"NT_UwJmlW2.FKWc7ygDiGXXeA_l_1037895413_R","LocationType":"point","DisplayPosition":{"Latitude":51.20978,"Longitude":9.71022},"MapView":{"TopLeft":{"Latitude":51.21025,"Longitude":9.70948},"BottomRight":{"Latitude":51.20978,"Longitude":9.71022}},"Address":{"Label":"Am Mühlenberg, 37235 Hessisch Lichtenau, Deutschland","Country":"DEU","State":"Hessen","County":"Werra-Meißner-Kreis","City":"Hessisch Lichtenau","District":"Mühlenberg","Street":"Am Mühlenberg","PostalCode":"37235","AdditionalData":[{"value":"Deutschland","key":"CountryName"},{"value":"Hessen","key":"StateName"},{"value":"Werra-Meißner-Kreis","key":"CountyName"}]},"MapReference":{"ReferenceId":"1037895413","Spot":0.0,"SideOfStreet":"right","CountryId":"20147700","StateId":"20160993","CountyId":"20163869","CityId":"20163904","DistrictId":"20226893"}}},{"Relevance":1.0,"Distance":28.6,"MatchLevel":"houseNumber","MatchQuality":{"Country":1.0,"State":1.0,"County":1.0,"City":1.0,"District":1.0,"Street":[1.0],"HouseNumber":1.0,"PostalCode":1.0},"MatchType":"interpolated","Location":{"LocationId":"NT_UwJmlW2.FKWc7ygDiGXXeA_yA","LocationType":"point","DisplayPosition":{"Latitude":51.21017,"Longitude":9.71035},"MapView":{"TopLeft":{"Latitude":51.2112942,"Longitude":9.7085556},"BottomRight":{"Latitude":51.2090458,"Longitude":9.7121444}},"Address":{"Label":"Am Mühlenberg 2, 37235 Hessisch Lichtenau, Deutschland","Country":"DEU","State":"Hessen","County":"Werra-Meißner-Kreis","City":"Hessisch Lichtenau","District":"Mühlenberg","Street":"Am Mühlenberg","HouseNumber":"2","PostalCode":"37235","AdditionalData":[{"value":"Deutschland","key":"CountryName"},{"value":"Hessen","key":"StateName"},{"value":"Werra-Meißner-Kreis","key":"CountyName"}]},"MapReference":{"ReferenceId":"1051843183","Spot":0.05,"SideOfStreet":"left","CountryId":"20147700","StateId":"20160993","CountyId":"20163869","CityId":"20163904","DistrictId":"20226893","AddressId":"187754947","RoadLinkId":"371477291"}}},{"Relevance":1.0,"Distance":52.1,"MatchLevel":"street","MatchQuality":{"Country":1.0,"State":1.0,"County":1.0,"City":1.0,"Street":[1.0],"PostalCode":1.0},"Location":{"LocationId":"NT_bf4LKcrm0-hl75q6yGPR2B_l_61776649_L","LocationType":"point","DisplayPosition":{"Latitude":51.20963,"Longitude":9.711},"MapView":{"TopLeft":{"Latitude":51.20963,"Longitude":9.711},"BottomRight":{"Latitude":51.20958,"Longitude":9.71111}},"Address":{"Label":"Am Mühlenberg, 37235 Hessisch Lichtenau, Deutschland","Country":"DEU","State":"Hessen","County":"Werra-Meißner-Kreis","City":"Hessisch Lichtenau","Street":"Am Mühlenberg","PostalCode":"37235","AdditionalData":[{"value":"Deutschland","key":"CountryName"},{"value":"Hessen","key":"StateName"},{"value":"Werra-Meißner-Kreis","key":"CountyName"}]},"MapReference":{"ReferenceId":"61776649","Spot":1.0,"SideOfStreet":"left","CountryId":"20147700","StateId":"20160993","CountyId":"20163869","CityId":"20163904"}}},{"Relevance":1.0,"Distance":61.1,"MatchLevel":"street","MatchQuality":{"Country":1.0,"State":1.0,"County":1.0,"City":1.0,"Street":[1.0],"PostalCode":1.0},"Location":{"LocationId":"NT_bf4LKcrm0-hl75q6yGPR2B_l_61776648_L","LocationType":"point","DisplayPosition":{"Latitude":51.20958,"Longitude":9.71111},"MapView":{"TopLeft":{"Latitude":51.20958,"Longitude":9.71111},"BottomRight":{"Latitude":51.20956,"Longitude":9.71115}},"Address":{"Label":"Am Mühlenberg, 37235 Hessisch Lichtenau, Deutschland","Country":"DEU","State":"Hessen","County":"Werra-Meißner-Kreis","City":"Hessisch Lichtenau","Street":"Am Mühlenberg","PostalCode":"37235","AdditionalData":[{"value":"Deutschland","key":"CountryName"},{"value":"Hessen","key":"StateName"},{"value":"Werra-Meißner-Kreis","key":"CountyName"}]},"MapReference":{"ReferenceId":"61776648","Spot":1.0,"SideOfStreet":"left","CountryId":"20147700","StateId":"20160993","CountyId":"20163869","CityId":"20163904"}}},{"Relevance":1.0,"Distance":64.4,"MatchLevel":"street","MatchQuality":{"Country":1.0,"State":1.0,"County":1.0,"City":1.0,"Street":[1.0],"PostalCode":1.0},"Location":{"LocationId":"NT_gf1hsA7YmRgWSLQP6.1XVC_l_61776659_L","LocationType":"point","DisplayPosition":{"Latitude":51.20956,"Longitude":9.71115},"MapView":{"TopLeft":{"Latitude":51.20956,"Longitude":9.71115},"BottomRight":{"Latitude":51.20912,"Longitude":9.71202}},"Address":{"Label":"Im Lindenfeld, 37235 Hessisch Lichtenau, Deutschland","Country":"DEU","State":"Hessen","County":"Werra-Meißner-Kreis","City":"Hessisch Lichtenau","Street":"Im Lindenfeld","PostalCode":"37235","AdditionalData":[{"value":"Deutschland","key":"CountryName"},{"value":"Hessen","key":"StateName"},{"value":"Werra-Meißner-Kreis","key":"CountyName"}]},"MapReference":{"ReferenceId":"61776659","Spot":1.0,"SideOfStreet":"left","CountryId":"20147700","StateId":"20160993","CountyId":"20163869","CityId":"20163904"}}},{"Relevance":1.0,"Distance":76.2,"MatchLevel":"street","MatchQuality":{"Country":1.0,"State":1.0,"County":1.0,"City":1.0,"Street":[1.0],"PostalCode":1.0},"Location":{"LocationId":"NT_bf4LKcrm0-hl75q6yGPR2B_l_1041792129_L","LocationType":"point","DisplayPosition":{"Latitude":51.2091478,"Longitude":9.7107722},"MapView":{"TopLeft":{"Latitude":51.20956,"Longitude":9.71055},"BottomRight":{"Latitude":51.20897,"Longitude":9.71115}},"Address":{"Label":"Am Mühlenberg, 37235 Hessisch Lichtenau, Deutschland","Country":"DEU","State":"Hessen","County":"Werra-Meißner-Kreis","City":"Hessisch Lichtenau","Street":"Am Mühlenberg","PostalCode":"37235","AdditionalData":[{"value":"Deutschland","key":"CountryName"},{"value":"Hessen","key":"StateName"},{"value":"Werra-Meißner-Kreis","key":"CountyName"}]},"MapReference":{"ReferenceId":"1041792129","Spot":0.33,"SideOfStreet":"left","CountryId":"20147700","StateId":"20160993","CountyId":"20163869","CityId":"20163904"}}},{"Relevance":1.0,"Distance":78.6,"MatchLevel":"street","MatchQuality":{"Country":1.0,"State":1.0,"County":1.0,"City":1.0,"District":1.0,"Street":[1.0],"PostalCode":1.0},"Location":{"LocationId":"NT_UwJmlW2.FKWc7ygDiGXXeA_l_1051843181_R","LocationType":"point","DisplayPosition":{"Latitude":51.2102622,"Longitude":9.7094877},"MapView":{"TopLeft":{"Latitude":51.21044,"Longitude":9.70948},"BottomRight":{"Latitude":51.21025,"Longitude":9.7096}},"Address":{"Label":"Am Mühlenberg, 37235 Hessisch Lichtenau, Deutschland","Country":"DEU","State":"Hessen","County":"Werra-Meißner-Kreis","City":"Hessisch Lichtenau","District":"Mühlenberg","Street":"Am Mühlenberg","PostalCode":"37235","AdditionalData":[{"value":"Deutschland","key":"CountryName"},{"value":"Hessen","key":"StateName"},{"value":"Werra-Meißner-Kreis","key":"CountyName"}]},"MapReference":{"ReferenceId":"1051843181","Spot":0.06,"SideOfStreet":"right","CountryId":"20147700","StateId":"20160993","CountyId":"20163869","CityId":"20163904","DistrictId":"20226893"}}}]}]}}