{"Response":{"MetaInfo":{"Timestamp":"2020-03-28T11:00:57.400+0000","NextPageInformation":"2"},"View":[{"_type":"SearchResultsViewType","ViewId":0,"Result":[{"Relevance":1.0,"Distance":0.0,"Direction":0.0,"MatchLevel":"district","MatchQuality":{"Country":1.0,"State":1.0,"County":1.0,"City":1.0,"District":1.0,"PostalCode":1.0},"Location":{"LocationId":"NT_B1i1CdkSl9zgP7JmEixIYB","LocationType":"point","DisplayPosition":{"Latitude":51.2022922,"Longitude":6.6904281},"MapView":{"TopLeft":{"Latitude":51.23241,"Longitude":6.64946},"BottomRight":{"Latitude":51.17706,"Longitude":6.72166}},"Address":{"Label":"Neuss, Nordrhein-Westfalen, Deutschland","Country":"DEU","State":"Nordrhein-Westfalen","County":"Rhein-Kreis Neuss","City":"Neuss","District":"Neuss","PostalCode":"41460","AdditionalData":[{"value":"Deutschland","key":"CountryName"},{"value":"Nordrhein-Westfalen","key":"StateName"},{"value":"Rhein-Kreis Neuss","key":"CountyName"}]},"MapReference":{"ReferenceId":"1178727200","SideOfStreet":"neither","CountryId":"20147700","StateId":"20157369","CountyId":"20157687","CityId":"20157764","DistrictId":"20157782"}}},{"Relevance":1.0,"Distance":3.0,"MatchLevel":"houseNumber","MatchQuality":{"Country":1.0,"State":1.0,"County":1.0,"City":1.0,"District":1.0,"Street":[1.0],"HouseNumber":1.0,"PostalCode":1.0},"MatchType":"interpolated","Location":{"LocationId":"NT_CJaSuQlu8d9l1zADlHgE9C_2YD","LocationType":"point","DisplayPosition":{"Latitude":51.2022,"Longitude":6.69043},"MapView":{"TopLeft":{"Latitude":51.2033242,"Longitude":6.6886359},"BottomRight":{"Latitude":51.2010758,"Longitude":6.6922241}},"Address":{"Label":"Hafenstraße 66, 41460 Neuss, Deutschland","Country":"DEU","State":"Nordrhein-Westfalen","County":"Rhein-Kreis Neuss","City":"Neuss","District":"Neuss","Street":"Hafenstraße","HouseNumber":"66","PostalCode":"41460","AdditionalData":[{"value":"Deutschland","key":"CountryName"},{"value":"Nordrhein-Westfalen","key":"StateName"},{"value":"Rhein-Kreis Neuss","key":"CountyName"}]},"MapReference":{"ReferenceId":"1122955881","Spot":0.4,"SideOfStreet":"left","CountryId":"20147700","StateId":"20157369","CountyId":"20157687","CityId":"20157764","DistrictId":"20157782","AddressId":"196707097","RoadLinkId":"433225212"}}},{"Relevance":1.0,"Distance":28.0,"MatchLevel":"street","MatchQuality":{"Country":1.0,"State":1.0,"County":1.0,"City":1.0,"District":1.0,"Street":[1.0],"PostalCode":1.0},"Location":{"LocationId":"NT_CJaSuQlu8d9l1zADlHgE9C_l_1122955880_L","LocationType":"point","DisplayPosition":{"Latitude":51.20213,"Longitude":6.69012},"MapView":{"TopLeft":{"Latitude":51.20213,"Longitude":6.69005},"BottomRight":{"Latitude":51.20211,"Longitude":6.69012}},"Address":{"Label":"Hafenstraße, 41460 Neuss, Deutschland","Country":"DEU","State":"Nordrhein-Westfalen","County":"Rhein-Kreis Neuss","City":"Neuss","District":"Neuss","Street":"Hafenstraße","PostalCode":"41460","AdditionalData":[{"value":"Deutschland","key":"CountryName"},{"value":"Nordrhein-Westfalen","key":"StateName"},{"value":"Rhein-Kreis Neuss","key":"CountyName"}]},"MapReference":{"ReferenceId":"1122955880","Spot":1.0,"SideOfStreet":"left","CountryId":"20147700","StateId":"20157369","CountyId":"20157687","CityId":"20157764","DistrictId":"20157782"}}},{"Relevance":1.0,"Distance":32.2,"MatchLevel":"street","MatchQuality":{"Country":1.0,"State":1.0,"County":1.0,"City":1.0,"District":1.0,"PostalCode":1.0},"Location":{"LocationId":"NT_Sq3SNIAiMEN3bZAz1ak86D_l_537843020_L","LocationType":"point","DisplayPosition":{"Latitude":51.20231,"Longitude":6.69089},"MapView":{"TopLeft":{"Latitude":51.20231,"Longitude":6.69089},"BottomRight":{"Latitude":51.2022,"Longitude":6.69104}},"Address":{"Label":"41460 Neuss, Deutschland","Country":"DEU","State":"Nordrhein-Westfalen","County":"Rhein-Kreis Neuss","City":"Neuss","District":"Neuss","PostalCode":"41460","AdditionalData":[{"value":"Deutschland","key":"CountryName"},{"value":"Nordrhein-Westfalen","key":"StateName"},{"value":"Rhein-Kreis Neuss","key":"CountyName"}]},"MapReference":{"ReferenceId":"537843020","Spot":1.0,"SideOfStreet":"left","CountryId":"20147700","StateId":"20157369","CountyId":"20157687","CityId":"20157764","DistrictId":"20157782"}}},{"Relevance":1.0,"Distance":32.2,"MatchLevel":"street","MatchQuality":{"Country":1.0,"State":1.0,"County":1.0,"City":1.0,"District":1.0,"PostalCode":1.0},"Location":{"LocationId":"NT_Sq3SNIAiMEN3bZAz1ak86D_l_537843021_L","LocationType":"point","DisplayPosition":{"Latitude":51.20231,"Longitude":6.69089},"MapView":{"TopLeft":{"Latitude":51.20242,"Longitude":6.69089},"BottomRight":{"Latitude":51.20231,"Longitude":6.69117}},"Address":{"Label":"41460 Neuss, Deutschland","Country":"DEU","State":"Nordrhein-Westfalen","County":"Rhein-Kreis Neuss","City":"Neuss","District":"Neuss","PostalCode":"41460","AdditionalData":[{"value":"Deutschland","key":"CountryName"},{"value":"Nordrhein-Westfalen","key":"StateName"},{"value":"Rhein-Kreis Neuss","key":"CountyName"}]},"MapReference":{"ReferenceId":"537843021","Spot":0.0,"SideOfStreet":"left","CountryId":"20147700","StateId":"20157369","CountyId":"20157687","CityId":"20157764","DistrictId":"20157782"}}},{"Relevance":1.0,"Distance":34.4,"MatchLevel":"houseNumber","MatchQuality":{"Country":1.0,"State":1.0,"County":1.0,"City":1.0,"District":1.0,"Street":[1.0],"HouseNumber":1.0,"PostalCode":1.0},"MatchType":"interpolated","Location":{"LocationId":"NT_rRQLnTj-hmXF9RKxY1UZQC_xgD","LocationType":"point","DisplayPosition":{"Latitude":51.20234,"Longitude":6.68987},"MapView":{"TopLeft":{"Latitude":51.2034642,"Longitude":6.6880759},"BottomRight":{"Latitude":51.2012158,"Longitude":6.6916641}},"Address":{"Label":"Salzstraße 18, 41460 Neuss, Deutschland","Country":"DEU","State":"Nordrhein-Westfalen","County":"Rhein-Kreis Neuss","City":"Neuss","District":"Neuss","Street":"Salzstraße","HouseNumber":"18","PostalCode":"41460","AdditionalData":[{"value":"Deutschland","key":"CountryName"},{"value":"Nordrhein-Westfalen","key":"StateName"},{"value":"Rhein-Kreis Neuss","key":"CountyName"}]},"MapReference":{"ReferenceId":"51009811","Spot":0.26,"SideOfStreet":"right","CountryId":"20147700","StateId":"20157369","CountyId":"20157687","CityId":"20157764","DistrictId":"20157782","AddressId":"195878344","RoadLinkId":"39161140"}}},{"Relevance":1.0,"Distance":43.8,"MatchLevel":"street","MatchQuality":{"Country":1.0,"State":1.0,"County":1.0,"City":1.0,"District":1.0,"Street":[1.0],"PostalCode":1.0},"Location":{"LocationId":"NT_JMhqEE4q55FptTWsheOtWC_l_51008304_L","LocationType":"point","DisplayPosition":{"Latitude":51.2022,"Longitude":6.69104},"MapView":{"TopLeft":{"Latitude":51.2022,"Longitude":6.69104},"BottomRight":{"Latitude":51.20162,"Longitude":6.69145}},"Address":{"Label":"Rheinstraße, 41460 Neuss, Deutschland","Country":"DEU","State":"Nordrhein-Westfalen","County":"Rhein-Kreis Neuss","City":"Neuss","District":"Neuss","Street":"Rheinstraße","PostalCode":"41460","AdditionalData":[{"value":"Deutschland","key":"CountryName"},{"value":"Nordrhein-Westfalen","key":"StateName"},{"value":"Rhein-Kreis Neuss","key":"CountyName"}]},"MapReference":{"ReferenceId":"51008304","Spot":1.0,"SideOfStreet":"left","CountryId":"20147700","StateId":"20157369","CountyId":"20157687","CityId":"20157764","DistrictId":"20157782"}}},{"Relevance":1.0,"Distance":43.8,"MatchLevel":"street","MatchQuality":{"Country":1.0,"State":1.0,"County":1.0,"City":1.0,"District":1.0,"PostalCode":1.0},"Location":{"LocationId":"NT_Sq3SNIAiMEN3bZAz1ak86D_l_77158166_L","LocationType":"point","DisplayPosition":{"Latitude":51.2022,"Longitude":6.69104},"MapView":{"TopLeft":{"Latitude":51.20222,"Longitude":6.69104},"BottomRight":{"Latitude":51.2022,"Longitude":6.69118}},"Address":{"Label":"41460 Neuss, Deutschland","Country":"DEU","State":"Nordrhein-Westfalen","County":"Rhein-Kreis Neuss","City":"Neuss","District":"Neuss","PostalCode":"41460","AdditionalData":[{"value":"Deutschland","key":"CountryName"},{"value":"Nordrhein-Westfalen","key":"StateName"},{"value":"Rhein-Kreis Neuss","key":"CountyName"}]},"MapReference":{"ReferenceId":"77158166","Spot":0.0,"SideOfStreet":"left","CountryId":"20147700","StateId":"20157369","CountyId":"20157687","CityId":"20157764","DistrictId":"20157782"}}},{"Relevance":1.0,"Distance":47.2,"MatchLevel":"houseNumber","MatchQuality":{"Country":1.0,"State":1.0,"County":1.0,"City":1.0,"District":1.0,"Street":[1.0],"HouseNumber":1.0,"PostalCode":1.0},"MatchType":"interpolated","Location":{"LocationId":"NT_CJaSuQlu8d9l1zADlHgE9C_3YD","LocationType":"point","DisplayPosition":{"Latitude":51.20241,"Longitude":6.69117},"MapView":{"TopLeft":{"Latitude":51.2035342,"Longitude":6.6893759},"BottomRight":{"Latitude":51.2012858,"Longitude":6.6929641}},"Address":{"Label":"Hafenstraße 76, 41460 Neuss, Deutschland","Country":"DEU","State":"Nordrhein-Westfalen","County":"Rhein-Kreis Neuss","City":"Neuss","District":"Neuss","Street":"Hafenstraße","HouseNumber":"76","PostalCode":"41460","AdditionalData":[{"value":"Deutschland","key":"CountryName"},{"value":"Nordrhein-Westfalen","key":"StateName"},{"value":"Rhein-Kreis Neuss","key":"CountyName"}]},"MapReference":{"ReferenceId":"1123232101","Spot":0.0,"SideOfStreet":"left","CountryId":"20147700","StateId":"20157369","CountyId":"20157687","CityId":"20157764","DistrictId":"20157782","AddressId":"249318947","RoadLinkId":"433509123"}}},{"Relevance":1.0,"Distance":49.0,"MatchLevel":"houseNumber","MatchQuality":{"Country":1.0,"State":1.0,"County":1.0,"City":1.0,"District":1.0,"Street":[1.0],"HouseNumber":1.0,"PostalCode":1.0},"MatchType":"interpolated","Location":{"LocationId":"NT_CJaSuQlu8d9l1zADlHgE9C_2AD","LocationType":"point","DisplayPosition":{"Latitude":51.20205,"Longitude":6.68984},"MapView":{"TopLeft":{"Latitude":51.2031742,"Longitude":6.6880459},"BottomRight":{"Latitude":51.2009258,"Longitude":6.6916341}},"Address":{"Label":"Hafenstraße 60, 41460 Neuss, Deutschland","Country":"DEU","State":"Nordrhein-Westfalen","County":"Rhein-Kreis Neuss","City":"Neuss","District":"Neuss","Street":"Hafenstraße","HouseNumber":"60","PostalCode":"41460","AdditionalData":[{"value":"Deutschland","key":"CountryName"},{"value":"Nordrhein-Westfalen","key":"StateName"},{"value":"Rhein-Kreis Neuss","key":"CountyName"}]},"MapReference":{"ReferenceId":"51008309","Spot":0.63,"SideOfStreet":"left","CountryId":"20147700","StateId":"20157369","CountyId":"20157687","CityId":"20157764","DistrictId":"20157782","AddressId":"192616807","RoadLinkId":"39223260"}}}]}]}}