{"Response":{"MetaInfo":{"Timestamp":"2020-03-28T10:57:53.987+0000","NextPageInformation":"2"},"View":[{"_type":"SearchResultsViewType","ViewId":0,"Result":[{"Relevance":1.0,"Distance":0.0,"Direction":0.0,"MatchLevel":"district","MatchQuality":{"Country":1.0,"State":1.0,"County":1.0,"City":1.0,"District":1.0,"PostalCode":1.0},"Location":{"LocationId":"NT_2y.8rMnOUIHsag-DYK5zoC","LocationType":"point","DisplayPosition":{"Latitude":51.3955646,"Longitude":12.2337809},"MapView":{"TopLeft":{"Latitude":51.40906,"Longitude":12.1776},"BottomRight":{"Latitude":51.38435,"Longitude":12.26491}},"Address":{"Label":"Schkeuditz, Sachsen, Deutschland","Country":"DEU","State":"Sachsen","County":"Nordsachsen","City":"Schkeuditz","District":"Schkeuditz","PostalCode":"04435","AdditionalData":[{"value":"Deutschland","key":"CountryName"},{"value":"Sachsen","key":"StateName"},{"value":"Nordsachsen","key":"CountyName"}]},"MapReference":{"ReferenceId":"64949396","SideOfStreet":"neither","CountryId":"20147700","StateId":"20191185","CountyId":"23399505","CityId":"20371733","DistrictId":"20371738"}}},{"Relevance":1.0,"Distance":4.7,"MatchLevel":"street","MatchQuality":{"Country":1.0,"State":1.0,"County":1.0,"City":1.0,"District":1.0,"PostalCode":1.0},"Location":{"LocationId":"NT_LpUdmzdJP8f-3PwZEEoqpC_l_772850506_R","LocationType":"point","DisplayPosition":{"Latitude":51.3955722,"Longitude":12.2337145},"MapView":{"TopLeft":{"Latitude":51.39562,"Longitude":12.23368},"BottomRight":{"Latitude":51.39527,"Longitude":12.23372}},"Address":{"Label":"04435 Schkeuditz, Deutschland","Country":"DEU","State":"Sachsen","County":"Nordsachsen","City":"Schkeuditz","District":"Schkeuditz","PostalCode":"04435","AdditionalData":[{"value":"Deutschland","key":"CountryName"},{"value":"Sachsen","key":"StateName"},{"value":"Nordsachsen","key":"CountyName"}]},"MapReference":{"ReferenceId":"772850506","Spot":0.86,"SideOfStreet":"right","CountryId":"20147700","StateId":"20191185","CountyId":"23399505","CityId":"20371733","DistrictId":"20371738"}}},{"Relevance":1.0,"Distance":7.5,"MatchLevel":"street","MatchQuality":{"Country":1.0,"State":1.0,"County":1.0,"City":1.0,"District":1.0,"PostalCode":1.0},"Location":{"LocationId":"NT_LpUdmzdJP8f-3PwZEEoqpC_l_917468022_R","LocationType":"point","DisplayPosition":{"Latitude":51.39562,"Longitude":12.23372},"MapView":{"TopLeft":{"Latitude":51.39712,"Longitude":12.23372},"BottomRight":{"Latitude":51.39562,"Longitude":12.23388}},"Address":{"Label":"04435 Schkeuditz, Deutschland","Country":"DEU","State":"Sachsen","County":"Nordsachsen","City":"Schkeuditz","District":"Schkeuditz","PostalCode":"04435","AdditionalData":[{"value":"Deutschland","key":"CountryName"},{"value":"Sachsen","key":"StateName"},{"value":"Nordsachsen","key":"CountyName"}]},"MapReference":{"ReferenceId":"917468022","Spot":0.0,"SideOfStreet":"right","CountryId":"20147700","StateId":"20191185","CountyId":"23399505","CityId":"20371733","DistrictId":"20371738"}}},{"Relevance":1.0,"Distance":33.5,"MatchLevel":"street","MatchQuality":{"Country":1.0,"State":1.0,"County":1.0,"City":1.0,"District":1.0,"PostalCode":1.0},"Location":{"LocationId":"NT_LpUdmzdJP8f-3PwZEEoqpC_l_772850488_R","LocationType":"point","DisplayPosition":{"Latitude":51.39527,"Longitude":12.23368},"MapView":{"TopLeft":{"Latitude":51.39527,"Longitude":12.23363},"BottomRight":{"Latitude":51.39478,"Longitude":12.23368}},"Address":{"Label":"04435 Schkeuditz, Deutschland","Country":"DEU","State":"Sachsen","County":"Nordsachsen","City":"Schkeuditz","District":"Schkeuditz","PostalCode":"04435","AdditionalData":[{"value":"Deutschland","key":"CountryName"},{"value":"Sachsen","key":"StateName"},{"value":"Nordsachsen","key":"CountyName"}]},"MapReference":{"ReferenceId":"772850488","Spot":1.0,"SideOfStreet":"right","CountryId":"20147700","StateId":"20191185","CountyId":"23399505","CityId":"20371733","DistrictId":"20371738"}}},{"Relevance":1.0,"Distance":87.9,"MatchLevel":"street","MatchQuality":{"Country":1.0,"State":1.0,"County":1.0,"City":1.0,"District":1.0,"PostalCode":1.0},"Location":{"LocationId":"NT_LpUdmzdJP8f-3PwZEEoqpC_l_1266873743_R","LocationType":"point","DisplayPosition":{"Latitude":51.39478,"Longitude":12.23363},"MapView":{"TopLeft":{"Latitude":51.39478,"Longitude":12.23363},"BottomRight":{"Latitude":51.39441,"Longitude":12.23482}},"Address":{"Label":"04435 Schkeuditz, Deutschland","Country":"DEU","State":"Sachsen","County":"Nordsachsen","City":"Schkeuditz","District":"Schkeuditz","PostalCode":"04435","AdditionalData":[{"value":"Deutschland","key":"CountryName"},{"value":"Sachsen","key":"StateName"},{"value":"Nordsachsen","key":"CountyName"}]},"MapReference":{"ReferenceId":"1266873743","Spot":1.0,"SideOfStreet":"right","CountryId":"20147700","StateId":"20191185","CountyId":"23399505","CityId":"20371733","DistrictId":"20371738"}}},{"Relevance":1.0,"Distance":87.9,"MatchLevel":"street","MatchQuality":{"Country":1.0,"State":1.0,"County":1.0,"City":1.0,"District":1.0,"PostalCode":1.0},"Location":{"LocationId":"NT_LpUdmzdJP8f-3PwZEEoqpC_l_1254012155_L","LocationType":"point","DisplayPosition":{"Latitude":51.39478,"Longitude":12.23363},"MapView":{"TopLeft":{"Latitude":51.39478,"Longitude":12.23259},"BottomRight":{"Latitude":51.39444,"Longitude":12.23363}},"Address":{"Label":"04435 Schkeuditz, Deutschland","Country":"DEU","State":"Sachsen","County":"Nordsachsen","City":"Schkeuditz","District":"Schkeuditz","PostalCode":"04435","AdditionalData":[{"value":"Deutschland","key":"CountryName"},{"value":"Sachsen","key":"StateName"},{"value":"Nordsachsen","key":"CountyName"}]},"MapReference":{"ReferenceId":"1254012155","Spot":1.0,"SideOfStreet":"left","CountryId":"20147700","StateId":"20191185","CountyId":"23399505","CityId":"20371733","DistrictId":"20371738"}}},{"Relevance":1.0,"Distance":126.6,"MatchLevel":"street","MatchQuality":{"Country":1.0,"State":1.0,"County":1.0,"City":1.0,"District":1.0,"PostalCode":1.0},"Location":{"LocationId":"NT_LpUdmzdJP8f-3PwZEEoqpC_l_1266873745_R","LocationType":"point","DisplayPosition":{"Latitude":51.3947448,"Longitude":12.2350478},"MapView":{"TopLeft":{"Latitude":51.3951,"Longitude":12.23498},"BottomRight":{"Latitude":51.39441,"Longitude":12.23666}},"Address":{"Label":"04435 Schkeuditz, Deutschland","Country":"DEU","State":"Sachsen","County":"Nordsachsen","City":"Schkeuditz","District":"Schkeuditz","PostalCode":"04435","AdditionalData":[{"value":"Deutschland","key":"CountryName"},{"value":"Sachsen","key":"StateName"},{"value":"Nordsachsen","key":"CountyName"}]},"MapReference":{"ReferenceId":"1266873745","Spot":0.95,"SideOfStreet":"right","CountryId":"20147700","StateId":"20191185","CountyId":"23399505","CityId":"20371733","DistrictId":"20371738"}}},{"Relevance":1.0,"Distance":132.3,"MatchLevel":"street","MatchQuality":{"Country":1.0,"State":1.0,"County":1.0,"City":1.0,"District":1.0,"PostalCode":1.0},"Location":{"LocationId":"NT_LpUdmzdJP8f-3PwZEEoqpC_l_1266873748_R","LocationType":"point","DisplayPosition":{"Latitude":51.39464,"Longitude":12.23498},"MapView":{"TopLeft":{"Latitude":51.39464,"Longitude":12.23498},"BottomRight":{"Latitude":51.39446,"Longitude":12.23569}},"Address":{"Label":"04435 Schkeuditz, Deutschland","Country":"DEU","State":"Sachsen","County":"Nordsachsen","City":"Schkeuditz","District":"Schkeuditz","PostalCode":"04435","AdditionalData":[{"value":"Deutschland","key":"CountryName"},{"value":"Sachsen","key":"StateName"},{"value":"Nordsachsen","key":"CountyName"}]},"MapReference":{"ReferenceId":"1266873748","Spot":1.0,"SideOfStreet":"right","CountryId":"20147700","StateId":"20191185","CountyId":"23399505","CityId":"20371733","DistrictId":"20371738"}}},{"Relevance":1.0,"Distance":132.3,"MatchLevel":"street","MatchQuality":{"Country":1.0,"State":1.0,"County":1.0,"City":1.0,"District":1.0,"PostalCode":1.0},"Location":{"LocationId":"NT_LpUdmzdJP8f-3PwZEEoqpC_l_1266873744_L","LocationType":"point","DisplayPosition":{"Latitude":51.39464,"Longitude":12.23498},"MapView":{"TopLeft":{"Latitude":51.39464,"Longitude":12.23482},"BottomRight":{"Latitude":51.39441,"Longitude":12.23498}},"Address":{"Label":"04435 Schkeuditz, Deutschland","Country":"DEU","State":"Sachsen","County":"Nordsachsen","City":"Schkeuditz","District":"Schkeuditz","PostalCode":"04435","AdditionalData":[{"value":"Deutschland","key":"CountryName"},{"value":"Sachsen","key":"StateName"},{"value":"Nordsachsen","key":"CountyName"}]},"MapReference":{"ReferenceId":"1266873744","Spot":1.0,"SideOfStreet":"left","CountryId":"20147700","StateId":"20191185","CountyId":"23399505","CityId":"20371733","DistrictId":"20371738"}}},{"Relevance":1.0,"Distance":147.2,"MatchLevel":"street","MatchQuality":{"Country":1.0,"State":1.0,"County":1.0,"City":1.0,"District":1.0,"PostalCode":1.0},"Location":{"LocationId":"NT_LpUdmzdJP8f-3PwZEEoqpC_l_1266873742_R","LocationType":"point","DisplayPosition":{"Latitude":51.39441,"Longitude":12.23482},"MapView":{"TopLeft":{"Latitude":51.39441,"Longitude":12.23482},"BottomRight":{"Latitude":51.39432,"Longitude":12.23497}},"Address":{"Label":"04435 Schkeuditz, Deutschland","Country":"DEU","State":"Sachsen","County":"Nordsachsen","City":"Schkeuditz","District":"Schkeuditz","PostalCode":"04435","AdditionalData":[{"value":"Deutschland","key":"CountryName"},{"value":"Sachsen","key":"StateName"},{"value":"Nordsachsen","key":"CountyName"}]},"MapReference":{"ReferenceId":"1266873742","Spot":1.0,"SideOfStreet":"right","CountryId":"20147700","StateId":"20191185","CountyId":"23399505","CityId":"20371733","DistrictId":"20371738"}}}]}]}}