{"Response":{"MetaInfo":{"Timestamp":"2020-03-28T10:34:17.570+0000","NextPageInformation":"2"},"View":[{"_type":"SearchResultsViewType","ViewId":0,"Result":[{"Relevance":1.0,"Distance":0.0,"Direction":0.0,"MatchLevel":"district","MatchQuality":{"Country":1.0,"State":1.0,"County":1.0,"City":1.0,"District":1.0,"PostalCode":1.0},"Location":{"LocationId":"NT_5hzP6VoaRJDaNLdiAZ7vyB","LocationType":"point","DisplayPosition":{"Latitude":51.3398834,"Longitude":1.4279814},"MapView":{"TopLeft":{"Latitude":51.364,"Longitude":1.37868},"BottomRight":{"Latitude":51.32373,"Longitude":1.43665}},"Address":{"Label":"Ramsgate, England, United Kingdom","Country":"GBR","State":"England","County":"Kent","City":"Ramsgate","District":"Ramsgate","PostalCode":"CT11 8","AdditionalData":[{"value":"United Kingdom","key":"CountryName"},{"value":"England","key":"StateName"},{"value":"Kent","key":"CountyName"}]},"MapReference":{"ReferenceId":"858457857","SideOfStreet":"neither","StateId":"20248595","CountyId":"20336836","CityId":"20337246","DistrictId":"20337247"}}},{"Relevance":1.0,"Distance":61.1,"MatchLevel":"houseNumber","MatchQuality":{"Country":1.0,"State":1.0,"County":1.0,"City":1.0,"District":1.0,"Street":[1.0],"HouseNumber":1.0,"PostalCode":1.0},"MatchType":"interpolated","Location":{"LocationId":"NT_1GywosVyGtQAbhUTzfax3B_l_25635407_R_zED","LocationType":"point","DisplayPosition":{"Latitude":51.3395949,"Longitude":1.4271262},"MapView":{"TopLeft":{"Latitude":51.3407191,"Longitude":1.4253267},"BottomRight":{"Latitude":51.3384708,"Longitude":1.4289257}},"Address":{"Label":"31 Honeysuckle Road, Ramsgate, CT11 8AA, United Kingdom","Country":"GBR","State":"England","County":"Kent","City":"Ramsgate","District":"Ramsgate","Street":"Honeysuckle Road","HouseNumber":"31","PostalCode":"CT11 8AA","AdditionalData":[{"value":"United Kingdom","key":"CountryName"},{"value":"England","key":"StateName"},{"value":"Kent","key":"CountyName"}]},"MapReference":{"ReferenceId":"25635407","Spot":0.5,"SideOfStreet":"right","StateId":"20248595","CountyId":"20336836","CityId":"20337246","DistrictId":"20337247"}}},{"Relevance":1.0,"Distance":73.4,"MatchLevel":"houseNumber","MatchQuality":{"Country":1.0,"State":1.0,"County":1.0,"City":1.0,"District":1.0,"Street":[1.0],"HouseNumber":1.0,"PostalCode":1.0},"MatchType":"interpolated","Location":{"LocationId":"NT_lMUZvW.KlRMawfI4dSOATC_l_25635406_R_yQD","LocationType":"point","DisplayPosition":{"Latitude":51.3394395,"Longitude":1.4287643},"MapView":{"TopLeft":{"Latitude":51.3405637,"Longitude":1.4269648},"BottomRight":{"Latitude":51.3383154,"Longitude":1.4305638}},"Address":{"Label":"24 Dumpton Park Drive, Ramsgate, CT11 8AE, United Kingdom","Country":"GBR","State":"England","County":"Kent","City":"Ramsgate","District":"Ramsgate","Street":"Dumpton Park Drive","HouseNumber":"24","PostalCode":"CT11 8AE","AdditionalData":[{"value":"United Kingdom","key":"CountryName"},{"value":"England","key":"StateName"},{"value":"Kent","key":"CountyName"}]},"MapReference":{"ReferenceId":"25635406","Spot":0.72,"SideOfStreet":"right","StateId":"20248595","CountyId":"20336836","CityId":"20337246","DistrictId":"20337247"}}},{"Relevance":1.0,"Distance":77.7,"MatchLevel":"postalCode","MatchQuality":{"PostalCode":1.0},"MatchType":"interpolated","Location":{"LocationId":"NT_lMUZvW.KlRMawfI4dSOATC_l_25635406_R_yQD","LocationType":"point","DisplayPosition":{"Latitude":51.33937,"Longitude":1.42874},"MapView":{"TopLeft":{"Latitude":51.3483632,"Longitude":1.4143441},"BottomRight":{"Latitude":51.3303768,"Longitude":1.4431359}},"Address":{"Label":"CT11 8AE, Ramsgate, England, United Kingdom","Country":"GBR","State":"England","County":"Kent","City":"Ramsgate","PostalCode":"CT11 8AE","AdditionalData":[{"value":"United Kingdom","key":"CountryName"},{"value":"England","key":"StateName"},{"value":"Kent","key":"CountyName"}]},"MapReference":{"ReferenceId":"25635406","Spot":0.72,"SideOfStreet":"neither","StateId":"20248595","CountyId":"20336836","CityId":"20337246"}}},{"Relevance":1.0,"Distance":78.5,"MatchLevel":"houseNumber","MatchQuality":{"Country":1.0,"State":1.0,"County":1.0,"City":1.0,"District":1.0,"Street":[1.0],"HouseNumber":1.0,"PostalCode":1.0},"MatchType":"interpolated","Location":{"LocationId":"NT_1GywosVyGtQAbhUTzfax3B_l_25635190_R_yMD","LocationType":"point","DisplayPosition":{"Latitude":51.3401734,"Longitude":1.4268002},"MapView":{"TopLeft":{"Latitude":51.3412976,"Longitude":1.4250006},"BottomRight":{"Latitude":51.3390493,"Longitude":1.4285997}},"Address":{"Label":"23 Honeysuckle Road, Ramsgate, CT11 8AA, United Kingdom","Country":"GBR","State":"England","County":"Kent","City":"Ramsgate","District":"Ramsgate","Street":"Honeysuckle Road","HouseNumber":"23","PostalCode":"CT11 8AA","AdditionalData":[{"value":"United Kingdom","key":"CountryName"},{"value":"England","key":"StateName"},{"value":"Kent","key":"CountyName"}]},"MapReference":{"ReferenceId":"25635190","Spot":0.53,"SideOfStreet":"right","StateId":"20248595","CountyId":"20336836","CityId":"20337246","DistrictId":"20337247"}}},{"Relevance":1.0,"Distance":80.6,"MatchLevel":"houseNumber","MatchQuality":{"Country":1.0,"State":1.0,"County":1.0,"City":1.0,"District":1.0,"Street":[1.0],"HouseNumber":1.0,"PostalCode":1.0},"MatchType":"interpolated","Location":{"LocationId":"NT_lMUZvW.KlRMawfI4dSOATC_l_25635308_R_yYD","LocationType":"point","DisplayPosition":{"Latitude":51.33967,"Longitude":1.42909},"MapView":{"TopLeft":{"Latitude":51.3407942,"Longitude":1.4272905},"BottomRight":{"Latitude":51.3385459,"Longitude":1.4308895}},"Address":{"Label":"26 Dumpton Park Drive, Ramsgate, CT11 8AE, United Kingdom","Country":"GBR","State":"England","County":"Kent","City":"Ramsgate","District":"Ramsgate","Street":"Dumpton Park Drive","HouseNumber":"26","PostalCode":"CT11 8AE","AdditionalData":[{"value":"United Kingdom","key":"CountryName"},{"value":"England","key":"StateName"},{"value":"Kent","key":"CountyName"}]},"MapReference":{"ReferenceId":"25635308","Spot":0.21,"SideOfStreet":"right","StateId":"20248595","CountyId":"20336836","CityId":"20337246","DistrictId":"20337247"}}},{"Relevance":1.0,"Distance":82.5,"MatchLevel":"houseNumber","MatchQuality":{"Country":1.0,"State":1.0,"County":1.0,"City":1.0,"District":1.0,"Street":[1.0],"HouseNumber":1.0,"PostalCode":1.0},"MatchType":"interpolated","Location":{"LocationId":"NT_lMUZvW.KlRMawfI4dSOATC_l_25635647_L_0UD","LocationType":"point","DisplayPosition":{"Latitude":51.3390191,"Longitude":1.4280448},"MapView":{"TopLeft":{"Latitude":51.3401433,"Longitude":1.4262453},"BottomRight":{"Latitude":51.337895,"Longitude":1.4298443}},"Address":{"Label":"45 Dumpton Park Drive, Ramsgate, CT11 8AD, United Kingdom","Country":"GBR","State":"England","County":"Kent","City":"Ramsgate","District":"Ramsgate","Street":"Dumpton Park Drive","HouseNumber":"45","PostalCode":"CT11 8AD","AdditionalData":[{"value":"United Kingdom","key":"CountryName"},{"value":"England","key":"StateName"},{"value":"Kent","key":"CountyName"}]},"MapReference":{"ReferenceId":"25635647","Spot":0.87,"SideOfStreet":"left","StateId":"20248595","CountyId":"20336836","CityId":"20337246","DistrictId":"20337247"}}},{"Relevance":1.0,"Distance":91.9,"MatchLevel":"houseNumber","MatchQuality":{"Country":1.0,"State":1.0,"County":1.0,"City":1.0,"District":1.0,"Street":[1.0],"HouseNumber":1.0,"PostalCode":1.0},"MatchType":"interpolated","Location":{"LocationId":"NT_jIKQMTwfU.0HHJvMB6X.0D_l_25635141_L_ycD","LocationType":"point","DisplayPosition":{"Latitude":51.3404901,"Longitude":1.4288801},"MapView":{"TopLeft":{"Latitude":51.3416143,"Longitude":1.4270806},"BottomRight":{"Latitude":51.339366,"Longitude":1.4306796}},"Address":{"Label":"27 Wallwood Road, Ramsgate, CT11 8AS, United Kingdom","Country":"GBR","State":"England","County":"Kent","City":"Ramsgate","District":"Ramsgate","Street":"Wallwood Road","HouseNumber":"27","PostalCode":"CT11 8AS","AdditionalData":[{"value":"United Kingdom","key":"CountryName"},{"value":"England","key":"StateName"},{"value":"Kent","key":"CountyName"}]},"MapReference":{"ReferenceId":"25635141","Spot":0.13,"SideOfStreet":"left","StateId":"20248595","CountyId":"20336836","CityId":"20337246","DistrictId":"20337247"}}},{"Relevance":1.0,"Distance":100.1,"MatchLevel":"houseNumber","MatchQuality":{"Country":1.0,"State":1.0,"County":1.0,"City":1.0,"District":1.0,"Street":[1.0],"HouseNumber":1.0,"PostalCode":1.0},"MatchType":"interpolated","Location":{"LocationId":"NT_-AMxeMgQcbAVCGJH.mmPsD_l_25635413_L_xAD","LocationType":"point","DisplayPosition":{"Latitude":51.3393793,"Longitude":1.4293177},"MapView":{"TopLeft":{"Latitude":51.3405034,"Longitude":1.4275182},"BottomRight":{"Latitude":51.3382551,"Longitude":1.4311172}},"Address":{"Label":"10 Frances Gardens, Ramsgate, CT11 8, United Kingdom","Country":"GBR","State":"England","County":"Kent","City":"Ramsgate","District":"Ramsgate","Street":"Frances Gardens","HouseNumber":"10","PostalCode":"CT11 8","AdditionalData":[{"value":"United Kingdom","key":"CountryName"},{"value":"England","key":"StateName"},{"value":"Kent","key":"CountyName"}]},"MapReference":{"ReferenceId":"25635413","Spot":0.43,"SideOfStreet":"left","StateId":"20248595","CountyId":"20336836","CityId":"20337246","DistrictId":"20337247"}}},{"Relevance":1.0,"Distance":103.0,"MatchLevel":"houseNumber","MatchQuality":{"Country":1.0,"State":1.0,"County":1.0,"City":1.0,"District":1.0,"Street":[1.0],"HouseNumber":1.0,"PostalCode":1.0},"MatchType":"interpolated","Location":{"LocationId":"NT_dWIhsLTyMeKFrnWGeIqcnB_l_25635589_L_zkD","LocationType":"point","DisplayPosition":{"Latitude":51.3390955,"Longitude":1.4270455},"MapView":{"TopLeft":{"Latitude":51.3402197,"Longitude":1.425246},"BottomRight":{"Latitude":51.3379714,"Longitude":1.428845}},"Address":{"Label":"39 Sydney Road, Ramsgate, CT11 8, United Kingdom","Country":"GBR","State":"England","County":"Kent","City":"Ramsgate","District":"Ramsgate","Street":"Sydney Road","HouseNumber":"39","PostalCode":"CT11 8","AdditionalData":[{"value":"United Kingdom","key":"CountryName"},{"value":"England","key":"StateName"},{"value":"Kent","key":"CountyName"}]},"MapReference":{"ReferenceId":"25635589","Spot":0.84,"SideOfStreet":"left","StateId":"20248595","CountyId":"20336836","CityId":"20337246","DistrictId":"20337247"}}}]}]}}