{"Response":{"MetaInfo":{"Timestamp":"2020-03-28T10:21:01.306+0000","NextPageInformation":"2"},"View":[{"_type":"SearchResultsViewType","ViewId":0,"Result":[{"Relevance":1.0,"Distance":0.0,"Direction":0.0,"MatchLevel":"district","MatchQuality":{"Country":1.0,"State":1.0,"County":1.0,"City":1.0,"District":1.0,"PostalCode":1.0},"Location":{"LocationId":"NT_4sny2s7H7xa9TeDnpLntMC","LocationType":"point","DisplayPosition":{"Latitude":51.369265,"Longitude":11.2938481},"MapView":{"TopLeft":{"Latitude":51.3806,"Longitude":11.28112},"BottomRight":{"Latitude":51.35708,"Longitude":11.31142}},"Address":{"Label":"Artern, Thüringen, Deutschland","Country":"DEU","State":"Thüringen","County":"Kyffhäuserkreis","City":"Artern","District":"Artern","PostalCode":"06556","AdditionalData":[{"value":"Deutschland","key":"CountryName"},{"value":"Thüringen","key":"StateName"},{"value":"Kyffhäuserkreis","key":"CountyName"}]},"MapReference":{"ReferenceId":"913136774","SideOfStreet":"neither","CountryId":"20147700","StateId":"20196974","CountyId":"20197683","CityId":"20197684","DistrictId":"20197686"}}},{"Relevance":1.0,"Distance":13.7,"MatchLevel":"houseNumber","MatchQuality":{"Country":1.0,"State":1.0,"County":1.0,"City":1.0,"District":1.0,"Street":[1.0],"HouseNumber":1.0,"PostalCode":1.0},"MatchType":"interpolated","Location":{"LocationId":"NT_tApp8fwJ7EQIeCddNe3-lC_2UD","LocationType":"point","DisplayPosition":{"Latitude":51.36934,"Longitude":11.29371},"MapView":{"TopLeft":{"Latitude":51.3704642,"Longitude":11.2919093},"BottomRight":{"Latitude":51.3682158,"Longitude":11.2955107}},"Address":{"Label":"Schillerstraße 65, 06556 Artern, Deutschland","Country":"DEU","State":"Thüringen","County":"Kyffhäuserkreis","City":"Artern","District":"Artern","Street":"Schillerstraße","HouseNumber":"65","PostalCode":"06556","AdditionalData":[{"value":"Deutschland","key":"CountryName"},{"value":"Thüringen","key":"StateName"},{"value":"Kyffhäuserkreis","key":"CountyName"}]},"MapReference":{"ReferenceId":"548009982","Spot":0.83,"SideOfStreet":"right","CountryId":"20147700","StateId":"20196974","CountyId":"20197683","CityId":"20197684","DistrictId":"20197686","AddressId":"189352616","RoadLinkId":"39532194"}}},{"Relevance":1.0,"Distance":27.3,"MatchLevel":"houseNumber","MatchQuality":{"Country":1.0,"State":1.0,"County":1.0,"City":1.0,"District":1.0,"Street":[1.0],"HouseNumber":1.0,"PostalCode":1.0},"MatchType":"interpolated","Location":{"LocationId":"NT_tApp8fwJ7EQIeCddNe3-lC_xgD","LocationType":"point","DisplayPosition":{"Latitude":51.36912,"Longitude":11.29353},"MapView":{"TopLeft":{"Latitude":51.3702442,"Longitude":11.2917293},"BottomRight":{"Latitude":51.3679958,"Longitude":11.2953307}},"Address":{"Label":"Schillerstraße 18, 06556 Artern, Deutschland","Country":"DEU","State":"Thüringen","County":"Kyffhäuserkreis","City":"Artern","District":"Artern","Street":"Schillerstraße","HouseNumber":"18","PostalCode":"06556","AdditionalData":[{"value":"Deutschland","key":"CountryName"},{"value":"Thüringen","key":"StateName"},{"value":"Kyffhäuserkreis","key":"CountyName"}]},"MapReference":{"ReferenceId":"548009985","Spot":0.14,"SideOfStreet":"left","CountryId":"20147700","StateId":"20196974","CountyId":"20197683","CityId":"20197684","DistrictId":"20197686","AddressId":"189602543","RoadLinkId":"39535224"}}},{"Relevance":1.0,"Distance":29.9,"MatchLevel":"street","MatchQuality":{"Country":1.0,"State":1.0,"County":1.0,"City":1.0,"District":1.0,"PostalCode":1.0},"Location":{"LocationId":"NT_Hhm.2kfEUlGm6vIgll9EoC_l_548120420_L","LocationType":"point","DisplayPosition":{"Latitude":51.36906,"Longitude":11.29357},"MapView":{"TopLeft":{"Latitude":51.36906,"Longitude":11.29314},"BottomRight":{"Latitude":51.36899,"Longitude":11.29357}},"Address":{"Label":"06556 Artern, Deutschland","Country":"DEU","State":"Thüringen","County":"Kyffhäuserkreis","City":"Artern","District":"Artern","PostalCode":"06556","AdditionalData":[{"value":"Deutschland","key":"CountryName"},{"value":"Thüringen","key":"StateName"},{"value":"Kyffhäuserkreis","key":"CountyName"}]},"MapReference":{"ReferenceId":"548120420","Spot":1.0,"SideOfStreet":"left","CountryId":"20147700","StateId":"20196974","CountyId":"20197683","CityId":"20197684","DistrictId":"20197686"}}},{"Relevance":1.0,"Distance":51.1,"MatchLevel":"houseNumber","MatchQuality":{"Country":1.0,"State":1.0,"County":1.0,"City":1.0,"District":1.0,"Street":[1.0],"HouseNumber":1.0,"PostalCode":1.0},"MatchType":"interpolated","Location":{"LocationId":"NT_tApp8fwJ7EQIeCddNe3-lC_2QD","LocationType":"point","DisplayPosition":{"Latitude":51.36962,"Longitude":11.29338},"MapView":{"TopLeft":{"Latitude":51.3707442,"Longitude":11.2915793},"BottomRight":{"Latitude":51.3684958,"Longitude":11.2951807}},"Address":{"Label":"Schillerstraße 64, 06556 Artern, Deutschland","Country":"DEU","State":"Thüringen","County":"Kyffhäuserkreis","City":"Artern","District":"Artern","Street":"Schillerstraße","HouseNumber":"64","PostalCode":"06556","AdditionalData":[{"value":"Deutschland","key":"CountryName"},{"value":"Thüringen","key":"StateName"},{"value":"Kyffhäuserkreis","key":"CountyName"}]},"MapReference":{"ReferenceId":"548011321","Spot":0.04,"SideOfStreet":"left","CountryId":"20147700","StateId":"20196974","CountyId":"20197683","CityId":"20197684","DistrictId":"20197686","AddressId":"189463244","RoadLinkId":"39717414"}}},{"Relevance":1.0,"Distance":57.9,"MatchLevel":"street","MatchQuality":{"Country":1.0,"State":1.0,"County":1.0,"City":1.0,"District":1.0,"PostalCode":1.0},"Location":{"LocationId":"NT_Hhm.2kfEUlGm6vIgll9EoC_l_548120419_R","LocationType":"point","DisplayPosition":{"Latitude":51.36899,"Longitude":11.29314},"MapView":{"TopLeft":{"Latitude":51.36899,"Longitude":11.2925},"BottomRight":{"Latitude":51.36876,"Longitude":11.29314}},"Address":{"Label":"06556 Artern, Deutschland","Country":"DEU","State":"Thüringen","County":"Kyffhäuserkreis","City":"Artern","District":"Artern","PostalCode":"06556","AdditionalData":[{"value":"Deutschland","key":"CountryName"},{"value":"Thüringen","key":"StateName"},{"value":"Kyffhäuserkreis","key":"CountyName"}]},"MapReference":{"ReferenceId":"548120419","Spot":1.0,"SideOfStreet":"right","CountryId":"20147700","StateId":"20196974","CountyId":"20197683","CityId":"20197684","DistrictId":"20197686"}}},{"Relevance":1.0,"Distance":109.1,"MatchLevel":"street","MatchQuality":{"Country":1.0,"State":1.0,"County":1.0,"City":1.0,"District":1.0,"PostalCode":1.0},"Location":{"LocationId":"NT_Hhm.2kfEUlGm6vIgll9EoC_l_548120421_L","LocationType":"point","DisplayPosition":{"Latitude":51.36876,"Longitude":11.2925},"MapView":{"TopLeft":{"Latitude":51.36876,"Longitude":11.29227},"BottomRight":{"Latitude":51.36871,"Longitude":11.2925}},"Address":{"Label":"06556 Artern, Deutschland","Country":"DEU","State":"Thüringen","County":"Kyffhäuserkreis","City":"Artern","District":"Artern","PostalCode":"06556","AdditionalData":[{"value":"Deutschland","key":"CountryName"},{"value":"Thüringen","key":"StateName"},{"value":"Kyffhäuserkreis","key":"CountyName"}]},"MapReference":{"ReferenceId":"548120421","Spot":1.0,"SideOfStreet":"left","CountryId":"20147700","StateId":"20196974","CountyId":"20197683","CityId":"20197684","DistrictId":"20197686"}}},{"Relevance":1.0,"Distance":109.5,"MatchLevel":"houseNumber","MatchQuality":{"Country":1.0,"State":1.0,"County":1.0,"City":1.0,"District":1.0,"Street":[1.0],"HouseNumber":1.0,"PostalCode":1.0},"MatchType":"interpolated","Location":{"LocationId":"NT_va9tLpdrvUvzVAJozLQBFA_3MD","LocationType":"point","DisplayPosition":{"Latitude":51.36885,"Longitude":11.2922},"MapView":{"TopLeft":{"Latitude":51.3699742,"Longitude":11.2903994},"BottomRight":{"Latitude":51.3677258,"Longitude":11.2940006}},"Address":{"Label":"Franz-Schubert-Straße 73, 06556 Artern, Deutschland","Country":"DEU","State":"Thüringen","County":"Kyffhäuserkreis","City":"Artern","District":"Artern","Street":"Franz-Schubert-Straße","HouseNumber":"73","PostalCode":"06556","AdditionalData":[{"value":"Deutschland","key":"CountryName"},{"value":"Thüringen","key":"StateName"},{"value":"Kyffhäuserkreis","key":"CountyName"}]},"MapReference":{"ReferenceId":"548009973","Spot":0.12,"SideOfStreet":"right","CountryId":"20147700","StateId":"20196974","CountyId":"20197683","CityId":"20197684","DistrictId":"20197686","AddressId":"189511541","RoadLinkId":"40009548"}}},{"Relevance":1.0,"Distance":118.9,"MatchLevel":"houseNumber","MatchQuality":{"Country":1.0,"State":1.0,"County":1.0,"City":1.0,"District":1.0,"Street":[1.0],"HouseNumber":1.0,"PostalCode":1.0},"MatchType":"interpolated","Location":{"LocationId":"NT_va9tLpdrvUvzVAJozLQBFA_yQD","LocationType":"point","DisplayPosition":{"Latitude":51.36847,"Longitude":11.29243},"MapView":{"TopLeft":{"Latitude":51.3695942,"Longitude":11.2906294},"BottomRight":{"Latitude":51.3673458,"Longitude":11.2942306}},"Address":{"Label":"Franz-Schubert-Straße 24, 06556 Artern, Deutschland","Country":"DEU","State":"Thüringen","County":"Kyffhäuserkreis","City":"Artern","District":"Artern","Street":"Franz-Schubert-Straße","HouseNumber":"24","PostalCode":"06556","AdditionalData":[{"value":"Deutschland","key":"CountryName"},{"value":"Thüringen","key":"StateName"},{"value":"Kyffhäuserkreis","key":"CountyName"}]},"MapReference":{"ReferenceId":"548009977","Spot":0.81,"SideOfStreet":"right","CountryId":"20147700","StateId":"20196974","CountyId":"20197683","CityId":"20197684","DistrictId":"20197686","AddressId":"189469720","RoadLinkId":"39596658"}}},{"Relevance":1.0,"Distance":146.4,"MatchLevel":"houseNumber","MatchQuality":{"Country":1.0,"State":1.0,"County":1.0,"City":1.0,"District":1.0,"Street":[1.0],"HouseNumber":1.0,"PostalCode":1.0},"MatchType":"interpolated","Location":{"LocationId":"NT_va9tLpdrvUvzVAJozLQBFA_2cD","LocationType":"point","DisplayPosition":{"Latitude":51.37004,"Longitude":11.29194},"MapView":{"TopLeft":{"Latitude":51.3711642,"Longitude":11.2901393},"BottomRight":{"Latitude":51.3689158,"Longitude":11.2937407}},"Address":{"Label":"Franz-Schubert-Straße 67, 06556 Artern, Deutschland","Country":"DEU","State":"Thüringen","County":"Kyffhäuserkreis","City":"Artern","District":"Artern","Street":"Franz-Schubert-Straße","HouseNumber":"67","PostalCode":"06556","AdditionalData":[{"value":"Deutschland","key":"CountryName"},{"value":"Thüringen","key":"StateName"},{"value":"Kyffhäuserkreis","key":"CountyName"}]},"MapReference":{"ReferenceId":"548009968","Spot":0.01,"SideOfStreet":"right","CountryId":"20147700","StateId":"20196974","CountyId":"20197683","CityId":"20197684","DistrictId":"20197686","AddressId":"189228234","RoadLinkId":"39694686"}}}]}]}}