{"Response":{"MetaInfo":{"Timestamp":"2020-03-28T11:01:48.649+0000","NextPageInformation":"2"},"View":[{"_type":"SearchResultsViewType","ViewId":0,"Result":[{"Relevance":1.0,"Distance":0.0,"Direction":0.0,"MatchLevel":"district","MatchQuality":{"Country":1.0,"State":1.0,"County":1.0,"City":1.0,"District":1.0,"PostalCode":1.0},"Location":{"LocationId":"NT_NNHHODiHKbHlt61SAOmk0B","LocationType":"point","DisplayPosition":{"Latitude":51.3523132,"Longitude":6.6479121},"MapView":{"TopLeft":{"Latitude":51.38323,"Longitude":6.62453},"BottomRight":{"Latitude":51.345,"Longitude":6.67137}},"Address":{"Label":"Uerdingen, Krefeld, Nordrhein-Westfalen, Deutschland","Country":"DEU","State":"Nordrhein-Westfalen","County":"Krefeld","City":"Krefeld","District":"Uerdingen","PostalCode":"47829","AdditionalData":[{"value":"Deutschland","key":"CountryName"},{"value":"Nordrhein-Westfalen","key":"StateName"},{"value":"Krefeld","key":"CountyName"}]},"MapReference":{"ReferenceId":"51639492","SideOfStreet":"neither","CountryId":"20147700","StateId":"20157369","CountyId":"20157434","CityId":"20157435","DistrictId":"20459423"}}},{"Relevance":1.0,"Distance":10.4,"MatchLevel":"houseNumber","MatchQuality":{"Country":1.0,"State":1.0,"County":1.0,"City":1.0,"District":1.0,"Street":[1.0],"HouseNumber":1.0,"PostalCode":1.0},"MatchType":"interpolated","Location":{"LocationId":"NT_IWe-VwbOnh86h5tmhCvkPD_2kD","LocationType":"point","DisplayPosition":{"Latitude":51.35223,"Longitude":6.64734},"MapView":{"TopLeft":{"Latitude":51.3533542,"Longitude":6.64554},"BottomRight":{"Latitude":51.3511058,"Longitude":6.64914}},"Address":{"Label":"Kurfürstenstraße 69, 47829 Krefeld, Deutschland","Country":"DEU","State":"Nordrhein-Westfalen","County":"Krefeld","City":"Krefeld","District":"Uerdingen","Street":"Kurfürstenstraße","HouseNumber":"69","PostalCode":"47829","AdditionalData":[{"value":"Deutschland","key":"CountryName"},{"value":"Nordrhein-Westfalen","key":"StateName"},{"value":"Krefeld","key":"CountyName"}]},"MapReference":{"ReferenceId":"50994558","Spot":0.68,"SideOfStreet":"right","CountryId":"20147700","StateId":"20157369","CountyId":"20157434","CityId":"20157435","DistrictId":"20459423","AddressId":"196361372","RoadLinkId":"39167773"}}},{"Relevance":1.0,"Distance":52.1,"MatchLevel":"street","MatchQuality":{"Country":1.0,"State":1.0,"County":1.0,"City":1.0,"District":1.0,"Street":[1.0],"PostalCode":1.0},"Location":{"LocationId":"NT_-hUHuyboKV84YZ2zGsLaeC_l_50995334_L","LocationType":"point","DisplayPosition":{"Latitude":51.35228,"Longitude":6.64866},"MapView":{"TopLeft":{"Latitude":51.35228,"Longitude":6.64866},"BottomRight":{"Latitude":51.35173,"Longitude":6.64869}},"Address":{"Label":"Obere Mühlengasse, 47829 Krefeld, Deutschland","Country":"DEU","State":"Nordrhein-Westfalen","County":"Krefeld","City":"Krefeld","District":"Uerdingen","Street":"Obere Mühlengasse","PostalCode":"47829","AdditionalData":[{"value":"Deutschland","key":"CountryName"},{"value":"Nordrhein-Westfalen","key":"StateName"},{"value":"Krefeld","key":"CountyName"}]},"MapReference":{"ReferenceId":"50995334","Spot":1.0,"SideOfStreet":"left","CountryId":"20147700","StateId":"20157369","CountyId":"20157434","CityId":"20157435","DistrictId":"20459423"}}},{"Relevance":1.0,"Distance":58.7,"MatchLevel":"houseNumber","MatchQuality":{"Country":1.0,"State":1.0,"County":1.0,"City":1.0,"District":1.0,"Street":[1.0],"HouseNumber":1.0,"PostalCode":1.0},"MatchType":"interpolated","Location":{"LocationId":"NT_-hUHuyboKV84YZ2zGsLaeC_zID","LocationType":"point","DisplayPosition":{"Latitude":51.35256,"Longitude":6.64866},"MapView":{"TopLeft":{"Latitude":51.3536842,"Longitude":6.64686},"BottomRight":{"Latitude":51.3514358,"Longitude":6.65046}},"Address":{"Label":"Obere Mühlengasse 32, 47829 Krefeld, Deutschland","Country":"DEU","State":"Nordrhein-Westfalen","County":"Krefeld","City":"Krefeld","District":"Uerdingen","Street":"Obere Mühlengasse","HouseNumber":"32","PostalCode":"47829","AdditionalData":[{"value":"Deutschland","key":"CountryName"},{"value":"Nordrhein-Westfalen","key":"StateName"},{"value":"Krefeld","key":"CountyName"}]},"MapReference":{"ReferenceId":"51639495","Spot":0.31,"SideOfStreet":"right","CountryId":"20147700","StateId":"20157369","CountyId":"20157434","CityId":"20157435","DistrictId":"20459423","AddressId":"194933649","RoadLinkId":"39165303"}}},{"Relevance":1.0,"Distance":62.2,"MatchLevel":"houseNumber","MatchQuality":{"Country":1.0,"State":1.0,"County":1.0,"City":1.0,"District":1.0,"Street":[1.0],"HouseNumber":1.0,"PostalCode":1.0},"MatchType":"interpolated","Location":{"LocationId":"NT_IWe-VwbOnh86h5tmhCvkPD_2cTQ","LocationType":"point","DisplayPosition":{"Latitude":51.35288,"Longitude":6.64738},"MapView":{"TopLeft":{"Latitude":51.3540042,"Longitude":6.64558},"BottomRight":{"Latitude":51.3517558,"Longitude":6.64918}},"Address":{"Label":"Kurfürstenstraße 67A, 47829 Krefeld, Deutschland","Country":"DEU","State":"Nordrhein-Westfalen","County":"Krefeld","City":"Krefeld","District":"Uerdingen","Street":"Kurfürstenstraße","HouseNumber":"67A","PostalCode":"47829","AdditionalData":[{"value":"Deutschland","key":"CountryName"},{"value":"Nordrhein-Westfalen","key":"StateName"},{"value":"Krefeld","key":"CountyName"}]},"MapReference":{"ReferenceId":"50994557","Spot":0.37,"SideOfStreet":"right","CountryId":"20147700","StateId":"20157369","CountyId":"20157434","CityId":"20157435","DistrictId":"20459423","AddressId":"622125358","RoadLinkId":"39197432"}}},{"Relevance":1.0,"Distance":69.0,"MatchLevel":"houseNumber","MatchQuality":{"Country":1.0,"State":1.0,"County":1.0,"City":1.0,"District":1.0,"Street":[1.0],"HouseNumber":1.0,"PostalCode":1.0},"MatchType":"interpolated","Location":{"LocationId":"NT_GCEe30JVaKh8KE2j2cMf6B_xA","LocationType":"point","DisplayPosition":{"Latitude":51.35243,"Longitude":6.64688},"MapView":{"TopLeft":{"Latitude":51.3535542,"Longitude":6.64508},"BottomRight":{"Latitude":51.3513058,"Longitude":6.64868}},"Address":{"Label":"Joseph-Görres-Straße 1, 47829 Krefeld, Deutschland","Country":"DEU","State":"Nordrhein-Westfalen","County":"Krefeld","City":"Krefeld","District":"Uerdingen","Street":"Joseph-Görres-Straße","HouseNumber":"1","PostalCode":"47829","AdditionalData":[{"value":"Deutschland","key":"CountryName"},{"value":"Nordrhein-Westfalen","key":"StateName"},{"value":"Krefeld","key":"CountyName"}]},"MapReference":{"ReferenceId":"1038973934","Spot":0.75,"SideOfStreet":"right","CountryId":"20147700","StateId":"20157369","CountyId":"20157434","CityId":"20157435","DistrictId":"20459423","AddressId":"196505027","RoadLinkId":"360839519"}}},{"Relevance":1.0,"Distance":73.5,"MatchLevel":"street","MatchQuality":{"Country":1.0,"State":1.0,"County":1.0,"City":1.0,"District":1.0,"PostalCode":1.0},"Location":{"LocationId":"NT_Nk1rAhSMtHB82CxrD0DYmD_l_50995315_L","LocationType":"point","DisplayPosition":{"Latitude":51.35166,"Longitude":6.64807},"MapView":{"TopLeft":{"Latitude":51.35166,"Longitude":6.64798},"BottomRight":{"Latitude":51.35159,"Longitude":6.64853}},"Address":{"Label":"47829 Krefeld, Deutschland","Country":"DEU","State":"Nordrhein-Westfalen","County":"Krefeld","City":"Krefeld","District":"Uerdingen","PostalCode":"47829","AdditionalData":[{"value":"Deutschland","key":"CountryName"},{"value":"Nordrhein-Westfalen","key":"StateName"},{"value":"Krefeld","key":"CountyName"}]},"MapReference":{"ReferenceId":"50995315","Spot":0.2,"SideOfStreet":"left","CountryId":"20147700","StateId":"20157369","CountyId":"20157434","CityId":"20157435","DistrictId":"20459423"}}},{"Relevance":1.0,"Distance":79.9,"MatchLevel":"street","MatchQuality":{"Country":1.0,"State":1.0,"County":1.0,"City":1.0,"District":1.0,"PostalCode":1.0},"Location":{"LocationId":"NT_Nk1rAhSMtHB82CxrD0DYmD_l_50995307_R","LocationType":"point","DisplayPosition":{"Latitude":51.3515946,"Longitude":6.6478794},"MapView":{"TopLeft":{"Latitude":51.35162,"Longitude":6.64732},"BottomRight":{"Latitude":51.35159,"Longitude":6.64798}},"Address":{"Label":"47829 Krefeld, Deutschland","Country":"DEU","State":"Nordrhein-Westfalen","County":"Krefeld","City":"Krefeld","District":"Uerdingen","PostalCode":"47829","AdditionalData":[{"value":"Deutschland","key":"CountryName"},{"value":"Nordrhein-Westfalen","key":"StateName"},{"value":"Krefeld","key":"CountyName"}]},"MapReference":{"ReferenceId":"50995307","Spot":0.15,"SideOfStreet":"right","CountryId":"20147700","StateId":"20157369","CountyId":"20157434","CityId":"20157435","DistrictId":"20459423"}}},{"Relevance":1.0,"Distance":80.6,"MatchLevel":"street","MatchQuality":{"Country":1.0,"State":1.0,"County":1.0,"City":1.0,"District":1.0,"PostalCode":1.0},"Location":{"LocationId":"NT_Nk1rAhSMtHB82CxrD0DYmD_l_50995308_R","LocationType":"point","DisplayPosition":{"Latitude":51.35159,"Longitude":6.64798},"MapView":{"TopLeft":{"Latitude":51.35159,"Longitude":6.64798},"BottomRight":{"Latitude":51.35152,"Longitude":6.64848}},"Address":{"Label":"47829 Krefeld, Deutschland","Country":"DEU","State":"Nordrhein-Westfalen","County":"Krefeld","City":"Krefeld","District":"Uerdingen","PostalCode":"47829","AdditionalData":[{"value":"Deutschland","key":"CountryName"},{"value":"Nordrhein-Westfalen","key":"StateName"},{"value":"Krefeld","key":"CountyName"}]},"MapReference":{"ReferenceId":"50995308","Spot":1.0,"SideOfStreet":"right","CountryId":"20147700","StateId":"20157369","CountyId":"20157434","CityId":"20157435","DistrictId":"20459423"}}},{"Relevance":1.0,"Distance":86.3,"MatchLevel":"street","MatchQuality":{"Country":1.0,"State":1.0,"County":1.0,"City":1.0,"District":1.0,"PostalCode":1.0},"Location":{"LocationId":"NT_Nk1rAhSMtHB82CxrD0DYmD_l_50995318_L","LocationType":"point","DisplayPosition":{"Latitude":51.35164,"Longitude":6.64853},"MapView":{"TopLeft":{"Latitude":51.35164,"Longitude":6.64848},"BottomRight":{"Latitude":51.35152,"Longitude":6.64853}},"Address":{"Label":"47829 Krefeld, Deutschland","Country":"DEU","State":"Nordrhein-Westfalen","County":"Krefeld","City":"Krefeld","District":"Uerdingen","PostalCode":"47829","AdditionalData":[{"value":"Deutschland","key":"CountryName"},{"value":"Nordrhein-Westfalen","key":"StateName"},{"value":"Krefeld","key":"CountyName"}]},"MapReference":{"ReferenceId":"50995318","Spot":1.0,"SideOfStreet":"left","CountryId":"20147700","StateId":"20157369","CountyId":"20157434","CityId":"20157435","DistrictId":"20459423"}}}]}]}}