{"Response":{"MetaInfo":{"Timestamp":"2020-03-28T10:11:54.442+0000","NextPageInformation":"2"},"View":[{"_type":"SearchResultsViewType","ViewId":0,"Result":[{"Relevance":1.0,"Distance":0.0,"Direction":0.0,"MatchLevel":"district","MatchQuality":{"Country":1.0,"State":1.0,"County":1.0,"City":1.0,"District":1.0,"PostalCode":1.0},"Location":{"LocationId":"NT_sDXmhd4ncOO3zbgjlqSu7C","LocationType":"point","DisplayPosition":{"Latitude":51.3599376,"Longitude":-2.3517751},"MapView":{"TopLeft":{"Latitude":51.36307,"Longitude":-2.35285},"BottomRight":{"Latitude":51.3572,"Longitude":-2.33478}},"Address":{"Label":"Combe Down, Bath, England, United Kingdom","Country":"GBR","State":"England","County":"Avon","City":"Bath","District":"Combe Down","PostalCode":"BA2 5","AdditionalData":[{"value":"United Kingdom","key":"CountryName"},{"value":"England","key":"StateName"},{"value":"Avon","key":"CountyName"}]},"MapReference":{"ReferenceId":"26541092","SideOfStreet":"neither","StateId":"20248595","CountyId":"20352323","CityId":"20352336","DistrictId":"20352352"}}},{"Relevance":1.0,"Distance":4.0,"MatchLevel":"houseNumber","MatchQuality":{"Country":1.0,"State":1.0,"County":1.0,"City":1.0,"District":1.0,"Street":[1.0],"HouseNumber":1.0,"PostalCode":1.0},"MatchType":"interpolated","Location":{"LocationId":"NT_8MIV009BZEaBOytNaQFIrC_l_880402831_L_4A","LocationType":"point","DisplayPosition":{"Latitude":51.36007,"Longitude":-2.35171},"MapView":{"TopLeft":{"Latitude":51.3611942,"Longitude":-2.3535103},"BottomRight":{"Latitude":51.3589459,"Longitude":-2.3499097}},"Address":{"Label":"8 Combe Road, Bath, BA2 5HX, United Kingdom","Country":"GBR","State":"England","County":"Avon","City":"Bath","District":"Combe Down","Street":"Combe Road","HouseNumber":"8","PostalCode":"BA2 5HX","AdditionalData":[{"value":"United Kingdom","key":"CountryName"},{"value":"England","key":"StateName"},{"value":"Avon","key":"CountyName"}]},"MapReference":{"ReferenceId":"880402831","Spot":0.0,"SideOfStreet":"left","StateId":"20248595","CountyId":"20352323","CityId":"20352336","DistrictId":"20352352"}}},{"Relevance":1.0,"Distance":10.0,"MatchLevel":"street","MatchQuality":{"Country":1.0,"State":1.0,"County":1.0,"City":1.0,"District":1.0,"PostalCode":1.0},"Location":{"LocationId":"NT_ePcqA8xqAtYfSYBfWAIm-B_l_880402832_R","LocationType":"point","DisplayPosition":{"Latitude":51.360024,"Longitude":-2.3518135},"MapView":{"TopLeft":{"Latitude":51.36007,"Longitude":-2.35285},"BottomRight":{"Latitude":51.35839,"Longitude":-2.35171}},"Address":{"Label":"Bath, BA2 5, United Kingdom","Country":"GBR","State":"England","County":"Avon","City":"Bath","District":"Combe Down","PostalCode":"BA2 5","AdditionalData":[{"value":"United Kingdom","key":"CountryName"},{"value":"England","key":"StateName"},{"value":"Avon","key":"CountyName"}]},"MapReference":{"ReferenceId":"880402832","Spot":0.95,"SideOfStreet":"right","StateId":"20248595","CountyId":"20352323","CityId":"20352336","DistrictId":"20352352"}}},{"Relevance":1.0,"Distance":16.9,"MatchLevel":"houseNumber","MatchQuality":{"Country":1.0,"State":1.0,"County":1.0,"City":1.0,"District":1.0,"Street":[1.0],"HouseNumber":1.0,"PostalCode":1.0},"MatchType":"interpolated","Location":{"LocationId":"NT_8MIV009BZEaBOytNaQFIrC_l_880402830_L_xAD","LocationType":"point","DisplayPosition":{"Latitude":51.3599028,"Longitude":-2.3515388},"MapView":{"TopLeft":{"Latitude":51.3610269,"Longitude":-2.3533391},"BottomRight":{"Latitude":51.3587786,"Longitude":-2.3497385}},"Address":{"Label":"10 Combe Road, Bath, BA2 5, United Kingdom","Country":"GBR","State":"England","County":"Avon","City":"Bath","District":"Combe Down","Street":"Combe Road","HouseNumber":"10","PostalCode":"BA2 5","AdditionalData":[{"value":"United Kingdom","key":"CountryName"},{"value":"England","key":"StateName"},{"value":"Avon","key":"CountyName"}]},"MapReference":{"ReferenceId":"880402830","Spot":0.71,"SideOfStreet":"left","StateId":"20248595","CountyId":"20352323","CityId":"20352336","DistrictId":"20352352"}}},{"Relevance":1.0,"Distance":21.1,"MatchLevel":"houseNumber","MatchQuality":{"Country":1.0,"State":1.0,"County":1.0,"City":1.0,"District":1.0,"Street":[1.0],"HouseNumber":1.0,"PostalCode":1.0},"MatchType":"interpolated","Location":{"LocationId":"NT_MtM7WWMMQCl-djZ1MEZ67C_l_26540986_R_xkDM","LocationType":"point","DisplayPosition":{"Latitude":51.3602425,"Longitude":-2.3519315},"MapView":{"TopLeft":{"Latitude":51.3613666,"Longitude":-2.3537318},"BottomRight":{"Latitude":51.3591183,"Longitude":-2.3501312}},"Address":{"Label":"190 Bradford Road, Bath, BA2 5, United Kingdom","Country":"GBR","State":"England","County":"Avon","City":"Bath","District":"Bath","Street":"Bradford Road","HouseNumber":"190","PostalCode":"BA2 5","AdditionalData":[{"value":"United Kingdom","key":"CountryName"},{"value":"England","key":"StateName"},{"value":"Avon","key":"CountyName"}]},"MapReference":{"ReferenceId":"26540986","Spot":0.62,"SideOfStreet":"right","StateId":"20248595","CountyId":"20352323","CityId":"20352336","DistrictId":"20352337"}}},{"Relevance":1.0,"Distance":22.2,"MatchLevel":"houseNumber","MatchQuality":{"Country":1.0,"State":1.0,"County":1.0,"City":1.0,"District":1.0,"Street":[1.0],"HouseNumber":1.0,"PostalCode":1.0},"MatchType":"interpolated","Location":{"LocationId":"NT_5t2AiEpy7L8FoLExOm.adA_l_836598439_R_yA","LocationType":"point","DisplayPosition":{"Latitude":51.360271,"Longitude":-2.3518009},"MapView":{"TopLeft":{"Latitude":51.3613951,"Longitude":-2.3536012},"BottomRight":{"Latitude":51.3591468,"Longitude":-2.3500006}},"Address":{"Label":"2 North Road, Bath, BA2 5DQ, United Kingdom","Country":"GBR","State":"England","County":"Avon","City":"Bath","District":"Combe Down","Street":"North Road","HouseNumber":"2","PostalCode":"BA2 5DQ","AdditionalData":[{"value":"United Kingdom","key":"CountryName"},{"value":"England","key":"StateName"},{"value":"Avon","key":"CountyName"}]},"MapReference":{"ReferenceId":"836598439","Spot":0.52,"SideOfStreet":"right","StateId":"20248595","CountyId":"20352323","CityId":"20352336","DistrictId":"20352352"}}},{"Relevance":1.0,"Distance":34.0,"MatchLevel":"houseNumber","MatchQuality":{"Country":1.0,"State":1.0,"County":1.0,"City":1.0,"District":1.0,"Street":[1.0],"HouseNumber":1.0,"PostalCode":1.0},"MatchType":"interpolated","Location":{"LocationId":"NT_68wyIHtOWBtZPlY8diiMLB_l_1225130520_R_xgDO","LocationType":"point","DisplayPosition":{"Latitude":51.36018,"Longitude":-2.3522567},"MapView":{"TopLeft":{"Latitude":51.3613042,"Longitude":-2.354057},"BottomRight":{"Latitude":51.3590559,"Longitude":-2.3504563}},"Address":{"Label":"188 Bradford Road, Bath, BA2 5DA, United Kingdom","Country":"GBR","State":"England","County":"Avon","City":"Bath","District":"Bath","Street":"Bradford Road","HouseNumber":"188","PostalCode":"BA2 5DA","AdditionalData":[{"value":"United Kingdom","key":"CountryName"},{"value":"England","key":"StateName"},{"value":"Avon","key":"CountyName"}]},"MapReference":{"ReferenceId":"1225130520","Spot":0.56,"SideOfStreet":"right","StateId":"20248595","CountyId":"20352323","CityId":"20352336","DistrictId":"20352337"}}},{"Relevance":1.0,"Distance":36.1,"MatchLevel":"street","MatchQuality":{"Country":1.0,"State":1.0,"County":1.0,"City":1.0,"District":1.0,"Street":[1.0],"PostalCode":1.0},"Location":{"LocationId":"NT_cxhmbmkQ7pb1V4D4ZHvMRD_l_880404510_L","LocationType":"point","DisplayPosition":{"Latitude":51.36023,"Longitude":-2.352},"MapView":{"TopLeft":{"Latitude":51.3606,"Longitude":-2.35229},"BottomRight":{"Latitude":51.36023,"Longitude":-2.352}},"Address":{"Label":"Bramble Way, Bath, BA2 5, United Kingdom","Country":"GBR","State":"England","County":"Avon","City":"Bath","District":"Bath","Street":"Bramble Way","PostalCode":"BA2 5","AdditionalData":[{"value":"United Kingdom","key":"CountryName"},{"value":"England","key":"StateName"},{"value":"Avon","key":"CountyName"}]},"MapReference":{"ReferenceId":"880404510","Spot":0.0,"SideOfStreet":"left","StateId":"20248595","CountyId":"20352323","CityId":"20352336","DistrictId":"20352337"}}},{"Relevance":1.0,"Distance":36.5,"MatchLevel":"houseNumber","MatchQuality":{"Country":1.0,"State":1.0,"County":1.0,"City":1.0,"District":1.0,"Street":[1.0],"HouseNumber":1.0,"PostalCode":1.0},"MatchType":"interpolated","Location":{"LocationId":"NT_MEuu2n3.Kwj33Zo7-17UnD_l_836598440_R_0A","LocationType":"point","DisplayPosition":{"Latitude":51.36034,"Longitude":-2.3515199},"MapView":{"TopLeft":{"Latitude":51.3614642,"Longitude":-2.3533202},"BottomRight":{"Latitude":51.3592159,"Longitude":-2.3497196}},"Address":{"Label":"4 North Road, Bath, BA2 5, United Kingdom","Country":"GBR","State":"England","County":"Avon","City":"Bath","District":"Combe Down","Street":"North Road","HouseNumber":"4","PostalCode":"BA2 5","AdditionalData":[{"value":"United Kingdom","key":"CountryName"},{"value":"England","key":"StateName"},{"value":"Avon","key":"CountyName"}]},"MapReference":{"ReferenceId":"836598440","Spot":0.11,"SideOfStreet":"right","StateId":"20248595","CountyId":"20352323","CityId":"20352336","DistrictId":"20352352"}}},{"Relevance":1.0,"Distance":52.5,"MatchLevel":"postalCode","MatchQuality":{"PostalCode":1.0},"MatchType":"interpolated","Location":{"LocationId":"NT_68wyIHtOWBtZPlY8diiMLB_l_1225130520_R_xgDO","LocationType":"point","DisplayPosition":{"Latitude":51.36009,"Longitude":-2.35249},"MapView":{"TopLeft":{"Latitude":51.3690832,"Longitude":-2.3668924},"BottomRight":{"Latitude":51.3510968,"Longitude":-2.3380876}},"Address":{"Label":"BA2 5DA, Bath, England, United Kingdom","Country":"GBR","State":"England","County":"Avon","City":"Bath","PostalCode":"BA2 5DA","AdditionalData":[{"value":"United Kingdom","key":"CountryName"},{"value":"England","key":"StateName"},{"value":"Avon","key":"CountyName"}]},"MapReference":{"ReferenceId":"1225130520","Spot":0.56,"SideOfStreet":"neither","StateId":"20248595","CountyId":"20352323","CityId":"20352336"}}}]}]}}