{"Response":{"MetaInfo":{"Timestamp":"2020-03-28T10:04:42.145+0000","NextPageInformation":"2"},"View":[{"_type":"SearchResultsViewType","ViewId":0,"Result":[{"Relevance":1.0,"Distance":0.0,"Direction":0.0,"MatchLevel":"district","MatchQuality":{"Country":1.0,"State":1.0,"County":1.0,"City":1.0,"District":1.0,"PostalCode":1.0},"Location":{"LocationId":"NT_4sny2s7H7xa9TeDnpLntMC","LocationType":"point","DisplayPosition":{"Latitude":51.3644851,"Longitude":11.2951728},"MapView":{"TopLeft":{"Latitude":51.3806,"Longitude":11.28112},"BottomRight":{"Latitude":51.35708,"Longitude":11.31142}},"Address":{"Label":"Artern, Thüringen, Deutschland","Country":"DEU","State":"Thüringen","County":"Kyffhäuserkreis","City":"Artern","District":"Artern","PostalCode":"06556","AdditionalData":[{"value":"Deutschland","key":"CountryName"},{"value":"Thüringen","key":"StateName"},{"value":"Kyffhäuserkreis","key":"CountyName"}]},"MapReference":{"ReferenceId":"913136774","SideOfStreet":"neither","CountryId":"20147700","StateId":"20196974","CountyId":"20197683","CityId":"20197684","DistrictId":"20197686"}}},{"Relevance":1.0,"Distance":8.4,"MatchLevel":"houseNumber","MatchQuality":{"Country":1.0,"State":1.0,"County":1.0,"City":1.0,"District":1.0,"Street":[1.0],"HouseNumber":1.0,"PostalCode":1.0},"MatchType":"interpolated","Location":{"LocationId":"NT_vvkuQUFF5A6rtdqQXCef4B_xcD","LocationType":"point","DisplayPosition":{"Latitude":51.36429,"Longitude":11.29525},"MapView":{"TopLeft":{"Latitude":51.3654142,"Longitude":11.2934495},"BottomRight":{"Latitude":51.3631658,"Longitude":11.2970505}},"Address":{"Label":"Leipziger Straße 17, 06556 Artern, Deutschland","Country":"DEU","State":"Thüringen","County":"Kyffhäuserkreis","City":"Artern","District":"Artern","Street":"Leipziger Straße","HouseNumber":"17","PostalCode":"06556","AdditionalData":[{"value":"Deutschland","key":"CountryName"},{"value":"Thüringen","key":"StateName"},{"value":"Kyffhäuserkreis","key":"CountyName"}]},"MapReference":{"ReferenceId":"548009673","Spot":0.15,"SideOfStreet":"left","CountryId":"20147700","StateId":"20196974","CountyId":"20197683","CityId":"20197684","DistrictId":"20197686","AddressId":"189429601","RoadLinkId":"39952500"}}},{"Relevance":1.0,"Distance":23.1,"MatchLevel":"houseNumber","MatchQuality":{"Country":1.0,"State":1.0,"County":1.0,"City":1.0,"District":1.0,"Street":[1.0],"HouseNumber":1.0,"PostalCode":1.0},"MatchType":"interpolated","Location":{"LocationId":"NT_UH-QV35TYpW-Q9gRBDe5AD_yA","LocationType":"point","DisplayPosition":{"Latitude":51.36432,"Longitude":11.29497},"MapView":{"TopLeft":{"Latitude":51.3654442,"Longitude":11.2931695},"BottomRight":{"Latitude":51.3631958,"Longitude":11.2967705}},"Address":{"Label":"Geschwister-Scholl-Platz 2, 06556 Artern, Deutschland","Country":"DEU","State":"Thüringen","County":"Kyffhäuserkreis","City":"Artern","District":"Artern","Street":"Geschwister-Scholl-Platz","HouseNumber":"2","PostalCode":"06556","AdditionalData":[{"value":"Deutschland","key":"CountryName"},{"value":"Thüringen","key":"StateName"},{"value":"Kyffhäuserkreis","key":"CountyName"}]},"MapReference":{"ReferenceId":"548009671","Spot":1.0,"SideOfStreet":"right","CountryId":"20147700","StateId":"20196974","CountyId":"20197683","CityId":"20197684","DistrictId":"20197686","AddressId":"249509199","RoadLinkId":"39725422"}}},{"Relevance":1.0,"Distance":25.2,"MatchLevel":"houseNumber","MatchQuality":{"Country":1.0,"State":1.0,"County":1.0,"City":1.0,"District":1.0,"Street":[1.0],"HouseNumber":1.0,"PostalCode":1.0},"MatchType":"interpolated","Location":{"LocationId":"NT_vvkuQUFF5A6rtdqQXCef4B_xUD","LocationType":"point","DisplayPosition":{"Latitude":51.36434,"Longitude":11.29477},"MapView":{"TopLeft":{"Latitude":51.3654642,"Longitude":11.2929695},"BottomRight":{"Latitude":51.3632158,"Longitude":11.2965705}},"Address":{"Label":"Leipziger Straße 15, 06556 Artern, Deutschland","Country":"DEU","State":"Thüringen","County":"Kyffhäuserkreis","City":"Artern","District":"Artern","Street":"Leipziger Straße","HouseNumber":"15","PostalCode":"06556","AdditionalData":[{"value":"Deutschland","key":"CountryName"},{"value":"Thüringen","key":"StateName"},{"value":"Kyffhäuserkreis","key":"CountyName"}]},"MapReference":{"ReferenceId":"548120212","Spot":0.17,"SideOfStreet":"right","CountryId":"20147700","StateId":"20196974","CountyId":"20197683","CityId":"20197684","DistrictId":"20197686","AddressId":"189300534","RoadLinkId":"39598125"}}},{"Relevance":1.0,"Distance":69.5,"MatchLevel":"street","MatchQuality":{"Country":1.0,"State":1.0,"County":1.0,"City":1.0,"District":1.0,"PostalCode":1.0},"Location":{"LocationId":"NT_Hhm.2kfEUlGm6vIgll9EoC_l_548010019_R","LocationType":"point","DisplayPosition":{"Latitude":51.36511,"Longitude":11.2952},"MapView":{"TopLeft":{"Latitude":51.36555,"Longitude":11.2952},"BottomRight":{"Latitude":51.36511,"Longitude":11.29561}},"Address":{"Label":"06556 Artern, Deutschland","Country":"DEU","State":"Thüringen","County":"Kyffhäuserkreis","City":"Artern","District":"Artern","PostalCode":"06556","AdditionalData":[{"value":"Deutschland","key":"CountryName"},{"value":"Thüringen","key":"StateName"},{"value":"Kyffhäuserkreis","key":"CountyName"}]},"MapReference":{"ReferenceId":"548010019","Spot":0.0,"SideOfStreet":"right","CountryId":"20147700","StateId":"20196974","CountyId":"20197683","CityId":"20197684","DistrictId":"20197686"}}},{"Relevance":1.0,"Distance":75.2,"MatchLevel":"houseNumber","MatchQuality":{"Country":1.0,"State":1.0,"County":1.0,"City":1.0,"District":1.0,"Street":[1.0],"HouseNumber":1.0,"PostalCode":1.0},"MatchType":"interpolated","Location":{"LocationId":"NT_aiafLDC-kUSApnlHCaT11D_1gD","LocationType":"point","DisplayPosition":{"Latitude":51.36522,"Longitude":11.29479},"MapView":{"TopLeft":{"Latitude":51.3663442,"Longitude":11.2929895},"BottomRight":{"Latitude":51.3640958,"Longitude":11.2965905}},"Address":{"Label":"Puschkinstraße 58, 06556 Artern, Deutschland","Country":"DEU","State":"Thüringen","County":"Kyffhäuserkreis","City":"Artern","District":"Artern","Street":"Puschkinstraße","HouseNumber":"58","PostalCode":"06556","AdditionalData":[{"value":"Deutschland","key":"CountryName"},{"value":"Thüringen","key":"StateName"},{"value":"Kyffhäuserkreis","key":"CountyName"}]},"MapReference":{"ReferenceId":"548120214","Spot":0.29,"SideOfStreet":"left","CountryId":"20147700","StateId":"20196974","CountyId":"20197683","CityId":"20197684","DistrictId":"20197686","AddressId":"189609108","RoadLinkId":"39875211"}}},{"Relevance":1.0,"Distance":87.2,"MatchLevel":"houseNumber","MatchQuality":{"Country":1.0,"State":1.0,"County":1.0,"City":1.0,"District":1.0,"Street":[1.0],"HouseNumber":1.0,"PostalCode":1.0},"MatchType":"interpolated","Location":{"LocationId":"NT_vvkuQUFF5A6rtdqQXCef4B_5A","LocationType":"point","DisplayPosition":{"Latitude":51.36459,"Longitude":11.2938},"MapView":{"TopLeft":{"Latitude":51.3657142,"Longitude":11.2919995},"BottomRight":{"Latitude":51.3634658,"Longitude":11.2956005}},"Address":{"Label":"Leipziger Straße 9, 06556 Artern, Deutschland","Country":"DEU","State":"Thüringen","County":"Kyffhäuserkreis","City":"Artern","District":"Artern","Street":"Leipziger Straße","HouseNumber":"9","PostalCode":"06556","AdditionalData":[{"value":"Deutschland","key":"CountryName"},{"value":"Thüringen","key":"StateName"},{"value":"Kyffhäuserkreis","key":"CountyName"}]},"MapReference":{"ReferenceId":"548120213","Spot":0.03,"SideOfStreet":"right","CountryId":"20147700","StateId":"20196974","CountyId":"20197683","CityId":"20197684","DistrictId":"20197686","AddressId":"189300536","RoadLinkId":"145787934"}}},{"Relevance":1.0,"Distance":87.4,"MatchLevel":"houseNumber","MatchQuality":{"Country":1.0,"State":1.0,"County":1.0,"City":1.0,"District":1.0,"Street":[1.0],"HouseNumber":1.0,"PostalCode":1.0},"MatchType":"interpolated","Location":{"LocationId":"NT_aiafLDC-kUSApnlHCaT11D_2ID","LocationType":"point","DisplayPosition":{"Latitude":51.36488,"Longitude":11.29638},"MapView":{"TopLeft":{"Latitude":51.3660042,"Longitude":11.2945795},"BottomRight":{"Latitude":51.3637558,"Longitude":11.2981805}},"Address":{"Label":"Puschkinstraße 62, 06556 Artern, Deutschland","Country":"DEU","State":"Thüringen","County":"Kyffhäuserkreis","City":"Artern","District":"Artern","Street":"Puschkinstraße","HouseNumber":"62","PostalCode":"06556","AdditionalData":[{"value":"Deutschland","key":"CountryName"},{"value":"Thüringen","key":"StateName"},{"value":"Kyffhäuserkreis","key":"CountyName"}]},"MapReference":{"ReferenceId":"548010016","Spot":0.28,"SideOfStreet":"left","CountryId":"20147700","StateId":"20196974","CountyId":"20197683","CityId":"20197684","DistrictId":"20197686","AddressId":"189243397","RoadLinkId":"39621794"}}},{"Relevance":1.0,"Distance":92.0,"MatchLevel":"street","MatchQuality":{"Country":1.0,"State":1.0,"County":1.0,"City":1.0,"District":1.0,"PostalCode":1.0},"Location":{"LocationId":"NT_Hhm.2kfEUlGm6vIgll9EoC_l_548120206_L","LocationType":"point","DisplayPosition":{"Latitude":51.36375,"Longitude":11.29578},"MapView":{"TopLeft":{"Latitude":51.36375,"Longitude":11.29574},"BottomRight":{"Latitude":51.36325,"Longitude":11.29649}},"Address":{"Label":"06556 Artern, Deutschland","Country":"DEU","State":"Thüringen","County":"Kyffhäuserkreis","City":"Artern","District":"Artern","PostalCode":"06556","AdditionalData":[{"value":"Deutschland","key":"CountryName"},{"value":"Thüringen","key":"StateName"},{"value":"Kyffhäuserkreis","key":"CountyName"}]},"MapReference":{"ReferenceId":"548120206","Spot":0.41,"SideOfStreet":"left","CountryId":"20147700","StateId":"20196974","CountyId":"20197683","CityId":"20197684","DistrictId":"20197686"}}},{"Relevance":1.0,"Distance":95.3,"MatchLevel":"street","MatchQuality":{"Country":1.0,"State":1.0,"County":1.0,"City":1.0,"District":1.0,"Street":[1.0],"PostalCode":1.0},"Location":{"LocationId":"NT_UijEU47VI.p6ywNSyevQtA_l_548009678_R","LocationType":"point","DisplayPosition":{"Latitude":51.36402,"Longitude":11.29402},"MapView":{"TopLeft":{"Latitude":51.36402,"Longitude":11.2939},"BottomRight":{"Latitude":51.36355,"Longitude":11.29402}},"Address":{"Label":"Nordhäuser Straße, 06556 Artern, Deutschland","Country":"DEU","State":"Thüringen","County":"Kyffhäuserkreis","City":"Artern","District":"Artern","Street":"Nordhäuser Straße","PostalCode":"06556","AdditionalData":[{"value":"Deutschland","key":"CountryName"},{"value":"Thüringen","key":"StateName"},{"value":"Kyffhäuserkreis","key":"CountyName"}]},"MapReference":{"ReferenceId":"548009678","Spot":1.0,"SideOfStreet":"right","CountryId":"20147700","StateId":"20196974","CountyId":"20197683","CityId":"20197684","DistrictId":"20197686"}}}]}]}}