{"Response":{"MetaInfo":{"Timestamp":"2020-03-28T10:56:05.874+0000","NextPageInformation":"2"},"View":[{"_type":"SearchResultsViewType","ViewId":0,"Result":[{"Relevance":1.0,"Distance":0.0,"Direction":0.0,"MatchLevel":"district","MatchQuality":{"Country":1.0,"State":1.0,"County":1.0,"City":1.0,"District":1.0,"PostalCode":1.0},"Location":{"LocationId":"NT_ipUPN6YLHbuR0T4OgGJ7LD","LocationType":"point","DisplayPosition":{"Latitude":51.390402,"Longitude":7.0054682},"MapView":{"TopLeft":{"Latitude":51.39929,"Longitude":6.9777},"BottomRight":{"Latitude":51.38072,"Longitude":7.01592}},"Address":{"Label":"Werden, Essen, Nordrhein-Westfalen, Deutschland","Country":"DEU","State":"Nordrhein-Westfalen","County":"Essen","City":"Essen","District":"Werden","PostalCode":"45239","AdditionalData":[{"value":"Deutschland","key":"CountryName"},{"value":"Nordrhein-Westfalen","key":"StateName"},{"value":"Essen","key":"CountyName"}]},"MapReference":{"ReferenceId":"1085686810","SideOfStreet":"neither","CountryId":"20147700","StateId":"20157369","CountyId":"20157419","CityId":"20157420","DistrictId":"20157425"}}},{"Relevance":1.0,"Distance":29.7,"MatchLevel":"houseNumber","MatchQuality":{"Country":1.0,"State":1.0,"County":1.0,"City":1.0,"District":1.0,"Street":[1.0],"HouseNumber":1.0,"PostalCode":1.0},"MatchType":"interpolated","Location":{"LocationId":"NT_HMw548Ik7P3-rJIcLPE4rA_2A","LocationType":"point","DisplayPosition":{"Latitude":51.3907,"Longitude":7.00516},"MapView":{"TopLeft":{"Latitude":51.3918242,"Longitude":7.0033585},"BottomRight":{"Latitude":51.3895758,"Longitude":7.0069615}},"Address":{"Label":"Viehauser Berg 6, 45239 Essen, Deutschland","Country":"DEU","State":"Nordrhein-Westfalen","County":"Essen","City":"Essen","District":"Werden","Street":"Viehauser Berg","HouseNumber":"6","PostalCode":"45239","AdditionalData":[{"value":"Deutschland","key":"CountryName"},{"value":"Nordrhein-Westfalen","key":"StateName"},{"value":"Essen","key":"CountyName"}]},"MapReference":{"ReferenceId":"901373176","Spot":0.86,"SideOfStreet":"right","CountryId":"20147700","StateId":"20157369","CountyId":"20157419","CityId":"20157420","DistrictId":"20157425","AddressId":"193257434","RoadLinkId":"262951698"}}},{"Relevance":1.0,"Distance":37.5,"MatchLevel":"houseNumber","MatchQuality":{"Country":1.0,"State":1.0,"County":1.0,"City":1.0,"District":1.0,"Street":[1.0],"HouseNumber":1.0,"PostalCode":1.0},"MatchType":"interpolated","Location":{"LocationId":"NT_HMw548Ik7P3-rJIcLPE4rA_xUD","LocationType":"point","DisplayPosition":{"Latitude":51.39073,"Longitude":7.00534},"MapView":{"TopLeft":{"Latitude":51.3918542,"Longitude":7.0035385},"BottomRight":{"Latitude":51.3896058,"Longitude":7.0071415}},"Address":{"Label":"Viehauser Berg 15, 45239 Essen, Deutschland","Country":"DEU","State":"Nordrhein-Westfalen","County":"Essen","City":"Essen","District":"Werden","Street":"Viehauser Berg","HouseNumber":"15","PostalCode":"45239","AdditionalData":[{"value":"Deutschland","key":"CountryName"},{"value":"Nordrhein-Westfalen","key":"StateName"},{"value":"Essen","key":"CountyName"}]},"MapReference":{"ReferenceId":"901373177","Spot":0.12,"SideOfStreet":"left","CountryId":"20147700","StateId":"20157369","CountyId":"20157419","CityId":"20157420","DistrictId":"20157425","AddressId":"193106508","RoadLinkId":"262951699"}}},{"Relevance":1.0,"Distance":39.8,"MatchLevel":"street","MatchQuality":{"Country":1.0,"State":1.0,"County":1.0,"City":1.0,"District":1.0,"Street":[1.0],"PostalCode":1.0},"Location":{"LocationId":"NT_T2npZfhGg21Nv.bgEfju.C_l_902201653_L","LocationType":"point","DisplayPosition":{"Latitude":51.39076,"Longitude":7.00548},"MapView":{"TopLeft":{"Latitude":51.39083,"Longitude":7.00544},"BottomRight":{"Latitude":51.39076,"Longitude":7.00548}},"Address":{"Label":"Ludwigstraße, 45239 Essen, Deutschland","Country":"DEU","State":"Nordrhein-Westfalen","County":"Essen","City":"Essen","District":"Werden","Street":"Ludwigstraße","PostalCode":"45239","AdditionalData":[{"value":"Deutschland","key":"CountryName"},{"value":"Nordrhein-Westfalen","key":"StateName"},{"value":"Essen","key":"CountyName"}]},"MapReference":{"ReferenceId":"902201653","Spot":0.0,"SideOfStreet":"left","CountryId":"20147700","StateId":"20157369","CountyId":"20157419","CityId":"20157420","DistrictId":"20157425"}}},{"Relevance":1.0,"Distance":39.8,"MatchLevel":"street","MatchQuality":{"Country":1.0,"State":1.0,"County":1.0,"City":1.0,"District":1.0,"Street":[1.0],"PostalCode":1.0},"Location":{"LocationId":"NT_HMw548Ik7P3-rJIcLPE4rA_l_901373174_R","LocationType":"point","DisplayPosition":{"Latitude":51.39076,"Longitude":7.00548},"MapView":{"TopLeft":{"Latitude":51.39079,"Longitude":7.00548},"BottomRight":{"Latitude":51.39076,"Longitude":7.00562}},"Address":{"Label":"Viehauser Berg, 45239 Essen, Deutschland","Country":"DEU","State":"Nordrhein-Westfalen","County":"Essen","City":"Essen","District":"Werden","Street":"Viehauser Berg","PostalCode":"45239","AdditionalData":[{"value":"Deutschland","key":"CountryName"},{"value":"Nordrhein-Westfalen","key":"StateName"},{"value":"Essen","key":"CountyName"}]},"MapReference":{"ReferenceId":"901373174","Spot":0.0,"SideOfStreet":"right","CountryId":"20147700","StateId":"20157369","CountyId":"20157419","CityId":"20157420","DistrictId":"20157425"}}},{"Relevance":1.0,"Distance":55.5,"MatchLevel":"houseNumber","MatchQuality":{"Country":1.0,"State":1.0,"County":1.0,"City":1.0,"District":1.0,"Street":[1.0],"HouseNumber":1.0,"PostalCode":1.0},"MatchType":"interpolated","Location":{"LocationId":"NT_HMw548Ik7P3-rJIcLPE4rA_xID","LocationType":"point","DisplayPosition":{"Latitude":51.39087,"Longitude":7.00594},"MapView":{"TopLeft":{"Latitude":51.3919942,"Longitude":7.0041385},"BottomRight":{"Latitude":51.3897458,"Longitude":7.0077415}},"Address":{"Label":"Viehauser Berg 12, 45239 Essen, Deutschland","Country":"DEU","State":"Nordrhein-Westfalen","County":"Essen","City":"Essen","District":"Werden","Street":"Viehauser Berg","HouseNumber":"12","PostalCode":"45239","AdditionalData":[{"value":"Deutschland","key":"CountryName"},{"value":"Nordrhein-Westfalen","key":"StateName"},{"value":"Essen","key":"CountyName"}]},"MapReference":{"ReferenceId":"901373175","Spot":0.4,"SideOfStreet":"right","CountryId":"20147700","StateId":"20157369","CountyId":"20157419","CityId":"20157420","DistrictId":"20157425","AddressId":"193557682","RoadLinkId":"262951697"}}},{"Relevance":1.0,"Distance":68.3,"MatchLevel":"houseNumber","MatchQuality":{"Country":1.0,"State":1.0,"County":1.0,"City":1.0,"District":1.0,"Street":[1.0],"HouseNumber":1.0,"PostalCode":1.0},"MatchType":"interpolated","Location":{"LocationId":"NT_T2npZfhGg21Nv.bgEfju.C_xA","LocationType":"point","DisplayPosition":{"Latitude":51.39101,"Longitude":7.00533},"MapView":{"TopLeft":{"Latitude":51.3921342,"Longitude":7.0035285},"BottomRight":{"Latitude":51.3898858,"Longitude":7.0071315}},"Address":{"Label":"Ludwigstraße 1, 45239 Essen, Deutschland","Country":"DEU","State":"Nordrhein-Westfalen","County":"Essen","City":"Essen","District":"Werden","Street":"Ludwigstraße","HouseNumber":"1","PostalCode":"45239","AdditionalData":[{"value":"Deutschland","key":"CountryName"},{"value":"Nordrhein-Westfalen","key":"StateName"},{"value":"Essen","key":"CountyName"}]},"MapReference":{"ReferenceId":"902201654","Spot":0.23,"SideOfStreet":"left","CountryId":"20147700","StateId":"20157369","CountyId":"20157419","CityId":"20157420","DistrictId":"20157425","AddressId":"193968463","RoadLinkId":"263751858"}}},{"Relevance":1.0,"Distance":71.4,"MatchLevel":"houseNumber","MatchQuality":{"Country":1.0,"State":1.0,"County":1.0,"City":1.0,"District":1.0,"Street":[1.0],"HouseNumber":1.0,"PostalCode":1.0},"MatchType":"interpolated","Location":{"LocationId":"NT_.TWJacCJkNV5s2HRL4e9OA_zQD","LocationType":"point","DisplayPosition":{"Latitude":51.39027,"Longitude":7.00425},"MapView":{"TopLeft":{"Latitude":51.3913942,"Longitude":7.0024485},"BottomRight":{"Latitude":51.3891458,"Longitude":7.0060515}},"Address":{"Label":"Propsteistraße 34, 45239 Essen, Deutschland","Country":"DEU","State":"Nordrhein-Westfalen","County":"Essen","City":"Essen","District":"Werden","Street":"Propsteistraße","HouseNumber":"34","PostalCode":"45239","AdditionalData":[{"value":"Deutschland","key":"CountryName"},{"value":"Nordrhein-Westfalen","key":"StateName"},{"value":"Essen","key":"CountyName"}]},"MapReference":{"ReferenceId":"900868247","Spot":0.76,"SideOfStreet":"right","CountryId":"20147700","StateId":"20157369","CountyId":"20157419","CityId":"20157420","DistrictId":"20157425","AddressId":"193064836","RoadLinkId":"262583039"}}},{"Relevance":1.0,"Distance":80.6,"MatchLevel":"houseNumber","MatchQuality":{"Country":1.0,"State":1.0,"County":1.0,"City":1.0,"District":1.0,"Street":[1.0],"HouseNumber":1.0,"PostalCode":1.0},"MatchType":"interpolated","Location":{"LocationId":"NT_RvB4lVNDedjdCNx-dn0mCC_yA","LocationType":"point","DisplayPosition":{"Latitude":51.39081,"Longitude":7.00655},"MapView":{"TopLeft":{"Latitude":51.3919342,"Longitude":7.0047485},"BottomRight":{"Latitude":51.3896858,"Longitude":7.0083515}},"Address":{"Label":"Möllenberg 2, 45239 Essen, Deutschland","Country":"DEU","State":"Nordrhein-Westfalen","County":"Essen","City":"Essen","District":"Werden","Street":"Möllenberg","HouseNumber":"2","PostalCode":"45239","AdditionalData":[{"value":"Deutschland","key":"CountryName"},{"value":"Nordrhein-Westfalen","key":"StateName"},{"value":"Essen","key":"CountyName"}]},"MapReference":{"ReferenceId":"51394256","Spot":0.56,"SideOfStreet":"left","CountryId":"20147700","StateId":"20157369","CountyId":"20157419","CityId":"20157420","DistrictId":"20157425","AddressId":"195432117","RoadLinkId":"35411590"}}},{"Relevance":1.0,"Distance":81.2,"MatchLevel":"houseNumber","MatchQuality":{"Country":1.0,"State":1.0,"County":1.0,"City":1.0,"District":1.0,"Street":[1.0],"HouseNumber":1.0,"PostalCode":1.0},"MatchType":"interpolated","Location":{"LocationId":"NT_RvB4lVNDedjdCNx-dn0mCC_4A","LocationType":"point","DisplayPosition":{"Latitude":51.39051,"Longitude":7.00673},"MapView":{"TopLeft":{"Latitude":51.3916342,"Longitude":7.0049285},"BottomRight":{"Latitude":51.3893858,"Longitude":7.0085315}},"Address":{"Label":"Möllenberg 8, 45239 Essen, Deutschland","Country":"DEU","State":"Nordrhein-Westfalen","County":"Essen","City":"Essen","District":"Werden","Street":"Möllenberg","HouseNumber":"8","PostalCode":"45239","AdditionalData":[{"value":"Deutschland","key":"CountryName"},{"value":"Nordrhein-Westfalen","key":"StateName"},{"value":"Essen","key":"CountyName"}]},"MapReference":{"ReferenceId":"51394255","Spot":0.86,"SideOfStreet":"left","CountryId":"20147700","StateId":"20157369","CountyId":"20157419","CityId":"20157420","DistrictId":"20157425","AddressId":"196220554","RoadLinkId":"35161557"}}}]}]}}