{"Response":{"MetaInfo":{"Timestamp":"2020-03-28T11:54:29.818+0000","NextPageInformation":"2"},"View":[{"_type":"SearchResultsViewType","ViewId":0,"Result":[{"Relevance":1.0,"Distance":0.0,"Direction":0.0,"MatchLevel":"district","MatchQuality":{"Country":1.0,"State":1.0,"County":1.0,"City":1.0,"District":1.0,"PostalCode":1.0},"Location":{"LocationId":"NT_irISsSiXit26bvtSIvRgNA","LocationType":"point","DisplayPosition":{"Latitude":51.3320358,"Longitude":-0.3568809},"MapView":{"TopLeft":{"Latitude":51.34828,"Longitude":-0.37502},"BottomRight":{"Latitude":51.32206,"Longitude":-0.34364}},"Address":{"Label":"Oxshott, Leatherhead, England, United Kingdom","Country":"GBR","State":"England","County":"Surrey","City":"Leatherhead","District":"Oxshott","PostalCode":"KT22 0","AdditionalData":[{"value":"United Kingdom","key":"CountryName"},{"value":"England","key":"StateName"},{"value":"Surrey","key":"CountyName"}]},"MapReference":{"ReferenceId":"840134240","SideOfStreet":"neither","StateId":"20248595","CountyId":"20338357","CityId":"20338551","DistrictId":"20338558"}}},{"Relevance":1.0,"Distance":10.8,"MatchLevel":"postalCode","MatchQuality":{"PostalCode":1.0},"Location":{"LocationId":"NT_ym48cXmJ9fn1tJBZloKlnB_l_840134239_L","LocationType":"point","DisplayPosition":{"Latitude":51.33206,"Longitude":-0.35673},"MapView":{"TopLeft":{"Latitude":51.3410532,"Longitude":-0.3711236},"BottomRight":{"Latitude":51.3230668,"Longitude":-0.3423364}},"Address":{"Label":"KT22 0JP, Leatherhead, England, United Kingdom","Country":"GBR","State":"England","County":"Surrey","City":"Leatherhead","PostalCode":"KT22 0JP","AdditionalData":[{"value":"United Kingdom","key":"CountryName"},{"value":"England","key":"StateName"},{"value":"Surrey","key":"CountyName"}]},"MapReference":{"ReferenceId":"840134239","Spot":0.62,"SideOfStreet":"neither","StateId":"20248595","CountyId":"20338357","CityId":"20338551"}}},{"Relevance":1.0,"Distance":13.5,"MatchLevel":"postalCode","MatchQuality":{"PostalCode":1.0},"MatchType":"interpolated","Location":{"LocationId":"NT_ym48cXmJ9fn1tJBZloKlnB_l_25530724_L_yA","LocationType":"point","DisplayPosition":{"Latitude":51.33212,"Longitude":-0.35674},"MapView":{"TopLeft":{"Latitude":51.3411132,"Longitude":-0.3711336},"BottomRight":{"Latitude":51.3231268,"Longitude":-0.3423464}},"Address":{"Label":"KT22 0JW, Leatherhead, England, United Kingdom","Country":"GBR","State":"England","County":"Surrey","City":"Leatherhead","PostalCode":"KT22 0JW","AdditionalData":[{"value":"United Kingdom","key":"CountryName"},{"value":"England","key":"StateName"},{"value":"Surrey","key":"CountyName"}]},"MapReference":{"ReferenceId":"25530724","Spot":0.49,"SideOfStreet":"neither","StateId":"20248595","CountyId":"20338357","CityId":"20338551"}}},{"Relevance":1.0,"Distance":14.7,"MatchLevel":"street","MatchQuality":{"Country":1.0,"State":1.0,"County":1.0,"City":1.0,"District":1.0,"Street":[1.0],"PostalCode":1.0},"Location":{"LocationId":"NT_ym48cXmJ9fn1tJBZloKlnB_l_840134239_L","LocationType":"point","DisplayPosition":{"Latitude":51.3320923,"Longitude":-0.3566889},"MapView":{"TopLeft":{"Latitude":51.33229,"Longitude":-0.35673},"BottomRight":{"Latitude":51.3318,"Longitude":-0.35655}},"Address":{"Label":"High Street, Leatherhead, KT22 0, United Kingdom","Country":"GBR","State":"England","County":"Surrey","City":"Leatherhead","District":"Oxshott","Street":"High Street","PostalCode":"KT22 0","AdditionalData":[{"value":"United Kingdom","key":"CountryName"},{"value":"England","key":"StateName"},{"value":"Surrey","key":"CountyName"}]},"MapReference":{"ReferenceId":"840134239","Spot":0.62,"SideOfStreet":"left","StateId":"20248595","CountyId":"20338357","CityId":"20338551","DistrictId":"20338558"}}},{"Relevance":1.0,"Distance":30.1,"MatchLevel":"street","MatchQuality":{"Country":1.0,"State":1.0,"County":1.0,"City":1.0,"District":1.0,"Street":[1.0],"PostalCode":1.0},"Location":{"LocationId":"NT_ym48cXmJ9fn1tJBZloKlnB_l_840134240_L","LocationType":"point","DisplayPosition":{"Latitude":51.33229,"Longitude":-0.35673},"MapView":{"TopLeft":{"Latitude":51.33277,"Longitude":-0.35677},"BottomRight":{"Latitude":51.33229,"Longitude":-0.35673}},"Address":{"Label":"High Street, Leatherhead, KT22 0, United Kingdom","Country":"GBR","State":"England","County":"Surrey","City":"Leatherhead","District":"Oxshott","Street":"High Street","PostalCode":"KT22 0","AdditionalData":[{"value":"United Kingdom","key":"CountryName"},{"value":"England","key":"StateName"},{"value":"Surrey","key":"CountyName"}]},"MapReference":{"ReferenceId":"840134240","Spot":0.0,"SideOfStreet":"left","StateId":"20248595","CountyId":"20338357","CityId":"20338551","DistrictId":"20338558"}}},{"Relevance":1.0,"Distance":31.8,"MatchLevel":"street","MatchQuality":{"Country":1.0,"State":1.0,"County":1.0,"City":1.0,"District":1.0,"Street":[1.0],"PostalCode":1.0},"Location":{"LocationId":"NT_E5GVQmRlfFOB6F38wPCn7C_l_25470335_L","LocationType":"point","DisplayPosition":{"Latitude":51.3317513,"Longitude":-0.3568317},"MapView":{"TopLeft":{"Latitude":51.3318,"Longitude":-0.35892},"BottomRight":{"Latitude":51.33139,"Longitude":-0.35655}},"Address":{"Label":"Oakshade Road, Leatherhead, KT22 0, United Kingdom","Country":"GBR","State":"England","County":"Surrey","City":"Leatherhead","District":"Oxshott","Street":"Oakshade Road","PostalCode":"KT22 0","AdditionalData":[{"value":"United Kingdom","key":"CountryName"},{"value":"England","key":"StateName"},{"value":"Surrey","key":"CountyName"}]},"MapReference":{"ReferenceId":"25470335","Spot":0.88,"SideOfStreet":"left","StateId":"20248595","CountyId":"20338357","CityId":"20338551","DistrictId":"20338558"}}},{"Relevance":1.0,"Distance":57.9,"MatchLevel":"postalCode","MatchQuality":{"PostalCode":1.0},"Location":{"LocationId":"NT_E5GVQmRlfFOB6F38wPCn7C_l_25470335_L","LocationType":"point","DisplayPosition":{"Latitude":51.33161,"Longitude":-0.35736},"MapView":{"TopLeft":{"Latitude":51.3406032,"Longitude":-0.3717535},"BottomRight":{"Latitude":51.3226168,"Longitude":-0.3429665}},"Address":{"Label":"KT22 0JU, Leatherhead, England, United Kingdom","Country":"GBR","State":"England","County":"Surrey","City":"Leatherhead","PostalCode":"KT22 0JU","AdditionalData":[{"value":"United Kingdom","key":"CountryName"},{"value":"England","key":"StateName"},{"value":"Surrey","key":"CountyName"}]},"MapReference":{"ReferenceId":"25470335","Spot":0.88,"SideOfStreet":"neither","StateId":"20248595","CountyId":"20338357","CityId":"20338551"}}},{"Relevance":1.0,"Distance":59.0,"MatchLevel":"houseNumber","MatchQuality":{"Country":1.0,"State":1.0,"County":1.0,"City":1.0,"District":1.0,"Street":[1.0],"HouseNumber":1.0,"PostalCode":1.0},"MatchType":"interpolated","Location":{"LocationId":"NT_ym48cXmJ9fn1tJBZloKlnB_l_25530724_L_yA","LocationType":"point","DisplayPosition":{"Latitude":51.33164,"Longitude":-0.356315},"MapView":{"TopLeft":{"Latitude":51.3327642,"Longitude":-0.3581142},"BottomRight":{"Latitude":51.3305159,"Longitude":-0.3545158}},"Address":{"Label":"2 High Street, Leatherhead, KT22 0JN, United Kingdom","Country":"GBR","State":"England","County":"Surrey","City":"Leatherhead","District":"Oxshott","Street":"High Street","HouseNumber":"2","PostalCode":"KT22 0JN","AdditionalData":[{"value":"United Kingdom","key":"CountryName"},{"value":"England","key":"StateName"},{"value":"Surrey","key":"CountyName"}]},"MapReference":{"ReferenceId":"25530724","Spot":0.49,"SideOfStreet":"left","StateId":"20248595","CountyId":"20338357","CityId":"20338551","DistrictId":"20338558"}}},{"Relevance":1.0,"Distance":59.8,"MatchLevel":"street","MatchQuality":{"Country":1.0,"State":1.0,"County":1.0,"City":1.0,"District":1.0,"Street":[1.0],"PostalCode":1.0},"Location":{"LocationId":"NT_vPrF5zZCReKqYr7fZJ0IwD_l_77746216_R","LocationType":"point","DisplayPosition":{"Latitude":51.33253,"Longitude":-0.35722},"MapView":{"TopLeft":{"Latitude":51.33273,"Longitude":-0.35755},"BottomRight":{"Latitude":51.33241,"Longitude":-0.35709}},"Address":{"Label":"Midgarth Close, Leatherhead, KT22 0, United Kingdom","Country":"GBR","State":"England","County":"Surrey","City":"Leatherhead","District":"Oxshott","Street":"Midgarth Close","PostalCode":"KT22 0","AdditionalData":[{"value":"United Kingdom","key":"CountryName"},{"value":"England","key":"StateName"},{"value":"Surrey","key":"CountyName"}]},"MapReference":{"ReferenceId":"77746216","Spot":0.59,"SideOfStreet":"right","StateId":"20248595","CountyId":"20338357","CityId":"20338551","DistrictId":"20338558"}}},{"Relevance":1.0,"Distance":63.1,"MatchLevel":"postalCode","MatchQuality":{"PostalCode":1.0},"Location":{"LocationId":"NT_vPrF5zZCReKqYr7fZJ0IwD_l_77746216_R","LocationType":"point","DisplayPosition":{"Latitude":51.33239,"Longitude":-0.35759},"MapView":{"TopLeft":{"Latitude":51.3413832,"Longitude":-0.3719837},"BottomRight":{"Latitude":51.3233968,"Longitude":-0.3431963}},"Address":{"Label":"KT22 0JY, Leatherhead, England, United Kingdom","Country":"GBR","State":"England","County":"Surrey","City":"Leatherhead","PostalCode":"KT22 0JY","AdditionalData":[{"value":"United Kingdom","key":"CountryName"},{"value":"England","key":"StateName"},{"value":"Surrey","key":"CountyName"}]},"MapReference":{"ReferenceId":"77746216","Spot":0.59,"SideOfStreet":"neither","StateId":"20248595","CountyId":"20338357","CityId":"20338551"}}}]}]}}