{"Response":{"MetaInfo":{"Timestamp":"2020-03-28T10:09:11.349+0000","NextPageInformation":"2"},"View":[{"_type":"SearchResultsViewType","ViewId":0,"Result":[{"Relevance":1.0,"Distance":0.0,"Direction":0.0,"MatchLevel":"district","MatchQuality":{"Country":1.0,"State":1.0,"County":1.0,"City":1.0,"District":1.0,"PostalCode":1.0},"Location":{"LocationId":"NT_2dwDR3VjGbg-LKE9sHxqfA","LocationType":"point","DisplayPosition":{"Latitude":51.3741648,"Longitude":0.5818775},"MapView":{"TopLeft":{"Latitude":51.4102,"Longitude":0.52281},"BottomRight":{"Latitude":51.3357,"Longitude":0.62783}},"Address":{"Label":"Gillingham, England, United Kingdom","Country":"GBR","State":"England","County":"Kent","City":"Gillingham","District":"Gillingham","PostalCode":"ME7 4","AdditionalData":[{"value":"United Kingdom","key":"CountryName"},{"value":"England","key":"StateName"},{"value":"Kent","key":"CountyName"}]},"MapReference":{"ReferenceId":"565983330","SideOfStreet":"neither","StateId":"20248595","CountyId":"20336836","CityId":"20337134","DistrictId":"20337135"}}},{"Relevance":1.0,"Distance":13.1,"MatchLevel":"houseNumber","MatchQuality":{"Country":1.0,"State":1.0,"County":1.0,"City":1.0,"District":1.0,"Street":[1.0],"HouseNumber":1.0,"PostalCode":1.0},"MatchType":"interpolated","Location":{"LocationId":"NT_dse7jMCF1gGWsAm.hFOGLD_l_25632407_L_2gD","LocationType":"point","DisplayPosition":{"Latitude":51.3744123,"Longitude":0.5819621},"MapView":{"TopLeft":{"Latitude":51.3755364,"Longitude":0.5801613},"BottomRight":{"Latitude":51.3732881,"Longitude":0.583763}},"Address":{"Label":"68 Staplehurst Road, Gillingham, ME8 6LB, United Kingdom","Country":"GBR","State":"England","County":"Kent","City":"Gillingham","District":"Gillingham","Street":"Staplehurst Road","HouseNumber":"68","PostalCode":"ME8 6LB","AdditionalData":[{"value":"United Kingdom","key":"CountryName"},{"value":"England","key":"StateName"},{"value":"Kent","key":"CountyName"}]},"MapReference":{"ReferenceId":"25632407","Spot":0.29,"SideOfStreet":"left","StateId":"20248595","CountyId":"20336836","CityId":"20337134","DistrictId":"20337135"}}},{"Relevance":1.0,"Distance":15.1,"MatchLevel":"houseNumber","MatchQuality":{"Country":1.0,"State":1.0,"County":1.0,"City":1.0,"District":1.0,"Street":[1.0],"HouseNumber":1.0,"PostalCode":1.0},"MatchType":"interpolated","Location":{"LocationId":"NT_YXdloHTIMaovXO3knkXO6C_l_25632711_L_xMzN","LocationType":"point","DisplayPosition":{"Latitude":51.3740168,"Longitude":0.582217},"MapView":{"TopLeft":{"Latitude":51.3751409,"Longitude":0.5804161},"BottomRight":{"Latitude":51.3728926,"Longitude":0.5840178}},"Address":{"Label":"137 Twydall Lane, Gillingham, ME8 6JU, United Kingdom","Country":"GBR","State":"England","County":"Kent","City":"Gillingham","District":"Gillingham","Street":"Twydall Lane","HouseNumber":"137","PostalCode":"ME8 6JU","AdditionalData":[{"value":"United Kingdom","key":"CountryName"},{"value":"England","key":"StateName"},{"value":"Kent","key":"CountyName"}]},"MapReference":{"ReferenceId":"25632711","Spot":0.77,"SideOfStreet":"left","StateId":"20248595","CountyId":"20336836","CityId":"20337134","DistrictId":"20337135"}}},{"Relevance":1.0,"Distance":33.6,"MatchLevel":"postalCode","MatchQuality":{"PostalCode":1.0},"MatchType":"interpolated","Location":{"LocationId":"NT_dse7jMCF1gGWsAm.hFOGLD_l_25632407_L_2gD","LocationType":"point","DisplayPosition":{"Latitude":51.37441,"Longitude":0.58216},"MapView":{"TopLeft":{"Latitude":51.3834032,"Longitude":0.5677531},"BottomRight":{"Latitude":51.3654168,"Longitude":0.5965669}},"Address":{"Label":"ME8 6JX, Gillingham, England, United Kingdom","Country":"GBR","State":"England","County":"Kent","City":"Gillingham","PostalCode":"ME8 6JX","AdditionalData":[{"value":"United Kingdom","key":"CountryName"},{"value":"England","key":"StateName"},{"value":"Kent","key":"CountyName"}]},"MapReference":{"ReferenceId":"25632407","Spot":0.29,"SideOfStreet":"neither","StateId":"20248595","CountyId":"20336836","CityId":"20337134"}}},{"Relevance":1.0,"Distance":39.8,"MatchLevel":"street","MatchQuality":{"Country":1.0,"State":1.0,"County":1.0,"City":1.0,"District":1.0,"Street":[1.0],"PostalCode":1.0},"Location":{"LocationId":"NT_YXdloHTIMaovXO3knkXO6C_l_25632406_L","LocationType":"point","DisplayPosition":{"Latitude":51.37428,"Longitude":0.58242},"MapView":{"TopLeft":{"Latitude":51.37447,"Longitude":0.58242},"BottomRight":{"Latitude":51.37428,"Longitude":0.58307}},"Address":{"Label":"Twydall Lane, Gillingham, ME8 6, United Kingdom","Country":"GBR","State":"England","County":"Kent","City":"Gillingham","District":"Gillingham","Street":"Twydall Lane","PostalCode":"ME8 6","AdditionalData":[{"value":"United Kingdom","key":"CountryName"},{"value":"England","key":"StateName"},{"value":"Kent","key":"CountyName"}]},"MapReference":{"ReferenceId":"25632406","Spot":0.0,"SideOfStreet":"left","StateId":"20248595","CountyId":"20336836","CityId":"20337134","DistrictId":"20337135"}}},{"Relevance":1.0,"Distance":71.0,"MatchLevel":"postalCode","MatchQuality":{"PostalCode":1.0},"MatchType":"interpolated","Location":{"LocationId":"NT_YXdloHTIMaovXO3knkXO6C_l_25632711_L_xMzN","LocationType":"point","DisplayPosition":{"Latitude":51.37353,"Longitude":0.58177},"MapView":{"TopLeft":{"Latitude":51.3825232,"Longitude":0.5673633},"BottomRight":{"Latitude":51.3645368,"Longitude":0.5961767}},"Address":{"Label":"ME8 6JU, Gillingham, England, United Kingdom","Country":"GBR","State":"England","County":"Kent","City":"Gillingham","PostalCode":"ME8 6JU","AdditionalData":[{"value":"United Kingdom","key":"CountryName"},{"value":"England","key":"StateName"},{"value":"Kent","key":"CountyName"}]},"MapReference":{"ReferenceId":"25632711","Spot":0.77,"SideOfStreet":"neither","StateId":"20248595","CountyId":"20336836","CityId":"20337134"}}},{"Relevance":1.0,"Distance":79.0,"MatchLevel":"houseNumber","MatchQuality":{"Country":1.0,"State":1.0,"County":1.0,"City":1.0,"District":1.0,"Street":[1.0],"HouseNumber":1.0,"PostalCode":1.0},"MatchType":"interpolated","Location":{"LocationId":"NT_X9ZX0HQxfcEk57TPQ5l.nC_l_25632485_R_yA","LocationType":"point","DisplayPosition":{"Latitude":51.3746032,"Longitude":0.5807396},"MapView":{"TopLeft":{"Latitude":51.3757274,"Longitude":0.5789387},"BottomRight":{"Latitude":51.3734791,"Longitude":0.5825405}},"Address":{"Label":"2 Lamberhurst Green, Gillingham, ME8 6LE, United Kingdom","Country":"GBR","State":"England","County":"Kent","City":"Gillingham","District":"Gillingham","Street":"Lamberhurst Green","HouseNumber":"2","PostalCode":"ME8 6LE","AdditionalData":[{"value":"United Kingdom","key":"CountryName"},{"value":"England","key":"StateName"},{"value":"Kent","key":"CountyName"}]},"MapReference":{"ReferenceId":"25632485","Spot":0.77,"SideOfStreet":"right","StateId":"20248595","CountyId":"20336836","CityId":"20337134","DistrictId":"20337135"}}},{"Relevance":1.0,"Distance":86.5,"MatchLevel":"street","MatchQuality":{"Country":1.0,"State":1.0,"County":1.0,"City":1.0,"District":1.0,"Street":[1.0],"PostalCode":1.0},"Location":{"LocationId":"NT_YXdloHTIMaovXO3knkXO6C_l_25632391_L","LocationType":"point","DisplayPosition":{"Latitude":51.37439,"Longitude":0.58307},"MapView":{"TopLeft":{"Latitude":51.37439,"Longitude":0.58307},"BottomRight":{"Latitude":51.37435,"Longitude":0.58318}},"Address":{"Label":"Twydall Lane, Gillingham, ME8 6, United Kingdom","Country":"GBR","State":"England","County":"Kent","City":"Gillingham","District":"Gillingham","Street":"Twydall Lane","PostalCode":"ME8 6","AdditionalData":[{"value":"United Kingdom","key":"CountryName"},{"value":"England","key":"StateName"},{"value":"Kent","key":"CountyName"}]},"MapReference":{"ReferenceId":"25632391","Spot":1.0,"SideOfStreet":"left","StateId":"20248595","CountyId":"20336836","CityId":"20337134","DistrictId":"20337135"}}},{"Relevance":1.0,"Distance":90.2,"MatchLevel":"street","MatchQuality":{"Country":1.0,"State":1.0,"County":1.0,"City":1.0,"District":1.0,"Street":[1.0],"PostalCode":1.0},"Location":{"LocationId":"NT_rlayZ9ASFWT6BawO1kXnfC_l_866582209_L","LocationType":"point","DisplayPosition":{"Latitude":51.37473,"Longitude":0.58281},"MapView":{"TopLeft":{"Latitude":51.37479,"Longitude":0.58281},"BottomRight":{"Latitude":51.37467,"Longitude":0.58305}},"Address":{"Label":"Twydall Green, Gillingham, ME8 6, United Kingdom","Country":"GBR","State":"England","County":"Kent","City":"Gillingham","District":"Gillingham","Street":"Twydall Green","PostalCode":"ME8 6","AdditionalData":[{"value":"United Kingdom","key":"CountryName"},{"value":"England","key":"StateName"},{"value":"Kent","key":"CountyName"}]},"MapReference":{"ReferenceId":"866582209","Spot":0.81,"SideOfStreet":"left","StateId":"20248595","CountyId":"20336836","CityId":"20337134","DistrictId":"20337135"}}},{"Relevance":1.0,"Distance":94.7,"MatchLevel":"houseNumber","MatchQuality":{"Country":1.0,"State":1.0,"County":1.0,"City":1.0,"District":1.0,"Street":[1.0],"HouseNumber":1.0,"PostalCode":1.0},"MatchType":"interpolated","Location":{"LocationId":"NT_rlayZ9ASFWT6BawO1kXnfC_l_866582203_L_xA","LocationType":"point","DisplayPosition":{"Latitude":51.3745101,"Longitude":0.5831601},"MapView":{"TopLeft":{"Latitude":51.3756343,"Longitude":0.5813593},"BottomRight":{"Latitude":51.373386,"Longitude":0.584961}},"Address":{"Label":"1 Twydall Green, Gillingham, ME8 6, United Kingdom","Country":"GBR","State":"England","County":"Kent","City":"Gillingham","District":"Gillingham","Street":"Twydall Green","HouseNumber":"1","PostalCode":"ME8 6","AdditionalData":[{"value":"United Kingdom","key":"CountryName"},{"value":"England","key":"StateName"},{"value":"Kent","key":"CountyName"}]},"MapReference":{"ReferenceId":"866582203","Spot":0.27,"SideOfStreet":"left","StateId":"20248595","CountyId":"20336836","CityId":"20337134","DistrictId":"20337135"}}}]}]}}