{"Response":{"MetaInfo":{"Timestamp":"2020-03-28T11:57:23.473+0000","NextPageInformation":"2"},"View":[{"_type":"SearchResultsViewType","ViewId":0,"Result":[{"Relevance":1.0,"Distance":0.0,"Direction":0.0,"MatchLevel":"district","MatchQuality":{"Country":1.0,"State":1.0,"County":1.0,"City":1.0,"District":1.0,"PostalCode":1.0},"Location":{"LocationId":"NT_8VyAdhxVXJniTKZQ29M6QC","LocationType":"point","DisplayPosition":{"Latitude":51.3879913,"Longitude":-0.1110274},"MapView":{"TopLeft":{"Latitude":51.41383,"Longitude":-0.13368},"BottomRight":{"Latitude":51.38778,"Longitude":-0.08748}},"Address":{"Label":"Thornton Heath, England, United Kingdom","Country":"GBR","State":"England","County":"Surrey","City":"Thornton Heath","District":"Thornton Heath","PostalCode":"CR7 7","AdditionalData":[{"value":"United Kingdom","key":"CountryName"},{"value":"England","key":"StateName"},{"value":"Surrey","key":"CountyName"}]},"MapReference":{"ReferenceId":"25428666","SideOfStreet":"neither","StateId":"20248595","CountyId":"20338357","CityId":"20338618","DistrictId":"20338619"}}},{"Relevance":1.0,"Distance":8.9,"MatchLevel":"houseNumber","MatchQuality":{"Country":1.0,"State":1.0,"County":1.0,"City":1.0,"District":1.0,"Street":[1.0],"HouseNumber":1.0,"PostalCode":1.0},"MatchType":"interpolated","Location":{"LocationId":"NT_dJP7B9-gBwHdB1a109HM8A_1AjM","LocationType":"point","DisplayPosition":{"Latitude":51.3879,"Longitude":-0.11131},"MapView":{"TopLeft":{"Latitude":51.3890242,"Longitude":-0.1131114},"BottomRight":{"Latitude":51.3867758,"Longitude":-0.1095086}},"Address":{"Label":"502 London Road, Croydon, CR7 7HQ, United Kingdom","Country":"GBR","State":"England","County":"Surrey","City":"Croydon","District":"Croydon","Street":"London Road","HouseNumber":"502","PostalCode":"CR7 7HQ","AdditionalData":[{"value":"United Kingdom","key":"CountryName"},{"value":"England","key":"StateName"},{"value":"Surrey","key":"CountyName"}]},"MapReference":{"ReferenceId":"974757059","Spot":0.57,"SideOfStreet":"right","StateId":"20248595","CountyId":"20338357","CityId":"20338406","DistrictId":"20338407","AddressId":"749223639","RoadLinkId":"310317608"}}},{"Relevance":1.0,"Distance":13.4,"MatchLevel":"houseNumber","MatchQuality":{"Country":1.0,"State":1.0,"County":1.0,"City":1.0,"District":1.0,"Street":[1.0],"HouseNumber":1.0,"PostalCode":1.0},"MatchType":"interpolated","Location":{"LocationId":"NT_dJP7B9-gBwHdB1a109HM8A_1ADO","LocationType":"point","DisplayPosition":{"Latitude":51.38802,"Longitude":-0.11135},"MapView":{"TopLeft":{"Latitude":51.3891442,"Longitude":-0.1131514},"BottomRight":{"Latitude":51.3868958,"Longitude":-0.1095486}},"Address":{"Label":"508 London Road, Croydon, CR7 7, United Kingdom","Country":"GBR","State":"England","County":"Surrey","City":"Croydon","District":"Croydon","Street":"London Road","HouseNumber":"508","PostalCode":"CR7 7","AdditionalData":[{"value":"United Kingdom","key":"CountryName"},{"value":"England","key":"StateName"},{"value":"Surrey","key":"CountyName"}]},"MapReference":{"ReferenceId":"974757060","Spot":0.25,"SideOfStreet":"right","StateId":"20248595","CountyId":"20338357","CityId":"20338406","DistrictId":"20338407","AddressId":"749235496","RoadLinkId":"310317609"}}},{"Relevance":1.0,"Distance":21.3,"MatchLevel":"houseNumber","MatchQuality":{"Country":1.0,"State":1.0,"County":1.0,"City":1.0,"District":1.0,"Street":[1.0],"HouseNumber":1.0,"PostalCode":1.0},"MatchType":"interpolated","Location":{"LocationId":"NT_3iF71O-xsHYOlHR9LCAnxB_1EDN","LocationType":"point","DisplayPosition":{"Latitude":51.38811,"Longitude":-0.11137},"MapView":{"TopLeft":{"Latitude":51.3892342,"Longitude":-0.1131714},"BottomRight":{"Latitude":51.3869858,"Longitude":-0.1095686}},"Address":{"Label":"514 London Road, Thornton Heath, CR7 7, United Kingdom","Country":"GBR","State":"England","County":"Surrey","City":"Thornton Heath","District":"Thornton Heath","Street":"London Road","HouseNumber":"514","PostalCode":"CR7 7","AdditionalData":[{"value":"United Kingdom","key":"CountryName"},{"value":"England","key":"StateName"},{"value":"Surrey","key":"CountyName"}]},"MapReference":{"ReferenceId":"25429924","Spot":0.0,"SideOfStreet":"right","StateId":"20248595","CountyId":"20338357","CityId":"20338618","DistrictId":"20338619","AddressId":"749266656","RoadLinkId":"82292628"}}},{"Relevance":1.0,"Distance":22.3,"MatchLevel":"postalCode","MatchQuality":{"PostalCode":1.0},"MatchType":"interpolated","Location":{"LocationId":"NT_rwdo5o6iMxDzvg7th7SMTC","LocationType":"point","DisplayPosition":{"Latitude":51.38796,"Longitude":-0.11071},"MapView":{"TopLeft":{"Latitude":51.3969532,"Longitude":-0.1251212},"BottomRight":{"Latitude":51.3789668,"Longitude":-0.0962988}},"Address":{"Label":"CR7 7HP, Thornton Heath, England, United Kingdom","Country":"GBR","State":"England","County":"Surrey","City":"Thornton Heath","PostalCode":"CR7 7HP","AdditionalData":[{"value":"United Kingdom","key":"CountryName"},{"value":"England","key":"StateName"},{"value":"Surrey","key":"CountyName"}]},"MapReference":{"ReferenceId":"25430002","Spot":0.29,"SideOfStreet":"neither","StateId":"20248595","CountyId":"20338357","CityId":"20338618"}}},{"Relevance":1.0,"Distance":24.5,"MatchLevel":"houseNumber","MatchQuality":{"Country":1.0,"State":1.0,"County":1.0,"City":1.0,"District":1.0,"Street":[1.0],"PostalCode":1.0},"MatchType":"interpolated","Location":{"LocationId":"NT_rwdo5o6iMxDzvg7th7SMTC","LocationType":"point","DisplayPosition":{"Latitude":51.38794,"Longitude":-0.11062},"MapView":{"TopLeft":{"Latitude":51.3890642,"Longitude":-0.1124214},"BottomRight":{"Latitude":51.3868158,"Longitude":-0.1088186}},"Address":{"Label":"Mayday Road, Thornton Heath, CR7 7, United Kingdom","Country":"GBR","State":"England","County":"Surrey","City":"Thornton Heath","District":"Thornton Heath","Street":"Mayday Road","PostalCode":"CR7 7","AdditionalData":[{"value":"United Kingdom","key":"CountryName"},{"value":"England","key":"StateName"},{"value":"Surrey","key":"CountyName"}],"Building":"Wyndham Court"},"MapReference":{"ReferenceId":"25430002","Spot":0.29,"SideOfStreet":"left","StateId":"20248595","CountyId":"20338357","CityId":"20338618","DistrictId":"20338619","AddressId":"763478408","RoadLinkId":"82255322"}}},{"Relevance":1.0,"Distance":27.6,"MatchLevel":"postalCode","MatchQuality":{"PostalCode":1.0},"MatchType":"interpolated","Location":{"LocationId":"NT_3iF71O-xsHYOlHR9LCAnxB_1EDN","LocationType":"point","DisplayPosition":{"Latitude":51.38816,"Longitude":-0.11132},"MapView":{"TopLeft":{"Latitude":51.3971532,"Longitude":-0.1257313},"BottomRight":{"Latitude":51.3791668,"Longitude":-0.0969087}},"Address":{"Label":"CR7 7HQ, Thornton Heath, England, United Kingdom","Country":"GBR","State":"England","County":"Surrey","City":"Thornton Heath","PostalCode":"CR7 7HQ","AdditionalData":[{"value":"United Kingdom","key":"CountryName"},{"value":"England","key":"StateName"},{"value":"Surrey","key":"CountyName"}]},"MapReference":{"ReferenceId":"25429924","Spot":0.0,"SideOfStreet":"neither","StateId":"20248595","CountyId":"20338357","CityId":"20338618"}}},{"Relevance":1.0,"Distance":28.3,"MatchLevel":"houseNumber","MatchQuality":{"Country":1.0,"State":1.0,"County":1.0,"City":1.0,"District":1.0,"Street":[1.0],"HouseNumber":1.0,"PostalCode":1.0},"MatchType":"interpolated","Location":{"LocationId":"NT_Ze.D7SUSZv5XXLNFQYzCIB_0gjM","LocationType":"point","DisplayPosition":{"Latitude":51.38771,"Longitude":-0.11124},"MapView":{"TopLeft":{"Latitude":51.3888342,"Longitude":-0.1130414},"BottomRight":{"Latitude":51.3865858,"Longitude":-0.1094386}},"Address":{"Label":"482 London Road, Croydon, CR0 3, United Kingdom","Country":"GBR","State":"England","County":"Surrey","City":"Croydon","District":"Croydon","Street":"London Road","HouseNumber":"482","PostalCode":"CR0 3","AdditionalData":[{"value":"United Kingdom","key":"CountryName"},{"value":"England","key":"StateName"},{"value":"Surrey","key":"CountyName"}]},"MapReference":{"ReferenceId":"25430125","Spot":0.87,"SideOfStreet":"right","StateId":"20248595","CountyId":"20338357","CityId":"20338406","DistrictId":"20338407","AddressId":"749368681","RoadLinkId":"82944888"}}},{"Relevance":1.0,"Distance":35.8,"MatchLevel":"houseNumber","MatchQuality":{"Country":1.0,"State":1.0,"County":1.0,"City":1.0,"District":1.0,"Street":[1.0],"HouseNumber":1.0,"PostalCode":1.0},"MatchType":"interpolated","Location":{"LocationId":"NT_-Hmi82Sp1U8PXAcV-pncvC_l_25692123_R_zUD","LocationType":"point","DisplayPosition":{"Latitude":51.3880231,"Longitude":-0.1115837},"MapView":{"TopLeft":{"Latitude":51.3891473,"Longitude":-0.1133851},"BottomRight":{"Latitude":51.386899,"Longitude":-0.1097823}},"Address":{"Label":"35 Stanley Road, Croydon, CR7 7, United Kingdom","Country":"GBR","State":"England","County":"Surrey","City":"Croydon","District":"Croydon","Street":"Stanley Road","HouseNumber":"35","PostalCode":"CR7 7","AdditionalData":[{"value":"United Kingdom","key":"CountryName"},{"value":"England","key":"StateName"},{"value":"Surrey","key":"CountyName"}]},"MapReference":{"ReferenceId":"25692123","Spot":0.52,"SideOfStreet":"right","StateId":"20248595","CountyId":"20338357","CityId":"20338406","DistrictId":"20338407"}}},{"Relevance":1.0,"Distance":41.9,"MatchLevel":"street","MatchQuality":{"Country":1.0,"State":1.0,"County":1.0,"City":1.0,"District":1.0,"Street":[1.0],"PostalCode":1.0},"Location":{"LocationId":"NT_8jq5XCYC3Td.69.LLbVUUC_l_25457726_R","LocationType":"point","DisplayPosition":{"Latitude":51.3883652,"Longitude":-0.1111017},"MapView":{"TopLeft":{"Latitude":51.38861,"Longitude":-0.11143},"BottomRight":{"Latitude":51.3883,"Longitude":-0.10987}},"Address":{"Label":"Crossland Road, Thornton Heath, CR7 7, United Kingdom","Country":"GBR","State":"England","County":"Surrey","City":"Thornton Heath","District":"Thornton Heath","Street":"Crossland Road","PostalCode":"CR7 7","AdditionalData":[{"value":"United Kingdom","key":"CountryName"},{"value":"England","key":"StateName"},{"value":"Surrey","key":"CountyName"}]},"MapReference":{"ReferenceId":"25457726","Spot":0.21,"SideOfStreet":"right","StateId":"20248595","CountyId":"20338357","CityId":"20338618","DistrictId":"20338619"}}}]}]}}