{"Response":{"MetaInfo":{"Timestamp":"2020-03-28T09:51:31.121+0000","NextPageInformation":"2"},"View":[{"_type":"SearchResultsViewType","ViewId":0,"Result":[{"Relevance":1.0,"Distance":0.0,"Direction":0.0,"MatchLevel":"district","MatchQuality":{"Country":1.0,"State":1.0,"County":1.0,"City":1.0,"District":1.0,"PostalCode":1.0},"Location":{"LocationId":"NT_BCXYmZtTNyPKrOwmfVkUKD","LocationType":"point","DisplayPosition":{"Latitude":51.3255024,"Longitude":-1.2467252},"MapView":{"TopLeft":{"Latitude":51.33351,"Longitude":-1.25649},"BottomRight":{"Latitude":51.32107,"Longitude":-1.23056}},"Address":{"Label":"Kingsclere, Newbury, England, United Kingdom","Country":"GBR","State":"England","County":"Berkshire","City":"Newbury","District":"Kingsclere","PostalCode":"RG20 5","AdditionalData":[{"value":"United Kingdom","key":"CountryName"},{"value":"England","key":"StateName"},{"value":"Berkshire","key":"CountyName"}]},"MapReference":{"ReferenceId":"781753525","SideOfStreet":"neither","StateId":"20248595","CountyId":"20334448","CityId":"20334503","DistrictId":"20334536"}}},{"Relevance":1.0,"Distance":45.9,"MatchLevel":"houseNumber","MatchQuality":{"Country":1.0,"State":1.0,"County":1.0,"City":1.0,"District":1.0,"Street":[1.0],"HouseNumber":1.0,"PostalCode":1.0},"MatchType":"interpolated","Location":{"LocationId":"NT_QXYY1l6v7JlBHg8GY0.4oB_l_25696662_R_xID","LocationType":"point","DisplayPosition":{"Latitude":51.3256765,"Longitude":-1.2475502},"MapView":{"TopLeft":{"Latitude":51.3268007,"Longitude":-1.2493492},"BottomRight":{"Latitude":51.3245524,"Longitude":-1.2457513}},"Address":{"Label":"12 North Street, Newbury, RG20 5QX, United Kingdom","Country":"GBR","State":"England","County":"Berkshire","City":"Newbury","District":"Kingsclere","Street":"North Street","HouseNumber":"12","PostalCode":"RG20 5QX","AdditionalData":[{"value":"United Kingdom","key":"CountryName"},{"value":"England","key":"StateName"},{"value":"Berkshire","key":"CountyName"}]},"MapReference":{"ReferenceId":"25696662","Spot":0.23,"SideOfStreet":"right","StateId":"20248595","CountyId":"20334448","CityId":"20334503","DistrictId":"20334536"}}},{"Relevance":1.0,"Distance":52.9,"MatchLevel":"postalCode","MatchQuality":{"PostalCode":1.0},"Location":{"LocationId":"NT_QXYY1l6v7JlBHg8GY0.4oB_l_25696675_R","LocationType":"point","DisplayPosition":{"Latitude":51.32517,"Longitude":-1.24727},"MapView":{"TopLeft":{"Latitude":51.3341632,"Longitude":-1.2616615},"BottomRight":{"Latitude":51.3161768,"Longitude":-1.2328785}},"Address":{"Label":"RG20 5QU, Newbury, England, United Kingdom","Country":"GBR","State":"England","County":"Berkshire","City":"Newbury","PostalCode":"RG20 5QU","AdditionalData":[{"value":"United Kingdom","key":"CountryName"},{"value":"England","key":"StateName"},{"value":"Berkshire","key":"CountyName"}]},"MapReference":{"ReferenceId":"25696675","Spot":0.23,"SideOfStreet":"neither","StateId":"20248595","CountyId":"20334448","CityId":"20334503"}}},{"Relevance":1.0,"Distance":53.9,"MatchLevel":"houseNumber","MatchQuality":{"Country":1.0,"State":1.0,"County":1.0,"City":1.0,"District":1.0,"Street":[1.0],"HouseNumber":1.0,"PostalCode":1.0},"MatchType":"interpolated","Location":{"LocationId":"NT_9cqP4VXuY7DlhOuDDz14LA_l_25696681_R_xA","LocationType":"point","DisplayPosition":{"Latitude":51.3249212,"Longitude":-1.247063},"MapView":{"TopLeft":{"Latitude":51.3260454,"Longitude":-1.248862},"BottomRight":{"Latitude":51.3237971,"Longitude":-1.2452641}},"Address":{"Label":"1 George Street, Newbury, RG20 5NH, United Kingdom","Country":"GBR","State":"England","County":"Berkshire","City":"Newbury","District":"Kingsclere","Street":"George Street","HouseNumber":"1","PostalCode":"RG20 5NH","AdditionalData":[{"value":"United Kingdom","key":"CountryName"},{"value":"England","key":"StateName"},{"value":"Berkshire","key":"CountyName"}]},"MapReference":{"ReferenceId":"25696681","Spot":0.52,"SideOfStreet":"right","StateId":"20248595","CountyId":"20334448","CityId":"20334503","DistrictId":"20334536"}}},{"Relevance":1.0,"Distance":58.4,"MatchLevel":"houseNumber","MatchQuality":{"Country":1.0,"State":1.0,"County":1.0,"City":1.0,"District":1.0,"Street":[1.0],"HouseNumber":1.0,"PostalCode":1.0},"MatchType":"interpolated","Location":{"LocationId":"NT_XC3vrVdjG6J7zpwD1ExwFB_l_1232252806_R_zA","LocationType":"point","DisplayPosition":{"Latitude":51.3248453,"Longitude":-1.2468216},"MapView":{"TopLeft":{"Latitude":51.3259694,"Longitude":-1.2486205},"BottomRight":{"Latitude":51.3237211,"Longitude":-1.2450227}},"Address":{"Label":"3 George Street, Newbury, RG14 9, United Kingdom","Country":"GBR","State":"England","County":"Berkshire","City":"Newbury","District":"Kingsclere","Street":"George Street","HouseNumber":"3","PostalCode":"RG14 9","AdditionalData":[{"value":"United Kingdom","key":"CountryName"},{"value":"England","key":"StateName"},{"value":"Berkshire","key":"CountyName"}]},"MapReference":{"ReferenceId":"1232252806","Spot":0.51,"SideOfStreet":"right","StateId":"20248595","CountyId":"20334448","CityId":"20334503","DistrictId":"20334536"}}},{"Relevance":1.0,"Distance":59.4,"MatchLevel":"street","MatchQuality":{"Country":1.0,"State":1.0,"County":1.0,"City":1.0,"District":1.0,"Street":[1.0],"PostalCode":1.0},"Location":{"LocationId":"NT_QXYY1l6v7JlBHg8GY0.4oB_l_25696670_R","LocationType":"point","DisplayPosition":{"Latitude":51.32521,"Longitude":-1.24744},"MapView":{"TopLeft":{"Latitude":51.32521,"Longitude":-1.2475},"BottomRight":{"Latitude":51.32502,"Longitude":-1.24743}},"Address":{"Label":"North Street, Newbury, RG20 5, United Kingdom","Country":"GBR","State":"England","County":"Berkshire","City":"Newbury","District":"Kingsclere","Street":"North Street","PostalCode":"RG20 5","AdditionalData":[{"value":"United Kingdom","key":"CountryName"},{"value":"England","key":"StateName"},{"value":"Berkshire","key":"CountyName"}]},"MapReference":{"ReferenceId":"25696670","Spot":1.0,"SideOfStreet":"right","StateId":"20248595","CountyId":"20334448","CityId":"20334503","DistrictId":"20334536"}}},{"Relevance":1.0,"Distance":59.9,"MatchLevel":"houseNumber","MatchQuality":{"Country":1.0,"State":1.0,"County":1.0,"City":1.0,"District":1.0,"Street":[1.0],"HouseNumber":1.0,"PostalCode":1.0},"MatchType":"interpolated","Location":{"LocationId":"NT_REamuMctGkz2ktv3S5kIoB_l_25696688_R_xA","LocationType":"point","DisplayPosition":{"Latitude":51.32499,"Longitude":-1.2461112},"MapView":{"TopLeft":{"Latitude":51.3261142,"Longitude":-1.2479101},"BottomRight":{"Latitude":51.3238658,"Longitude":-1.2443122}},"Address":{"Label":"1 Phoenix Court, Newbury, RG20 5, United Kingdom","Country":"GBR","State":"England","County":"Berkshire","City":"Newbury","District":"Kingsclere","Street":"Phoenix Court","HouseNumber":"1","PostalCode":"RG20 5","AdditionalData":[{"value":"United Kingdom","key":"CountryName"},{"value":"England","key":"StateName"},{"value":"Berkshire","key":"CountyName"}]},"MapReference":{"ReferenceId":"25696688","Spot":0.76,"SideOfStreet":"right","StateId":"20248595","CountyId":"20334448","CityId":"20334503","DistrictId":"20334536"}}},{"Relevance":1.0,"Distance":60.8,"MatchLevel":"street","MatchQuality":{"Country":1.0,"State":1.0,"County":1.0,"City":1.0,"District":1.0,"Street":[1.0],"PostalCode":1.0},"Location":{"LocationId":"NT_QXYY1l6v7JlBHg8GY0.4oB_l_25696675_R","LocationType":"point","DisplayPosition":{"Latitude":51.3250388,"Longitude":-1.2471888},"MapView":{"TopLeft":{"Latitude":51.32521,"Longitude":-1.24744},"BottomRight":{"Latitude":51.32496,"Longitude":-1.24716}},"Address":{"Label":"North Street, Newbury, RG20 5, United Kingdom","Country":"GBR","State":"England","County":"Berkshire","City":"Newbury","District":"Kingsclere","Street":"North Street","PostalCode":"RG20 5","AdditionalData":[{"value":"United Kingdom","key":"CountryName"},{"value":"England","key":"StateName"},{"value":"Berkshire","key":"CountyName"}]},"MapReference":{"ReferenceId":"25696675","Spot":0.23,"SideOfStreet":"right","StateId":"20248595","CountyId":"20334448","CityId":"20334503","DistrictId":"20334536"}}},{"Relevance":1.0,"Distance":67.5,"MatchLevel":"street","MatchQuality":{"Country":1.0,"State":1.0,"County":1.0,"City":1.0,"District":1.0,"Street":[1.0],"PostalCode":1.0},"Location":{"LocationId":"NT_YoWS7YnrGZFNBGw4YfyEmA_l_25696676_R","LocationType":"point","DisplayPosition":{"Latitude":51.32496,"Longitude":-1.24716},"MapView":{"TopLeft":{"Latitude":51.32502,"Longitude":-1.2475},"BottomRight":{"Latitude":51.32496,"Longitude":-1.24716}},"Address":{"Label":"Newbury Road, Newbury, RG20 5, United Kingdom","Country":"GBR","State":"England","County":"Berkshire","City":"Newbury","District":"Kingsclere","Street":"Newbury Road","PostalCode":"RG20 5","AdditionalData":[{"value":"United Kingdom","key":"CountryName"},{"value":"England","key":"StateName"},{"value":"Berkshire","key":"CountyName"}]},"MapReference":{"ReferenceId":"25696676","Spot":0.0,"SideOfStreet":"right","StateId":"20248595","CountyId":"20334448","CityId":"20334503","DistrictId":"20334536"}}},{"Relevance":1.0,"Distance":71.3,"MatchLevel":"houseNumber","MatchQuality":{"Country":1.0,"State":1.0,"County":1.0,"City":1.0,"District":1.0,"Street":[1.0],"HouseNumber":1.0,"PostalCode":1.0},"MatchType":"interpolated","Location":{"LocationId":"NT_XC3vrVdjG6J7zpwD1ExwFB_l_1232252805_R_1A","LocationType":"point","DisplayPosition":{"Latitude":51.3247767,"Longitude":-1.2463337},"MapView":{"TopLeft":{"Latitude":51.3259008,"Longitude":-1.2481327},"BottomRight":{"Latitude":51.3236525,"Longitude":-1.2445348}},"Address":{"Label":"5 George Street, Newbury, RG14 9, United Kingdom","Country":"GBR","State":"England","County":"Berkshire","City":"Newbury","District":"Kingsclere","Street":"George Street","HouseNumber":"5","PostalCode":"RG14 9","AdditionalData":[{"value":"United Kingdom","key":"CountryName"},{"value":"England","key":"StateName"},{"value":"Berkshire","key":"CountyName"}]},"MapReference":{"ReferenceId":"1232252805","Spot":0.63,"SideOfStreet":"right","StateId":"20248595","CountyId":"20334448","CityId":"20334503","DistrictId":"20334536"}}}]}]}}