{"Response":{"MetaInfo":{"Timestamp":"2020-03-28T11:41:39.392+0000","NextPageInformation":"2"},"View":[{"_type":"SearchResultsViewType","ViewId":0,"Result":[{"Relevance":1.0,"Distance":0.0,"Direction":0.0,"MatchLevel":"district","MatchQuality":{"Country":1.0,"State":1.0,"County":1.0,"City":1.0,"District":1.0,"PostalCode":1.0},"Location":{"LocationId":"NT_EuzMX1vlQargAV9ZlPz31B","LocationType":"point","DisplayPosition":{"Latitude":51.32704,"Longitude":10.4433032},"MapView":{"TopLeft":{"Latitude":51.33433,"Longitude":10.42165},"BottomRight":{"Latitude":51.32148,"Longitude":10.44851}},"Address":{"Label":"Hüpstedt, Dünwald, Thüringen, Deutschland","Country":"DEU","State":"Thüringen","County":"Unstrut-Hainich-Kreis","City":"Dünwald","District":"Hüpstedt","PostalCode":"99976","AdditionalData":[{"value":"Deutschland","key":"CountryName"},{"value":"Thüringen","key":"StateName"},{"value":"Unstrut-Hainich-Kreis","key":"CountyName"}]},"MapReference":{"ReferenceId":"543971696","SideOfStreet":"neither","CountryId":"20147700","StateId":"20196974","CountyId":"20197560","CityId":"20215972","DistrictId":"20215974"}}},{"Relevance":1.0,"Distance":9.8,"MatchLevel":"houseNumber","MatchQuality":{"Country":1.0,"State":1.0,"County":1.0,"City":1.0,"District":1.0,"Street":[1.0],"HouseNumber":1.0,"PostalCode":1.0},"MatchType":"interpolated","Location":{"LocationId":"NT_EFmND7bjheAFs9bNqkEXNC_xgD","LocationType":"point","DisplayPosition":{"Latitude":51.32698,"Longitude":10.4432},"MapView":{"TopLeft":{"Latitude":51.3281042,"Longitude":10.441401},"BottomRight":{"Latitude":51.3258558,"Longitude":10.444999}},"Address":{"Label":"Mühlhäuser Straße 18, 99976 Dünwald, Deutschland","Country":"DEU","State":"Thüringen","County":"Unstrut-Hainich-Kreis","City":"Dünwald","District":"Hüpstedt","Street":"Mühlhäuser Straße","HouseNumber":"18","PostalCode":"99976","AdditionalData":[{"value":"Deutschland","key":"CountryName"},{"value":"Thüringen","key":"StateName"},{"value":"Unstrut-Hainich-Kreis","key":"CountyName"}]},"MapReference":{"ReferenceId":"762927088","Spot":0.24,"SideOfStreet":"left","CountryId":"20147700","StateId":"20196974","CountyId":"20197560","CityId":"20215972","DistrictId":"20215974","AddressId":"189207937","RoadLinkId":"157195579"}}},{"Relevance":1.0,"Distance":22.2,"MatchLevel":"houseNumber","MatchQuality":{"Country":1.0,"State":1.0,"County":1.0,"City":1.0,"District":1.0,"Street":[1.0],"HouseNumber":1.0,"PostalCode":1.0},"MatchType":"interpolated","Location":{"LocationId":"NT_EFmND7bjheAFs9bNqkEXNC_zcD","LocationType":"point","DisplayPosition":{"Latitude":51.32683,"Longitude":10.44321},"MapView":{"TopLeft":{"Latitude":51.3279542,"Longitude":10.441411},"BottomRight":{"Latitude":51.3257058,"Longitude":10.445009}},"Address":{"Label":"Mühlhäuser Straße 37, 99976 Dünwald, Deutschland","Country":"DEU","State":"Thüringen","County":"Unstrut-Hainich-Kreis","City":"Dünwald","District":"Hüpstedt","Street":"Mühlhäuser Straße","HouseNumber":"37","PostalCode":"99976","AdditionalData":[{"value":"Deutschland","key":"CountryName"},{"value":"Thüringen","key":"StateName"},{"value":"Unstrut-Hainich-Kreis","key":"CountyName"}]},"MapReference":{"ReferenceId":"762927087","Spot":0.82,"SideOfStreet":"right","CountryId":"20147700","StateId":"20196974","CountyId":"20197560","CityId":"20215972","DistrictId":"20215974","AddressId":"189614525","RoadLinkId":"157195578"}}},{"Relevance":1.0,"Distance":34.7,"MatchLevel":"houseNumber","MatchQuality":{"Country":1.0,"State":1.0,"County":1.0,"City":1.0,"District":1.0,"Street":[1.0],"HouseNumber":1.0,"PostalCode":1.0},"MatchType":"interpolated","Location":{"LocationId":"NT_EFmND7bjheAFs9bNqkEXNC_zYD","LocationType":"point","DisplayPosition":{"Latitude":51.32734,"Longitude":10.44319},"MapView":{"TopLeft":{"Latitude":51.3284642,"Longitude":10.441391},"BottomRight":{"Latitude":51.3262158,"Longitude":10.444989}},"Address":{"Label":"Mühlhäuser Straße 36, 99976 Dünwald, Deutschland","Country":"DEU","State":"Thüringen","County":"Unstrut-Hainich-Kreis","City":"Dünwald","District":"Hüpstedt","Street":"Mühlhäuser Straße","HouseNumber":"36","PostalCode":"99976","AdditionalData":[{"value":"Deutschland","key":"CountryName"},{"value":"Thüringen","key":"StateName"},{"value":"Unstrut-Hainich-Kreis","key":"CountyName"}]},"MapReference":{"ReferenceId":"762927086","Spot":0.05,"SideOfStreet":"right","CountryId":"20147700","StateId":"20196974","CountyId":"20197560","CityId":"20215972","DistrictId":"20215974","AddressId":"189617842","RoadLinkId":"157195576"}}},{"Relevance":1.0,"Distance":36.9,"MatchLevel":"houseNumber","MatchQuality":{"Country":1.0,"State":1.0,"County":1.0,"City":1.0,"District":1.0,"Street":[1.0],"HouseNumber":1.0,"PostalCode":1.0},"MatchType":"interpolated","Location":{"LocationId":"NT_Hu85DLkZkhKBS5UchxKKCA_ykD","LocationType":"point","DisplayPosition":{"Latitude":51.3269,"Longitude":10.44387},"MapView":{"TopLeft":{"Latitude":51.3280242,"Longitude":10.442071},"BottomRight":{"Latitude":51.3257758,"Longitude":10.445669}},"Address":{"Label":"Zaunröder Straße 29, 99976 Dünwald, Deutschland","Country":"DEU","State":"Thüringen","County":"Unstrut-Hainich-Kreis","City":"Dünwald","District":"Hüpstedt","Street":"Zaunröder Straße","HouseNumber":"29","PostalCode":"99976","AdditionalData":[{"value":"Deutschland","key":"CountryName"},{"value":"Thüringen","key":"StateName"},{"value":"Unstrut-Hainich-Kreis","key":"CountyName"}]},"MapReference":{"ReferenceId":"543972107","Spot":1.0,"SideOfStreet":"left","CountryId":"20147700","StateId":"20196974","CountyId":"20197560","CityId":"20215972","DistrictId":"20215974","AddressId":"622357287","RoadLinkId":"40094870"}}},{"Relevance":1.0,"Distance":44.7,"MatchLevel":"street","MatchQuality":{"Country":1.0,"State":1.0,"County":1.0,"City":1.0,"District":1.0,"Street":[1.0],"PostalCode":1.0},"Location":{"LocationId":"NT_6UMXv4HvEYzOIJzElw9YcD_l_1223056219_R","LocationType":"point","DisplayPosition":{"Latitude":51.32664,"Longitude":10.44324},"MapView":{"TopLeft":{"Latitude":51.32664,"Longitude":10.44324},"BottomRight":{"Latitude":51.32658,"Longitude":10.44325}},"Address":{"Label":"Mühlhäuser Straße, 99976 Dünwald, Deutschland","Country":"DEU","State":"Thüringen","County":"Unstrut-Hainich-Kreis","City":"Dünwald","District":"Hüpstedt","Street":"Mühlhäuser Straße","PostalCode":"99976","AdditionalData":[{"value":"Deutschland","key":"CountryName"},{"value":"Thüringen","key":"StateName"},{"value":"Unstrut-Hainich-Kreis","key":"CountyName"}]},"MapReference":{"ReferenceId":"1223056219","Spot":1.0,"SideOfStreet":"right","CountryId":"20147700","StateId":"20196974","CountyId":"20197560","CityId":"20215972","DistrictId":"20215974"}}},{"Relevance":1.0,"Distance":49.0,"MatchLevel":"houseNumber","MatchQuality":{"Country":1.0,"State":1.0,"County":1.0,"City":1.0,"District":1.0,"Street":[1.0],"HouseNumber":1.0,"PostalCode":1.0},"MatchType":"interpolated","Location":{"LocationId":"NT_tgS5D0-1Im8tRgm42rB1sA_xUD","LocationType":"point","DisplayPosition":{"Latitude":51.32716,"Longitude":10.44253},"MapView":{"TopLeft":{"Latitude":51.3282842,"Longitude":10.440731},"BottomRight":{"Latitude":51.3260358,"Longitude":10.444329}},"Address":{"Label":"Lange Straße 15, 99976 Dünwald, Deutschland","Country":"DEU","State":"Thüringen","County":"Unstrut-Hainich-Kreis","City":"Dünwald","District":"Hüpstedt","Street":"Lange Straße","HouseNumber":"15","PostalCode":"99976","AdditionalData":[{"value":"Deutschland","key":"CountryName"},{"value":"Thüringen","key":"StateName"},{"value":"Unstrut-Hainich-Kreis","key":"CountyName"}]},"MapReference":{"ReferenceId":"543971641","Spot":0.53,"SideOfStreet":"right","CountryId":"20147700","StateId":"20196974","CountyId":"20197560","CityId":"20215972","DistrictId":"20215974","AddressId":"189262796","RoadLinkId":"39553707"}}},{"Relevance":1.0,"Distance":51.3,"MatchLevel":"street","MatchQuality":{"Country":1.0,"State":1.0,"County":1.0,"City":1.0,"District":1.0,"Street":[1.0],"PostalCode":1.0},"Location":{"LocationId":"NT_EFmND7bjheAFs9bNqkEXNC_l_1223056269_R","LocationType":"point","DisplayPosition":{"Latitude":51.32658,"Longitude":10.44325},"MapView":{"TopLeft":{"Latitude":51.32658,"Longitude":10.44325},"BottomRight":{"Latitude":51.3265,"Longitude":10.44327}},"Address":{"Label":"Mühlhäuser Straße, 99976 Dünwald, Deutschland","Country":"DEU","State":"Thüringen","County":"Unstrut-Hainich-Kreis","City":"Dünwald","District":"Hüpstedt","Street":"Mühlhäuser Straße","PostalCode":"99976","AdditionalData":[{"value":"Deutschland","key":"CountryName"},{"value":"Thüringen","key":"StateName"},{"value":"Unstrut-Hainich-Kreis","key":"CountyName"}]},"MapReference":{"ReferenceId":"1223056269","Spot":1.0,"SideOfStreet":"right","CountryId":"20147700","StateId":"20196974","CountyId":"20197560","CityId":"20215972","DistrictId":"20215974"}}},{"Relevance":1.0,"Distance":58.6,"MatchLevel":"houseNumber","MatchQuality":{"Country":1.0,"State":1.0,"County":1.0,"City":1.0,"District":1.0,"Street":[1.0],"HouseNumber":1.0,"PostalCode":1.0},"MatchType":"interpolated","Location":{"LocationId":"NT_Hu85DLkZkhKBS5UchxKKCA_xA","LocationType":"point","DisplayPosition":{"Latitude":51.32715,"Longitude":10.44423},"MapView":{"TopLeft":{"Latitude":51.3282742,"Longitude":10.442431},"BottomRight":{"Latitude":51.3260258,"Longitude":10.446029}},"Address":{"Label":"Zaunröder Straße 1, 99976 Dünwald, Deutschland","Country":"DEU","State":"Thüringen","County":"Unstrut-Hainich-Kreis","City":"Dünwald","District":"Hüpstedt","Street":"Zaunröder Straße","HouseNumber":"1","PostalCode":"99976","AdditionalData":[{"value":"Deutschland","key":"CountryName"},{"value":"Thüringen","key":"StateName"},{"value":"Unstrut-Hainich-Kreis","key":"CountyName"}]},"MapReference":{"ReferenceId":"543972108","Spot":0.3,"SideOfStreet":"left","CountryId":"20147700","StateId":"20196974","CountyId":"20197560","CityId":"20215972","DistrictId":"20215974","AddressId":"189498020","RoadLinkId":"39839947"}}},{"Relevance":1.0,"Distance":60.1,"MatchLevel":"street","MatchQuality":{"Country":1.0,"State":1.0,"County":1.0,"City":1.0,"District":1.0,"Street":[1.0],"PostalCode":1.0},"Location":{"LocationId":"NT_EFmND7bjheAFs9bNqkEXNC_l_1223056268_R","LocationType":"point","DisplayPosition":{"Latitude":51.3265,"Longitude":10.44327},"MapView":{"TopLeft":{"Latitude":51.3265,"Longitude":10.44327},"BottomRight":{"Latitude":51.32645,"Longitude":10.44328}},"Address":{"Label":"Mühlhäuser Straße, 99976 Dünwald, Deutschland","Country":"DEU","State":"Thüringen","County":"Unstrut-Hainich-Kreis","City":"Dünwald","District":"Hüpstedt","Street":"Mühlhäuser Straße","PostalCode":"99976","AdditionalData":[{"value":"Deutschland","key":"CountryName"},{"value":"Thüringen","key":"StateName"},{"value":"Unstrut-Hainich-Kreis","key":"CountyName"}]},"MapReference":{"ReferenceId":"1223056268","Spot":1.0,"SideOfStreet":"right","CountryId":"20147700","StateId":"20196974","CountyId":"20197560","CityId":"20215972","DistrictId":"20215974"}}}]}]}}