{"Response":{"MetaInfo":{"Timestamp":"2020-03-28T10:19:31.296+0000","NextPageInformation":"2"},"View":[{"_type":"SearchResultsViewType","ViewId":0,"Result":[{"Relevance":1.0,"Distance":0.0,"Direction":0.0,"MatchLevel":"district","MatchQuality":{"Country":1.0,"State":1.0,"County":1.0,"City":1.0,"District":1.0,"PostalCode":1.0},"Location":{"LocationId":"NT_41vIr6EVgJROCZIpGYSMJA","LocationType":"point","DisplayPosition":{"Latitude":51.3301734,"Longitude":9.5286047},"MapView":{"TopLeft":{"Latitude":51.3525,"Longitude":9.41055},"BottomRight":{"Latitude":51.27197,"Longitude":9.56181}},"Address":{"Label":"Kassel, Hessen, Deutschland","Country":"DEU","State":"Hessen","County":"Kassel (Stadt)","City":"Kassel","District":"Kassel","PostalCode":"34125","AdditionalData":[{"value":"Deutschland","key":"CountryName"},{"value":"Hessen","key":"StateName"},{"value":"Kassel (Stadt)","key":"CountyName"}]},"MapReference":{"ReferenceId":"709893764","SideOfStreet":"neither","CountryId":"20147700","StateId":"20160993","CountyId":"20162964","CityId":"20162965","DistrictId":"20162971"}}},{"Relevance":1.0,"Distance":8.2,"MatchLevel":"houseNumber","MatchQuality":{"Country":1.0,"State":1.0,"County":1.0,"City":1.0,"District":1.0,"Street":[1.0],"HouseNumber":1.0,"PostalCode":1.0},"MatchType":"interpolated","Location":{"LocationId":"NT_aB5UuOrdZZq8OZLcJ-FHFD_2A","LocationType":"point","DisplayPosition":{"Latitude":51.33024,"Longitude":9.52839},"MapView":{"TopLeft":{"Latitude":51.3313642,"Longitude":9.5265909},"BottomRight":{"Latitude":51.3291158,"Longitude":9.5301891}},"Address":{"Label":"Im Bossental 6, 34125 Kassel, Deutschland","Country":"DEU","State":"Hessen","County":"Kassel (Stadt)","City":"Kassel","District":"Kassel","Street":"Im Bossental","HouseNumber":"6","PostalCode":"34125","AdditionalData":[{"value":"Deutschland","key":"CountryName"},{"value":"Hessen","key":"StateName"},{"value":"Kassel (Stadt)","key":"CountyName"}]},"MapReference":{"ReferenceId":"1182368720","Spot":0.96,"SideOfStreet":"right","CountryId":"20147700","StateId":"20160993","CountyId":"20162964","CityId":"20162965","DistrictId":"20162971","AddressId":"187072539","RoadLinkId":"490590199"}}},{"Relevance":1.0,"Distance":17.8,"MatchLevel":"street","MatchQuality":{"Country":1.0,"State":1.0,"County":1.0,"City":1.0,"District":1.0,"Street":[1.0],"PostalCode":1.0},"Location":{"LocationId":"NT_aB5UuOrdZZq8OZLcJ-FHFD_l_1182368721_R","LocationType":"point","DisplayPosition":{"Latitude":51.33027,"Longitude":9.5284},"MapView":{"TopLeft":{"Latitude":51.33033,"Longitude":9.5284},"BottomRight":{"Latitude":51.33027,"Longitude":9.52842}},"Address":{"Label":"Im Bossental, 34125 Kassel, Deutschland","Country":"DEU","State":"Hessen","County":"Kassel (Stadt)","City":"Kassel","District":"Kassel","Street":"Im Bossental","PostalCode":"34125","AdditionalData":[{"value":"Deutschland","key":"CountryName"},{"value":"Hessen","key":"StateName"},{"value":"Kassel (Stadt)","key":"CountyName"}]},"MapReference":{"ReferenceId":"1182368721","Spot":0.0,"SideOfStreet":"right","CountryId":"20147700","StateId":"20160993","CountyId":"20162964","CityId":"20162965","DistrictId":"20162971"}}},{"Relevance":1.0,"Distance":31.5,"MatchLevel":"houseNumber","MatchQuality":{"Country":1.0,"State":1.0,"County":1.0,"City":1.0,"District":1.0,"Street":[1.0],"HouseNumber":1.0,"PostalCode":1.0},"MatchType":"interpolated","Location":{"LocationId":"NT_aB5UuOrdZZq8OZLcJ-FHFD_4A","LocationType":"point","DisplayPosition":{"Latitude":51.33044,"Longitude":9.52845},"MapView":{"TopLeft":{"Latitude":51.3315642,"Longitude":9.5266509},"BottomRight":{"Latitude":51.3293158,"Longitude":9.5302491}},"Address":{"Label":"Im Bossental 8, 34125 Kassel, Deutschland","Country":"DEU","State":"Hessen","County":"Kassel (Stadt)","City":"Kassel","District":"Kassel","Street":"Im Bossental","HouseNumber":"8","PostalCode":"34125","AdditionalData":[{"value":"Deutschland","key":"CountryName"},{"value":"Hessen","key":"StateName"},{"value":"Kassel (Stadt)","key":"CountyName"}]},"MapReference":{"ReferenceId":"52568960","Spot":0.14,"SideOfStreet":"right","CountryId":"20147700","StateId":"20160993","CountyId":"20162964","CityId":"20162965","DistrictId":"20162971","AddressId":"186506443","RoadLinkId":"34126035"}}},{"Relevance":1.0,"Distance":40.6,"MatchLevel":"houseNumber","MatchQuality":{"Country":1.0,"State":1.0,"County":1.0,"City":1.0,"District":1.0,"Street":[1.0],"HouseNumber":1.0,"PostalCode":1.0},"MatchType":"interpolated","Location":{"LocationId":"NT_b4aW-4ZJTfP26kCy3bL8LA_0A","LocationType":"point","DisplayPosition":{"Latitude":51.33017,"Longitude":9.52926},"MapView":{"TopLeft":{"Latitude":51.3312942,"Longitude":9.5274609},"BottomRight":{"Latitude":51.3290458,"Longitude":9.5310591}},"Address":{"Label":"Am Teichhof 4, 34125 Kassel, Deutschland","Country":"DEU","State":"Hessen","County":"Kassel (Stadt)","City":"Kassel","District":"Kassel","Street":"Am Teichhof","HouseNumber":"4","PostalCode":"34125","AdditionalData":[{"value":"Deutschland","key":"CountryName"},{"value":"Hessen","key":"StateName"},{"value":"Kassel (Stadt)","key":"CountyName"}]},"MapReference":{"ReferenceId":"52568973","Spot":0.08,"SideOfStreet":"left","CountryId":"20147700","StateId":"20160993","CountyId":"20162964","CityId":"20162965","DistrictId":"20162971","AddressId":"208232008","RoadLinkId":"34021652"}}},{"Relevance":1.0,"Distance":43.3,"MatchLevel":"houseNumber","MatchQuality":{"Country":1.0,"State":1.0,"County":1.0,"City":1.0,"District":1.0,"Street":[1.0],"HouseNumber":1.0,"PostalCode":1.0},"MatchType":"interpolated","Location":{"LocationId":"NT_ceguXxmKqhG-jTIudSensC_zYD","LocationType":"point","DisplayPosition":{"Latitude":51.3302,"Longitude":9.52792},"MapView":{"TopLeft":{"Latitude":51.3313242,"Longitude":9.5261209},"BottomRight":{"Latitude":51.3290758,"Longitude":9.5297191}},"Address":{"Label":"Im Eichenhof 36, 34125 Kassel, Deutschland","Country":"DEU","State":"Hessen","County":"Kassel (Stadt)","City":"Kassel","District":"Kassel","Street":"Im Eichenhof","HouseNumber":"36","PostalCode":"34125","AdditionalData":[{"value":"Deutschland","key":"CountryName"},{"value":"Hessen","key":"StateName"},{"value":"Kassel (Stadt)","key":"CountyName"}]},"MapReference":{"ReferenceId":"52568970","Spot":0.55,"SideOfStreet":"right","CountryId":"20147700","StateId":"20160993","CountyId":"20162964","CityId":"20162965","DistrictId":"20162971","AddressId":"186980202","RoadLinkId":"33908313"}}},{"Relevance":1.0,"Distance":57.9,"MatchLevel":"houseNumber","MatchQuality":{"Country":1.0,"State":1.0,"County":1.0,"City":1.0,"District":1.0,"Street":[1.0],"HouseNumber":1.0,"PostalCode":1.0},"MatchType":"interpolated","Location":{"LocationId":"NT_b4aW-4ZJTfP26kCy3bL8LA_2A","LocationType":"point","DisplayPosition":{"Latitude":51.33006,"Longitude":9.52947},"MapView":{"TopLeft":{"Latitude":51.3311842,"Longitude":9.5276709},"BottomRight":{"Latitude":51.3289358,"Longitude":9.5312691}},"Address":{"Label":"Am Teichhof 6, 34125 Kassel, Deutschland","Country":"DEU","State":"Hessen","County":"Kassel (Stadt)","City":"Kassel","District":"Kassel","Street":"Am Teichhof","HouseNumber":"6","PostalCode":"34125","AdditionalData":[{"value":"Deutschland","key":"CountryName"},{"value":"Hessen","key":"StateName"},{"value":"Kassel (Stadt)","key":"CountyName"}]},"MapReference":{"ReferenceId":"52568979","Spot":0.53,"SideOfStreet":"left","CountryId":"20147700","StateId":"20160993","CountyId":"20162964","CityId":"20162965","DistrictId":"20162971","AddressId":"249957277","RoadLinkId":"34393339"}}},{"Relevance":1.0,"Distance":61.0,"MatchLevel":"houseNumber","MatchQuality":{"Country":1.0,"State":1.0,"County":1.0,"City":1.0,"District":1.0,"Street":[1.0],"HouseNumber":1.0,"PostalCode":1.0},"MatchType":"interpolated","Location":{"LocationId":"NT_ZP0Z4Kwl5Dn1aWreI8pTNA_4cD","LocationType":"point","DisplayPosition":{"Latitude":51.32956,"Longitude":9.52872},"MapView":{"TopLeft":{"Latitude":51.3306842,"Longitude":9.5269209},"BottomRight":{"Latitude":51.3284358,"Longitude":9.5305191}},"Address":{"Label":"Wolfsangerstraße 87, 34125 Kassel, Deutschland","Country":"DEU","State":"Hessen","County":"Kassel (Stadt)","City":"Kassel","District":"Kassel","Street":"Wolfsangerstraße","HouseNumber":"87","PostalCode":"34125","AdditionalData":[{"value":"Deutschland","key":"CountryName"},{"value":"Hessen","key":"StateName"},{"value":"Kassel (Stadt)","key":"CountyName"}]},"MapReference":{"ReferenceId":"52569017","Spot":0.81,"SideOfStreet":"right","CountryId":"20147700","StateId":"20160993","CountyId":"20162964","CityId":"20162965","DistrictId":"20162971","AddressId":"186696467","RoadLinkId":"34457124"}}},{"Relevance":1.0,"Distance":63.5,"MatchLevel":"houseNumber","MatchQuality":{"Country":1.0,"State":1.0,"County":1.0,"City":1.0,"District":1.0,"Street":[1.0],"HouseNumber":1.0,"PostalCode":1.0},"MatchType":"interpolated","Location":{"LocationId":"NT_b4aW-4ZJTfP26kCy3bL8LA_1A","LocationType":"point","DisplayPosition":{"Latitude":51.33026,"Longitude":9.52953},"MapView":{"TopLeft":{"Latitude":51.3313842,"Longitude":9.5277309},"BottomRight":{"Latitude":51.3291358,"Longitude":9.5313291}},"Address":{"Label":"Am Teichhof 5, 34125 Kassel, Deutschland","Country":"DEU","State":"Hessen","County":"Kassel (Stadt)","City":"Kassel","District":"Kassel","Street":"Am Teichhof","HouseNumber":"5","PostalCode":"34125","AdditionalData":[{"value":"Deutschland","key":"CountryName"},{"value":"Hessen","key":"StateName"},{"value":"Kassel (Stadt)","key":"CountyName"}]},"MapReference":{"ReferenceId":"52568972","Spot":0.34,"SideOfStreet":"left","CountryId":"20147700","StateId":"20160993","CountyId":"20162964","CityId":"20162965","DistrictId":"20162971","AddressId":"186914439","RoadLinkId":"34303102"}}},{"Relevance":1.0,"Distance":76.9,"MatchLevel":"houseNumber","MatchQuality":{"Country":1.0,"State":1.0,"County":1.0,"City":1.0,"District":1.0,"Street":[1.0],"HouseNumber":1.0,"PostalCode":1.0},"MatchType":"interpolated","Location":{"LocationId":"NT_ZP0Z4Kwl5Dn1aWreI8pTNA_4ED","LocationType":"point","DisplayPosition":{"Latitude":51.32952,"Longitude":9.52795},"MapView":{"TopLeft":{"Latitude":51.3306442,"Longitude":9.5261509},"BottomRight":{"Latitude":51.3283958,"Longitude":9.5297491}},"Address":{"Label":"Wolfsangerstraße 81, 34125 Kassel, Deutschland","Country":"DEU","State":"Hessen","County":"Kassel (Stadt)","City":"Kassel","District":"Kassel","Street":"Wolfsangerstraße","HouseNumber":"81","PostalCode":"34125","AdditionalData":[{"value":"Deutschland","key":"CountryName"},{"value":"Hessen","key":"StateName"},{"value":"Kassel (Stadt)","key":"CountyName"}]},"MapReference":{"ReferenceId":"52569015","Spot":0.56,"SideOfStreet":"left","CountryId":"20147700","StateId":"20160993","CountyId":"20162964","CityId":"20162965","DistrictId":"20162971","AddressId":"186789056","RoadLinkId":"34365488"}}}]}]}}