{"Response":{"MetaInfo":{"Timestamp":"2020-03-28T10:37:14.519+0000","NextPageInformation":"2"},"View":[{"_type":"SearchResultsViewType","ViewId":0,"Result":[{"Relevance":1.0,"Distance":0.0,"Direction":0.0,"MatchLevel":"district","MatchQuality":{"Country":1.0,"State":1.0,"County":1.0,"City":1.0,"District":1.0,"PostalCode":1.0},"Location":{"LocationId":"NT_S5m7eDj8r.jQEvCxQjfx7C","LocationType":"point","DisplayPosition":{"Latitude":51.3667555,"Longitude":0.3049885},"MapView":{"TopLeft":{"Latitude":51.3801,"Longitude":0.29145},"BottomRight":{"Latitude":51.35902,"Longitude":0.31906}},"Address":{"Label":"New Ash Green, Longfield, England, United Kingdom","Country":"GBR","State":"England","County":"Kent","City":"Longfield","District":"New Ash Green","PostalCode":"DA3 8","AdditionalData":[{"value":"United Kingdom","key":"CountryName"},{"value":"England","key":"StateName"},{"value":"Kent","key":"CountyName"}]},"MapReference":{"ReferenceId":"25635806","SideOfStreet":"neither","StateId":"20248595","CountyId":"20336836","CityId":"20337174","DistrictId":"20337178"}}},{"Relevance":1.0,"Distance":7.0,"MatchLevel":"postalCode","MatchQuality":{"PostalCode":1.0},"Location":{"LocationId":"NT_XJAwESGFhpkMkQIll1IcnB_l_25635431_R","LocationType":"point","DisplayPosition":{"Latitude":51.36677,"Longitude":0.30489},"MapView":{"TopLeft":{"Latitude":51.3757632,"Longitude":0.2904855},"BottomRight":{"Latitude":51.3577768,"Longitude":0.3192945}},"Address":{"Label":"DA3 8QT, Longfield, England, United Kingdom","Country":"GBR","State":"England","County":"Kent","City":"Longfield","PostalCode":"DA3 8QT","AdditionalData":[{"value":"United Kingdom","key":"CountryName"},{"value":"England","key":"StateName"},{"value":"Kent","key":"CountyName"}]},"MapReference":{"ReferenceId":"25635431","Spot":0.42,"SideOfStreet":"neither","StateId":"20248595","CountyId":"20336836","CityId":"20337174"}}},{"Relevance":1.0,"Distance":9.4,"MatchLevel":"street","MatchQuality":{"Country":1.0,"State":1.0,"County":1.0,"City":1.0,"District":1.0,"Street":[1.0],"PostalCode":1.0},"Location":{"LocationId":"NT_XJAwESGFhpkMkQIll1IcnB_l_25635431_R","LocationType":"point","DisplayPosition":{"Latitude":51.366677,"Longitude":0.3049368},"MapView":{"TopLeft":{"Latitude":51.36684,"Longitude":0.30461},"BottomRight":{"Latitude":51.36653,"Longitude":0.30516}},"Address":{"Label":"Meadow Lane, Longfield, DA3 8, United Kingdom","Country":"GBR","State":"England","County":"Kent","City":"Longfield","District":"New Ash Green","Street":"Meadow Lane","PostalCode":"DA3 8","AdditionalData":[{"value":"United Kingdom","key":"CountryName"},{"value":"England","key":"StateName"},{"value":"Kent","key":"CountyName"}]},"MapReference":{"ReferenceId":"25635431","Spot":0.42,"SideOfStreet":"right","StateId":"20248595","CountyId":"20336836","CityId":"20337174","DistrictId":"20337178"}}},{"Relevance":1.0,"Distance":26.7,"MatchLevel":"street","MatchQuality":{"Country":1.0,"State":1.0,"County":1.0,"City":1.0,"District":1.0,"Street":[1.0],"PostalCode":1.0},"Location":{"LocationId":"NT_4dniCQx3bn7TPonXNr4kBA_l_25635417_R","LocationType":"point","DisplayPosition":{"Latitude":51.366781,"Longitude":0.3046061},"MapView":{"TopLeft":{"Latitude":51.36684,"Longitude":0.30416},"BottomRight":{"Latitude":51.36659,"Longitude":0.30461}},"Address":{"Label":"North Square, Longfield, DA3 8, United Kingdom","Country":"GBR","State":"England","County":"Kent","City":"Longfield","District":"New Ash Green","Street":"North Square","PostalCode":"DA3 8","AdditionalData":[{"value":"United Kingdom","key":"CountryName"},{"value":"England","key":"StateName"},{"value":"Kent","key":"CountyName"}]},"MapReference":{"ReferenceId":"25635417","Spot":0.91,"SideOfStreet":"right","StateId":"20248595","CountyId":"20336836","CityId":"20337174","DistrictId":"20337178"}}},{"Relevance":1.0,"Distance":27.5,"MatchLevel":"street","MatchQuality":{"Country":1.0,"State":1.0,"County":1.0,"City":1.0,"District":1.0,"PostalCode":1.0},"Location":{"LocationId":"NT_KvJiyvZpb6.B5BQVG6yZHB_l_25635456_R","LocationType":"point","DisplayPosition":{"Latitude":51.3665197,"Longitude":0.3048706},"MapView":{"TopLeft":{"Latitude":51.36661,"Longitude":0.30469},"BottomRight":{"Latitude":51.36643,"Longitude":0.30505}},"Address":{"Label":"Longfield, DA3 8, United Kingdom","Country":"GBR","State":"England","County":"Kent","City":"Longfield","District":"New Ash Green","PostalCode":"DA3 8","AdditionalData":[{"value":"United Kingdom","key":"CountryName"},{"value":"England","key":"StateName"},{"value":"Kent","key":"CountyName"}]},"MapReference":{"ReferenceId":"25635456","Spot":0.5,"SideOfStreet":"right","StateId":"20248595","CountyId":"20336836","CityId":"20337174","DistrictId":"20337178"}}},{"Relevance":1.0,"Distance":27.8,"MatchLevel":"street","MatchQuality":{"Country":1.0,"State":1.0,"County":1.0,"City":1.0,"District":1.0,"Street":[1.0],"PostalCode":1.0},"Location":{"LocationId":"NT_XJAwESGFhpkMkQIll1IcnB_l_25635453_R","LocationType":"point","DisplayPosition":{"Latitude":51.36653,"Longitude":0.30516},"MapView":{"TopLeft":{"Latitude":51.36653,"Longitude":0.30516},"BottomRight":{"Latitude":51.36642,"Longitude":0.30555}},"Address":{"Label":"Meadow Lane, Longfield, DA3 8, United Kingdom","Country":"GBR","State":"England","County":"Kent","City":"Longfield","District":"New Ash Green","Street":"Meadow Lane","PostalCode":"DA3 8","AdditionalData":[{"value":"United Kingdom","key":"CountryName"},{"value":"England","key":"StateName"},{"value":"Kent","key":"CountyName"}]},"MapReference":{"ReferenceId":"25635453","Spot":1.0,"SideOfStreet":"right","StateId":"20248595","CountyId":"20336836","CityId":"20337174","DistrictId":"20337178"}}},{"Relevance":1.0,"Distance":27.8,"MatchLevel":"street","MatchQuality":{"Country":1.0,"State":1.0,"County":1.0,"City":1.0,"District":1.0,"PostalCode":1.0},"Location":{"LocationId":"NT_KvJiyvZpb6.B5BQVG6yZHB_l_25635455_L","LocationType":"point","DisplayPosition":{"Latitude":51.36653,"Longitude":0.30516},"MapView":{"TopLeft":{"Latitude":51.36653,"Longitude":0.30505},"BottomRight":{"Latitude":51.36643,"Longitude":0.30516}},"Address":{"Label":"Longfield, DA3 8, United Kingdom","Country":"GBR","State":"England","County":"Kent","City":"Longfield","District":"New Ash Green","PostalCode":"DA3 8","AdditionalData":[{"value":"United Kingdom","key":"CountryName"},{"value":"England","key":"StateName"},{"value":"Kent","key":"CountyName"}]},"MapReference":{"ReferenceId":"25635455","Spot":1.0,"SideOfStreet":"left","StateId":"20248595","CountyId":"20336836","CityId":"20337174","DistrictId":"20337178"}}},{"Relevance":1.0,"Distance":27.9,"MatchLevel":"street","MatchQuality":{"Country":1.0,"State":1.0,"County":1.0,"City":1.0,"District":1.0,"Street":[1.0],"PostalCode":1.0},"Location":{"LocationId":"NT_4dniCQx3bn7TPonXNr4kBA_l_25986431_R","LocationType":"point","DisplayPosition":{"Latitude":51.36684,"Longitude":0.30461},"MapView":{"TopLeft":{"Latitude":51.36684,"Longitude":0.30441},"BottomRight":{"Latitude":51.36684,"Longitude":0.30461}},"Address":{"Label":"North Square, Longfield, DA3 8, United Kingdom","Country":"GBR","State":"England","County":"Kent","City":"Longfield","District":"New Ash Green","Street":"North Square","PostalCode":"DA3 8","AdditionalData":[{"value":"United Kingdom","key":"CountryName"},{"value":"England","key":"StateName"},{"value":"Kent","key":"CountyName"}]},"MapReference":{"ReferenceId":"25986431","Spot":1.0,"SideOfStreet":"right","StateId":"20248595","CountyId":"20336836","CityId":"20337174","DistrictId":"20337178"}}},{"Relevance":1.0,"Distance":36.4,"MatchLevel":"street","MatchQuality":{"Country":1.0,"State":1.0,"County":1.0,"City":1.0,"District":1.0,"PostalCode":1.0},"Location":{"LocationId":"NT_KvJiyvZpb6.B5BQVG6yZHB_l_25635587_R","LocationType":"point","DisplayPosition":{"Latitude":51.36643,"Longitude":0.30505},"MapView":{"TopLeft":{"Latitude":51.36643,"Longitude":0.30505},"BottomRight":{"Latitude":51.36578,"Longitude":0.30572}},"Address":{"Label":"Longfield, DA3 8, United Kingdom","Country":"GBR","State":"England","County":"Kent","City":"Longfield","District":"New Ash Green","PostalCode":"DA3 8","AdditionalData":[{"value":"United Kingdom","key":"CountryName"},{"value":"England","key":"StateName"},{"value":"Kent","key":"CountyName"}]},"MapReference":{"ReferenceId":"25635587","Spot":1.0,"SideOfStreet":"right","StateId":"20248595","CountyId":"20336836","CityId":"20337174","DistrictId":"20337178"}}},{"Relevance":1.0,"Distance":41.2,"MatchLevel":"street","MatchQuality":{"Country":1.0,"State":1.0,"County":1.0,"City":1.0,"District":1.0,"Street":[1.0],"PostalCode":1.0},"Location":{"LocationId":"NT_4dniCQx3bn7TPonXNr4kBA_l_25986430_R","LocationType":"point","DisplayPosition":{"Latitude":51.36684,"Longitude":0.30441},"MapView":{"TopLeft":{"Latitude":51.36684,"Longitude":0.30416},"BottomRight":{"Latitude":51.36673,"Longitude":0.30441}},"Address":{"Label":"North Square, Longfield, DA3 8, United Kingdom","Country":"GBR","State":"England","County":"Kent","City":"Longfield","District":"New Ash Green","Street":"North Square","PostalCode":"DA3 8","AdditionalData":[{"value":"United Kingdom","key":"CountryName"},{"value":"England","key":"StateName"},{"value":"Kent","key":"CountyName"}]},"MapReference":{"ReferenceId":"25986430","Spot":1.0,"SideOfStreet":"right","StateId":"20248595","CountyId":"20336836","CityId":"20337174","DistrictId":"20337178"}}}]}]}}