{"Response":{"MetaInfo":{"Timestamp":"2020-03-28T10:36:37.920+0000","NextPageInformation":"2"},"View":[{"_type":"SearchResultsViewType","ViewId":0,"Result":[{"Relevance":1.0,"Distance":0.0,"Direction":0.0,"MatchLevel":"district","MatchQuality":{"Country":1.0,"State":1.0,"County":1.0,"City":1.0,"District":1.0,"PostalCode":1.0},"Location":{"LocationId":"NT_VK2NkLjx32m6JOIHFMLktC","LocationType":"point","DisplayPosition":{"Latitude":51.3810279,"Longitude":-0.2478401},"MapView":{"TopLeft":{"Latitude":51.39322,"Longitude":-0.28079},"BottomRight":{"Latitude":51.36605,"Longitude":-0.2209}},"Address":{"Label":"Worcester Park, England, United Kingdom","Country":"GBR","State":"England","County":"Surrey","City":"Worcester Park","District":"Worcester Park","PostalCode":"KT4 8","AdditionalData":[{"value":"United Kingdom","key":"CountryName"},{"value":"England","key":"StateName"},{"value":"Surrey","key":"CountyName"}]},"MapReference":{"ReferenceId":"25433632","SideOfStreet":"neither","StateId":"20248595","CountyId":"20338357","CityId":"20338665","DistrictId":"20338666"}}},{"Relevance":1.0,"Distance":18.7,"MatchLevel":"houseNumber","MatchQuality":{"Country":1.0,"State":1.0,"County":1.0,"City":1.0,"District":1.0,"Street":[1.0],"HouseNumber":1.0,"PostalCode":1.0},"MatchType":"interpolated","Location":{"LocationId":"NT_qa1KK-B2KlWW15mLZCvC1B_xkD","LocationType":"point","DisplayPosition":{"Latitude":51.38108,"Longitude":-0.24824},"MapView":{"TopLeft":{"Latitude":51.3822042,"Longitude":-0.2500411},"BottomRight":{"Latitude":51.3799558,"Longitude":-0.2464389}},"Address":{"Label":"19 The Manor Drive, Worcester Park, KT4 7LG, United Kingdom","Country":"GBR","State":"England","County":"Surrey","City":"Worcester Park","District":"Worcester Park","Street":"The Manor Drive","HouseNumber":"19","PostalCode":"KT4 7LG","AdditionalData":[{"value":"United Kingdom","key":"CountryName"},{"value":"England","key":"StateName"},{"value":"Surrey","key":"CountyName"}]},"MapReference":{"ReferenceId":"25432265","Spot":0.58,"SideOfStreet":"right","StateId":"20248595","CountyId":"20338357","CityId":"20338665","DistrictId":"20338666","AddressId":"749339585","RoadLinkId":"82821024"}}},{"Relevance":1.0,"Distance":50.9,"MatchLevel":"postalCode","MatchQuality":{"PostalCode":1.0},"MatchType":"interpolated","Location":{"LocationId":"NT_qa1KK-B2KlWW15mLZCvC1B_xkD","LocationType":"point","DisplayPosition":{"Latitude":51.38089,"Longitude":-0.24854},"MapView":{"TopLeft":{"Latitude":51.3898832,"Longitude":-0.262949},"BottomRight":{"Latitude":51.3718968,"Longitude":-0.234131}},"Address":{"Label":"KT4 7LG, Worcester Park, England, United Kingdom","Country":"GBR","State":"England","County":"Surrey","City":"Worcester Park","PostalCode":"KT4 7LG","AdditionalData":[{"value":"United Kingdom","key":"CountryName"},{"value":"England","key":"StateName"},{"value":"Surrey","key":"CountyName"}]},"MapReference":{"ReferenceId":"25432265","Spot":0.58,"SideOfStreet":"neither","StateId":"20248595","CountyId":"20338357","CityId":"20338665"}}},{"Relevance":1.0,"Distance":52.5,"MatchLevel":"houseNumber","MatchQuality":{"Country":1.0,"State":1.0,"County":1.0,"City":1.0,"District":1.0,"Street":[1.0],"HouseNumber":1.0,"PostalCode":1.0},"MatchType":"interpolated","Location":{"LocationId":"NT_RAANGtCgm-EjbufDUcXg0D_l_25971337_R_xED","LocationType":"point","DisplayPosition":{"Latitude":51.3804315,"Longitude":-0.2476723},"MapView":{"TopLeft":{"Latitude":51.3815556,"Longitude":-0.2494734},"BottomRight":{"Latitude":51.3793073,"Longitude":-0.2458712}},"Address":{"Label":"11 Orchard Court, Worcester Park, KT4 7LD, United Kingdom","Country":"GBR","State":"England","County":"Surrey","City":"Worcester Park","District":"Worcester Park","Street":"Orchard Court","HouseNumber":"11","PostalCode":"KT4 7LD","AdditionalData":[{"value":"United Kingdom","key":"CountryName"},{"value":"England","key":"StateName"},{"value":"Surrey","key":"CountyName"}]},"MapReference":{"ReferenceId":"25971337","Spot":0.59,"SideOfStreet":"right","StateId":"20248595","CountyId":"20338357","CityId":"20338665","DistrictId":"20338666"}}},{"Relevance":1.0,"Distance":54.6,"MatchLevel":"houseNumber","MatchQuality":{"Country":1.0,"State":1.0,"County":1.0,"City":1.0,"District":1.0,"Street":[1.0],"HouseNumber":1.0,"PostalCode":1.0},"MatchType":"interpolated","Location":{"LocationId":"NT_l4.kKBqwVBxz7wpzf5IAwC_xA","LocationType":"point","DisplayPosition":{"Latitude":51.38162,"Longitude":-0.24751},"MapView":{"TopLeft":{"Latitude":51.3827442,"Longitude":-0.2493111},"BottomRight":{"Latitude":51.3804958,"Longitude":-0.2457089}},"Address":{"Label":"1 Downfield, Worcester Park, KT4 7, United Kingdom","Country":"GBR","State":"England","County":"Surrey","City":"Worcester Park","District":"Worcester Park","Street":"Downfield","HouseNumber":"1","PostalCode":"KT4 7","AdditionalData":[{"value":"United Kingdom","key":"CountryName"},{"value":"England","key":"StateName"},{"value":"Surrey","key":"CountyName"}]},"MapReference":{"ReferenceId":"25432017","Spot":0.23,"SideOfStreet":"left","StateId":"20248595","CountyId":"20338357","CityId":"20338665","DistrictId":"20338666","AddressId":"749293516","RoadLinkId":"82622041"}}},{"Relevance":1.0,"Distance":62.9,"MatchLevel":"houseNumber","MatchQuality":{"Country":1.0,"State":1.0,"County":1.0,"City":1.0,"District":1.0,"Street":[1.0],"PostalCode":1.0},"MatchType":"interpolated","Location":{"LocationId":"NT_mvbZshpcLfMF4qCHdPRLaB","LocationType":"point","DisplayPosition":{"Latitude":51.38069,"Longitude":-0.24651},"MapView":{"TopLeft":{"Latitude":51.3818142,"Longitude":-0.2483111},"BottomRight":{"Latitude":51.3795658,"Longitude":-0.2447089}},"Address":{"Label":"Park Terrace, Worcester Park, KT4 7, United Kingdom","Country":"GBR","State":"England","County":"Surrey","City":"Worcester Park","District":"Worcester Park","Street":"Park Terrace","PostalCode":"KT4 7","AdditionalData":[{"value":"United Kingdom","key":"CountryName"},{"value":"England","key":"StateName"},{"value":"Surrey","key":"CountyName"}],"Building":"Orchard Court"},"MapReference":{"ReferenceId":"25432222","Spot":0.0,"SideOfStreet":"left","StateId":"20248595","CountyId":"20338357","CityId":"20338665","DistrictId":"20338666","AddressId":"763559290","RoadLinkId":"83004872"}}},{"Relevance":1.0,"Distance":63.7,"MatchLevel":"street","MatchQuality":{"Country":1.0,"State":1.0,"County":1.0,"City":1.0,"District":1.0,"Street":[1.0],"PostalCode":1.0},"Location":{"LocationId":"NT_qa1KK-B2KlWW15mLZCvC1B_l_25432016_R","LocationType":"point","DisplayPosition":{"Latitude":51.3815,"Longitude":-0.24732},"MapView":{"TopLeft":{"Latitude":51.38173,"Longitude":-0.24732},"BottomRight":{"Latitude":51.3815,"Longitude":-0.24692}},"Address":{"Label":"The Manor Drive, Worcester Park, KT4 7, United Kingdom","Country":"GBR","State":"England","County":"Surrey","City":"Worcester Park","District":"Worcester Park","Street":"The Manor Drive","PostalCode":"KT4 7","AdditionalData":[{"value":"United Kingdom","key":"CountryName"},{"value":"England","key":"StateName"},{"value":"Surrey","key":"CountyName"}]},"MapReference":{"ReferenceId":"25432016","Spot":0.0,"SideOfStreet":"right","StateId":"20248595","CountyId":"20338357","CityId":"20338665","DistrictId":"20338666"}}},{"Relevance":1.0,"Distance":64.4,"MatchLevel":"postalCode","MatchQuality":{"PostalCode":1.0},"MatchType":"interpolated","Location":{"LocationId":"NT_RAANGtCgm-EjbufDUcXg0D_l_25971337_R_xED","LocationType":"point","DisplayPosition":{"Latitude":51.38045,"Longitude":-0.24777},"MapView":{"TopLeft":{"Latitude":51.3894432,"Longitude":-0.2621788},"BottomRight":{"Latitude":51.3714568,"Longitude":-0.2333612}},"Address":{"Label":"KT4 7LD, Worcester Park, England, United Kingdom","Country":"GBR","State":"England","County":"Surrey","City":"Worcester Park","PostalCode":"KT4 7LD","AdditionalData":[{"value":"United Kingdom","key":"CountryName"},{"value":"England","key":"StateName"},{"value":"Surrey","key":"CountyName"}]},"MapReference":{"ReferenceId":"25971337","Spot":0.59,"SideOfStreet":"neither","StateId":"20248595","CountyId":"20338357","CityId":"20338665"}}},{"Relevance":1.0,"Distance":81.3,"MatchLevel":"houseNumber","MatchQuality":{"Country":1.0,"State":1.0,"County":1.0,"City":1.0,"District":1.0,"Street":[1.0],"HouseNumber":1.0,"PostalCode":1.0},"MatchType":"interpolated","Location":{"LocationId":"NT_8F-yDRd29gkwNT57MlWunB_xA","LocationType":"point","DisplayPosition":{"Latitude":51.38178,"Longitude":-0.24856},"MapView":{"TopLeft":{"Latitude":51.3829042,"Longitude":-0.2503612},"BottomRight":{"Latitude":51.3806558,"Longitude":-0.2467588}},"Address":{"Label":"1 Keble Close, Worcester Park, KT4 7LE, United Kingdom","Country":"GBR","State":"England","County":"Surrey","City":"Worcester Park","District":"Worcester Park","Street":"Keble Close","HouseNumber":"1","PostalCode":"KT4 7LE","AdditionalData":[{"value":"United Kingdom","key":"CountryName"},{"value":"England","key":"StateName"},{"value":"Surrey","key":"CountyName"}]},"MapReference":{"ReferenceId":"25431941","Spot":0.05,"SideOfStreet":"right","StateId":"20248595","CountyId":"20338357","CityId":"20338665","DistrictId":"20338666","AddressId":"749363520","RoadLinkId":"82503090"}}},{"Relevance":1.0,"Distance":88.8,"MatchLevel":"houseNumber","MatchQuality":{"Country":1.0,"State":1.0,"County":1.0,"City":1.0,"District":1.0,"Street":[1.0],"HouseNumber":1.0,"PostalCode":1.0},"MatchType":"interpolated","Location":{"LocationId":"NT_RAANGtCgm-EjbufDUcXg0D_l_25971336_L_0A","LocationType":"point","DisplayPosition":{"Latitude":51.380235,"Longitude":-0.247685},"MapView":{"TopLeft":{"Latitude":51.3813592,"Longitude":-0.2494861},"BottomRight":{"Latitude":51.3791109,"Longitude":-0.2458839}},"Address":{"Label":"4 Orchard Court, Worcester Park, KT4 7LD, United Kingdom","Country":"GBR","State":"England","County":"Surrey","City":"Worcester Park","District":"Worcester Park","Street":"Orchard Court","HouseNumber":"4","PostalCode":"KT4 7LD","AdditionalData":[{"value":"United Kingdom","key":"CountryName"},{"value":"England","key":"StateName"},{"value":"Surrey","key":"CountyName"}]},"MapReference":{"ReferenceId":"25971336","Spot":0.5,"SideOfStreet":"left","StateId":"20248595","CountyId":"20338357","CityId":"20338665","DistrictId":"20338666"}}}]}]}}