{"Response":{"MetaInfo":{"Timestamp":"2020-03-28T10:47:52.358+0000","NextPageInformation":"2"},"View":[{"_type":"SearchResultsViewType","ViewId":0,"Result":[{"Relevance":1.0,"Distance":0.0,"Direction":0.0,"MatchLevel":"district","MatchQuality":{"Country":1.0,"State":1.0,"County":1.0,"City":1.0,"District":1.0,"PostalCode":1.0},"Location":{"LocationId":"NT_anJY2gcgIqK3ZzmcIHwhmD","LocationType":"point","DisplayPosition":{"Latitude":51.3826934,"Longitude":17.2404531},"MapView":{"TopLeft":{"Latitude":51.38604,"Longitude":17.23542},"BottomRight":{"Latitude":51.37863,"Longitude":17.26061}},"Address":{"Label":"Czeszów, Zawonia, Woj. Dolnośląskie, Polska","Country":"POL","State":"Woj. Dolnośląskie","County":"Powiat Trzebnicki","City":"Zawonia","District":"Czeszów","PostalCode":"55-106","AdditionalData":[{"value":"Polska","key":"CountryName"},{"value":"Woj. Dolnośląskie","key":"StateName"},{"value":"Powiat Trzebnicki","key":"CountyName"}]},"MapReference":{"ReferenceId":"594158977","SideOfStreet":"neither","CountryId":"20624059","StateId":"20625002","CountyId":"20625280","CityId":"20625291","DistrictId":"20680965"}}},{"Relevance":1.0,"Distance":15.1,"MatchLevel":"houseNumber","MatchQuality":{"Country":1.0,"State":1.0,"County":1.0,"City":1.0,"District":1.0,"Street":[1.0],"HouseNumber":1.0,"PostalCode":1.0},"MatchType":"interpolated","Location":{"LocationId":"NT_jge4x-xZsZVLJtemZoElgB_xA","LocationType":"point","DisplayPosition":{"Latitude":51.3824,"Longitude":17.24087},"MapView":{"TopLeft":{"Latitude":51.3835242,"Longitude":17.2390688},"BottomRight":{"Latitude":51.3812758,"Longitude":17.2426712}},"Address":{"Label":"ulica Topolowa 1, 55-106 Czeszów, Polska","Country":"POL","State":"Woj. Dolnośląskie","County":"Powiat Trzebnicki","City":"Zawonia","District":"Czeszów","Street":"ulica Topolowa","HouseNumber":"1","PostalCode":"55-106","AdditionalData":[{"value":"Polska","key":"CountryName"},{"value":"Woj. Dolnośląskie","key":"StateName"},{"value":"Powiat Trzebnicki","key":"CountyName"}]},"MapReference":{"ReferenceId":"1062381493","Spot":0.85,"SideOfStreet":"left","CountryId":"20624059","StateId":"20625002","CountyId":"20625280","CityId":"20625291","DistrictId":"20680965","AddressId":"596790776","RoadLinkId":"384520616"}}},{"Relevance":1.0,"Distance":40.3,"MatchLevel":"houseNumber","MatchQuality":{"Country":1.0,"State":1.0,"County":1.0,"City":1.0,"District":1.0,"Street":[1.0],"HouseNumber":1.0,"PostalCode":1.0},"MatchType":"interpolated","Location":{"LocationId":"NT_jge4x-xZsZVLJtemZoElgB_zA","LocationType":"point","DisplayPosition":{"Latitude":51.38259,"Longitude":17.24101},"MapView":{"TopLeft":{"Latitude":51.3837142,"Longitude":17.2392088},"BottomRight":{"Latitude":51.3814658,"Longitude":17.2428112}},"Address":{"Label":"ulica Topolowa 3, 55-106 Czeszów, Polska","Country":"POL","State":"Woj. Dolnośląskie","County":"Powiat Trzebnicki","City":"Zawonia","District":"Czeszów","Street":"ulica Topolowa","HouseNumber":"3","PostalCode":"55-106","AdditionalData":[{"value":"Polska","key":"CountryName"},{"value":"Woj. Dolnośląskie","key":"StateName"},{"value":"Powiat Trzebnicki","key":"CountyName"}]},"MapReference":{"ReferenceId":"1062381494","Spot":0.23,"SideOfStreet":"right","CountryId":"20624059","StateId":"20625002","CountyId":"20625280","CityId":"20625291","DistrictId":"20680965","AddressId":"596790774","RoadLinkId":"384520617"}}},{"Relevance":1.0,"Distance":62.7,"MatchLevel":"houseNumber","MatchQuality":{"Country":1.0,"State":1.0,"County":1.0,"City":1.0,"District":1.0,"Street":[1.0],"HouseNumber":1.0,"PostalCode":1.0},"MatchType":"interpolated","Location":{"LocationId":"NT_G.pba7dyKvH9npEOEvb2TD_xAD","LocationType":"point","DisplayPosition":{"Latitude":51.38199,"Longitude":17.24018},"MapView":{"TopLeft":{"Latitude":51.3831142,"Longitude":17.2383788},"BottomRight":{"Latitude":51.3808658,"Longitude":17.2419812}},"Address":{"Label":"ulica Trzebnicka 10, 55-106 Czeszów, Polska","Country":"POL","State":"Woj. Dolnośląskie","County":"Powiat Trzebnicki","City":"Zawonia","District":"Czeszów","Street":"ulica Trzebnicka","HouseNumber":"10","PostalCode":"55-106","AdditionalData":[{"value":"Polska","key":"CountryName"},{"value":"Woj. Dolnośląskie","key":"StateName"},{"value":"Powiat Trzebnicki","key":"CountyName"}]},"MapReference":{"ReferenceId":"594158891","Spot":0.24,"SideOfStreet":"right","CountryId":"20624059","StateId":"20625002","CountyId":"20625280","CityId":"20625291","DistrictId":"20680965","AddressId":"597022906","RoadLinkId":"96373997"}}},{"Relevance":1.0,"Distance":81.4,"MatchLevel":"houseNumber","MatchQuality":{"Country":1.0,"State":1.0,"County":1.0,"City":1.0,"District":1.0,"Street":[1.0],"HouseNumber":1.0,"PostalCode":1.0},"MatchType":"interpolated","Location":{"LocationId":"NT_ufrXoUPdtptgDeT0yVuOtD_xA","LocationType":"point","DisplayPosition":{"Latitude":51.38212,"Longitude":17.24143},"MapView":{"TopLeft":{"Latitude":51.3832442,"Longitude":17.2396288},"BottomRight":{"Latitude":51.3809958,"Longitude":17.2432312}},"Address":{"Label":"ulica Sosnowa 1, 55-106 Czeszów, Polska","Country":"POL","State":"Woj. Dolnośląskie","County":"Powiat Trzebnicki","City":"Zawonia","District":"Czeszów","Street":"ulica Sosnowa","HouseNumber":"1","PostalCode":"55-106","AdditionalData":[{"value":"Polska","key":"CountryName"},{"value":"Woj. Dolnośląskie","key":"StateName"},{"value":"Powiat Trzebnicki","key":"CountyName"}]},"MapReference":{"ReferenceId":"706524657","Spot":0.86,"SideOfStreet":"left","CountryId":"20624059","StateId":"20625002","CountyId":"20625280","CityId":"20625291","DistrictId":"20680965","AddressId":"596910150","RoadLinkId":"112291823"}}},{"Relevance":1.0,"Distance":84.5,"MatchLevel":"houseNumber","MatchQuality":{"Country":1.0,"State":1.0,"County":1.0,"City":1.0,"District":1.0,"Street":[1.0],"HouseNumber":1.0,"PostalCode":1.0},"MatchType":"interpolated","Location":{"LocationId":"NT_jge4x-xZsZVLJtemZoElgB_3A","LocationType":"point","DisplayPosition":{"Latitude":51.38313,"Longitude":17.24145},"MapView":{"TopLeft":{"Latitude":51.3842542,"Longitude":17.2396488},"BottomRight":{"Latitude":51.3820058,"Longitude":17.2432512}},"Address":{"Label":"ulica Topolowa 7, 55-106 Czeszów, Polska","Country":"POL","State":"Woj. Dolnośląskie","County":"Powiat Trzebnicki","City":"Zawonia","District":"Czeszów","Street":"ulica Topolowa","HouseNumber":"7","PostalCode":"55-106","AdditionalData":[{"value":"Polska","key":"CountryName"},{"value":"Woj. Dolnośląskie","key":"StateName"},{"value":"Powiat Trzebnicki","key":"CountyName"}]},"MapReference":{"ReferenceId":"765132545","Spot":0.15,"SideOfStreet":"right","CountryId":"20624059","StateId":"20625002","CountyId":"20625280","CityId":"20625291","DistrictId":"20680965","AddressId":"596685554","RoadLinkId":"159114293"}}},{"Relevance":1.0,"Distance":86.0,"MatchLevel":"street","MatchQuality":{"Country":1.0,"State":1.0,"County":1.0,"City":1.0,"District":1.0,"Street":[1.0],"PostalCode":1.0},"Location":{"LocationId":"NT_G.pba7dyKvH9npEOEvb2TD_l_706524656_R","LocationType":"point","DisplayPosition":{"Latitude":51.38192,"Longitude":17.24046},"MapView":{"TopLeft":{"Latitude":51.38192,"Longitude":17.24046},"BottomRight":{"Latitude":51.38176,"Longitude":17.24109}},"Address":{"Label":"ulica Trzebnicka, 55-106 Czeszów, Polska","Country":"POL","State":"Woj. Dolnośląskie","County":"Powiat Trzebnicki","City":"Zawonia","District":"Czeszów","Street":"ulica Trzebnicka","PostalCode":"55-106","AdditionalData":[{"value":"Polska","key":"CountryName"},{"value":"Woj. Dolnośląskie","key":"StateName"},{"value":"Powiat Trzebnicki","key":"CountyName"}]},"MapReference":{"ReferenceId":"706524656","Spot":1.0,"SideOfStreet":"right","CountryId":"20624059","StateId":"20625002","CountyId":"20625280","CityId":"20625291","DistrictId":"20680965"}}},{"Relevance":1.0,"Distance":91.4,"MatchLevel":"houseNumber","MatchQuality":{"Country":1.0,"State":1.0,"County":1.0,"City":1.0,"District":1.0,"Street":[1.0],"HouseNumber":1.0,"PostalCode":1.0},"MatchType":"interpolated","Location":{"LocationId":"NT_ufrXoUPdtptgDeT0yVuOtD_0A","LocationType":"point","DisplayPosition":{"Latitude":51.38243,"Longitude":17.2417},"MapView":{"TopLeft":{"Latitude":51.3835542,"Longitude":17.2398988},"BottomRight":{"Latitude":51.3813058,"Longitude":17.2435012}},"Address":{"Label":"ulica Sosnowa 4, 55-106 Czeszów, Polska","Country":"POL","State":"Woj. Dolnośląskie","County":"Powiat Trzebnicki","City":"Zawonia","District":"Czeszów","Street":"ulica Sosnowa","HouseNumber":"4","PostalCode":"55-106","AdditionalData":[{"value":"Polska","key":"CountryName"},{"value":"Woj. Dolnośląskie","key":"StateName"},{"value":"Powiat Trzebnicki","key":"CountyName"}]},"MapReference":{"ReferenceId":"765132548","Spot":0.14,"SideOfStreet":"right","CountryId":"20624059","StateId":"20625002","CountyId":"20625280","CityId":"20625291","DistrictId":"20680965","AddressId":"596997439","RoadLinkId":"159114292"}}},{"Relevance":1.0,"Distance":110.1,"MatchLevel":"houseNumber","MatchQuality":{"Country":1.0,"State":1.0,"County":1.0,"City":1.0,"District":1.0,"Street":[1.0],"HouseNumber":1.0,"PostalCode":1.0},"MatchType":"interpolated","Location":{"LocationId":"NT_JGy0o1-hZ99YVDTbCBmJFD_xA","LocationType":"point","DisplayPosition":{"Latitude":51.382,"Longitude":17.23918},"MapView":{"TopLeft":{"Latitude":51.3831242,"Longitude":17.2373788},"BottomRight":{"Latitude":51.3808758,"Longitude":17.2409812}},"Address":{"Label":"ulica Sportowa 1, 55-106 Czeszów, Polska","Country":"POL","State":"Woj. Dolnośląskie","County":"Powiat Trzebnicki","City":"Zawonia","District":"Czeszów","Street":"ulica Sportowa","HouseNumber":"1","PostalCode":"55-106","AdditionalData":[{"value":"Polska","key":"CountryName"},{"value":"Woj. Dolnośląskie","key":"StateName"},{"value":"Powiat Trzebnicki","key":"CountyName"}]},"MapReference":{"ReferenceId":"594159048","Spot":0.87,"SideOfStreet":"right","CountryId":"20624059","StateId":"20625002","CountyId":"20625280","CityId":"20625291","DistrictId":"20680965","AddressId":"596998095","RoadLinkId":"96274008"}}},{"Relevance":1.0,"Distance":126.3,"MatchLevel":"houseNumber","MatchQuality":{"Country":1.0,"State":1.0,"County":1.0,"City":1.0,"District":1.0,"Street":[1.0],"HouseNumber":1.0,"PostalCode":1.0},"MatchType":"interpolated","Location":{"LocationId":"NT_G.pba7dyKvH9npEOEvb2TD_xQD","LocationType":"point","DisplayPosition":{"Latitude":51.38241,"Longitude":17.2386},"MapView":{"TopLeft":{"Latitude":51.3835342,"Longitude":17.2367988},"BottomRight":{"Latitude":51.3812858,"Longitude":17.2404012}},"Address":{"Label":"ulica Trzebnicka 14, 55-106 Czeszów, Polska","Country":"POL","State":"Woj. Dolnośląskie","County":"Powiat Trzebnicki","City":"Zawonia","District":"Czeszów","Street":"ulica Trzebnicka","HouseNumber":"14","PostalCode":"55-106","AdditionalData":[{"value":"Polska","key":"CountryName"},{"value":"Woj. Dolnośląskie","key":"StateName"},{"value":"Powiat Trzebnicki","key":"CountyName"}]},"MapReference":{"ReferenceId":"594158851","Spot":0.69,"SideOfStreet":"right","CountryId":"20624059","StateId":"20625002","CountyId":"20625280","CityId":"20625291","DistrictId":"20680965","AddressId":"597029164","RoadLinkId":"96451607"}}}]}]}}