{"Response":{"MetaInfo":{"Timestamp":"2020-03-28T10:07:20.359+0000","NextPageInformation":"2"},"View":[{"_type":"SearchResultsViewType","ViewId":0,"Result":[{"Relevance":1.0,"Distance":0.0,"Direction":0.0,"MatchLevel":"district","MatchQuality":{"Country":1.0,"State":1.0,"County":1.0,"City":1.0,"District":1.0,"PostalCode":1.0},"Location":{"LocationId":"NT_hjd.7aPOudekzSrjSIkG-B","LocationType":"point","DisplayPosition":{"Latitude":51.3837337,"Longitude":0.5212934},"MapView":{"TopLeft":{"Latitude":51.38653,"Longitude":0.49877},"BottomRight":{"Latitude":51.32616,"Longitude":0.55958}},"Address":{"Label":"Chatham, England, United Kingdom","Country":"GBR","State":"England","County":"Kent","City":"Chatham","District":"Chatham","PostalCode":"ME4 4","AdditionalData":[{"value":"United Kingdom","key":"CountryName"},{"value":"England","key":"StateName"},{"value":"Kent","key":"CountyName"}]},"MapReference":{"ReferenceId":"837739656","SideOfStreet":"neither","StateId":"20248595","CountyId":"20336836","CityId":"20336996","DistrictId":"20336997"}}},{"Relevance":1.0,"Distance":4.1,"MatchLevel":"houseNumber","MatchQuality":{"Country":1.0,"State":1.0,"County":1.0,"City":1.0,"District":1.0,"Street":[1.0],"HouseNumber":1.0,"PostalCode":1.0},"MatchType":"interpolated","Location":{"LocationId":"NT_evS9MWZoYYaje4Mi9Au.hB_l_25630683_R_5gD","LocationType":"point","DisplayPosition":{"Latitude":51.3836968,"Longitude":0.5212957},"MapView":{"TopLeft":{"Latitude":51.384821,"Longitude":0.5194944},"BottomRight":{"Latitude":51.3825727,"Longitude":0.5230969}},"Address":{"Label":"98 High Street, Chatham, ME4 4, United Kingdom","Country":"GBR","State":"England","County":"Kent","City":"Chatham","District":"Chatham","Street":"High Street","HouseNumber":"98","PostalCode":"ME4 4","AdditionalData":[{"value":"United Kingdom","key":"CountryName"},{"value":"England","key":"StateName"},{"value":"Kent","key":"CountyName"}]},"MapReference":{"ReferenceId":"25630683","Spot":0.42,"SideOfStreet":"right","StateId":"20248595","CountyId":"20336836","CityId":"20336996","DistrictId":"20336997"}}},{"Relevance":1.0,"Distance":12.6,"MatchLevel":"postalCode","MatchQuality":{"PostalCode":1.0},"MatchType":"interpolated","Location":{"LocationId":"NT_evS9MWZoYYaje4Mi9Au.hB_l_25630683_R_5gD","LocationType":"point","DisplayPosition":{"Latitude":51.38376,"Longitude":0.52147},"MapView":{"TopLeft":{"Latitude":51.3927532,"Longitude":0.5070601},"BottomRight":{"Latitude":51.3747668,"Longitude":0.5358799}},"Address":{"Label":"ME4 4DL, Chatham, England, United Kingdom","Country":"GBR","State":"England","County":"Kent","City":"Chatham","PostalCode":"ME4 4DL","AdditionalData":[{"value":"United Kingdom","key":"CountryName"},{"value":"England","key":"StateName"},{"value":"Kent","key":"CountyName"}]},"MapReference":{"ReferenceId":"25630683","Spot":0.42,"SideOfStreet":"neither","StateId":"20248595","CountyId":"20336836","CityId":"20336996"}}},{"Relevance":1.0,"Distance":20.8,"MatchLevel":"houseNumber","MatchQuality":{"Country":1.0,"State":1.0,"County":1.0,"City":1.0,"District":1.0,"Street":[1.0],"HouseNumber":1.0,"PostalCode":1.0},"MatchType":"interpolated","Location":{"LocationId":"NT_TbuUI2GaKbAGIw99JEkJyB_l_833512294_L_0A","LocationType":"point","DisplayPosition":{"Latitude":51.3835367,"Longitude":0.5217},"MapView":{"TopLeft":{"Latitude":51.3846608,"Longitude":0.5198988},"BottomRight":{"Latitude":51.3824125,"Longitude":0.5235012}},"Address":{"Label":"4 Manor Road, Chatham, ME4 6AG, United Kingdom","Country":"GBR","State":"England","County":"Kent","City":"Chatham","District":"Chatham","Street":"Manor Road","HouseNumber":"4","PostalCode":"ME4 6AG","AdditionalData":[{"value":"United Kingdom","key":"CountryName"},{"value":"England","key":"StateName"},{"value":"Kent","key":"CountyName"}]},"MapReference":{"ReferenceId":"833512294","Spot":0.52,"SideOfStreet":"left","StateId":"20248595","CountyId":"20336836","CityId":"20336996","DistrictId":"20336997"}}},{"Relevance":1.0,"Distance":24.9,"MatchLevel":"houseNumber","MatchQuality":{"Country":1.0,"State":1.0,"County":1.0,"City":1.0,"District":1.0,"Street":[1.0],"HouseNumber":1.0,"PostalCode":1.0},"MatchType":"interpolated","Location":{"LocationId":"NT_YYtuQ2.mUnBiGEdRss5TzD_l_566018431_L_xgD","LocationType":"point","DisplayPosition":{"Latitude":51.3837826,"Longitude":0.5209435},"MapView":{"TopLeft":{"Latitude":51.3849067,"Longitude":0.5191422},"BottomRight":{"Latitude":51.3826584,"Longitude":0.5227447}},"Address":{"Label":"18 Medway Street, Chatham, ME4 4, United Kingdom","Country":"GBR","State":"England","County":"Kent","City":"Chatham","District":"Chatham","Street":"Medway Street","HouseNumber":"18","PostalCode":"ME4 4","AdditionalData":[{"value":"United Kingdom","key":"CountryName"},{"value":"England","key":"StateName"},{"value":"Kent","key":"CountyName"}]},"MapReference":{"ReferenceId":"566018431","Spot":0.51,"SideOfStreet":"left","StateId":"20248595","CountyId":"20336836","CityId":"20336996","DistrictId":"20336997"}}},{"Relevance":1.0,"Distance":27.1,"MatchLevel":"postalCode","MatchQuality":{"PostalCode":1.0},"MatchType":"interpolated","Location":{"LocationId":"NT_YYtuQ2.mUnBiGEdRss5TzD_l_566018433_L_xYD","LocationType":"point","DisplayPosition":{"Latitude":51.38397,"Longitude":0.5212},"MapView":{"TopLeft":{"Latitude":51.3929632,"Longitude":0.5067901},"BottomRight":{"Latitude":51.3749768,"Longitude":0.5356099}},"Address":{"Label":"ME4 4HB, Chatham, England, United Kingdom","Country":"GBR","State":"England","County":"Kent","City":"Chatham","PostalCode":"ME4 4HB","AdditionalData":[{"value":"United Kingdom","key":"CountryName"},{"value":"England","key":"StateName"},{"value":"Kent","key":"CountyName"}]},"MapReference":{"ReferenceId":"566018433","Spot":0.19,"SideOfStreet":"neither","StateId":"20248595","CountyId":"20336836","CityId":"20336996"}}},{"Relevance":1.0,"Distance":28.5,"MatchLevel":"houseNumber","MatchQuality":{"Country":1.0,"State":1.0,"County":1.0,"City":1.0,"District":1.0,"Street":[1.0],"HouseNumber":1.0,"PostalCode":1.0},"MatchType":"interpolated","Location":{"LocationId":"NT_evS9MWZoYYaje4Mi9Au.hB_l_1186833254_R_4YD","LocationType":"point","DisplayPosition":{"Latitude":51.3836618,"Longitude":0.5208988},"MapView":{"TopLeft":{"Latitude":51.3847859,"Longitude":0.5190976},"BottomRight":{"Latitude":51.3825376,"Longitude":0.5227001}},"Address":{"Label":"86 High Street, Chatham, ME4 4DS, United Kingdom","Country":"GBR","State":"England","County":"Kent","City":"Chatham","District":"Chatham","Street":"High Street","HouseNumber":"86","PostalCode":"ME4 4DS","AdditionalData":[{"value":"United Kingdom","key":"CountryName"},{"value":"England","key":"StateName"},{"value":"Kent","key":"CountyName"}]},"MapReference":{"ReferenceId":"1186833254","Spot":0.59,"SideOfStreet":"right","StateId":"20248595","CountyId":"20336836","CityId":"20336996","DistrictId":"20336997"}}},{"Relevance":1.0,"Distance":28.9,"MatchLevel":"street","MatchQuality":{"Country":1.0,"State":1.0,"County":1.0,"City":1.0,"District":1.0,"Street":[1.0],"PostalCode":1.0},"Location":{"LocationId":"NT_YYtuQ2.mUnBiGEdRss5TzD_l_566018432_L","LocationType":"point","DisplayPosition":{"Latitude":51.38389,"Longitude":0.52096},"MapView":{"TopLeft":{"Latitude":51.38401,"Longitude":0.52051},"BottomRight":{"Latitude":51.38389,"Longitude":0.52096}},"Address":{"Label":"Medway Street, Chatham, ME4 4, United Kingdom","Country":"GBR","State":"England","County":"Kent","City":"Chatham","District":"Chatham","Street":"Medway Street","PostalCode":"ME4 4","AdditionalData":[{"value":"United Kingdom","key":"CountryName"},{"value":"England","key":"StateName"},{"value":"Kent","key":"CountyName"}]},"MapReference":{"ReferenceId":"566018432","Spot":0.0,"SideOfStreet":"left","StateId":"20248595","CountyId":"20336836","CityId":"20336996","DistrictId":"20336997"}}},{"Relevance":1.0,"Distance":31.8,"MatchLevel":"houseNumber","MatchQuality":{"Country":1.0,"State":1.0,"County":1.0,"City":1.0,"District":1.0,"Street":[1.0],"HouseNumber":1.0,"PostalCode":1.0},"MatchType":"interpolated","Location":{"LocationId":"NT_YYtuQ2.mUnBiGEdRss5TzD_l_566018433_L_xYD","LocationType":"point","DisplayPosition":{"Latitude":51.38399,"Longitude":0.52109},"MapView":{"TopLeft":{"Latitude":51.3851142,"Longitude":0.5192888},"BottomRight":{"Latitude":51.3828659,"Longitude":0.5228913}},"Address":{"Label":"16 Medway Street, Chatham, ME4 4HA, United Kingdom","Country":"GBR","State":"England","County":"Kent","City":"Chatham","District":"Chatham","Street":"Medway Street","HouseNumber":"16","PostalCode":"ME4 4HA","AdditionalData":[{"value":"United Kingdom","key":"CountryName"},{"value":"England","key":"StateName"},{"value":"Kent","key":"CountyName"}]},"MapReference":{"ReferenceId":"566018433","Spot":0.19,"SideOfStreet":"left","StateId":"20248595","CountyId":"20336836","CityId":"20336996","DistrictId":"20336997"}}},{"Relevance":1.0,"Distance":33.9,"MatchLevel":"street","MatchQuality":{"Country":1.0,"State":1.0,"County":1.0,"City":1.0,"District":1.0,"Street":[1.0],"PostalCode":1.0},"Location":{"LocationId":"NT_fBkHEUBTvJnNzuMRinTgNA_l_566018435_L","LocationType":"point","DisplayPosition":{"Latitude":51.3838,"Longitude":0.52177},"MapView":{"TopLeft":{"Latitude":51.38414,"Longitude":0.52177},"BottomRight":{"Latitude":51.3838,"Longitude":0.52177}},"Address":{"Label":"Higgins Lane, Chatham, ME4 4, United Kingdom","Country":"GBR","State":"England","County":"Kent","City":"Chatham","District":"Chatham","Street":"Higgins Lane","PostalCode":"ME4 4","AdditionalData":[{"value":"United Kingdom","key":"CountryName"},{"value":"England","key":"StateName"},{"value":"Kent","key":"CountyName"}]},"MapReference":{"ReferenceId":"566018435","Spot":0.0,"SideOfStreet":"left","StateId":"20248595","CountyId":"20336836","CityId":"20336996","DistrictId":"20336997"}}}]}]}}