{"Response":{"MetaInfo":{"Timestamp":"2020-03-28T10:04:49.586+0000","NextPageInformation":"2"},"View":[{"_type":"SearchResultsViewType","ViewId":0,"Result":[{"Relevance":1.0,"Distance":0.0,"Direction":0.0,"MatchLevel":"district","MatchQuality":{"Country":1.0,"State":1.0,"County":1.0,"City":1.0,"District":1.0,"PostalCode":1.0},"Location":{"LocationId":"NT_41vIr6EVgJROCZIpGYSMJA","LocationType":"point","DisplayPosition":{"Latitude":51.3294431,"Longitude":9.5255303},"MapView":{"TopLeft":{"Latitude":51.3525,"Longitude":9.41055},"BottomRight":{"Latitude":51.27197,"Longitude":9.56181}},"Address":{"Label":"Kassel, Hessen, Deutschland","Country":"DEU","State":"Hessen","County":"Kassel (Stadt)","City":"Kassel","District":"Kassel","PostalCode":"34125","AdditionalData":[{"value":"Deutschland","key":"CountryName"},{"value":"Hessen","key":"StateName"},{"value":"Kassel (Stadt)","key":"CountyName"}]},"MapReference":{"ReferenceId":"709893764","SideOfStreet":"neither","CountryId":"20147700","StateId":"20160993","CountyId":"20162964","CityId":"20162965","DistrictId":"20162971"}}},{"Relevance":1.0,"Distance":6.9,"MatchLevel":"houseNumber","MatchQuality":{"Country":1.0,"State":1.0,"County":1.0,"City":1.0,"District":1.0,"Street":[1.0],"HouseNumber":1.0,"PostalCode":1.0},"MatchType":"interpolated","Location":{"LocationId":"NT_ZP0Z4Kwl5Dn1aWreI8pTNA_2kD","LocationType":"point","DisplayPosition":{"Latitude":51.32936,"Longitude":9.52564},"MapView":{"TopLeft":{"Latitude":51.3304842,"Longitude":9.5238409},"BottomRight":{"Latitude":51.3282358,"Longitude":9.5274391}},"Address":{"Label":"Wolfsangerstraße 69, 34125 Kassel, Deutschland","Country":"DEU","State":"Hessen","County":"Kassel (Stadt)","City":"Kassel","District":"Kassel","Street":"Wolfsangerstraße","HouseNumber":"69","PostalCode":"34125","AdditionalData":[{"value":"Deutschland","key":"CountryName"},{"value":"Hessen","key":"StateName"},{"value":"Kassel (Stadt)","key":"CountyName"}]},"MapReference":{"ReferenceId":"1266585116","Spot":0.51,"SideOfStreet":"left","CountryId":"20147700","StateId":"20160993","CountyId":"20162964","CityId":"20162965","DistrictId":"20162971","AddressId":"187072196","RoadLinkId":"593192922"}}},{"Relevance":1.0,"Distance":56.9,"MatchLevel":"houseNumber","MatchQuality":{"Country":1.0,"State":1.0,"County":1.0,"City":1.0,"District":1.0,"Street":[1.0],"HouseNumber":1.0,"PostalCode":1.0},"MatchType":"interpolated","Location":{"LocationId":"NT_OlHeABuBWfT51PeP5h7fwA_l_1187142457_R_3AD","LocationType":"point","DisplayPosition":{"Latitude":51.32894,"Longitude":9.5256776},"MapView":{"TopLeft":{"Latitude":51.3300642,"Longitude":9.5238785},"BottomRight":{"Latitude":51.3278158,"Longitude":9.5274767}},"Address":{"Label":"Fuldatalstraße 70, 34125 Kassel, Deutschland","Country":"DEU","State":"Hessen","County":"Kassel (Stadt)","City":"Kassel","District":"Kassel","Street":"Fuldatalstraße","HouseNumber":"70","PostalCode":"34125","AdditionalData":[{"value":"Deutschland","key":"CountryName"},{"value":"Hessen","key":"StateName"},{"value":"Kassel (Stadt)","key":"CountyName"}]},"MapReference":{"ReferenceId":"1187142457","Spot":0.5,"SideOfStreet":"right","CountryId":"20147700","StateId":"20160993","CountyId":"20162964","CityId":"20162965","DistrictId":"20162971"}}},{"Relevance":1.0,"Distance":57.5,"MatchLevel":"houseNumber","MatchQuality":{"Country":1.0,"State":1.0,"County":1.0,"City":1.0,"District":1.0,"Street":[1.0],"HouseNumber":1.0,"PostalCode":1.0},"MatchType":"interpolated","Location":{"LocationId":"NT_v3idBviDjz9.5mm4LKgyyA_yAD","LocationType":"point","DisplayPosition":{"Latitude":51.33006,"Longitude":9.5255},"MapView":{"TopLeft":{"Latitude":51.3311842,"Longitude":9.5237009},"BottomRight":{"Latitude":51.3289358,"Longitude":9.5272991}},"Address":{"Label":"Am Würzberg 20, 34125 Kassel, Deutschland","Country":"DEU","State":"Hessen","County":"Kassel (Stadt)","City":"Kassel","District":"Kassel","Street":"Am Würzberg","HouseNumber":"20","PostalCode":"34125","AdditionalData":[{"value":"Deutschland","key":"CountryName"},{"value":"Hessen","key":"StateName"},{"value":"Kassel (Stadt)","key":"CountyName"}]},"MapReference":{"ReferenceId":"1266585114","Spot":0.71,"SideOfStreet":"right","CountryId":"20147700","StateId":"20160993","CountyId":"20162964","CityId":"20162965","DistrictId":"20162971","AddressId":"187459369","RoadLinkId":"593192920"}}},{"Relevance":1.0,"Distance":62.6,"MatchLevel":"houseNumber","MatchQuality":{"Country":1.0,"State":1.0,"County":1.0,"City":1.0,"District":1.0,"Street":[1.0],"HouseNumber":1.0,"PostalCode":1.0},"MatchType":"interpolated","Location":{"LocationId":"NT_UaQ6nUgUePhiOxdjGUjbZC_xA","LocationType":"point","DisplayPosition":{"Latitude":51.32986,"Longitude":9.52646},"MapView":{"TopLeft":{"Latitude":51.3309842,"Longitude":9.5246609},"BottomRight":{"Latitude":51.3287358,"Longitude":9.5282591}},"Address":{"Label":"Eichenhöfer Straße 1, 34125 Kassel, Deutschland","Country":"DEU","State":"Hessen","County":"Kassel (Stadt)","City":"Kassel","District":"Kassel","Street":"Eichenhöfer Straße","HouseNumber":"1","PostalCode":"34125","AdditionalData":[{"value":"Deutschland","key":"CountryName"},{"value":"Hessen","key":"StateName"},{"value":"Kassel (Stadt)","key":"CountyName"}]},"MapReference":{"ReferenceId":"52569022","Spot":1.0,"SideOfStreet":"left","CountryId":"20147700","StateId":"20160993","CountyId":"20162964","CityId":"20162965","DistrictId":"20162971","AddressId":"187179306","RoadLinkId":"33978644"}}},{"Relevance":1.0,"Distance":62.9,"MatchLevel":"street","MatchQuality":{"Country":1.0,"State":1.0,"County":1.0,"City":1.0,"District":1.0,"Street":[1.0],"PostalCode":1.0},"Location":{"LocationId":"NT_DDvoqP96Td93ejIhB82OLB_l_1194118138_L","LocationType":"point","DisplayPosition":{"Latitude":51.32902,"Longitude":9.52493},"MapView":{"TopLeft":{"Latitude":51.32902,"Longitude":9.52445},"BottomRight":{"Latitude":51.32897,"Longitude":9.52493}},"Address":{"Label":"Fuldatalstraße, 34125 Kassel, Deutschland","Country":"DEU","State":"Hessen","County":"Kassel (Stadt)","City":"Kassel","District":"Kassel","Street":"Fuldatalstraße","PostalCode":"34125","AdditionalData":[{"value":"Deutschland","key":"CountryName"},{"value":"Hessen","key":"StateName"},{"value":"Kassel (Stadt)","key":"CountyName"}]},"MapReference":{"ReferenceId":"1194118138","Spot":1.0,"SideOfStreet":"left","CountryId":"20147700","StateId":"20160993","CountyId":"20162964","CityId":"20162965","DistrictId":"20162971"}}},{"Relevance":1.0,"Distance":79.2,"MatchLevel":"houseNumber","MatchQuality":{"Country":1.0,"State":1.0,"County":1.0,"City":1.0,"District":1.0,"Street":[1.0],"HouseNumber":1.0,"PostalCode":1.0},"MatchType":"interpolated","Location":{"LocationId":"NT_UaQ6nUgUePhiOxdjGUjbZC_0A","LocationType":"point","DisplayPosition":{"Latitude":51.32999,"Longitude":9.52626},"MapView":{"TopLeft":{"Latitude":51.3311142,"Longitude":9.5244609},"BottomRight":{"Latitude":51.3288658,"Longitude":9.5280591}},"Address":{"Label":"Eichenhöfer Straße 4, 34125 Kassel, Deutschland","Country":"DEU","State":"Hessen","County":"Kassel (Stadt)","City":"Kassel","District":"Kassel","Street":"Eichenhöfer Straße","HouseNumber":"4","PostalCode":"34125","AdditionalData":[{"value":"Deutschland","key":"CountryName"},{"value":"Hessen","key":"StateName"},{"value":"Kassel (Stadt)","key":"CountyName"}]},"MapReference":{"ReferenceId":"52568988","Spot":0.53,"SideOfStreet":"right","CountryId":"20147700","StateId":"20160993","CountyId":"20162964","CityId":"20162965","DistrictId":"20162971","AddressId":"186979993","RoadLinkId":"34666208"}}},{"Relevance":1.0,"Distance":90.8,"MatchLevel":"houseNumber","MatchQuality":{"Country":1.0,"State":1.0,"County":1.0,"City":1.0,"District":1.0,"Street":[1.0],"HouseNumber":1.0,"PostalCode":1.0},"MatchType":"interpolated","Location":{"LocationId":"NT_UaQ6nUgUePhiOxdjGUjbZC_2A","LocationType":"point","DisplayPosition":{"Latitude":51.33021,"Longitude":9.52598},"MapView":{"TopLeft":{"Latitude":51.3313342,"Longitude":9.5241809},"BottomRight":{"Latitude":51.3290858,"Longitude":9.5277791}},"Address":{"Label":"Eichenhöfer Straße 6, 34125 Kassel, Deutschland","Country":"DEU","State":"Hessen","County":"Kassel (Stadt)","City":"Kassel","District":"Kassel","Street":"Eichenhöfer Straße","HouseNumber":"6","PostalCode":"34125","AdditionalData":[{"value":"Deutschland","key":"CountryName"},{"value":"Hessen","key":"StateName"},{"value":"Kassel (Stadt)","key":"CountyName"}]},"MapReference":{"ReferenceId":"52568968","Spot":0.18,"SideOfStreet":"right","CountryId":"20147700","StateId":"20160993","CountyId":"20162964","CityId":"20162965","DistrictId":"20162971","AddressId":"187729356","RoadLinkId":"34866613"}}},{"Relevance":1.0,"Distance":91.7,"MatchLevel":"street","MatchQuality":{"Country":1.0,"State":1.0,"County":1.0,"City":1.0,"District":1.0,"Street":[1.0],"PostalCode":1.0},"Location":{"LocationId":"NT_DDvoqP96Td93ejIhB82OLB_l_1187142459_L","LocationType":"point","DisplayPosition":{"Latitude":51.32897,"Longitude":9.52445},"MapView":{"TopLeft":{"Latitude":51.32897,"Longitude":9.52423},"BottomRight":{"Latitude":51.32894,"Longitude":9.52445}},"Address":{"Label":"Fuldatalstraße, 34125 Kassel, Deutschland","Country":"DEU","State":"Hessen","County":"Kassel (Stadt)","City":"Kassel","District":"Kassel","Street":"Fuldatalstraße","PostalCode":"34125","AdditionalData":[{"value":"Deutschland","key":"CountryName"},{"value":"Hessen","key":"StateName"},{"value":"Kassel (Stadt)","key":"CountyName"}]},"MapReference":{"ReferenceId":"1187142459","Spot":1.0,"SideOfStreet":"left","CountryId":"20147700","StateId":"20160993","CountyId":"20162964","CityId":"20162965","DistrictId":"20162971"}}},{"Relevance":1.0,"Distance":104.2,"MatchLevel":"houseNumber","MatchQuality":{"Country":1.0,"State":1.0,"County":1.0,"City":1.0,"District":1.0,"Street":[1.0],"HouseNumber":1.0,"PostalCode":1.0},"MatchType":"interpolated","Location":{"LocationId":"NT_DDvoqP96Td93ejIhB82OLB_l_1187142456_R_2ID","LocationType":"point","DisplayPosition":{"Latitude":51.3288207,"Longitude":9.5244091},"MapView":{"TopLeft":{"Latitude":51.3299449,"Longitude":9.52261},"BottomRight":{"Latitude":51.3276966,"Longitude":9.5262081}},"Address":{"Label":"Fuldatalstraße 62, 34125 Kassel, Deutschland","Country":"DEU","State":"Hessen","County":"Kassel (Stadt)","City":"Kassel","District":"Kassel","Street":"Fuldatalstraße","HouseNumber":"62","PostalCode":"34125","AdditionalData":[{"value":"Deutschland","key":"CountryName"},{"value":"Hessen","key":"StateName"},{"value":"Kassel (Stadt)","key":"CountyName"}]},"MapReference":{"ReferenceId":"1187142456","Spot":0.52,"SideOfStreet":"right","CountryId":"20147700","StateId":"20160993","CountyId":"20162964","CityId":"20162965","DistrictId":"20162971"}}}]}]}}