{"Response":{"MetaInfo":{"Timestamp":"2020-03-28T10:07:48.127+0000","NextPageInformation":"2"},"View":[{"_type":"SearchResultsViewType","ViewId":0,"Result":[{"Relevance":1.0,"Distance":0.0,"Direction":0.0,"MatchLevel":"district","MatchQuality":{"Country":1.0,"State":1.0,"County":1.0,"City":1.0,"District":1.0,"PostalCode":1.0},"Location":{"LocationId":"NT_9d1IBVsBYQUOPWjkFaAV7A","LocationType":"point","DisplayPosition":{"Latitude":51.3367085,"Longitude":-0.5044469},"MapView":{"TopLeft":{"Latitude":51.34741,"Longitude":-0.50451},"BottomRight":{"Latitude":51.33066,"Longitude":-0.48547}},"Address":{"Label":"West Byfleet, England, United Kingdom","Country":"GBR","State":"England","County":"Surrey","City":"West Byfleet","District":"West Byfleet","PostalCode":"KT14 6","AdditionalData":[{"value":"United Kingdom","key":"CountryName"},{"value":"England","key":"StateName"},{"value":"Surrey","key":"CountyName"}]},"MapReference":{"ReferenceId":"1163106941","SideOfStreet":"neither","StateId":"20248595","CountyId":"20338357","CityId":"20338631","DistrictId":"20338632"}}},{"Relevance":1.0,"Distance":6.9,"MatchLevel":"street","MatchQuality":{"Country":1.0,"State":1.0,"County":1.0,"City":1.0,"District":1.0,"Street":[1.0],"PostalCode":1.0},"Location":{"LocationId":"NT_1mgUP3X9xG906MfjoDisHC_l_25533617_L","LocationType":"point","DisplayPosition":{"Latitude":51.3366929,"Longitude":-0.5043512},"MapView":{"TopLeft":{"Latitude":51.33742,"Longitude":-0.50451},"BottomRight":{"Latitude":51.33621,"Longitude":-0.50427}},"Address":{"Label":"Pyrford Road, West Byfleet, KT14 6, United Kingdom","Country":"GBR","State":"England","County":"Surrey","City":"West Byfleet","District":"West Byfleet","Street":"Pyrford Road","PostalCode":"KT14 6","AdditionalData":[{"value":"United Kingdom","key":"CountryName"},{"value":"England","key":"StateName"},{"value":"Surrey","key":"CountyName"}]},"MapReference":{"ReferenceId":"25533617","Spot":0.37,"SideOfStreet":"left","StateId":"20248595","CountyId":"20338357","CityId":"20338631","DistrictId":"20338632"}}},{"Relevance":1.0,"Distance":24.8,"MatchLevel":"postalCode","MatchQuality":{"PostalCode":1.0},"Location":{"LocationId":"NT_1mgUP3X9xG906MfjoDisHC_l_25533617_L","LocationType":"point","DisplayPosition":{"Latitude":51.3365,"Longitude":-0.50432},"MapView":{"TopLeft":{"Latitude":51.3454932,"Longitude":-0.518715},"BottomRight":{"Latitude":51.3275068,"Longitude":-0.489925}},"Address":{"Label":"KT14 6QS, West Byfleet, England, United Kingdom","Country":"GBR","State":"England","County":"Surrey","City":"West Byfleet","PostalCode":"KT14 6QS","AdditionalData":[{"value":"United Kingdom","key":"CountryName"},{"value":"England","key":"StateName"},{"value":"Surrey","key":"CountyName"}]},"MapReference":{"ReferenceId":"25533617","Spot":0.37,"SideOfStreet":"neither","StateId":"20248595","CountyId":"20338357","CityId":"20338631"}}},{"Relevance":1.0,"Distance":55.4,"MatchLevel":"street","MatchQuality":{"Country":1.0,"State":1.0,"County":1.0,"City":1.0,"District":1.0,"Street":[1.0],"PostalCode":1.0},"Location":{"LocationId":"NT_eUtOccXoScNj5whKAPIzCB_l_25533616_L","LocationType":"point","DisplayPosition":{"Latitude":51.3362102,"Longitude":-0.5044251},"MapView":{"TopLeft":{"Latitude":51.33627,"Longitude":-0.50443},"BottomRight":{"Latitude":51.33621,"Longitude":-0.50306}},"Address":{"Label":"Highfield Road, West Byfleet, KT14 6, United Kingdom","Country":"GBR","State":"England","County":"Surrey","City":"West Byfleet","District":"West Byfleet","Street":"Highfield Road","PostalCode":"KT14 6","AdditionalData":[{"value":"United Kingdom","key":"CountryName"},{"value":"England","key":"StateName"},{"value":"Surrey","key":"CountyName"}]},"MapReference":{"ReferenceId":"25533616","Spot":0.0,"SideOfStreet":"left","StateId":"20248595","CountyId":"20338357","CityId":"20338631","DistrictId":"20338632"}}},{"Relevance":1.0,"Distance":55.4,"MatchLevel":"street","MatchQuality":{"Country":1.0,"State":1.0,"County":1.0,"City":1.0,"District":1.0,"Street":[1.0],"PostalCode":1.0},"Location":{"LocationId":"NT_RqvCqQoh3uQZTgosJh2EhD_l_25533643_L","LocationType":"point","DisplayPosition":{"Latitude":51.33621,"Longitude":-0.50443},"MapView":{"TopLeft":{"Latitude":51.33621,"Longitude":-0.50445},"BottomRight":{"Latitude":51.33603,"Longitude":-0.50443}},"Address":{"Label":"Pyrford Road, West Byfleet, KT14 6, United Kingdom","Country":"GBR","State":"England","County":"Surrey","City":"West Byfleet","District":"West Byfleet","Street":"Pyrford Road","PostalCode":"KT14 6","AdditionalData":[{"value":"United Kingdom","key":"CountryName"},{"value":"England","key":"StateName"},{"value":"Surrey","key":"CountyName"}]},"MapReference":{"ReferenceId":"25533643","Spot":1.0,"SideOfStreet":"left","StateId":"20248595","CountyId":"20338357","CityId":"20338631","DistrictId":"20338632"}}},{"Relevance":1.0,"Distance":55.5,"MatchLevel":"postalCode","MatchQuality":{"PostalCode":1.0},"Location":{"LocationId":"NT_OyRCWYcX9t.HNWI6O9IYNA_l_1227515198_R","LocationType":"point","DisplayPosition":{"Latitude":51.33705,"Longitude":-0.50503},"MapView":{"TopLeft":{"Latitude":51.3460432,"Longitude":-0.5194252},"BottomRight":{"Latitude":51.3280568,"Longitude":-0.4906348}},"Address":{"Label":"KT14 6AZ, West Byfleet, England, United Kingdom","Country":"GBR","State":"England","County":"Surrey","City":"West Byfleet","PostalCode":"KT14 6AZ","AdditionalData":[{"value":"United Kingdom","key":"CountryName"},{"value":"England","key":"StateName"},{"value":"Surrey","key":"CountyName"}]},"MapReference":{"ReferenceId":"1227515198","Spot":1.0,"SideOfStreet":"neither","StateId":"20248595","CountyId":"20338357","CityId":"20338631"}}},{"Relevance":1.0,"Distance":60.9,"MatchLevel":"street","MatchQuality":{"Country":1.0,"State":1.0,"County":1.0,"City":1.0,"District":1.0,"Street":[1.0],"PostalCode":1.0},"Location":{"LocationId":"NT_OyRCWYcX9t.HNWI6O9IYNA_l_1227515197_R","LocationType":"point","DisplayPosition":{"Latitude":51.33706,"Longitude":-0.50512},"MapView":{"TopLeft":{"Latitude":51.33706,"Longitude":-0.50536},"BottomRight":{"Latitude":51.33691,"Longitude":-0.50512}},"Address":{"Label":"Old Woking Road, West Byfleet, KT14 6, United Kingdom","Country":"GBR","State":"England","County":"Surrey","City":"West Byfleet","District":"West Byfleet","Street":"Old Woking Road","PostalCode":"KT14 6","AdditionalData":[{"value":"United Kingdom","key":"CountryName"},{"value":"England","key":"StateName"},{"value":"Surrey","key":"CountyName"}]},"MapReference":{"ReferenceId":"1227515197","Spot":1.0,"SideOfStreet":"right","StateId":"20248595","CountyId":"20338357","CityId":"20338631","DistrictId":"20338632"}}},{"Relevance":1.0,"Distance":64.4,"MatchLevel":"street","MatchQuality":{"Country":1.0,"State":1.0,"County":1.0,"City":1.0,"District":1.0,"Street":[1.0],"PostalCode":1.0},"Location":{"LocationId":"NT_OyRCWYcX9t.HNWI6O9IYNA_l_1227515198_R","LocationType":"point","DisplayPosition":{"Latitude":51.33723,"Longitude":-0.50485},"MapView":{"TopLeft":{"Latitude":51.33723,"Longitude":-0.50512},"BottomRight":{"Latitude":51.33706,"Longitude":-0.50485}},"Address":{"Label":"Old Woking Road, West Byfleet, KT14 6, United Kingdom","Country":"GBR","State":"England","County":"Surrey","City":"West Byfleet","District":"West Byfleet","Street":"Old Woking Road","PostalCode":"KT14 6","AdditionalData":[{"value":"United Kingdom","key":"CountryName"},{"value":"England","key":"StateName"},{"value":"Surrey","key":"CountyName"}]},"MapReference":{"ReferenceId":"1227515198","Spot":1.0,"SideOfStreet":"right","StateId":"20248595","CountyId":"20338357","CityId":"20338631","DistrictId":"20338632"}}},{"Relevance":1.0,"Distance":66.8,"MatchLevel":"street","MatchQuality":{"Country":1.0,"State":1.0,"County":1.0,"City":1.0,"District":1.0,"Street":[1.0],"PostalCode":1.0},"Location":{"LocationId":"NT_OyRCWYcX9t.HNWI6O9IYNA_l_30481908_R","LocationType":"point","DisplayPosition":{"Latitude":51.3372721,"Longitude":-0.5047784},"MapView":{"TopLeft":{"Latitude":51.33742,"Longitude":-0.50485},"BottomRight":{"Latitude":51.33723,"Longitude":-0.50451}},"Address":{"Label":"Old Woking Road, West Byfleet, KT14 6, United Kingdom","Country":"GBR","State":"England","County":"Surrey","City":"West Byfleet","District":"West Byfleet","Street":"Old Woking Road","PostalCode":"KT14 6","AdditionalData":[{"value":"United Kingdom","key":"CountryName"},{"value":"England","key":"StateName"},{"value":"Surrey","key":"CountyName"}]},"MapReference":{"ReferenceId":"30481908","Spot":0.21,"SideOfStreet":"right","StateId":"20248595","CountyId":"20338357","CityId":"20338631","DistrictId":"20338632"}}},{"Relevance":1.0,"Distance":75.4,"MatchLevel":"street","MatchQuality":{"Country":1.0,"State":1.0,"County":1.0,"City":1.0,"District":1.0,"Street":[1.0],"PostalCode":1.0},"Location":{"LocationId":"NT_GwRvh0gZyc.7BIgUInk3oA_l_25533659_R","LocationType":"point","DisplayPosition":{"Latitude":51.33603,"Longitude":-0.50445},"MapView":{"TopLeft":{"Latitude":51.3364,"Longitude":-0.5062},"BottomRight":{"Latitude":51.33595,"Longitude":-0.50445}},"Address":{"Label":"Rosemount Avenue, West Byfleet, KT14 6, United Kingdom","Country":"GBR","State":"England","County":"Surrey","City":"West Byfleet","District":"West Byfleet","Street":"Rosemount Avenue","PostalCode":"KT14 6","AdditionalData":[{"value":"United Kingdom","key":"CountryName"},{"value":"England","key":"StateName"},{"value":"Surrey","key":"CountyName"}]},"MapReference":{"ReferenceId":"25533659","Spot":0.0,"SideOfStreet":"right","StateId":"20248595","CountyId":"20338357","CityId":"20338631","DistrictId":"20338632"}}}]}]}}