{"Response":{"MetaInfo":{"Timestamp":"2020-03-28T11:55:11.144+0000","NextPageInformation":"2"},"View":[{"_type":"SearchResultsViewType","ViewId":0,"Result":[{"Relevance":1.0,"Distance":0.0,"Direction":0.0,"MatchLevel":"district","MatchQuality":{"Country":1.0,"State":1.0,"County":1.0,"City":1.0,"District":1.0,"PostalCode":1.0},"Location":{"LocationId":"NT_mLRoN.gp6.RfR6vwiF-auB","LocationType":"point","DisplayPosition":{"Latitude":51.3145159,"Longitude":-2.8331885},"MapView":{"TopLeft":{"Latitude":51.32739,"Longitude":-2.84811},"BottomRight":{"Latitude":51.30526,"Longitude":-2.81716}},"Address":{"Label":"Winscombe, England, United Kingdom","Country":"GBR","State":"England","County":"Avon","City":"Winscombe","District":"Winscombe","PostalCode":"BS25 1","AdditionalData":[{"value":"United Kingdom","key":"CountryName"},{"value":"England","key":"StateName"},{"value":"Avon","key":"CountyName"}]},"MapReference":{"ReferenceId":"836212238","SideOfStreet":"neither","StateId":"20248595","CountyId":"20352323","CityId":"20352616","DistrictId":"20352617"}}},{"Relevance":1.0,"Distance":6.7,"MatchLevel":"houseNumber","MatchQuality":{"Country":1.0,"State":1.0,"County":1.0,"City":1.0,"District":1.0,"Street":[1.0],"HouseNumber":1.0,"PostalCode":1.0},"MatchType":"interpolated","Location":{"LocationId":"NT_FWyGPdowOKAHd8w7CB48uD_l_26743533_R_zED","LocationType":"point","DisplayPosition":{"Latitude":51.3145725,"Longitude":-2.8332225},"MapView":{"TopLeft":{"Latitude":51.3156967,"Longitude":-2.835021},"BottomRight":{"Latitude":51.3134483,"Longitude":-2.831424}},"Address":{"Label":"31 Woodborough Road, Winscombe, BS25 1AG, United Kingdom","Country":"GBR","State":"England","County":"Avon","City":"Winscombe","District":"Winscombe","Street":"Woodborough Road","HouseNumber":"31","PostalCode":"BS25 1AG","AdditionalData":[{"value":"United Kingdom","key":"CountryName"},{"value":"England","key":"StateName"},{"value":"Avon","key":"CountyName"}]},"MapReference":{"ReferenceId":"26743533","Spot":0.45,"SideOfStreet":"right","StateId":"20248595","CountyId":"20352323","CityId":"20352616","DistrictId":"20352617"}}},{"Relevance":1.0,"Distance":20.7,"MatchLevel":"street","MatchQuality":{"Country":1.0,"State":1.0,"County":1.0,"City":1.0,"District":1.0,"Street":[1.0],"PostalCode":1.0},"Location":{"LocationId":"NT_3lDkIItzCuLDEp6wctJfHA_l_26743590_R","LocationType":"point","DisplayPosition":{"Latitude":51.3144612,"Longitude":-2.8334729},"MapView":{"TopLeft":{"Latitude":51.31455,"Longitude":-2.83352},"BottomRight":{"Latitude":51.31373,"Longitude":-2.83323}},"Address":{"Label":"Dunster Court, Winscombe, BS25 1, United Kingdom","Country":"GBR","State":"England","County":"Avon","City":"Winscombe","District":"Winscombe","Street":"Dunster Court","PostalCode":"BS25 1","AdditionalData":[{"value":"United Kingdom","key":"CountryName"},{"value":"England","key":"StateName"},{"value":"Avon","key":"CountyName"}]},"MapReference":{"ReferenceId":"26743590","Spot":0.9,"SideOfStreet":"right","StateId":"20248595","CountyId":"20352323","CityId":"20352616","DistrictId":"20352617"}}},{"Relevance":1.0,"Distance":21.3,"MatchLevel":"street","MatchQuality":{"Country":1.0,"State":1.0,"County":1.0,"City":1.0,"District":1.0,"Street":[1.0],"PostalCode":1.0},"Location":{"LocationId":"NT_Kpq5z.5AcT-hY6immlG2ID_l_26743529_R","LocationType":"point","DisplayPosition":{"Latitude":51.31458,"Longitude":-2.8329},"MapView":{"TopLeft":{"Latitude":51.31518,"Longitude":-2.8329},"BottomRight":{"Latitude":51.31458,"Longitude":-2.83027}},"Address":{"Label":"Hillyfields Way, Winscombe, BS25 1, United Kingdom","Country":"GBR","State":"England","County":"Avon","City":"Winscombe","District":"Winscombe","Street":"Hillyfields Way","PostalCode":"BS25 1","AdditionalData":[{"value":"United Kingdom","key":"CountryName"},{"value":"England","key":"StateName"},{"value":"Avon","key":"CountyName"}]},"MapReference":{"ReferenceId":"26743529","Spot":0.0,"SideOfStreet":"right","StateId":"20248595","CountyId":"20352323","CityId":"20352616","DistrictId":"20352617"}}},{"Relevance":1.0,"Distance":22.6,"MatchLevel":"street","MatchQuality":{"Country":1.0,"State":1.0,"County":1.0,"City":1.0,"District":1.0,"Street":[1.0],"PostalCode":1.0},"Location":{"LocationId":"NT_NyJFV.FSjpXqmEoX-a0GiB_l_26743530_L","LocationType":"point","DisplayPosition":{"Latitude":51.3146356,"Longitude":-2.8329253},"MapView":{"TopLeft":{"Latitude":51.31491,"Longitude":-2.83305},"BottomRight":{"Latitude":51.31458,"Longitude":-2.8329}},"Address":{"Label":"Sandford Road, Winscombe, BS25 1, United Kingdom","Country":"GBR","State":"England","County":"Avon","City":"Winscombe","District":"Winscombe","Street":"Sandford Road","PostalCode":"BS25 1","AdditionalData":[{"value":"United Kingdom","key":"CountryName"},{"value":"England","key":"StateName"},{"value":"Avon","key":"CountyName"}]},"MapReference":{"ReferenceId":"26743530","Spot":0.17,"SideOfStreet":"left","StateId":"20248595","CountyId":"20352323","CityId":"20352616","DistrictId":"20352617"}}},{"Relevance":1.0,"Distance":28.2,"MatchLevel":"houseNumber","MatchQuality":{"Country":1.0,"State":1.0,"County":1.0,"City":1.0,"District":1.0,"Street":[1.0],"HouseNumber":1.0,"PostalCode":1.0},"MatchType":"interpolated","Location":{"LocationId":"NT_AOnVbcpm3FepJUmaPtO5CD_l_26743589_L_zUD","LocationType":"point","DisplayPosition":{"Latitude":51.3144414,"Longitude":-2.8327138},"MapView":{"TopLeft":{"Latitude":51.3155655,"Longitude":-2.8345123},"BottomRight":{"Latitude":51.3133172,"Longitude":-2.8309153}},"Address":{"Label":"35 Woodborough Road, Winscombe, BS25 1, United Kingdom","Country":"GBR","State":"England","County":"Avon","City":"Winscombe","District":"Winscombe","Street":"Woodborough Road","HouseNumber":"35","PostalCode":"BS25 1","AdditionalData":[{"value":"United Kingdom","key":"CountryName"},{"value":"England","key":"StateName"},{"value":"Avon","key":"CountyName"}]},"MapReference":{"ReferenceId":"26743589","Spot":0.78,"SideOfStreet":"left","StateId":"20248595","CountyId":"20352323","CityId":"20352616","DistrictId":"20352617"}}},{"Relevance":1.0,"Distance":37.4,"MatchLevel":"houseNumber","MatchQuality":{"Country":1.0,"State":1.0,"County":1.0,"City":1.0,"District":1.0,"Street":[1.0],"HouseNumber":1.0,"PostalCode":1.0},"MatchType":"interpolated","Location":{"LocationId":"NT_FWyGPdowOKAHd8w7CB48uD_l_781574237_R_zID","LocationType":"point","DisplayPosition":{"Latitude":51.31454,"Longitude":-2.8337246},"MapView":{"TopLeft":{"Latitude":51.3156642,"Longitude":-2.8355231},"BottomRight":{"Latitude":51.3134158,"Longitude":-2.8319261}},"Address":{"Label":"32 Woodborough Road, Winscombe, BS25 1AG, United Kingdom","Country":"GBR","State":"England","County":"Avon","City":"Winscombe","District":"Winscombe","Street":"Woodborough Road","HouseNumber":"32","PostalCode":"BS25 1AG","AdditionalData":[{"value":"United Kingdom","key":"CountryName"},{"value":"England","key":"StateName"},{"value":"Avon","key":"CountyName"}]},"MapReference":{"ReferenceId":"781574237","Spot":0.69,"SideOfStreet":"right","StateId":"20248595","CountyId":"20352323","CityId":"20352616","DistrictId":"20352617"}}},{"Relevance":1.0,"Distance":42.2,"MatchLevel":"postalCode","MatchQuality":{"PostalCode":1.0},"MatchType":"interpolated","Location":{"LocationId":"NT_NyJFV.FSjpXqmEoX-a0GiB_l_26743511_L_xA","LocationType":"point","DisplayPosition":{"Latitude":51.31489,"Longitude":-2.83309},"MapView":{"TopLeft":{"Latitude":51.3238832,"Longitude":-2.8474782},"BottomRight":{"Latitude":51.3058968,"Longitude":-2.8187018}},"Address":{"Label":"BS25 1HD, Winscombe, England, United Kingdom","Country":"GBR","State":"England","County":"Avon","City":"Winscombe","PostalCode":"BS25 1HD","AdditionalData":[{"value":"United Kingdom","key":"CountryName"},{"value":"England","key":"StateName"},{"value":"Avon","key":"CountyName"}]},"MapReference":{"ReferenceId":"26743511","Spot":0.17,"SideOfStreet":"neither","StateId":"20248595","CountyId":"20352323","CityId":"20352616"}}},{"Relevance":1.0,"Distance":42.6,"MatchLevel":"houseNumber","MatchQuality":{"Country":1.0,"State":1.0,"County":1.0,"City":1.0,"District":1.0,"Street":[1.0],"HouseNumber":1.0,"PostalCode":1.0},"MatchType":"interpolated","Location":{"LocationId":"NT_gYjAvPftg3g1CgT69xXIAD_l_26743510_R_yA","LocationType":"point","DisplayPosition":{"Latitude":51.3149501,"Longitude":-2.8328398},"MapView":{"TopLeft":{"Latitude":51.3160742,"Longitude":-2.8346383},"BottomRight":{"Latitude":51.3138259,"Longitude":-2.8310413}},"Address":{"Label":"2 Woodborough Drive, Winscombe, BS25 1HA, United Kingdom","Country":"GBR","State":"England","County":"Avon","City":"Winscombe","District":"Winscombe","Street":"Woodborough Drive","HouseNumber":"2","PostalCode":"BS25 1HA","AdditionalData":[{"value":"United Kingdom","key":"CountryName"},{"value":"England","key":"StateName"},{"value":"Avon","key":"CountyName"}]},"MapReference":{"ReferenceId":"26743510","Spot":0.05,"SideOfStreet":"right","StateId":"20248595","CountyId":"20352323","CityId":"20352616","DistrictId":"20352617"}}},{"Relevance":1.0,"Distance":47.8,"MatchLevel":"postalCode","MatchQuality":{"PostalCode":1.0},"Location":{"LocationId":"NT_3lDkIItzCuLDEp6wctJfHA_l_26743590_R","LocationType":"point","DisplayPosition":{"Latitude":51.31415,"Longitude":-2.83355},"MapView":{"TopLeft":{"Latitude":51.3231432,"Longitude":-2.847938},"BottomRight":{"Latitude":51.3051568,"Longitude":-2.819162}},"Address":{"Label":"BS25 1AG, Winscombe, England, United Kingdom","Country":"GBR","State":"England","County":"Avon","City":"Winscombe","PostalCode":"BS25 1AG","AdditionalData":[{"value":"United Kingdom","key":"CountryName"},{"value":"England","key":"StateName"},{"value":"Avon","key":"CountyName"}]},"MapReference":{"ReferenceId":"26743590","Spot":0.9,"SideOfStreet":"neither","StateId":"20248595","CountyId":"20352323","CityId":"20352616"}}}]}]}}