{"Response":{"MetaInfo":{"Timestamp":"2020-03-28T10:17:50.368+0000","NextPageInformation":"2"},"View":[{"_type":"SearchResultsViewType","ViewId":0,"Result":[{"Relevance":1.0,"Distance":0.0,"Direction":0.0,"MatchLevel":"district","MatchQuality":{"Country":1.0,"State":1.0,"County":1.0,"City":1.0,"District":1.0,"PostalCode":1.0},"Location":{"LocationId":"NT_uO8q5J99LnTurRn5I6-.kC","LocationType":"point","DisplayPosition":{"Latitude":51.3006936,"Longitude":11.4288331},"MapView":{"TopLeft":{"Latitude":51.3065,"Longitude":11.41925},"BottomRight":{"Latitude":51.29188,"Longitude":11.44718}},"Address":{"Label":"Roßleben, Roßleben-Wiehe, Thüringen, Deutschland","Country":"DEU","State":"Thüringen","County":"Kyffhäuserkreis","City":"Roßleben-Wiehe","District":"Roßleben","PostalCode":"06571","AdditionalData":[{"value":"Deutschland","key":"CountryName"},{"value":"Thüringen","key":"StateName"},{"value":"Kyffhäuserkreis","key":"CountyName"}]},"MapReference":{"ReferenceId":"547955561","SideOfStreet":"neither","CountryId":"20147700","StateId":"20196974","CountyId":"20197683","CityId":"20197768","DistrictId":"20197770"}}},{"Relevance":1.0,"Distance":13.0,"MatchLevel":"houseNumber","MatchQuality":{"Country":1.0,"State":1.0,"County":1.0,"City":1.0,"District":1.0,"Street":[1.0],"HouseNumber":1.0,"PostalCode":1.0},"MatchType":"interpolated","Location":{"LocationId":"NT_LZ7XiWuxy3TGWKaHQwvIpB_zED","LocationType":"point","DisplayPosition":{"Latitude":51.30055,"Longitude":11.42857},"MapView":{"TopLeft":{"Latitude":51.3016742,"Longitude":11.426772},"BottomRight":{"Latitude":51.2994258,"Longitude":11.430368}},"Address":{"Label":"Dahlienring 31, 06571 Roßleben-Wiehe, Deutschland","Country":"DEU","State":"Thüringen","County":"Kyffhäuserkreis","City":"Roßleben-Wiehe","District":"Roßleben","Street":"Dahlienring","HouseNumber":"31","PostalCode":"06571","AdditionalData":[{"value":"Deutschland","key":"CountryName"},{"value":"Thüringen","key":"StateName"},{"value":"Kyffhäuserkreis","key":"CountyName"}]},"MapReference":{"ReferenceId":"548118701","Spot":0.31,"SideOfStreet":"right","CountryId":"20147700","StateId":"20196974","CountyId":"20197683","CityId":"20197768","DistrictId":"20197770","AddressId":"189606307","RoadLinkId":"39731069"}}},{"Relevance":1.0,"Distance":21.3,"MatchLevel":"houseNumber","MatchQuality":{"Country":1.0,"State":1.0,"County":1.0,"City":1.0,"District":1.0,"Street":[1.0],"HouseNumber":1.0,"PostalCode":1.0},"MatchType":"interpolated","Location":{"LocationId":"NT_MshZdLRTAjtACp7bz.vssD_ycD","LocationType":"point","DisplayPosition":{"Latitude":51.3006,"Longitude":11.4291},"MapView":{"TopLeft":{"Latitude":51.3017242,"Longitude":11.427302},"BottomRight":{"Latitude":51.2994758,"Longitude":11.430898}},"Address":{"Label":"Almenweg 27, 06571 Roßleben-Wiehe, Deutschland","Country":"DEU","State":"Thüringen","County":"Kyffhäuserkreis","City":"Roßleben-Wiehe","District":"Roßleben","Street":"Almenweg","HouseNumber":"27","PostalCode":"06571","AdditionalData":[{"value":"Deutschland","key":"CountryName"},{"value":"Thüringen","key":"StateName"},{"value":"Kyffhäuserkreis","key":"CountyName"}]},"MapReference":{"ReferenceId":"548118697","Spot":0.44,"SideOfStreet":"right","CountryId":"20147700","StateId":"20196974","CountyId":"20197683","CityId":"20197768","DistrictId":"20197770","AddressId":"622372582","RoadLinkId":"40092564"}}},{"Relevance":1.0,"Distance":32.6,"MatchLevel":"houseNumber","MatchQuality":{"Country":1.0,"State":1.0,"County":1.0,"City":1.0,"District":1.0,"Street":[1.0],"HouseNumber":1.0,"PostalCode":1.0},"MatchType":"interpolated","Location":{"LocationId":"NT_5-fOJzF6.mbb5S7O6QbbOB_yYD","LocationType":"point","DisplayPosition":{"Latitude":51.30105,"Longitude":11.42912},"MapView":{"TopLeft":{"Latitude":51.3021742,"Longitude":11.427322},"BottomRight":{"Latitude":51.2999258,"Longitude":11.430918}},"Address":{"Label":"Am Weinberg 26, 06571 Roßleben-Wiehe, Deutschland","Country":"DEU","State":"Thüringen","County":"Kyffhäuserkreis","City":"Roßleben-Wiehe","District":"Roßleben","Street":"Am Weinberg","HouseNumber":"26","PostalCode":"06571","AdditionalData":[{"value":"Deutschland","key":"CountryName"},{"value":"Thüringen","key":"StateName"},{"value":"Kyffhäuserkreis","key":"CountyName"}]},"MapReference":{"ReferenceId":"547958517","Spot":0.17,"SideOfStreet":"left","CountryId":"20147700","StateId":"20196974","CountyId":"20197683","CityId":"20197768","DistrictId":"20197770","AddressId":"189399606","RoadLinkId":"39685684"}}},{"Relevance":1.0,"Distance":39.5,"MatchLevel":"street","MatchQuality":{"Country":1.0,"State":1.0,"County":1.0,"City":1.0,"District":1.0,"Street":[1.0],"PostalCode":1.0},"Location":{"LocationId":"NT_5-fOJzF6.mbb5S7O6QbbOB_l_547955422_L","LocationType":"point","DisplayPosition":{"Latitude":51.30072,"Longitude":11.4294},"MapView":{"TopLeft":{"Latitude":51.30072,"Longitude":11.4294},"BottomRight":{"Latitude":51.30049,"Longitude":11.42963}},"Address":{"Label":"Am Weinberg, 06571 Roßleben-Wiehe, Deutschland","Country":"DEU","State":"Thüringen","County":"Kyffhäuserkreis","City":"Roßleben-Wiehe","District":"Roßleben","Street":"Am Weinberg","PostalCode":"06571","AdditionalData":[{"value":"Deutschland","key":"CountryName"},{"value":"Thüringen","key":"StateName"},{"value":"Kyffhäuserkreis","key":"CountyName"}]},"MapReference":{"ReferenceId":"547955422","Spot":1.0,"SideOfStreet":"left","CountryId":"20147700","StateId":"20196974","CountyId":"20197683","CityId":"20197768","DistrictId":"20197770"}}},{"Relevance":1.0,"Distance":40.4,"MatchLevel":"street","MatchQuality":{"Country":1.0,"State":1.0,"County":1.0,"City":1.0,"District":1.0,"Street":[1.0],"PostalCode":1.0},"Location":{"LocationId":"NT_5-fOJzF6.mbb5S7O6QbbOB_l_547955532_L","LocationType":"point","DisplayPosition":{"Latitude":51.3009817,"Longitude":11.4291867},"MapView":{"TopLeft":{"Latitude":51.30099,"Longitude":11.42918},"BottomRight":{"Latitude":51.30072,"Longitude":11.4294}},"Address":{"Label":"Am Weinberg, 06571 Roßleben-Wiehe, Deutschland","Country":"DEU","State":"Thüringen","County":"Kyffhäuserkreis","City":"Roßleben-Wiehe","District":"Roßleben","Street":"Am Weinberg","PostalCode":"06571","AdditionalData":[{"value":"Deutschland","key":"CountryName"},{"value":"Thüringen","key":"StateName"},{"value":"Kyffhäuserkreis","key":"CountyName"}]},"MapReference":{"ReferenceId":"547955532","Spot":0.97,"SideOfStreet":"left","CountryId":"20147700","StateId":"20196974","CountyId":"20197683","CityId":"20197768","DistrictId":"20197770"}}},{"Relevance":1.0,"Distance":43.1,"MatchLevel":"houseNumber","MatchQuality":{"Country":1.0,"State":1.0,"County":1.0,"City":1.0,"District":1.0,"Street":[1.0],"HouseNumber":1.0,"PostalCode":1.0},"MatchType":"interpolated","Location":{"LocationId":"NT_MshZdLRTAjtACp7bz.vssD_yYD","LocationType":"point","DisplayPosition":{"Latitude":51.30031,"Longitude":11.42874},"MapView":{"TopLeft":{"Latitude":51.3014342,"Longitude":11.426942},"BottomRight":{"Latitude":51.2991858,"Longitude":11.430538}},"Address":{"Label":"Almenweg 26, 06571 Roßleben-Wiehe, Deutschland","Country":"DEU","State":"Thüringen","County":"Kyffhäuserkreis","City":"Roßleben-Wiehe","District":"Roßleben","Street":"Almenweg","HouseNumber":"26","PostalCode":"06571","AdditionalData":[{"value":"Deutschland","key":"CountryName"},{"value":"Thüringen","key":"StateName"},{"value":"Kyffhäuserkreis","key":"CountyName"}]},"MapReference":{"ReferenceId":"548118696","Spot":0.91,"SideOfStreet":"left","CountryId":"20147700","StateId":"20196974","CountyId":"20197683","CityId":"20197768","DistrictId":"20197770","AddressId":"189211404","RoadLinkId":"40053238"}}},{"Relevance":1.0,"Distance":55.9,"MatchLevel":"houseNumber","MatchQuality":{"Country":1.0,"State":1.0,"County":1.0,"City":1.0,"District":1.0,"Street":[1.0],"HouseNumber":1.0,"PostalCode":1.0},"MatchType":"interpolated","Location":{"LocationId":"NT_LZ7XiWuxy3TGWKaHQwvIpB_ycD","LocationType":"point","DisplayPosition":{"Latitude":51.30112,"Longitude":11.42809},"MapView":{"TopLeft":{"Latitude":51.3022442,"Longitude":11.426292},"BottomRight":{"Latitude":51.2999958,"Longitude":11.429888}},"Address":{"Label":"Dahlienring 27, 06571 Roßleben-Wiehe, Deutschland","Country":"DEU","State":"Thüringen","County":"Kyffhäuserkreis","City":"Roßleben-Wiehe","District":"Roßleben","Street":"Dahlienring","HouseNumber":"27","PostalCode":"06571","AdditionalData":[{"value":"Deutschland","key":"CountryName"},{"value":"Thüringen","key":"StateName"},{"value":"Kyffhäuserkreis","key":"CountyName"}]},"MapReference":{"ReferenceId":"548118700","Spot":0.11,"SideOfStreet":"right","CountryId":"20147700","StateId":"20196974","CountyId":"20197683","CityId":"20197768","DistrictId":"20197770","AddressId":"189542909","RoadLinkId":"40051143"}}},{"Relevance":1.0,"Distance":56.2,"MatchLevel":"houseNumber","MatchQuality":{"Country":1.0,"State":1.0,"County":1.0,"City":1.0,"District":1.0,"Street":[1.0],"HouseNumber":1.0,"PostalCode":1.0},"MatchType":"interpolated","Location":{"LocationId":"NT_5-fOJzF6.mbb5S7O6QbbOB_xMD","LocationType":"point","DisplayPosition":{"Latitude":51.30069,"Longitude":11.42978},"MapView":{"TopLeft":{"Latitude":51.3018142,"Longitude":11.427982},"BottomRight":{"Latitude":51.2995658,"Longitude":11.431578}},"Address":{"Label":"Am Weinberg 13, 06571 Roßleben-Wiehe, Deutschland","Country":"DEU","State":"Thüringen","County":"Kyffhäuserkreis","City":"Roßleben-Wiehe","District":"Roßleben","Street":"Am Weinberg","HouseNumber":"13","PostalCode":"06571","AdditionalData":[{"value":"Deutschland","key":"CountryName"},{"value":"Thüringen","key":"StateName"},{"value":"Kyffhäuserkreis","key":"CountyName"}]},"MapReference":{"ReferenceId":"547955554","Spot":0.21,"SideOfStreet":"left","CountryId":"20147700","StateId":"20196974","CountyId":"20197683","CityId":"20197768","DistrictId":"20197770","AddressId":"189540998","RoadLinkId":"39621559"}}},{"Relevance":1.0,"Distance":68.1,"MatchLevel":"houseNumber","MatchQuality":{"Country":1.0,"State":1.0,"County":1.0,"City":1.0,"District":1.0,"Street":[1.0],"HouseNumber":1.0,"PostalCode":1.0},"MatchType":"interpolated","Location":{"LocationId":"NT_5-fOJzF6.mbb5S7O6QbbOB_xEE","LocationType":"point","DisplayPosition":{"Latitude":51.30032,"Longitude":11.42978},"MapView":{"TopLeft":{"Latitude":51.3014442,"Longitude":11.427982},"BottomRight":{"Latitude":51.2991958,"Longitude":11.431578}},"Address":{"Label":"Am Weinberg 1A, 06571 Roßleben-Wiehe, Deutschland","Country":"DEU","State":"Thüringen","County":"Kyffhäuserkreis","City":"Roßleben-Wiehe","District":"Roßleben","Street":"Am Weinberg","HouseNumber":"1A","PostalCode":"06571","AdditionalData":[{"value":"Deutschland","key":"CountryName"},{"value":"Thüringen","key":"StateName"},{"value":"Kyffhäuserkreis","key":"CountyName"}]},"MapReference":{"ReferenceId":"547955455","Spot":0.8,"SideOfStreet":"left","CountryId":"20147700","StateId":"20196974","CountyId":"20197683","CityId":"20197768","DistrictId":"20197770","AddressId":"622364960","RoadLinkId":"39959455"}}}]}]}}