{"Response":{"MetaInfo":{"Timestamp":"2020-03-28T10:04:49.113+0000","NextPageInformation":"2"},"View":[{"_type":"SearchResultsViewType","ViewId":0,"Result":[{"Relevance":1.0,"Distance":0.0,"Direction":0.0,"MatchLevel":"district","MatchQuality":{"Country":1.0,"State":1.0,"County":1.0,"City":1.0,"District":1.0,"PostalCode":1.0},"Location":{"LocationId":"NT_bVxuFciJdQtlK8jH.93GVD","LocationType":"point","DisplayPosition":{"Latitude":51.389266,"Longitude":10.3251338},"MapView":{"TopLeft":{"Latitude":51.39591,"Longitude":10.3079},"BottomRight":{"Latitude":51.37286,"Longitude":10.34604}},"Address":{"Label":"Leinefelde, Leinefelde-Worbis, Thüringen, Deutschland","Country":"DEU","State":"Thüringen","County":"Eichsfeld","City":"Leinefelde-Worbis","District":"Leinefelde","PostalCode":"37327","AdditionalData":[{"value":"Deutschland","key":"CountryName"},{"value":"Thüringen","key":"StateName"},{"value":"Eichsfeld","key":"CountyName"}]},"MapReference":{"ReferenceId":"548033415","SideOfStreet":"neither","CountryId":"20147700","StateId":"20196974","CountyId":"20197060","CityId":"20651889","DistrictId":"20651946"}}},{"Relevance":1.0,"Distance":11.4,"MatchLevel":"street","MatchQuality":{"Country":1.0,"State":1.0,"County":1.0,"City":1.0,"District":1.0,"Street":[1.0],"PostalCode":1.0},"Location":{"LocationId":"NT_Ntoh20yqAYOm4jrICm5eFD_l_704921267_L","LocationType":"point","DisplayPosition":{"Latitude":51.3893675,"Longitude":10.3251579},"MapView":{"TopLeft":{"Latitude":51.3895,"Longitude":10.3246},"BottomRight":{"Latitude":51.38898,"Longitude":10.3254}},"Address":{"Label":"Schwarzer Weg, 37327 Leinefelde-Worbis, Deutschland","Country":"DEU","State":"Thüringen","County":"Eichsfeld","City":"Leinefelde-Worbis","District":"Leinefelde","Street":"Schwarzer Weg","PostalCode":"37327","AdditionalData":[{"value":"Deutschland","key":"CountryName"},{"value":"Thüringen","key":"StateName"},{"value":"Eichsfeld","key":"CountyName"}]},"MapReference":{"ReferenceId":"704921267","Spot":0.5,"SideOfStreet":"left","CountryId":"20147700","StateId":"20196974","CountyId":"20197060","CityId":"20651889","DistrictId":"20651946"}}},{"Relevance":1.0,"Distance":14.9,"MatchLevel":"houseNumber","MatchQuality":{"Country":1.0,"State":1.0,"County":1.0,"City":1.0,"District":1.0,"Street":[1.0],"HouseNumber":1.0,"PostalCode":1.0},"MatchType":"interpolated","Location":{"LocationId":"NT_nPitMA-3br5bcGrS-hyj4B_2A","LocationType":"point","DisplayPosition":{"Latitude":51.38898,"Longitude":10.32524},"MapView":{"TopLeft":{"Latitude":51.3901042,"Longitude":10.3234386},"BottomRight":{"Latitude":51.3878558,"Longitude":10.3270414}},"Address":{"Label":"Triftstraße 6, 37327 Leinefelde-Worbis, Deutschland","Country":"DEU","State":"Thüringen","County":"Eichsfeld","City":"Leinefelde-Worbis","District":"Leinefelde","Street":"Triftstraße","HouseNumber":"6","PostalCode":"37327","AdditionalData":[{"value":"Deutschland","key":"CountryName"},{"value":"Thüringen","key":"StateName"},{"value":"Eichsfeld","key":"CountyName"}]},"MapReference":{"ReferenceId":"548013072","Spot":0.29,"SideOfStreet":"left","CountryId":"20147700","StateId":"20196974","CountyId":"20197060","CityId":"20651889","DistrictId":"20651946","AddressId":"189641273","RoadLinkId":"39909605"}}},{"Relevance":1.0,"Distance":23.7,"MatchLevel":"houseNumber","MatchQuality":{"Country":1.0,"State":1.0,"County":1.0,"City":1.0,"District":1.0,"Street":[1.0],"HouseNumber":1.0,"PostalCode":1.0},"MatchType":"interpolated","Location":{"LocationId":"NT_nPitMA-3br5bcGrS-hyj4B_4A","LocationType":"point","DisplayPosition":{"Latitude":51.38896,"Longitude":10.32495},"MapView":{"TopLeft":{"Latitude":51.3900842,"Longitude":10.3231486},"BottomRight":{"Latitude":51.3878358,"Longitude":10.3267514}},"Address":{"Label":"Triftstraße 8, 37327 Leinefelde-Worbis, Deutschland","Country":"DEU","State":"Thüringen","County":"Eichsfeld","City":"Leinefelde-Worbis","District":"Leinefelde","Street":"Triftstraße","HouseNumber":"8","PostalCode":"37327","AdditionalData":[{"value":"Deutschland","key":"CountryName"},{"value":"Thüringen","key":"StateName"},{"value":"Eichsfeld","key":"CountyName"}]},"MapReference":{"ReferenceId":"548014093","Spot":0.93,"SideOfStreet":"left","CountryId":"20147700","StateId":"20196974","CountyId":"20197060","CityId":"20651889","DistrictId":"20651946","AddressId":"189513656","RoadLinkId":"39690667"}}},{"Relevance":1.0,"Distance":45.3,"MatchLevel":"street","MatchQuality":{"Country":1.0,"State":1.0,"County":1.0,"City":1.0,"District":1.0,"Street":[1.0],"PostalCode":1.0},"Location":{"LocationId":"NT_Ntoh20yqAYOm4jrICm5eFD_l_704921268_L","LocationType":"point","DisplayPosition":{"Latitude":51.3895,"Longitude":10.3246},"MapView":{"TopLeft":{"Latitude":51.38962,"Longitude":10.32354},"BottomRight":{"Latitude":51.3895,"Longitude":10.3246}},"Address":{"Label":"Schwarzer Weg, 37327 Leinefelde-Worbis, Deutschland","Country":"DEU","State":"Thüringen","County":"Eichsfeld","City":"Leinefelde-Worbis","District":"Leinefelde","Street":"Schwarzer Weg","PostalCode":"37327","AdditionalData":[{"value":"Deutschland","key":"CountryName"},{"value":"Thüringen","key":"StateName"},{"value":"Eichsfeld","key":"CountyName"}]},"MapReference":{"ReferenceId":"704921268","Spot":0.0,"SideOfStreet":"left","CountryId":"20147700","StateId":"20196974","CountyId":"20197060","CityId":"20651889","DistrictId":"20651946"}}},{"Relevance":1.0,"Distance":52.6,"MatchLevel":"houseNumber","MatchQuality":{"Country":1.0,"State":1.0,"County":1.0,"City":1.0,"District":1.0,"Street":[1.0],"HouseNumber":1.0,"PostalCode":1.0},"MatchType":"interpolated","Location":{"LocationId":"NT_nPitMA-3br5bcGrS-hyj4B_0A","LocationType":"point","DisplayPosition":{"Latitude":51.38892,"Longitude":10.32565},"MapView":{"TopLeft":{"Latitude":51.3900442,"Longitude":10.3238486},"BottomRight":{"Latitude":51.3877958,"Longitude":10.3274514}},"Address":{"Label":"Triftstraße 4, 37327 Leinefelde-Worbis, Deutschland","Country":"DEU","State":"Thüringen","County":"Eichsfeld","City":"Leinefelde-Worbis","District":"Leinefelde","Street":"Triftstraße","HouseNumber":"4","PostalCode":"37327","AdditionalData":[{"value":"Deutschland","key":"CountryName"},{"value":"Thüringen","key":"StateName"},{"value":"Eichsfeld","key":"CountyName"}]},"MapReference":{"ReferenceId":"548013083","Spot":0.45,"SideOfStreet":"right","CountryId":"20147700","StateId":"20196974","CountyId":"20197060","CityId":"20651889","DistrictId":"20651946","AddressId":"189642101","RoadLinkId":"39617405"}}},{"Relevance":1.0,"Distance":52.8,"MatchLevel":"houseNumber","MatchQuality":{"Country":1.0,"State":1.0,"County":1.0,"City":1.0,"District":1.0,"Street":[1.0],"HouseNumber":1.0,"PostalCode":1.0},"MatchType":"interpolated","Location":{"LocationId":"NT_5QXP8oOBKlOUC.8PC9o8lA_xED","LocationType":"point","DisplayPosition":{"Latitude":51.38974,"Longitude":10.32517},"MapView":{"TopLeft":{"Latitude":51.3908642,"Longitude":10.3233685},"BottomRight":{"Latitude":51.3886158,"Longitude":10.3269715}},"Address":{"Label":"Breitenhölzer Straße 11, 37327 Leinefelde-Worbis, Deutschland","Country":"DEU","State":"Thüringen","County":"Eichsfeld","City":"Leinefelde-Worbis","District":"Leinefelde","Street":"Breitenhölzer Straße","HouseNumber":"11","PostalCode":"37327","AdditionalData":[{"value":"Deutschland","key":"CountryName"},{"value":"Thüringen","key":"StateName"},{"value":"Eichsfeld","key":"CountyName"}]},"MapReference":{"ReferenceId":"1186953436","Spot":0.76,"SideOfStreet":"right","CountryId":"20147700","StateId":"20196974","CountyId":"20197060","CityId":"20651889","DistrictId":"20651946","AddressId":"189548800","RoadLinkId":"495577210"}}},{"Relevance":1.0,"Distance":66.8,"MatchLevel":"street","MatchQuality":{"Country":1.0,"State":1.0,"County":1.0,"City":1.0,"District":1.0,"Street":[1.0],"PostalCode":1.0},"Location":{"LocationId":"NT_opf3OF8ub9EC7Ykgv-UKMA_l_907217300_L","LocationType":"point","DisplayPosition":{"Latitude":51.38879,"Longitude":10.32572},"MapView":{"TopLeft":{"Latitude":51.38881,"Longitude":10.32572},"BottomRight":{"Latitude":51.38879,"Longitude":10.32584}},"Address":{"Label":"Bahnhofstraße, 37327 Leinefelde-Worbis, Deutschland","Country":"DEU","State":"Thüringen","County":"Eichsfeld","City":"Leinefelde-Worbis","District":"Leinefelde","Street":"Bahnhofstraße","PostalCode":"37327","AdditionalData":[{"value":"Deutschland","key":"CountryName"},{"value":"Thüringen","key":"StateName"},{"value":"Eichsfeld","key":"CountyName"}]},"MapReference":{"ReferenceId":"907217300","Spot":0.0,"SideOfStreet":"left","CountryId":"20147700","StateId":"20196974","CountyId":"20197060","CityId":"20651889","DistrictId":"20651946"}}},{"Relevance":1.0,"Distance":66.8,"MatchLevel":"houseNumber","MatchQuality":{"Country":1.0,"State":1.0,"County":1.0,"City":1.0,"District":1.0,"Street":[1.0],"HouseNumber":1.0,"PostalCode":1.0},"MatchType":"interpolated","Location":{"LocationId":"NT_opf3OF8ub9EC7Ykgv-UKMA_zID","LocationType":"point","DisplayPosition":{"Latitude":51.38878,"Longitude":10.3257},"MapView":{"TopLeft":{"Latitude":51.3899042,"Longitude":10.3238986},"BottomRight":{"Latitude":51.3876558,"Longitude":10.3275014}},"Address":{"Label":"Bahnhofstraße 32, 37327 Leinefelde-Worbis, Deutschland","Country":"DEU","State":"Thüringen","County":"Eichsfeld","City":"Leinefelde-Worbis","District":"Leinefelde","Street":"Bahnhofstraße","HouseNumber":"32","PostalCode":"37327","AdditionalData":[{"value":"Deutschland","key":"CountryName"},{"value":"Thüringen","key":"StateName"},{"value":"Eichsfeld","key":"CountyName"}]},"MapReference":{"ReferenceId":"907217299","Spot":0.86,"SideOfStreet":"right","CountryId":"20147700","StateId":"20196974","CountyId":"20197060","CityId":"20651889","DistrictId":"20651946","AddressId":"189653066","RoadLinkId":"267899256"}}},{"Relevance":1.0,"Distance":70.2,"MatchLevel":"houseNumber","MatchQuality":{"Country":1.0,"State":1.0,"County":1.0,"City":1.0,"District":1.0,"Street":[1.0],"HouseNumber":1.0,"PostalCode":1.0},"MatchType":"interpolated","Location":{"LocationId":"NT_opf3OF8ub9EC7Ykgv-UKMA_ygD","LocationType":"point","DisplayPosition":{"Latitude":51.38864,"Longitude":10.32527},"MapView":{"TopLeft":{"Latitude":51.3897642,"Longitude":10.3234686},"BottomRight":{"Latitude":51.3875158,"Longitude":10.3270714}},"Address":{"Label":"Bahnhofstraße 28, 37327 Leinefelde-Worbis, Deutschland","Country":"DEU","State":"Thüringen","County":"Eichsfeld","City":"Leinefelde-Worbis","District":"Leinefelde","Street":"Bahnhofstraße","HouseNumber":"28","PostalCode":"37327","AdditionalData":[{"value":"Deutschland","key":"CountryName"},{"value":"Thüringen","key":"StateName"},{"value":"Eichsfeld","key":"CountyName"}]},"MapReference":{"ReferenceId":"841212327","Spot":0.27,"SideOfStreet":"right","CountryId":"20147700","StateId":"20196974","CountyId":"20197060","CityId":"20651889","DistrictId":"20651946","AddressId":"189558628","RoadLinkId":"223131796"}}}]}]}}