{"Response":{"MetaInfo":{"Timestamp":"2020-03-28T10:39:17.344+0000","NextPageInformation":"2"},"View":[{"_type":"SearchResultsViewType","ViewId":0,"Result":[{"Relevance":1.0,"Distance":0.0,"Direction":0.0,"MatchLevel":"district","MatchQuality":{"Country":1.0,"State":1.0,"County":1.0,"City":1.0,"District":1.0,"PostalCode":1.0},"Location":{"LocationId":"NT_wJR-6XWtUueGiNTSHuvUmC","LocationType":"point","DisplayPosition":{"Latitude":51.3669346,"Longitude":-2.1262759},"MapView":{"TopLeft":{"Latitude":51.38903,"Longitude":-2.16047},"BottomRight":{"Latitude":51.35247,"Longitude":-2.11292}},"Address":{"Label":"Melksham, England, United Kingdom","Country":"GBR","State":"England","County":"Wiltshire","City":"Melksham","District":"Melksham","PostalCode":"SN12 7","AdditionalData":[{"value":"United Kingdom","key":"CountryName"},{"value":"England","key":"StateName"},{"value":"Wiltshire","key":"CountyName"}]},"MapReference":{"ReferenceId":"873078073","SideOfStreet":"neither","StateId":"20248595","CountyId":"20338966","CityId":"20352028","DistrictId":"20352029"}}},{"Relevance":1.0,"Distance":32.5,"MatchLevel":"postalCode","MatchQuality":{"PostalCode":1.0},"MatchType":"interpolated","Location":{"LocationId":"NT_5izVQ2AbvzheZMp7lA4.JD_l_26540697_L_xA","LocationType":"point","DisplayPosition":{"Latitude":51.36718,"Longitude":-2.12653},"MapView":{"TopLeft":{"Latitude":51.3761732,"Longitude":-2.1409347},"BottomRight":{"Latitude":51.3581868,"Longitude":-2.1121253}},"Address":{"Label":"SN12 6UN, Melksham, England, United Kingdom","Country":"GBR","State":"England","County":"Wiltshire","City":"Melksham","PostalCode":"SN12 6UN","AdditionalData":[{"value":"United Kingdom","key":"CountryName"},{"value":"England","key":"StateName"},{"value":"Wiltshire","key":"CountyName"}]},"MapReference":{"ReferenceId":"26540697","Spot":0.53,"SideOfStreet":"neither","StateId":"20248595","CountyId":"20338966","CityId":"20352028"}}},{"Relevance":1.0,"Distance":40.7,"MatchLevel":"street","MatchQuality":{"Country":1.0,"State":1.0,"County":1.0,"City":1.0,"District":1.0,"Street":[1.0],"PostalCode":1.0},"Location":{"LocationId":"NT_5izVQ2AbvzheZMp7lA4.JD_l_26540684_R","LocationType":"point","DisplayPosition":{"Latitude":51.36728,"Longitude":-2.12647},"MapView":{"TopLeft":{"Latitude":51.36762,"Longitude":-2.12647},"BottomRight":{"Latitude":51.36728,"Longitude":-2.12611}},"Address":{"Label":"Snowberry Lane, Melksham, SN12 6, United Kingdom","Country":"GBR","State":"England","County":"Wiltshire","City":"Melksham","District":"Melksham","Street":"Snowberry Lane","PostalCode":"SN12 6","AdditionalData":[{"value":"United Kingdom","key":"CountryName"},{"value":"England","key":"StateName"},{"value":"Wiltshire","key":"CountyName"}]},"MapReference":{"ReferenceId":"26540684","Spot":0.0,"SideOfStreet":"right","StateId":"20248595","CountyId":"20338966","CityId":"20352028","DistrictId":"20352029"}}},{"Relevance":1.0,"Distance":43.6,"MatchLevel":"houseNumber","MatchQuality":{"Country":1.0,"State":1.0,"County":1.0,"City":1.0,"District":1.0,"Street":[1.0],"HouseNumber":1.0,"PostalCode":1.0},"MatchType":"interpolated","Location":{"LocationId":"NT_YbAgseGxfNrVTqFTz4EnkD_l_26540685_L_xA","LocationType":"point","DisplayPosition":{"Latitude":51.3673501,"Longitude":-2.1266401},"MapView":{"TopLeft":{"Latitude":51.3684742,"Longitude":-2.1284407},"BottomRight":{"Latitude":51.3662259,"Longitude":-2.1248395}},"Address":{"Label":"1 Lavender Close, Melksham, SN12 6, United Kingdom","Country":"GBR","State":"England","County":"Wiltshire","City":"Melksham","District":"Melksham","Street":"Lavender Close","HouseNumber":"1","PostalCode":"SN12 6","AdditionalData":[{"value":"United Kingdom","key":"CountryName"},{"value":"England","key":"StateName"},{"value":"Wiltshire","key":"CountyName"}]},"MapReference":{"ReferenceId":"26540685","Spot":0.09,"SideOfStreet":"left","StateId":"20248595","CountyId":"20338966","CityId":"20352028","DistrictId":"20352029"}}},{"Relevance":1.0,"Distance":46.4,"MatchLevel":"houseNumber","MatchQuality":{"Country":1.0,"State":1.0,"County":1.0,"City":1.0,"District":1.0,"Street":[1.0],"HouseNumber":1.0,"PostalCode":1.0},"MatchType":"interpolated","Location":{"LocationId":"NT_5izVQ2AbvzheZMp7lA4.JD_l_26540697_L_xA","LocationType":"point","DisplayPosition":{"Latitude":51.3670306,"Longitude":-2.1269266},"MapView":{"TopLeft":{"Latitude":51.3681548,"Longitude":-2.1287272},"BottomRight":{"Latitude":51.3659065,"Longitude":-2.125126}},"Address":{"Label":"1 Snowberry Lane, Melksham, SN12 6FP, United Kingdom","Country":"GBR","State":"England","County":"Wiltshire","City":"Melksham","District":"Melksham","Street":"Snowberry Lane","HouseNumber":"1","PostalCode":"SN12 6FP","AdditionalData":[{"value":"United Kingdom","key":"CountryName"},{"value":"England","key":"StateName"},{"value":"Wiltshire","key":"CountyName"}]},"MapReference":{"ReferenceId":"26540697","Spot":0.53,"SideOfStreet":"left","StateId":"20248595","CountyId":"20338966","CityId":"20352028","DistrictId":"20352029"}}},{"Relevance":1.0,"Distance":77.1,"MatchLevel":"street","MatchQuality":{"Country":1.0,"State":1.0,"County":1.0,"City":1.0,"District":1.0,"Street":[1.0],"PostalCode":1.0},"Location":{"LocationId":"NT_XIgZD-LUZL3YTS4Sm4A57D_l_26540672_R","LocationType":"point","DisplayPosition":{"Latitude":51.36762,"Longitude":-2.12611},"MapView":{"TopLeft":{"Latitude":51.36762,"Longitude":-2.12611},"BottomRight":{"Latitude":51.36759,"Longitude":-2.12463}},"Address":{"Label":"Long Leaze Lane, Melksham, SN12 6, United Kingdom","Country":"GBR","State":"England","County":"Wiltshire","City":"Melksham","District":"Melksham","Street":"Long Leaze Lane","PostalCode":"SN12 6","AdditionalData":[{"value":"United Kingdom","key":"CountryName"},{"value":"England","key":"StateName"},{"value":"Wiltshire","key":"CountyName"}]},"MapReference":{"ReferenceId":"26540672","Spot":0.0,"SideOfStreet":"right","StateId":"20248595","CountyId":"20338966","CityId":"20352028","DistrictId":"20352029"}}},{"Relevance":1.0,"Distance":77.1,"MatchLevel":"street","MatchQuality":{"Country":1.0,"State":1.0,"County":1.0,"City":1.0,"District":1.0,"Street":[1.0],"PostalCode":1.0},"Location":{"LocationId":"NT_5izVQ2AbvzheZMp7lA4.JD_l_78793236_R","LocationType":"point","DisplayPosition":{"Latitude":51.36762,"Longitude":-2.12611},"MapView":{"TopLeft":{"Latitude":51.36834,"Longitude":-2.12611},"BottomRight":{"Latitude":51.36762,"Longitude":-2.1257}},"Address":{"Label":"Snowberry Lane, Melksham, SN12 6, United Kingdom","Country":"GBR","State":"England","County":"Wiltshire","City":"Melksham","District":"Melksham","Street":"Snowberry Lane","PostalCode":"SN12 6","AdditionalData":[{"value":"United Kingdom","key":"CountryName"},{"value":"England","key":"StateName"},{"value":"Wiltshire","key":"CountyName"}]},"MapReference":{"ReferenceId":"78793236","Spot":0.0,"SideOfStreet":"right","StateId":"20248595","CountyId":"20338966","CityId":"20352028","DistrictId":"20352029"}}},{"Relevance":1.0,"Distance":83.5,"MatchLevel":"street","MatchQuality":{"Country":1.0,"State":1.0,"County":1.0,"City":1.0,"District":1.0,"Street":[1.0],"PostalCode":1.0},"Location":{"LocationId":"NT_XIgZD-LUZL3YTS4Sm4A57D_l_26540679_R","LocationType":"point","DisplayPosition":{"Latitude":51.36765,"Longitude":-2.12664},"MapView":{"TopLeft":{"Latitude":51.36769,"Longitude":-2.12917},"BottomRight":{"Latitude":51.36738,"Longitude":-2.12664}},"Address":{"Label":"Long Leaze Lane, Melksham, SN12 6, United Kingdom","Country":"GBR","State":"England","County":"Wiltshire","City":"Melksham","District":"Melksham","Street":"Long Leaze Lane","PostalCode":"SN12 6","AdditionalData":[{"value":"United Kingdom","key":"CountryName"},{"value":"England","key":"StateName"},{"value":"Wiltshire","key":"CountyName"}]},"MapReference":{"ReferenceId":"26540679","Spot":1.0,"SideOfStreet":"right","StateId":"20248595","CountyId":"20338966","CityId":"20352028","DistrictId":"20352029"}}},{"Relevance":1.0,"Distance":83.6,"MatchLevel":"street","MatchQuality":{"Country":1.0,"State":1.0,"County":1.0,"City":1.0,"District":1.0,"Street":[1.0],"PostalCode":1.0},"Location":{"LocationId":"NT_BvEP5B737dRbk7HBWxsZTB_l_26540703_L","LocationType":"point","DisplayPosition":{"Latitude":51.36684,"Longitude":-2.12747},"MapView":{"TopLeft":{"Latitude":51.36684,"Longitude":-2.12794},"BottomRight":{"Latitude":51.36678,"Longitude":-2.12747}},"Address":{"Label":"Snowberry Lane, Melksham, SN12 6, United Kingdom","Country":"GBR","State":"England","County":"Wiltshire","City":"Melksham","District":"Melksham","Street":"Snowberry Lane","PostalCode":"SN12 6","AdditionalData":[{"value":"United Kingdom","key":"CountryName"},{"value":"England","key":"StateName"},{"value":"Wiltshire","key":"CountyName"}]},"MapReference":{"ReferenceId":"26540703","Spot":1.0,"SideOfStreet":"left","StateId":"20248595","CountyId":"20338966","CityId":"20352028","DistrictId":"20352029"}}},{"Relevance":1.0,"Distance":83.6,"MatchLevel":"street","MatchQuality":{"Country":1.0,"State":1.0,"County":1.0,"City":1.0,"District":1.0,"Street":[1.0],"PostalCode":1.0},"Location":{"LocationId":"NT_5izVQ2AbvzheZMp7lA4.JD_l_26540707_R","LocationType":"point","DisplayPosition":{"Latitude":51.36684,"Longitude":-2.12747},"MapView":{"TopLeft":{"Latitude":51.36684,"Longitude":-2.12782},"BottomRight":{"Latitude":51.36666,"Longitude":-2.12747}},"Address":{"Label":"Snowberry Lane, Melksham, SN12 6, United Kingdom","Country":"GBR","State":"England","County":"Wiltshire","City":"Melksham","District":"Melksham","Street":"Snowberry Lane","PostalCode":"SN12 6","AdditionalData":[{"value":"United Kingdom","key":"CountryName"},{"value":"England","key":"StateName"},{"value":"Wiltshire","key":"CountyName"}]},"MapReference":{"ReferenceId":"26540707","Spot":1.0,"SideOfStreet":"right","StateId":"20248595","CountyId":"20338966","CityId":"20352028","DistrictId":"20352029"}}}]}]}}