{"Response":{"MetaInfo":{"Timestamp":"2020-03-28T11:02:00.188+0000","NextPageInformation":"2"},"View":[{"_type":"SearchResultsViewType","ViewId":0,"Result":[{"Relevance":1.0,"Distance":0.0,"Direction":0.0,"MatchLevel":"district","MatchQuality":{"Country":1.0,"State":1.0,"County":1.0,"City":1.0,"District":1.0,"PostalCode":1.0},"Location":{"LocationId":"NT_6f7p-AYzbHbi9xPypSMBAD","LocationType":"point","DisplayPosition":{"Latitude":51.3787919,"Longitude":7.6891867},"MapView":{"TopLeft":{"Latitude":51.40757,"Longitude":7.58711},"BottomRight":{"Latitude":51.34732,"Longitude":7.74257}},"Address":{"Label":"Iserlohn, Nordrhein-Westfalen, Deutschland","Country":"DEU","State":"Nordrhein-Westfalen","County":"Märkischer Kreis","City":"Iserlohn","District":"Iserlohn","PostalCode":"58636","AdditionalData":[{"value":"Deutschland","key":"CountryName"},{"value":"Nordrhein-Westfalen","key":"StateName"},{"value":"Märkischer Kreis","key":"CountyName"}]},"MapReference":{"ReferenceId":"1198476718","SideOfStreet":"neither","CountryId":"20147700","StateId":"20157369","CountyId":"20160489","CityId":"20160520","DistrictId":"20160522"}}},{"Relevance":1.0,"Distance":1.8,"MatchLevel":"street","MatchQuality":{"Country":1.0,"State":1.0,"County":1.0,"City":1.0,"District":1.0,"Street":[1.0],"PostalCode":1.0},"Location":{"LocationId":"NT_8rUY.nYw48uNJw.Shz4fPB_l_74844972_L","LocationType":"point","DisplayPosition":{"Latitude":51.378804,"Longitude":7.6891706},"MapView":{"TopLeft":{"Latitude":51.38024,"Longitude":7.68916},"BottomRight":{"Latitude":51.37879,"Longitude":7.69105}},"Address":{"Label":"Südstraße, 58638 Iserlohn, Deutschland","Country":"DEU","State":"Nordrhein-Westfalen","County":"Märkischer Kreis","City":"Iserlohn","District":"Iserlohn","Street":"Südstraße","PostalCode":"58638","AdditionalData":[{"value":"Deutschland","key":"CountryName"},{"value":"Nordrhein-Westfalen","key":"StateName"},{"value":"Märkischer Kreis","key":"CountyName"}]},"MapReference":{"ReferenceId":"74844972","Spot":0.01,"SideOfStreet":"neither","CountryId":"20147700","StateId":"20157369","CountyId":"20160489","CityId":"20160520","DistrictId":"20160522"}}},{"Relevance":1.0,"Distance":13.1,"MatchLevel":"houseNumber","MatchQuality":{"Country":1.0,"State":1.0,"County":1.0,"City":1.0,"District":1.0,"Street":[1.0],"HouseNumber":1.0,"PostalCode":1.0},"MatchType":"interpolated","Location":{"LocationId":"NT_nnYRZkQ2gheuSUe2q6VPjA_xYD","LocationType":"point","DisplayPosition":{"Latitude":51.37884,"Longitude":7.68904},"MapView":{"TopLeft":{"Latitude":51.3799642,"Longitude":7.687239},"BottomRight":{"Latitude":51.3777158,"Longitude":7.690841}},"Address":{"Label":"Dördelweg 16, 58638 Iserlohn, Deutschland","Country":"DEU","State":"Nordrhein-Westfalen","County":"Märkischer Kreis","City":"Iserlohn","District":"Iserlohn","Street":"Dördelweg","HouseNumber":"16","PostalCode":"58638","AdditionalData":[{"value":"Deutschland","key":"CountryName"},{"value":"Nordrhein-Westfalen","key":"StateName"},{"value":"Märkischer Kreis","key":"CountyName"}]},"MapReference":{"ReferenceId":"74842958","Spot":0.21,"SideOfStreet":"right","CountryId":"20147700","StateId":"20157369","CountyId":"20160489","CityId":"20160520","DistrictId":"20160522","AddressId":"194273103","RoadLinkId":"35634706"}}},{"Relevance":1.0,"Distance":28.0,"MatchLevel":"houseNumber","MatchQuality":{"Country":1.0,"State":1.0,"County":1.0,"City":1.0,"District":1.0,"Street":[1.0],"HouseNumber":1.0,"PostalCode":1.0},"MatchType":"interpolated","Location":{"LocationId":"NT_D0nC0CjQBk6szZzSzi3EpC_yID","LocationType":"point","DisplayPosition":{"Latitude":51.3786,"Longitude":7.689},"MapView":{"TopLeft":{"Latitude":51.3797242,"Longitude":7.687199},"BottomRight":{"Latitude":51.3774758,"Longitude":7.690801}},"Address":{"Label":"Hallstraße 22, 58638 Iserlohn, Deutschland","Country":"DEU","State":"Nordrhein-Westfalen","County":"Märkischer Kreis","City":"Iserlohn","District":"Iserlohn","Street":"Hallstraße","HouseNumber":"22","PostalCode":"58638","AdditionalData":[{"value":"Deutschland","key":"CountryName"},{"value":"Nordrhein-Westfalen","key":"StateName"},{"value":"Märkischer Kreis","key":"CountyName"}]},"MapReference":{"ReferenceId":"74842993","Spot":0.76,"SideOfStreet":"right","CountryId":"20147700","StateId":"20157369","CountyId":"20160489","CityId":"20160520","DistrictId":"20160522","AddressId":"193580525","RoadLinkId":"35477569"}}},{"Relevance":1.0,"Distance":41.9,"MatchLevel":"houseNumber","MatchQuality":{"Country":1.0,"State":1.0,"County":1.0,"City":1.0,"District":1.0,"Street":[1.0],"HouseNumber":1.0,"PostalCode":1.0},"MatchType":"interpolated","Location":{"LocationId":"NT_7JB3QO2D.HneGBHsJXhW3C_0A","LocationType":"point","DisplayPosition":{"Latitude":51.37917,"Longitude":7.68873},"MapView":{"TopLeft":{"Latitude":51.3802942,"Longitude":7.6869289},"BottomRight":{"Latitude":51.3780458,"Longitude":7.6905311}},"Address":{"Label":"Schnadeweg 4, 58638 Iserlohn, Deutschland","Country":"DEU","State":"Nordrhein-Westfalen","County":"Märkischer Kreis","City":"Iserlohn","District":"Iserlohn","Street":"Schnadeweg","HouseNumber":"4","PostalCode":"58638","AdditionalData":[{"value":"Deutschland","key":"CountryName"},{"value":"Nordrhein-Westfalen","key":"StateName"},{"value":"Märkischer Kreis","key":"CountyName"}]},"MapReference":{"ReferenceId":"74842949","Spot":0.12,"SideOfStreet":"right","CountryId":"20147700","StateId":"20157369","CountyId":"20160489","CityId":"20160520","DistrictId":"20160522","AddressId":"195585661","RoadLinkId":"35645888"}}},{"Relevance":1.0,"Distance":46.8,"MatchLevel":"houseNumber","MatchQuality":{"Country":1.0,"State":1.0,"County":1.0,"City":1.0,"District":1.0,"Street":[1.0],"HouseNumber":1.0,"PostalCode":1.0},"MatchType":"interpolated","Location":{"LocationId":"NT_nnYRZkQ2gheuSUe2q6VPjA_xAD","LocationType":"point","DisplayPosition":{"Latitude":51.37857,"Longitude":7.68976},"MapView":{"TopLeft":{"Latitude":51.3796942,"Longitude":7.687959},"BottomRight":{"Latitude":51.3774458,"Longitude":7.691561}},"Address":{"Label":"Dördelweg 10, 58638 Iserlohn, Deutschland","Country":"DEU","State":"Nordrhein-Westfalen","County":"Märkischer Kreis","City":"Iserlohn","District":"Iserlohn","Street":"Dördelweg","HouseNumber":"10","PostalCode":"58638","AdditionalData":[{"value":"Deutschland","key":"CountryName"},{"value":"Nordrhein-Westfalen","key":"StateName"},{"value":"Märkischer Kreis","key":"CountyName"}]},"MapReference":{"ReferenceId":"74842961","Spot":0.2,"SideOfStreet":"right","CountryId":"20147700","StateId":"20157369","CountyId":"20160489","CityId":"20160520","DistrictId":"20160522","AddressId":"192647048","RoadLinkId":"35755788"}}},{"Relevance":1.0,"Distance":48.0,"MatchLevel":"street","MatchQuality":{"Country":1.0,"State":1.0,"County":1.0,"City":1.0,"District":1.0,"Street":[1.0],"PostalCode":1.0},"Location":{"LocationId":"NT_nnYRZkQ2gheuSUe2q6VPjA_l_74842950_R","LocationType":"point","DisplayPosition":{"Latitude":51.37901,"Longitude":7.68859},"MapView":{"TopLeft":{"Latitude":51.37906,"Longitude":7.68846},"BottomRight":{"Latitude":51.37901,"Longitude":7.68859}},"Address":{"Label":"Dördelweg, 58638 Iserlohn, Deutschland","Country":"DEU","State":"Nordrhein-Westfalen","County":"Märkischer Kreis","City":"Iserlohn","District":"Iserlohn","Street":"Dördelweg","PostalCode":"58638","AdditionalData":[{"value":"Deutschland","key":"CountryName"},{"value":"Nordrhein-Westfalen","key":"StateName"},{"value":"Märkischer Kreis","key":"CountyName"}]},"MapReference":{"ReferenceId":"74842950","Spot":0.0,"SideOfStreet":"right","CountryId":"20147700","StateId":"20157369","CountyId":"20160489","CityId":"20160520","DistrictId":"20160522"}}},{"Relevance":1.0,"Distance":54.5,"MatchLevel":"houseNumber","MatchQuality":{"Country":1.0,"State":1.0,"County":1.0,"City":1.0,"District":1.0,"Street":[1.0],"HouseNumber":1.0,"PostalCode":1.0},"MatchType":"interpolated","Location":{"LocationId":"NT_9thNNSxE81zBA7bfU77LOD_zcD","LocationType":"point","DisplayPosition":{"Latitude":51.37837,"Longitude":7.68977},"MapView":{"TopLeft":{"Latitude":51.3794942,"Longitude":7.687969},"BottomRight":{"Latitude":51.3772458,"Longitude":7.691571}},"Address":{"Label":"Zimmerstraße 37, 58638 Iserlohn, Deutschland","Country":"DEU","State":"Nordrhein-Westfalen","County":"Märkischer Kreis","City":"Iserlohn","District":"Iserlohn","Street":"Zimmerstraße","HouseNumber":"37","PostalCode":"58638","AdditionalData":[{"value":"Deutschland","key":"CountryName"},{"value":"Nordrhein-Westfalen","key":"StateName"},{"value":"Märkischer Kreis","key":"CountyName"}]},"MapReference":{"ReferenceId":"74844968","Spot":0.8,"SideOfStreet":"left","CountryId":"20147700","StateId":"20157369","CountyId":"20160489","CityId":"20160520","DistrictId":"20160522","AddressId":"194999677","RoadLinkId":"35201739"}}},{"Relevance":1.0,"Distance":61.0,"MatchLevel":"houseNumber","MatchQuality":{"Country":1.0,"State":1.0,"County":1.0,"City":1.0,"District":1.0,"Street":[1.0],"HouseNumber":1.0,"PostalCode":1.0},"MatchType":"interpolated","Location":{"LocationId":"NT_JPIv08573FYw1uuoeAvctC_yAD","LocationType":"point","DisplayPosition":{"Latitude":51.37875,"Longitude":7.68819},"MapView":{"TopLeft":{"Latitude":51.3798742,"Longitude":7.686389},"BottomRight":{"Latitude":51.3776258,"Longitude":7.689991}},"Address":{"Label":"Memelstraße 20, 58638 Iserlohn, Deutschland","Country":"DEU","State":"Nordrhein-Westfalen","County":"Märkischer Kreis","City":"Iserlohn","District":"Iserlohn","Street":"Memelstraße","HouseNumber":"20","PostalCode":"58638","AdditionalData":[{"value":"Deutschland","key":"CountryName"},{"value":"Nordrhein-Westfalen","key":"StateName"},{"value":"Märkischer Kreis","key":"CountyName"}]},"MapReference":{"ReferenceId":"74842982","Spot":0.63,"SideOfStreet":"right","CountryId":"20147700","StateId":"20157369","CountyId":"20160489","CityId":"20160520","DistrictId":"20160522","AddressId":"196474677","RoadLinkId":"35470611"}}},{"Relevance":1.0,"Distance":94.5,"MatchLevel":"houseNumber","MatchQuality":{"Country":1.0,"State":1.0,"County":1.0,"City":1.0,"District":1.0,"Street":[1.0],"HouseNumber":1.0,"PostalCode":1.0},"MatchType":"interpolated","Location":{"LocationId":"NT_nnYRZkQ2gheuSUe2q6VPjA_3A","LocationType":"point","DisplayPosition":{"Latitude":51.37839,"Longitude":7.69026},"MapView":{"TopLeft":{"Latitude":51.3795142,"Longitude":7.688459},"BottomRight":{"Latitude":51.3772658,"Longitude":7.692061}},"Address":{"Label":"Dördelweg 7, 58638 Iserlohn, Deutschland","Country":"DEU","State":"Nordrhein-Westfalen","County":"Märkischer Kreis","City":"Iserlohn","District":"Iserlohn","Street":"Dördelweg","HouseNumber":"7","PostalCode":"58638","AdditionalData":[{"value":"Deutschland","key":"CountryName"},{"value":"Nordrhein-Westfalen","key":"StateName"},{"value":"Märkischer Kreis","key":"CountyName"}]},"MapReference":{"ReferenceId":"74842981","Spot":0.54,"SideOfStreet":"left","CountryId":"20147700","StateId":"20157369","CountyId":"20160489","CityId":"20160520","DistrictId":"20160522","AddressId":"196683405","RoadLinkId":"35641241"}}}]}]}}