{"Response":{"MetaInfo":{"Timestamp":"2020-03-28T11:59:52.383+0000","NextPageInformation":"2"},"View":[{"_type":"SearchResultsViewType","ViewId":0,"Result":[{"Relevance":1.0,"Distance":0.0,"Direction":0.0,"MatchLevel":"district","MatchQuality":{"Country":1.0,"State":1.0,"County":1.0,"City":1.0,"District":1.0,"PostalCode":1.0},"Location":{"LocationId":"NT_WrCMctCeqqXPel0zyNdpHA","LocationType":"point","DisplayPosition":{"Latitude":51.3603363,"Longitude":1.4321955},"MapView":{"TopLeft":{"Latitude":51.3707,"Longitude":1.40841},"BottomRight":{"Latitude":51.3566,"Longitude":1.4328}},"Address":{"Label":"St Peters, Broadstairs, England, United Kingdom","Country":"GBR","State":"England","County":"Kent","City":"Broadstairs","District":"St Peters","PostalCode":"CT10 2","AdditionalData":[{"value":"United Kingdom","key":"CountryName"},{"value":"England","key":"StateName"},{"value":"Kent","key":"CountyName"}]},"MapReference":{"ReferenceId":"25630117","SideOfStreet":"neither","StateId":"20248595","CountyId":"20336836","CityId":"20336913","DistrictId":"20336916"}}},{"Relevance":1.0,"Distance":7.8,"MatchLevel":"houseNumber","MatchQuality":{"Country":1.0,"State":1.0,"County":1.0,"City":1.0,"District":1.0,"Street":[1.0],"HouseNumber":1.0,"PostalCode":1.0},"MatchType":"interpolated","Location":{"LocationId":"NT_Zt3O.orP6irI2b4im5q3lC_l_25630706_L_xA","LocationType":"point","DisplayPosition":{"Latitude":51.360408,"Longitude":1.432265},"MapView":{"TopLeft":{"Latitude":51.3615322,"Longitude":1.4304647},"BottomRight":{"Latitude":51.3592838,"Longitude":1.4340653}},"Address":{"Label":"1 The Broadway, Broadstairs, CT10 2, United Kingdom","Country":"GBR","State":"England","County":"Kent","City":"Broadstairs","District":"St Peters","Street":"The Broadway","HouseNumber":"1","PostalCode":"CT10 2","AdditionalData":[{"value":"United Kingdom","key":"CountryName"},{"value":"England","key":"StateName"},{"value":"Kent","key":"CountyName"}]},"MapReference":{"ReferenceId":"25630706","Spot":0.69,"SideOfStreet":"left","StateId":"20248595","CountyId":"20336836","CityId":"20336913","DistrictId":"20336916"}}},{"Relevance":1.0,"Distance":14.4,"MatchLevel":"street","MatchQuality":{"Country":1.0,"State":1.0,"County":1.0,"City":1.0,"District":1.0,"Street":[1.0],"PostalCode":1.0},"Location":{"LocationId":"NT_h87n2-2N.cos.tZHu0FSNA_l_25630997_R","LocationType":"point","DisplayPosition":{"Latitude":51.3604079,"Longitude":1.4320226},"MapView":{"TopLeft":{"Latitude":51.36045,"Longitude":1.43134},"BottomRight":{"Latitude":51.35871,"Longitude":1.43204}},"Address":{"Label":"Osborne Road, Broadstairs, CT10 2, United Kingdom","Country":"GBR","State":"England","County":"Kent","City":"Broadstairs","District":"Broadstairs","Street":"Osborne Road","PostalCode":"CT10 2","AdditionalData":[{"value":"United Kingdom","key":"CountryName"},{"value":"England","key":"StateName"},{"value":"Kent","key":"CountyName"}]},"MapReference":{"ReferenceId":"25630997","Spot":0.98,"SideOfStreet":"right","StateId":"20248595","CountyId":"20336836","CityId":"20336913","DistrictId":"20336914"}}},{"Relevance":1.0,"Distance":17.5,"MatchLevel":"postalCode","MatchQuality":{"PostalCode":1.0},"MatchType":"interpolated","Location":{"LocationId":"NT_Zt3O.orP6irI2b4im5q3lC_l_25630706_L_xA","LocationType":"point","DisplayPosition":{"Latitude":51.36045,"Longitude":1.43237},"MapView":{"TopLeft":{"Latitude":51.3694432,"Longitude":1.4179675},"BottomRight":{"Latitude":51.3514568,"Longitude":1.4467725}},"Address":{"Label":"CT10 2BS, Broadstairs, England, United Kingdom","Country":"GBR","State":"England","County":"Kent","City":"Broadstairs","PostalCode":"CT10 2BS","AdditionalData":[{"value":"United Kingdom","key":"CountryName"},{"value":"England","key":"StateName"},{"value":"Kent","key":"CountyName"}]},"MapReference":{"ReferenceId":"25630706","Spot":0.69,"SideOfStreet":"neither","StateId":"20248595","CountyId":"20336836","CityId":"20336913"}}},{"Relevance":1.0,"Distance":27.0,"MatchLevel":"houseNumber","MatchQuality":{"Country":1.0,"State":1.0,"County":1.0,"City":1.0,"District":1.0,"Street":[1.0],"HouseNumber":1.0,"PostalCode":1.0},"MatchType":"interpolated","Location":{"LocationId":"NT_OsEGYZpnI-Dq6m6TMrejyD_l_25630702_L_xA","LocationType":"point","DisplayPosition":{"Latitude":51.36048,"Longitude":1.4318299},"MapView":{"TopLeft":{"Latitude":51.3616042,"Longitude":1.4300296},"BottomRight":{"Latitude":51.3593559,"Longitude":1.4336302}},"Address":{"Label":"1 The Broadway, Broadstairs, CT10 2AD, United Kingdom","Country":"GBR","State":"England","County":"Kent","City":"Broadstairs","District":"St Peters","Street":"The Broadway","HouseNumber":"1","PostalCode":"CT10 2AD","AdditionalData":[{"value":"United Kingdom","key":"CountryName"},{"value":"England","key":"StateName"},{"value":"Kent","key":"CountyName"}]},"MapReference":{"ReferenceId":"25630702","Spot":0.19,"SideOfStreet":"left","StateId":"20248595","CountyId":"20336836","CityId":"20336913","DistrictId":"20336916"}}},{"Relevance":1.0,"Distance":27.8,"MatchLevel":"postalCode","MatchQuality":{"PostalCode":1.0},"MatchType":"interpolated","Location":{"LocationId":"NT_OsEGYZpnI-Dq6m6TMrejyD_l_25630702_L_xA","LocationType":"point","DisplayPosition":{"Latitude":51.36013,"Longitude":1.43197},"MapView":{"TopLeft":{"Latitude":51.3691232,"Longitude":1.4175676},"BottomRight":{"Latitude":51.3511368,"Longitude":1.4463724}},"Address":{"Label":"CT10 2AD, Broadstairs, England, United Kingdom","Country":"GBR","State":"England","County":"Kent","City":"Broadstairs","PostalCode":"CT10 2AD","AdditionalData":[{"value":"United Kingdom","key":"CountryName"},{"value":"England","key":"StateName"},{"value":"Kent","key":"CountyName"}]},"MapReference":{"ReferenceId":"25630702","Spot":0.19,"SideOfStreet":"neither","StateId":"20248595","CountyId":"20336836","CityId":"20336913"}}},{"Relevance":1.0,"Distance":37.4,"MatchLevel":"houseNumber","MatchQuality":{"Country":1.0,"State":1.0,"County":1.0,"City":1.0,"District":1.0,"Street":[1.0],"HouseNumber":1.0,"PostalCode":1.0},"MatchType":"interpolated","Location":{"LocationId":"NT_H.oabx99.hLp25AxQb6rdA_l_1210835057_L_2A","LocationType":"point","DisplayPosition":{"Latitude":51.359948,"Longitude":1.432588},"MapView":{"TopLeft":{"Latitude":51.3610722,"Longitude":1.4307877},"BottomRight":{"Latitude":51.3588239,"Longitude":1.4343883}},"Address":{"Label":"6 Grosvenor Road, Broadstairs, CT10 2BT, United Kingdom","Country":"GBR","State":"England","County":"Kent","City":"Broadstairs","District":"Broadstairs","Street":"Grosvenor Road","HouseNumber":"6","PostalCode":"CT10 2BT","AdditionalData":[{"value":"United Kingdom","key":"CountryName"},{"value":"England","key":"StateName"},{"value":"Kent","key":"CountyName"}]},"MapReference":{"ReferenceId":"1210835057","Spot":0.75,"SideOfStreet":"left","StateId":"20248595","CountyId":"20336836","CityId":"20336913","DistrictId":"20336914"}}},{"Relevance":1.0,"Distance":39.9,"MatchLevel":"street","MatchQuality":{"Country":1.0,"State":1.0,"County":1.0,"City":1.0,"District":1.0,"Street":[1.0],"PostalCode":1.0},"Location":{"LocationId":"NT_Pq.l.7sS9-8nv.3koGAxTC_l_25630712_L","LocationType":"point","DisplayPosition":{"Latitude":51.36034,"Longitude":1.43277},"MapView":{"TopLeft":{"Latitude":51.36034,"Longitude":1.43277},"BottomRight":{"Latitude":51.3603,"Longitude":1.43307}},"Address":{"Label":"The Broadway, Broadstairs, CT10 1, United Kingdom","Country":"GBR","State":"England","County":"Kent","City":"Broadstairs","District":"Broadstairs","Street":"The Broadway","PostalCode":"CT10 1","AdditionalData":[{"value":"United Kingdom","key":"CountryName"},{"value":"England","key":"StateName"},{"value":"Kent","key":"CountyName"}]},"MapReference":{"ReferenceId":"25630712","Spot":1.0,"SideOfStreet":"left","StateId":"20248595","CountyId":"20336836","CityId":"20336913","DistrictId":"20336914"}}},{"Relevance":1.0,"Distance":42.0,"MatchLevel":"postalCode","MatchQuality":{"PostalCode":1.0},"MatchType":"interpolated","Location":{"LocationId":"NT_H.oabx99.hLp25AxQb6rdA_l_1210835057_L_2A","LocationType":"point","DisplayPosition":{"Latitude":51.3602,"Longitude":1.43276},"MapView":{"TopLeft":{"Latitude":51.3691932,"Longitude":1.4183575},"BottomRight":{"Latitude":51.3512068,"Longitude":1.4471625}},"Address":{"Label":"CT10 2XW, Broadstairs, England, United Kingdom","Country":"GBR","State":"England","County":"Kent","City":"Broadstairs","PostalCode":"CT10 2XW","AdditionalData":[{"value":"United Kingdom","key":"CountryName"},{"value":"England","key":"StateName"},{"value":"Kent","key":"CountyName"}]},"MapReference":{"ReferenceId":"1210835057","Spot":0.75,"SideOfStreet":"neither","StateId":"20248595","CountyId":"20336836","CityId":"20336913"}}},{"Relevance":1.0,"Distance":49.2,"MatchLevel":"houseNumber","MatchQuality":{"Country":1.0,"State":1.0,"County":1.0,"City":1.0,"District":1.0,"Street":[1.0],"HouseNumber":1.0,"PostalCode":1.0},"MatchType":"interpolated","Location":{"LocationId":"NT_E-yz.VErxqaEkNcyxszuXC_l_25630701_R_xgD","LocationType":"point","DisplayPosition":{"Latitude":51.3607647,"Longitude":1.4320156},"MapView":{"TopLeft":{"Latitude":51.3618888,"Longitude":1.4302153},"BottomRight":{"Latitude":51.3596405,"Longitude":1.433816}},"Address":{"Label":"18 St Peters Park Road, Broadstairs, CT10 2, United Kingdom","Country":"GBR","State":"England","County":"Kent","City":"Broadstairs","District":"St Peters","Street":"St Peters Park Road","HouseNumber":"18","PostalCode":"CT10 2","AdditionalData":[{"value":"United Kingdom","key":"CountryName"},{"value":"England","key":"StateName"},{"value":"Kent","key":"CountyName"}]},"MapReference":{"ReferenceId":"25630701","Spot":0.49,"SideOfStreet":"right","StateId":"20248595","CountyId":"20336836","CityId":"20336913","DistrictId":"20336916"}}}]}]}}