{"Response":{"MetaInfo":{"Timestamp":"2020-03-28T10:10:33.289+0000","NextPageInformation":"2"},"View":[{"_type":"SearchResultsViewType","ViewId":0,"Result":[{"Relevance":1.0,"Distance":0.0,"Direction":0.0,"MatchLevel":"district","MatchQuality":{"Country":1.0,"State":1.0,"County":1.0,"City":1.0,"District":1.0,"PostalCode":1.0},"Location":{"LocationId":"NT_Ho6tlNYlpoih0TCr8pK1FC","LocationType":"point","DisplayPosition":{"Latitude":51.3857755,"Longitude":0.5074391},"MapView":{"TopLeft":{"Latitude":51.4156,"Longitude":0.44965},"BottomRight":{"Latitude":51.34869,"Longitude":0.52296}},"Address":{"Label":"Rochester, England, United Kingdom","Country":"GBR","State":"England","County":"Kent","City":"Rochester","District":"Rochester","PostalCode":"ME1 1","AdditionalData":[{"value":"United Kingdom","key":"CountryName"},{"value":"England","key":"StateName"},{"value":"Kent","key":"CountyName"}]},"MapReference":{"ReferenceId":"1022467798","SideOfStreet":"neither","StateId":"20248595","CountyId":"20336836","CityId":"20337254","DistrictId":"20337255"}}},{"Relevance":1.0,"Distance":9.3,"MatchLevel":"street","MatchQuality":{"Country":1.0,"State":1.0,"County":1.0,"City":1.0,"District":1.0,"Street":[1.0],"PostalCode":1.0},"Location":{"LocationId":"NT_edZ78v3.2KpLBiciGUseEB_l_25670227_L","LocationType":"point","DisplayPosition":{"Latitude":51.38585,"Longitude":0.5075},"MapView":{"TopLeft":{"Latitude":51.3863,"Longitude":0.50698},"BottomRight":{"Latitude":51.38576,"Longitude":0.50772}},"Address":{"Label":"Eastgate, Rochester, ME1 1, United Kingdom","Country":"GBR","State":"England","County":"Kent","City":"Rochester","District":"Rochester","Street":"Eastgate","PostalCode":"ME1 1","AdditionalData":[{"value":"United Kingdom","key":"CountryName"},{"value":"England","key":"StateName"},{"value":"Kent","key":"CountyName"}]},"MapReference":{"ReferenceId":"25670227","Spot":0.26,"SideOfStreet":"left","StateId":"20248595","CountyId":"20336836","CityId":"20337254","DistrictId":"20337255"}}},{"Relevance":1.0,"Distance":10.6,"MatchLevel":"houseNumber","MatchQuality":{"Country":1.0,"State":1.0,"County":1.0,"City":1.0,"District":1.0,"Street":[1.0],"HouseNumber":1.0,"PostalCode":1.0},"MatchType":"interpolated","Location":{"LocationId":"NT_teyTP4d-vkaWoJCt6UoDWB_l_25670244_L_yA","LocationType":"point","DisplayPosition":{"Latitude":51.3856375,"Longitude":0.5076761},"MapView":{"TopLeft":{"Latitude":51.3867617,"Longitude":0.5058748},"BottomRight":{"Latitude":51.3845134,"Longitude":0.5094774}},"Address":{"Label":"2 Star Hill, Rochester, ME1 1UX, United Kingdom","Country":"GBR","State":"England","County":"Kent","City":"Rochester","District":"Rochester","Street":"Star Hill","HouseNumber":"2","PostalCode":"ME1 1UX","AdditionalData":[{"value":"United Kingdom","key":"CountryName"},{"value":"England","key":"StateName"},{"value":"Kent","key":"CountyName"}]},"MapReference":{"ReferenceId":"25670244","Spot":0.5,"SideOfStreet":"left","StateId":"20248595","CountyId":"20336836","CityId":"20337254","DistrictId":"20337255"}}},{"Relevance":1.0,"Distance":13.6,"MatchLevel":"postalCode","MatchQuality":{"PostalCode":1.0},"MatchType":"interpolated","Location":{"LocationId":"NT_LbtK7leddfG97oMMHMu8TC_l_25756512_L_xgjN","LocationType":"point","DisplayPosition":{"Latitude":51.38589,"Longitude":0.50737},"MapView":{"TopLeft":{"Latitude":51.3948832,"Longitude":0.4929595},"BottomRight":{"Latitude":51.3768968,"Longitude":0.5217805}},"Address":{"Label":"ME1 1EY, Rochester, England, United Kingdom","Country":"GBR","State":"England","County":"Kent","City":"Rochester","PostalCode":"ME1 1EY","AdditionalData":[{"value":"United Kingdom","key":"CountryName"},{"value":"England","key":"StateName"},{"value":"Kent","key":"CountyName"}]},"MapReference":{"ReferenceId":"25756512","Spot":0.56,"SideOfStreet":"neither","StateId":"20248595","CountyId":"20336836","CityId":"20337254"}}},{"Relevance":1.0,"Distance":19.6,"MatchLevel":"street","MatchQuality":{"Country":1.0,"State":1.0,"County":1.0,"City":1.0,"District":1.0,"Street":[1.0],"PostalCode":1.0},"Location":{"LocationId":"NT_teyTP4d-vkaWoJCt6UoDWB_l_25756511_L","LocationType":"point","DisplayPosition":{"Latitude":51.38576,"Longitude":0.50772},"MapView":{"TopLeft":{"Latitude":51.3862,"Longitude":0.50772},"BottomRight":{"Latitude":51.38576,"Longitude":0.50819}},"Address":{"Label":"Star Hill, Rochester, ME1 1, United Kingdom","Country":"GBR","State":"England","County":"Kent","City":"Rochester","District":"Rochester","Street":"Star Hill","PostalCode":"ME1 1","AdditionalData":[{"value":"United Kingdom","key":"CountryName"},{"value":"England","key":"StateName"},{"value":"Kent","key":"CountyName"}]},"MapReference":{"ReferenceId":"25756511","Spot":0.0,"SideOfStreet":"left","StateId":"20248595","CountyId":"20336836","CityId":"20337254","DistrictId":"20337255"}}},{"Relevance":1.0,"Distance":23.4,"MatchLevel":"houseNumber","MatchQuality":{"Country":1.0,"State":1.0,"County":1.0,"City":1.0,"District":1.0,"Street":[1.0],"HouseNumber":1.0,"PostalCode":1.0},"MatchType":"interpolated","Location":{"LocationId":"NT_9pETCWFRrf6u0PDz6qAP9A_l_25670261_L_yA","LocationType":"point","DisplayPosition":{"Latitude":51.3854378,"Longitude":0.5073973},"MapView":{"TopLeft":{"Latitude":51.3865619,"Longitude":0.505596},"BottomRight":{"Latitude":51.3843136,"Longitude":0.5091986}},"Address":{"Label":"2 Victoria Street, Rochester, ME1 1XH, United Kingdom","Country":"GBR","State":"England","County":"Kent","City":"Rochester","District":"Rochester","Street":"Victoria Street","HouseNumber":"2","PostalCode":"ME1 1XH","AdditionalData":[{"value":"United Kingdom","key":"CountryName"},{"value":"England","key":"StateName"},{"value":"Kent","key":"CountyName"}]},"MapReference":{"ReferenceId":"25670261","Spot":0.74,"SideOfStreet":"left","StateId":"20248595","CountyId":"20336836","CityId":"20337254","DistrictId":"20337255"}}},{"Relevance":1.0,"Distance":30.6,"MatchLevel":"postalCode","MatchQuality":{"PostalCode":1.0},"MatchType":"interpolated","Location":{"LocationId":"NT_teyTP4d-vkaWoJCt6UoDWB_l_25670244_L_yA","LocationType":"point","DisplayPosition":{"Latitude":51.3855,"Longitude":0.50744},"MapView":{"TopLeft":{"Latitude":51.3944932,"Longitude":0.4930296},"BottomRight":{"Latitude":51.3765068,"Longitude":0.5218504}},"Address":{"Label":"ME1 1UX, Rochester, England, United Kingdom","Country":"GBR","State":"England","County":"Kent","City":"Rochester","PostalCode":"ME1 1UX","AdditionalData":[{"value":"United Kingdom","key":"CountryName"},{"value":"England","key":"StateName"},{"value":"Kent","key":"CountyName"}]},"MapReference":{"ReferenceId":"25670244","Spot":0.5,"SideOfStreet":"neither","StateId":"20248595","CountyId":"20336836","CityId":"20337254"}}},{"Relevance":1.0,"Distance":33.9,"MatchLevel":"street","MatchQuality":{"Country":1.0,"State":1.0,"County":1.0,"City":1.0,"District":1.0,"PostalCode":1.0},"Location":{"LocationId":"NT_..cfWPFlNucoVGuzV63P6A_l_1001424368_L","LocationType":"point","DisplayPosition":{"Latitude":51.38551,"Longitude":0.50768},"MapView":{"TopLeft":{"Latitude":51.38563,"Longitude":0.50768},"BottomRight":{"Latitude":51.38551,"Longitude":0.50816}},"Address":{"Label":"Rochester, ME1 1, United Kingdom","Country":"GBR","State":"England","County":"Kent","City":"Rochester","District":"Rochester","PostalCode":"ME1 1","AdditionalData":[{"value":"United Kingdom","key":"CountryName"},{"value":"England","key":"StateName"},{"value":"Kent","key":"CountyName"}]},"MapReference":{"ReferenceId":"1001424368","Spot":0.0,"SideOfStreet":"left","StateId":"20248595","CountyId":"20336836","CityId":"20337254","DistrictId":"20337255"}}},{"Relevance":1.0,"Distance":34.1,"MatchLevel":"houseNumber","MatchQuality":{"Country":1.0,"State":1.0,"County":1.0,"City":1.0,"District":1.0,"Street":[1.0],"HouseNumber":1.0,"PostalCode":1.0},"MatchType":"interpolated","Location":{"LocationId":"NT_LbtK7leddfG97oMMHMu8TC_l_25756512_L_xgjN","LocationType":"point","DisplayPosition":{"Latitude":51.3856982,"Longitude":0.5079145},"MapView":{"TopLeft":{"Latitude":51.3868223,"Longitude":0.5061132},"BottomRight":{"Latitude":51.384574,"Longitude":0.5097158}},"Address":{"Label":"186 High Street, Rochester, ME1 1EY, United Kingdom","Country":"GBR","State":"England","County":"Kent","City":"Rochester","District":"Rochester","Street":"High Street","HouseNumber":"186","PostalCode":"ME1 1EY","AdditionalData":[{"value":"United Kingdom","key":"CountryName"},{"value":"England","key":"StateName"},{"value":"Kent","key":"CountyName"}]},"MapReference":{"ReferenceId":"25756512","Spot":0.56,"SideOfStreet":"left","StateId":"20248595","CountyId":"20336836","CityId":"20337254","DistrictId":"20337255"}}},{"Relevance":1.0,"Distance":36.3,"MatchLevel":"postalCode","MatchQuality":{"PostalCode":1.0},"Location":{"LocationId":"NT_edZ78v3.2KpLBiciGUseEB_l_25670227_L","LocationType":"point","DisplayPosition":{"Latitude":51.38609,"Longitude":0.5073},"MapView":{"TopLeft":{"Latitude":51.3950832,"Longitude":0.4928894},"BottomRight":{"Latitude":51.3770968,"Longitude":0.5217106}},"Address":{"Label":"ME1 2NP, Rochester, England, United Kingdom","Country":"GBR","State":"England","County":"Kent","City":"Rochester","PostalCode":"ME1 2NP","AdditionalData":[{"value":"United Kingdom","key":"CountryName"},{"value":"England","key":"StateName"},{"value":"Kent","key":"CountyName"}]},"MapReference":{"ReferenceId":"25670227","Spot":0.26,"SideOfStreet":"neither","StateId":"20248595","CountyId":"20336836","CityId":"20337254"}}}]}]}}