{"Response":{"MetaInfo":{"Timestamp":"2020-03-28T11:42:14.062+0000","NextPageInformation":"2"},"View":[{"_type":"SearchResultsViewType","ViewId":0,"Result":[{"Relevance":1.0,"Distance":0.0,"Direction":0.0,"MatchLevel":"district","MatchQuality":{"Country":1.0,"State":1.0,"County":1.0,"City":1.0,"District":1.0,"PostalCode":1.0},"Location":{"LocationId":"NT_tCiT6asNthL4z4JoVnYxRD","LocationType":"point","DisplayPosition":{"Latitude":51.475351,"Longitude":7.4377205},"MapView":{"TopLeft":{"Latitude":51.48153,"Longitude":7.43},"BottomRight":{"Latitude":51.46647,"Longitude":7.4508}},"Address":{"Label":"Hombruch, Dortmund, Nordrhein-Westfalen, Deutschland","Country":"DEU","State":"Nordrhein-Westfalen","County":"Dortmund","City":"Dortmund","District":"Hombruch","PostalCode":"44225","AdditionalData":[{"value":"Deutschland","key":"CountryName"},{"value":"Nordrhein-Westfalen","key":"StateName"},{"value":"Dortmund","key":"CountyName"}]},"MapReference":{"ReferenceId":"51155911","SideOfStreet":"neither","CountryId":"20147700","StateId":"20157369","CountyId":"20160172","CityId":"20160173","DistrictId":"20220565"}}},{"Relevance":1.0,"Distance":10.7,"MatchLevel":"houseNumber","MatchQuality":{"Country":1.0,"State":1.0,"County":1.0,"City":1.0,"District":1.0,"Street":[1.0],"HouseNumber":1.0,"PostalCode":1.0},"MatchType":"interpolated","Location":{"LocationId":"NT_ATJ3e0Z7UiyvbfMHzqOTsA_3YD","LocationType":"point","DisplayPosition":{"Latitude":51.47554,"Longitude":7.43763},"MapView":{"TopLeft":{"Latitude":51.4766642,"Longitude":7.4358251},"BottomRight":{"Latitude":51.4744158,"Longitude":7.4394349}},"Address":{"Label":"Harkortstraße 76, 44225 Dortmund, Deutschland","Country":"DEU","State":"Nordrhein-Westfalen","County":"Dortmund","City":"Dortmund","District":"Hombruch","Street":"Harkortstraße","HouseNumber":"76","PostalCode":"44225","AdditionalData":[{"value":"Deutschland","key":"CountryName"},{"value":"Nordrhein-Westfalen","key":"StateName"},{"value":"Dortmund","key":"CountyName"}]},"MapReference":{"ReferenceId":"51153772","Spot":0.54,"SideOfStreet":"right","CountryId":"20147700","StateId":"20157369","CountyId":"20160172","CityId":"20160173","DistrictId":"20220565","AddressId":"168377563","RoadLinkId":"35061010"}}},{"Relevance":1.0,"Distance":34.2,"MatchLevel":"houseNumber","MatchQuality":{"Country":1.0,"State":1.0,"County":1.0,"City":1.0,"District":1.0,"Street":[1.0],"HouseNumber":1.0,"PostalCode":1.0},"MatchType":"interpolated","Location":{"LocationId":"NT_dAV8Gk-XywS5Q1wvpwkWBA_xA","LocationType":"point","DisplayPosition":{"Latitude":51.47519,"Longitude":7.43716},"MapView":{"TopLeft":{"Latitude":51.4763142,"Longitude":7.4353552},"BottomRight":{"Latitude":51.4740658,"Longitude":7.4389648}},"Address":{"Label":"Singerhoffstraße 1, 44225 Dortmund, Deutschland","Country":"DEU","State":"Nordrhein-Westfalen","County":"Dortmund","City":"Dortmund","District":"Hombruch","Street":"Singerhoffstraße","HouseNumber":"1","PostalCode":"44225","AdditionalData":[{"value":"Deutschland","key":"CountryName"},{"value":"Nordrhein-Westfalen","key":"StateName"},{"value":"Dortmund","key":"CountyName"}]},"MapReference":{"ReferenceId":"51155374","Spot":0.62,"SideOfStreet":"right","CountryId":"20147700","StateId":"20157369","CountyId":"20160172","CityId":"20160173","DistrictId":"20220565","AddressId":"169334299","RoadLinkId":"35715364"}}},{"Relevance":1.0,"Distance":36.4,"MatchLevel":"houseNumber","MatchQuality":{"Country":1.0,"State":1.0,"County":1.0,"City":1.0,"District":1.0,"Street":[1.0],"HouseNumber":1.0,"PostalCode":1.0},"MatchType":"interpolated","Location":{"LocationId":"NT_ATJ3e0Z7UiyvbfMHzqOTsA_3AD","LocationType":"point","DisplayPosition":{"Latitude":51.47557,"Longitude":7.4382},"MapView":{"TopLeft":{"Latitude":51.4766942,"Longitude":7.4363951},"BottomRight":{"Latitude":51.4744458,"Longitude":7.4400049}},"Address":{"Label":"Harkortstraße 70, 44225 Dortmund, Deutschland","Country":"DEU","State":"Nordrhein-Westfalen","County":"Dortmund","City":"Dortmund","District":"Hombruch","Street":"Harkortstraße","HouseNumber":"70","PostalCode":"44225","AdditionalData":[{"value":"Deutschland","key":"CountryName"},{"value":"Nordrhein-Westfalen","key":"StateName"},{"value":"Dortmund","key":"CountyName"}]},"MapReference":{"ReferenceId":"51153771","Spot":0.18,"SideOfStreet":"right","CountryId":"20147700","StateId":"20157369","CountyId":"20160172","CityId":"20160173","DistrictId":"20220565","AddressId":"169815418","RoadLinkId":"35593729"}}},{"Relevance":1.0,"Distance":51.7,"MatchLevel":"houseNumber","MatchQuality":{"Country":1.0,"State":1.0,"County":1.0,"City":1.0,"District":1.0,"Street":[1.0],"HouseNumber":1.0,"PostalCode":1.0},"MatchType":"interpolated","Location":{"LocationId":"NT_ATJ3e0Z7UiyvbfMHzqOTsA_4AD","LocationType":"point","DisplayPosition":{"Latitude":51.4755,"Longitude":7.43697},"MapView":{"TopLeft":{"Latitude":51.4766242,"Longitude":7.4351651},"BottomRight":{"Latitude":51.4743758,"Longitude":7.4387749}},"Address":{"Label":"Harkortstraße 80, 44225 Dortmund, Deutschland","Country":"DEU","State":"Nordrhein-Westfalen","County":"Dortmund","City":"Dortmund","District":"Hombruch","Street":"Harkortstraße","HouseNumber":"80","PostalCode":"44225","AdditionalData":[{"value":"Deutschland","key":"CountryName"},{"value":"Nordrhein-Westfalen","key":"StateName"},{"value":"Dortmund","key":"CountyName"}]},"MapReference":{"ReferenceId":"51153773","Spot":0.77,"SideOfStreet":"right","CountryId":"20147700","StateId":"20157369","CountyId":"20160172","CityId":"20160173","DistrictId":"20220565","AddressId":"167989280","RoadLinkId":"35417746"}}},{"Relevance":1.0,"Distance":62.9,"MatchLevel":"houseNumber","MatchQuality":{"Country":1.0,"State":1.0,"County":1.0,"City":1.0,"District":1.0,"Street":[1.0],"HouseNumber":1.0,"PostalCode":1.0},"MatchType":"interpolated","Location":{"LocationId":"NT_Rxpf.59O.yEvcqL9bkB5.C_xA","LocationType":"point","DisplayPosition":{"Latitude":51.47591,"Longitude":7.43802},"MapView":{"TopLeft":{"Latitude":51.4770342,"Longitude":7.4362151},"BottomRight":{"Latitude":51.4747858,"Longitude":7.4398249}},"Address":{"Label":"Ginsterstraße 1, 44225 Dortmund, Deutschland","Country":"DEU","State":"Nordrhein-Westfalen","County":"Dortmund","City":"Dortmund","District":"Hombruch","Street":"Ginsterstraße","HouseNumber":"1","PostalCode":"44225","AdditionalData":[{"value":"Deutschland","key":"CountryName"},{"value":"Nordrhein-Westfalen","key":"StateName"},{"value":"Dortmund","key":"CountyName"}]},"MapReference":{"ReferenceId":"51153602","Spot":0.46,"SideOfStreet":"left","CountryId":"20147700","StateId":"20157369","CountyId":"20160172","CityId":"20160173","DistrictId":"20220565","AddressId":"168983509","RoadLinkId":"35555190"}}},{"Relevance":1.0,"Distance":68.0,"MatchLevel":"houseNumber","MatchQuality":{"Country":1.0,"State":1.0,"County":1.0,"City":1.0,"District":1.0,"Street":[1.0],"HouseNumber":1.0,"PostalCode":1.0},"MatchType":"interpolated","Location":{"LocationId":"NT_BAN0flBgnoiCMIJSo7dxlB_xcD","LocationType":"point","DisplayPosition":{"Latitude":51.47469,"Longitude":7.43774},"MapView":{"TopLeft":{"Latitude":51.4758142,"Longitude":7.4359352},"BottomRight":{"Latitude":51.4735658,"Longitude":7.4395448}},"Address":{"Label":"Leostraße 17, 44225 Dortmund, Deutschland","Country":"DEU","State":"Nordrhein-Westfalen","County":"Dortmund","City":"Dortmund","District":"Hombruch","Street":"Leostraße","HouseNumber":"17","PostalCode":"44225","AdditionalData":[{"value":"Deutschland","key":"CountryName"},{"value":"Nordrhein-Westfalen","key":"StateName"},{"value":"Dortmund","key":"CountyName"}]},"MapReference":{"ReferenceId":"51154213","Spot":0.3,"SideOfStreet":"left","CountryId":"20147700","StateId":"20157369","CountyId":"20160172","CityId":"20160173","DistrictId":"20220565","AddressId":"170087742","RoadLinkId":"35497051"}}},{"Relevance":1.0,"Distance":74.6,"MatchLevel":"houseNumber","MatchQuality":{"Country":1.0,"State":1.0,"County":1.0,"City":1.0,"District":1.0,"Street":[1.0],"HouseNumber":1.0,"PostalCode":1.0},"MatchType":"interpolated","Location":{"LocationId":"NT_2skqVzKbNUdlpX34oJUHOA_xA","LocationType":"point","DisplayPosition":{"Latitude":51.47527,"Longitude":7.43886},"MapView":{"TopLeft":{"Latitude":51.4763942,"Longitude":7.4370552},"BottomRight":{"Latitude":51.4741458,"Longitude":7.4406648}},"Address":{"Label":"Tannenstraße 1, 44225 Dortmund, Deutschland","Country":"DEU","State":"Nordrhein-Westfalen","County":"Dortmund","City":"Dortmund","District":"Hombruch","Street":"Tannenstraße","HouseNumber":"1","PostalCode":"44225","AdditionalData":[{"value":"Deutschland","key":"CountryName"},{"value":"Nordrhein-Westfalen","key":"StateName"},{"value":"Dortmund","key":"CountyName"}]},"MapReference":{"ReferenceId":"51155505","Spot":0.62,"SideOfStreet":"left","CountryId":"20147700","StateId":"20157369","CountyId":"20160172","CityId":"20160173","DistrictId":"20220565","AddressId":"168680807","RoadLinkId":"35393353"}}},{"Relevance":1.0,"Distance":80.0,"MatchLevel":"street","MatchQuality":{"Country":1.0,"State":1.0,"County":1.0,"City":1.0,"District":1.0,"Street":[1.0],"PostalCode":1.0},"Location":{"LocationId":"NT_oCJec9FJ21XQyH8OT6gW4D_l_51154298_L","LocationType":"point","DisplayPosition":{"Latitude":51.47559,"Longitude":7.43881},"MapView":{"TopLeft":{"Latitude":51.47626,"Longitude":7.43875},"BottomRight":{"Latitude":51.47559,"Longitude":7.43959}},"Address":{"Label":"Marktplatz, 44225 Dortmund, Deutschland","Country":"DEU","State":"Nordrhein-Westfalen","County":"Dortmund","City":"Dortmund","District":"Hombruch","Street":"Marktplatz","PostalCode":"44225","AdditionalData":[{"value":"Deutschland","key":"CountryName"},{"value":"Nordrhein-Westfalen","key":"StateName"},{"value":"Dortmund","key":"CountyName"}]},"MapReference":{"ReferenceId":"51154298","Spot":0.0,"SideOfStreet":"left","CountryId":"20147700","StateId":"20157369","CountyId":"20160172","CityId":"20160173","DistrictId":"20220565"}}},{"Relevance":1.0,"Distance":86.6,"MatchLevel":"street","MatchQuality":{"Country":1.0,"State":1.0,"County":1.0,"City":1.0,"District":1.0,"Street":[1.0],"PostalCode":1.0},"Location":{"LocationId":"NT_40hxSYscOSLKrPCxBVEcMA_l_897672002_R","LocationType":"point","DisplayPosition":{"Latitude":51.47557,"Longitude":7.43652},"MapView":{"TopLeft":{"Latitude":51.4756,"Longitude":7.43648},"BottomRight":{"Latitude":51.47551,"Longitude":7.43652}},"Address":{"Label":"Hombrucher Straße, 44225 Dortmund, Deutschland","Country":"DEU","State":"Nordrhein-Westfalen","County":"Dortmund","City":"Dortmund","District":"Hombruch","Street":"Hombrucher Straße","PostalCode":"44225","AdditionalData":[{"value":"Deutschland","key":"CountryName"},{"value":"Nordrhein-Westfalen","key":"StateName"},{"value":"Dortmund","key":"CountyName"}]},"MapReference":{"ReferenceId":"897672002","Spot":0.71,"SideOfStreet":"right","CountryId":"20147700","StateId":"20157369","CountyId":"20160172","CityId":"20160173","DistrictId":"20220565"}}}]}]}}