{"Response":{"MetaInfo":{"Timestamp":"2020-03-28T10:10:23.187+0000","NextPageInformation":"2"},"View":[{"_type":"SearchResultsViewType","ViewId":0,"Result":[{"Relevance":1.0,"Distance":0.0,"Direction":0.0,"MatchLevel":"district","MatchQuality":{"Country":1.0,"State":1.0,"County":1.0,"City":1.0,"District":1.0,"PostalCode":1.0},"Location":{"LocationId":"NT_0q2DrWvNT84STovN1JajtA","LocationType":"point","DisplayPosition":{"Latitude":51.4712412,"Longitude":-2.5933925},"MapView":{"TopLeft":{"Latitude":51.48326,"Longitude":-2.60362},"BottomRight":{"Latitude":51.47033,"Longitude":-2.58911}},"Address":{"Label":"Bishopston, Bristol, England, United Kingdom","Country":"GBR","State":"England","County":"Avon","City":"Bristol","District":"Bishopston","PostalCode":"BS7 8","AdditionalData":[{"value":"United Kingdom","key":"CountryName"},{"value":"England","key":"StateName"},{"value":"Avon","key":"CountyName"}]},"MapReference":{"ReferenceId":"1197801824","SideOfStreet":"neither","StateId":"20248595","CountyId":"20352323","CityId":"20352420","DistrictId":"20352439"}}},{"Relevance":1.0,"Distance":19.0,"MatchLevel":"houseNumber","MatchQuality":{"Country":1.0,"State":1.0,"County":1.0,"City":1.0,"District":1.0,"Street":[1.0],"HouseNumber":1.0,"PostalCode":1.0},"MatchType":"interpolated","Location":{"LocationId":"NT_4NZT7rWeclMSdXFPDCbokD_l_1211973821_L_xID","LocationType":"point","DisplayPosition":{"Latitude":51.4710472,"Longitude":-2.5930309},"MapView":{"TopLeft":{"Latitude":51.4721714,"Longitude":-2.5948356},"BottomRight":{"Latitude":51.4699231,"Longitude":-2.5912263}},"Address":{"Label":"12 Gloucester Road, Bristol, BS7 8, United Kingdom","Country":"GBR","State":"England","County":"Avon","City":"Bristol","District":"Bishopston","Street":"Gloucester Road","HouseNumber":"12","PostalCode":"BS7 8","AdditionalData":[{"value":"United Kingdom","key":"CountryName"},{"value":"England","key":"StateName"},{"value":"Avon","key":"CountyName"}]},"MapReference":{"ReferenceId":"1211973821","Spot":0.2,"SideOfStreet":"left","StateId":"20248595","CountyId":"20352323","CityId":"20352420","DistrictId":"20352439"}}},{"Relevance":1.0,"Distance":30.0,"MatchLevel":"postalCode","MatchQuality":{"PostalCode":1.0},"MatchType":"interpolated","Location":{"LocationId":"NT_4NZT7rWeclMSdXFPDCbokD_l_1211973821_L_xID","LocationType":"point","DisplayPosition":{"Latitude":51.47118,"Longitude":-2.59297},"MapView":{"TopLeft":{"Latitude":51.4801732,"Longitude":-2.6074075},"BottomRight":{"Latitude":51.4621868,"Longitude":-2.5785325}},"Address":{"Label":"BS7 8AE, Bristol, England, United Kingdom","Country":"GBR","State":"England","County":"Avon","City":"Bristol","PostalCode":"BS7 8AE","AdditionalData":[{"value":"United Kingdom","key":"CountryName"},{"value":"England","key":"StateName"},{"value":"Avon","key":"CountyName"}]},"MapReference":{"ReferenceId":"1211973821","Spot":0.2,"SideOfStreet":"neither","StateId":"20248595","CountyId":"20352323","CityId":"20352420"}}},{"Relevance":1.0,"Distance":35.1,"MatchLevel":"houseNumber","MatchQuality":{"Country":1.0,"State":1.0,"County":1.0,"City":1.0,"District":1.0,"Street":[1.0],"HouseNumber":1.0,"PostalCode":1.0},"MatchType":"interpolated","Location":{"LocationId":"NT_a.xrqMHGKIZowHooOX43WA_l_26722956_L_yAD","LocationType":"point","DisplayPosition":{"Latitude":51.47118,"Longitude":-2.59389},"MapView":{"TopLeft":{"Latitude":51.4723042,"Longitude":-2.5956947},"BottomRight":{"Latitude":51.4700559,"Longitude":-2.5920853}},"Address":{"Label":"20 Elton Lane, Bristol, BS7 8, United Kingdom","Country":"GBR","State":"England","County":"Avon","City":"Bristol","District":"Bishopston","Street":"Elton Lane","HouseNumber":"20","PostalCode":"BS7 8","AdditionalData":[{"value":"United Kingdom","key":"CountryName"},{"value":"England","key":"StateName"},{"value":"Avon","key":"CountyName"}]},"MapReference":{"ReferenceId":"26722956","Spot":0.12,"SideOfStreet":"left","StateId":"20248595","CountyId":"20352323","CityId":"20352420","DistrictId":"20352439"}}},{"Relevance":1.0,"Distance":38.4,"MatchLevel":"houseNumber","MatchQuality":{"Country":1.0,"State":1.0,"County":1.0,"City":1.0,"District":1.0,"Street":[1.0],"HouseNumber":1.0,"PostalCode":1.0},"MatchType":"interpolated","Location":{"LocationId":"NT_5O-d4EQiCWR-vav5VnTGxA_l_26722957_R_xA","LocationType":"point","DisplayPosition":{"Latitude":51.47119,"Longitude":-2.59409},"MapView":{"TopLeft":{"Latitude":51.4723142,"Longitude":-2.5958947},"BottomRight":{"Latitude":51.4700659,"Longitude":-2.5922853}},"Address":{"Label":"1 Elton Road, Bristol, BS7 8DA, United Kingdom","Country":"GBR","State":"England","County":"Avon","City":"Bristol","District":"Bishopston","Street":"Elton Road","HouseNumber":"1","PostalCode":"BS7 8DA","AdditionalData":[{"value":"United Kingdom","key":"CountryName"},{"value":"England","key":"StateName"},{"value":"Avon","key":"CountyName"}]},"MapReference":{"ReferenceId":"26722957","Spot":0.28,"SideOfStreet":"right","StateId":"20248595","CountyId":"20352323","CityId":"20352420","DistrictId":"20352439"}}},{"Relevance":1.0,"Distance":38.8,"MatchLevel":"postalCode","MatchQuality":{"PostalCode":1.0},"MatchType":"interpolated","Location":{"LocationId":"NT_a.xrqMHGKIZowHooOX43WA_l_26722956_L_yAD","LocationType":"point","DisplayPosition":{"Latitude":51.47159,"Longitude":-2.59338},"MapView":{"TopLeft":{"Latitude":51.4805832,"Longitude":-2.6078176},"BottomRight":{"Latitude":51.4625968,"Longitude":-2.5789424}},"Address":{"Label":"BS7 8AB, Bristol, England, United Kingdom","Country":"GBR","State":"England","County":"Avon","City":"Bristol","PostalCode":"BS7 8AB","AdditionalData":[{"value":"United Kingdom","key":"CountryName"},{"value":"England","key":"StateName"},{"value":"Avon","key":"CountyName"}]},"MapReference":{"ReferenceId":"26722956","Spot":0.12,"SideOfStreet":"neither","StateId":"20248595","CountyId":"20352323","CityId":"20352420"}}},{"Relevance":1.0,"Distance":50.6,"MatchLevel":"postalCode","MatchQuality":{"PostalCode":1.0},"MatchType":"interpolated","Location":{"LocationId":"NT_5O-d4EQiCWR-vav5VnTGxA_l_26722957_R_xA","LocationType":"point","DisplayPosition":{"Latitude":51.47107,"Longitude":-2.59407},"MapView":{"TopLeft":{"Latitude":51.4800632,"Longitude":-2.6085074},"BottomRight":{"Latitude":51.4620768,"Longitude":-2.5796326}},"Address":{"Label":"BS7 8DA, Bristol, England, United Kingdom","Country":"GBR","State":"England","County":"Avon","City":"Bristol","PostalCode":"BS7 8DA","AdditionalData":[{"value":"United Kingdom","key":"CountryName"},{"value":"England","key":"StateName"},{"value":"Avon","key":"CountyName"}]},"MapReference":{"ReferenceId":"26722957","Spot":0.28,"SideOfStreet":"neither","StateId":"20248595","CountyId":"20352323","CityId":"20352420"}}},{"Relevance":1.0,"Distance":51.1,"MatchLevel":"houseNumber","MatchQuality":{"Country":1.0,"State":1.0,"County":1.0,"City":1.0,"District":1.0,"Street":[1.0],"HouseNumber":1.0,"PostalCode":1.0},"MatchType":"interpolated","Location":{"LocationId":"NT_UnfSzUcLhzhtEJ57G8nbcB_l_26722882_R_zA","LocationType":"point","DisplayPosition":{"Latitude":51.4716376,"Longitude":-2.5940857},"MapView":{"TopLeft":{"Latitude":51.4727617,"Longitude":-2.5958904},"BottomRight":{"Latitude":51.4705134,"Longitude":-2.592281}},"Address":{"Label":"3 Purton Road, Bristol, BS7 8DB, United Kingdom","Country":"GBR","State":"England","County":"Avon","City":"Bristol","District":"Bishopston","Street":"Purton Road","HouseNumber":"3","PostalCode":"BS7 8DB","AdditionalData":[{"value":"United Kingdom","key":"CountryName"},{"value":"England","key":"StateName"},{"value":"Avon","key":"CountyName"}]},"MapReference":{"ReferenceId":"26722882","Spot":0.25,"SideOfStreet":"right","StateId":"20248595","CountyId":"20352323","CityId":"20352420","DistrictId":"20352439"}}},{"Relevance":1.0,"Distance":54.3,"MatchLevel":"houseNumber","MatchQuality":{"Country":1.0,"State":1.0,"County":1.0,"City":1.0,"District":1.0,"Street":[1.0],"HouseNumber":1.0,"PostalCode":1.0},"MatchType":"interpolated","Location":{"LocationId":"NT_4NZT7rWeclMSdXFPDCbokD_l_1211973820_L_4A","LocationType":"point","DisplayPosition":{"Latitude":51.4706422,"Longitude":-2.5934507},"MapView":{"TopLeft":{"Latitude":51.4717663,"Longitude":-2.5952554},"BottomRight":{"Latitude":51.469518,"Longitude":-2.591646}},"Address":{"Label":"8 Gloucester Road, Bristol, BS7 8, United Kingdom","Country":"GBR","State":"England","County":"Avon","City":"Bristol","District":"Bishopston","Street":"Gloucester Road","HouseNumber":"8","PostalCode":"BS7 8","AdditionalData":[{"value":"United Kingdom","key":"CountryName"},{"value":"England","key":"StateName"},{"value":"Avon","key":"CountyName"}]},"MapReference":{"ReferenceId":"1211973820","Spot":0.6,"SideOfStreet":"left","StateId":"20248595","CountyId":"20352323","CityId":"20352420","DistrictId":"20352439"}}},{"Relevance":1.0,"Distance":60.9,"MatchLevel":"postalCode","MatchQuality":{"PostalCode":1.0},"MatchType":"interpolated","Location":{"LocationId":"NT_UnfSzUcLhzhtEJ57G8nbcB_l_26722882_R_zA","LocationType":"point","DisplayPosition":{"Latitude":51.47167,"Longitude":-2.59394},"MapView":{"TopLeft":{"Latitude":51.4806632,"Longitude":-2.6083776},"BottomRight":{"Latitude":51.4626768,"Longitude":-2.5795024}},"Address":{"Label":"BS7 8DB, Bristol, England, United Kingdom","Country":"GBR","State":"England","County":"Avon","City":"Bristol","PostalCode":"BS7 8DB","AdditionalData":[{"value":"United Kingdom","key":"CountryName"},{"value":"England","key":"StateName"},{"value":"Avon","key":"CountyName"}]},"MapReference":{"ReferenceId":"26722882","Spot":0.25,"SideOfStreet":"neither","StateId":"20248595","CountyId":"20352323","CityId":"20352420"}}}]}]}}