{"Response":{"MetaInfo":{"Timestamp":"2020-03-28T10:40:22.404+0000","NextPageInformation":"2"},"View":[{"_type":"SearchResultsViewType","ViewId":0,"Result":[{"Relevance":1.0,"Distance":0.0,"Direction":0.0,"MatchLevel":"district","MatchQuality":{"Country":1.0,"State":1.0,"County":1.0,"City":1.0,"District":1.0,"PostalCode":1.0},"Location":{"LocationId":"NT_MM65tFy-BzkUbsvfFt11FB","LocationType":"point","DisplayPosition":{"Latitude":51.4845774,"Longitude":-0.2039696},"MapView":{"TopLeft":{"Latitude":51.48731,"Longitude":-0.22566},"BottomRight":{"Latitude":51.4649,"Longitude":-0.18139}},"Address":{"Label":"SW6, London, England, United Kingdom","Country":"GBR","State":"England","County":"London","City":"London","District":"SW6","PostalCode":"SW6 5","AdditionalData":[{"value":"United Kingdom","key":"CountryName"},{"value":"England","key":"StateName"},{"value":"London","key":"CountyName"}]},"MapReference":{"ReferenceId":"762912324","SideOfStreet":"neither","StateId":"20248595","CountyId":"20337453","CityId":"20337454","DistrictId":"20337558"}}},{"Relevance":1.0,"Distance":2.9,"MatchLevel":"houseNumber","MatchQuality":{"Country":1.0,"State":1.0,"County":1.0,"City":1.0,"District":1.0,"Street":[1.0],"HouseNumber":1.0,"PostalCode":1.0},"MatchType":"interpolated","Location":{"LocationId":"NT_nUanguMD2O-guRGtVohecB_xMzN","LocationType":"point","DisplayPosition":{"Latitude":51.48468,"Longitude":-0.20403},"MapView":{"TopLeft":{"Latitude":51.4858042,"Longitude":-0.2058352},"BottomRight":{"Latitude":51.4835558,"Longitude":-0.2022248}},"Address":{"Label":"137 Lillie Road, London, SW6 7SX, United Kingdom","Country":"GBR","State":"England","County":"London","City":"London","District":"Fulham","Street":"Lillie Road","HouseNumber":"137","PostalCode":"SW6 7SX","AdditionalData":[{"value":"United Kingdom","key":"CountryName"},{"value":"England","key":"StateName"},{"value":"London","key":"CountyName"}]},"MapReference":{"ReferenceId":"25476075","Spot":0.19,"SideOfStreet":"right","StateId":"20248595","CountyId":"20337453","CityId":"20337454","AddressId":"747978069","RoadLinkId":"82728127"}}},{"Relevance":1.0,"Distance":13.6,"MatchLevel":"street","MatchQuality":{"Country":1.0,"State":1.0,"County":1.0,"City":1.0,"District":1.0,"Street":[1.0],"PostalCode":1.0},"Location":{"LocationId":"NT_ig4t4H-71bZZ-wAVVu6JYD_l_1160768177_R","LocationType":"point","DisplayPosition":{"Latitude":51.48453,"Longitude":-0.20415},"MapView":{"TopLeft":{"Latitude":51.48461,"Longitude":-0.20422},"BottomRight":{"Latitude":51.48453,"Longitude":-0.20415}},"Address":{"Label":"Jervis Road, London, SW6 7, United Kingdom","Country":"GBR","State":"England","County":"London","City":"London","District":"Fulham","Street":"Jervis Road","PostalCode":"SW6 7","AdditionalData":[{"value":"United Kingdom","key":"CountryName"},{"value":"England","key":"StateName"},{"value":"London","key":"CountyName"}]},"MapReference":{"ReferenceId":"1160768177","Spot":0.0,"SideOfStreet":"right","StateId":"20248595","CountyId":"20337453","CityId":"20337454"}}},{"Relevance":1.0,"Distance":15.0,"MatchLevel":"street","MatchQuality":{"Country":1.0,"State":1.0,"County":1.0,"City":1.0,"District":1.0,"Street":[1.0],"PostalCode":1.0},"Location":{"LocationId":"NT_ig4t4H-71bZZ-wAVVu6JYD_l_1160768176_R","LocationType":"point","DisplayPosition":{"Latitude":51.4844679,"Longitude":-0.2040964},"MapView":{"TopLeft":{"Latitude":51.48453,"Longitude":-0.20415},"BottomRight":{"Latitude":51.48431,"Longitude":-0.20396}},"Address":{"Label":"Jervis Road, London, SW6 7, United Kingdom","Country":"GBR","State":"England","County":"London","City":"London","District":"Fulham","Street":"Jervis Road","PostalCode":"SW6 7","AdditionalData":[{"value":"United Kingdom","key":"CountryName"},{"value":"England","key":"StateName"},{"value":"London","key":"CountyName"}]},"MapReference":{"ReferenceId":"1160768176","Spot":0.72,"SideOfStreet":"right","StateId":"20248595","CountyId":"20337453","CityId":"20337454"}}},{"Relevance":1.0,"Distance":15.4,"MatchLevel":"postalCode","MatchQuality":{"PostalCode":1.0},"Location":{"LocationId":"NT_ig4t4H-71bZZ-wAVVu6JYD_l_1160768176_R","LocationType":"point","DisplayPosition":{"Latitude":51.48444,"Longitude":-0.204},"MapView":{"TopLeft":{"Latitude":51.4934332,"Longitude":-0.2184417},"BottomRight":{"Latitude":51.4754468,"Longitude":-0.1895583}},"Address":{"Label":"SW6 7TE, London, England, United Kingdom","Country":"GBR","State":"England","County":"London","City":"London","PostalCode":"SW6 7TE","AdditionalData":[{"value":"United Kingdom","key":"CountryName"},{"value":"England","key":"StateName"},{"value":"London","key":"CountyName"}]},"MapReference":{"ReferenceId":"1160768176","Spot":0.72,"SideOfStreet":"neither","StateId":"20248595","CountyId":"20337453","CityId":"20337454"}}},{"Relevance":1.0,"Distance":24.1,"MatchLevel":"houseNumber","MatchQuality":{"Country":1.0,"State":1.0,"County":1.0,"City":1.0,"District":1.0,"Street":[1.0],"HouseNumber":1.0,"PostalCode":1.0},"MatchType":"interpolated","Location":{"LocationId":"NT_fQtMYP.UZXhmq8MeBYjMyD_l_966175253_R_xIzM","LocationType":"point","DisplayPosition":{"Latitude":51.4845844,"Longitude":-0.2043171},"MapView":{"TopLeft":{"Latitude":51.4857086,"Longitude":-0.2061223},"BottomRight":{"Latitude":51.4834603,"Longitude":-0.2025119}},"Address":{"Label":"123 Lillie Road, London, SW6 7, United Kingdom","Country":"GBR","State":"England","County":"London","City":"London","District":"Fulham","Street":"Lillie Road","HouseNumber":"123","PostalCode":"SW6 7","AdditionalData":[{"value":"United Kingdom","key":"CountryName"},{"value":"England","key":"StateName"},{"value":"London","key":"CountyName"}]},"MapReference":{"ReferenceId":"966175253","Spot":0.75,"SideOfStreet":"right","StateId":"20248595","CountyId":"20337453","CityId":"20337454"}}},{"Relevance":1.0,"Distance":25.8,"MatchLevel":"street","MatchQuality":{"Country":1.0,"State":1.0,"County":1.0,"City":1.0,"District":1.0,"Street":[1.0],"PostalCode":1.0},"Location":{"LocationId":"NT_ig4t4H-71bZZ-wAVVu6JYD_l_1160632559_L","LocationType":"point","DisplayPosition":{"Latitude":51.48436,"Longitude":-0.20384},"MapView":{"TopLeft":{"Latitude":51.48482,"Longitude":-0.20384},"BottomRight":{"Latitude":51.48436,"Longitude":-0.2026}},"Address":{"Label":"Jervis Road, London, SW6 7, United Kingdom","Country":"GBR","State":"England","County":"London","City":"London","District":"Fulham","Street":"Jervis Road","PostalCode":"SW6 7","AdditionalData":[{"value":"United Kingdom","key":"CountryName"},{"value":"England","key":"StateName"},{"value":"London","key":"CountyName"}]},"MapReference":{"ReferenceId":"1160632559","Spot":0.0,"SideOfStreet":"left","StateId":"20248595","CountyId":"20337453","CityId":"20337454"}}},{"Relevance":1.0,"Distance":26.5,"MatchLevel":"houseNumber","MatchQuality":{"Country":1.0,"State":1.0,"County":1.0,"City":1.0,"District":1.0,"Street":[1.0],"HouseNumber":1.0,"PostalCode":1.0},"MatchType":"interpolated","Location":{"LocationId":"NT_ig4t4H-71bZZ-wAVVu6JYD_l_1160272829_R_yID","LocationType":"point","DisplayPosition":{"Latitude":51.4843475,"Longitude":-0.20387},"MapView":{"TopLeft":{"Latitude":51.4854717,"Longitude":-0.2056752},"BottomRight":{"Latitude":51.4832234,"Longitude":-0.2020648}},"Address":{"Label":"22 Jervis Road, London, SW6 7, United Kingdom","Country":"GBR","State":"England","County":"London","City":"London","District":"Fulham","Street":"Jervis Road","HouseNumber":"22","PostalCode":"SW6 7","AdditionalData":[{"value":"United Kingdom","key":"CountryName"},{"value":"England","key":"StateName"},{"value":"London","key":"CountyName"}]},"MapReference":{"ReferenceId":"1160272829","Spot":0.75,"SideOfStreet":"right","StateId":"20248595","CountyId":"20337453","CityId":"20337454"}}},{"Relevance":1.0,"Distance":29.7,"MatchLevel":"street","MatchQuality":{"Country":1.0,"State":1.0,"County":1.0,"City":1.0,"District":1.0,"Street":[1.0],"PostalCode":1.0},"Location":{"LocationId":"NT_ig4t4H-71bZZ-wAVVu6JYD_l_25310657_R","LocationType":"point","DisplayPosition":{"Latitude":51.48431,"Longitude":-0.20396},"MapView":{"TopLeft":{"Latitude":51.48431,"Longitude":-0.20396},"BottomRight":{"Latitude":51.48399,"Longitude":-0.2039}},"Address":{"Label":"Jervis Road, London, SW6 7, United Kingdom","Country":"GBR","State":"England","County":"London","City":"London","District":"Fulham","Street":"Jervis Road","PostalCode":"SW6 7","AdditionalData":[{"value":"United Kingdom","key":"CountryName"},{"value":"England","key":"StateName"},{"value":"London","key":"CountyName"}]},"MapReference":{"ReferenceId":"25310657","Spot":1.0,"SideOfStreet":"right","StateId":"20248595","CountyId":"20337453","CityId":"20337454"}}},{"Relevance":1.0,"Distance":37.9,"MatchLevel":"postalCode","MatchQuality":{"PostalCode":1.0},"MatchType":"interpolated","Location":{"LocationId":"NT_nUanguMD2O-guRGtVohecB_xMzN","LocationType":"point","DisplayPosition":{"Latitude":51.48481,"Longitude":-0.20357},"MapView":{"TopLeft":{"Latitude":51.4938032,"Longitude":-0.2180118},"BottomRight":{"Latitude":51.4758168,"Longitude":-0.1891282}},"Address":{"Label":"SW6 7SX, London, England, United Kingdom","Country":"GBR","State":"England","County":"London","City":"London","PostalCode":"SW6 7SX","AdditionalData":[{"value":"United Kingdom","key":"CountryName"},{"value":"England","key":"StateName"},{"value":"London","key":"CountyName"}]},"MapReference":{"ReferenceId":"25476075","Spot":0.19,"SideOfStreet":"neither","StateId":"20248595","CountyId":"20337453","CityId":"20337454"}}}]}]}}