{"Response":{"MetaInfo":{"Timestamp":"2020-03-28T10:10:44.639+0000","NextPageInformation":"2"},"View":[{"_type":"SearchResultsViewType","ViewId":0,"Result":[{"Relevance":1.0,"Distance":0.0,"Direction":0.0,"MatchLevel":"district","MatchQuality":{"Country":1.0,"State":1.0,"County":1.0,"City":1.0,"District":1.0,"PostalCode":1.0},"Location":{"LocationId":"NT_99QY7qdsfksQ.Atbiji1XA","LocationType":"point","DisplayPosition":{"Latitude":51.4817986,"Longitude":-2.5275391},"MapView":{"TopLeft":{"Latitude":51.49251,"Longitude":-2.53611},"BottomRight":{"Latitude":51.47801,"Longitude":-2.51528}},"Address":{"Label":"Fishponds, Bristol, England, United Kingdom","Country":"GBR","State":"England","County":"Avon","City":"Bristol","District":"Fishponds","PostalCode":"BS16 3","AdditionalData":[{"value":"United Kingdom","key":"CountryName"},{"value":"England","key":"StateName"},{"value":"Avon","key":"CountyName"}]},"MapReference":{"ReferenceId":"1197852430","SideOfStreet":"neither","StateId":"20248595","CountyId":"20352323","CityId":"20352420","DistrictId":"20352484"}}},{"Relevance":1.0,"Distance":14.1,"MatchLevel":"houseNumber","MatchQuality":{"Country":1.0,"State":1.0,"County":1.0,"City":1.0,"District":1.0,"Street":[1.0],"HouseNumber":1.0,"PostalCode":1.0},"MatchType":"interpolated","Location":{"LocationId":"NT_QQvUEJ-ObTV3LE849uyi9D_l_26754595_L_xA","LocationType":"point","DisplayPosition":{"Latitude":51.4816615,"Longitude":-2.5272148},"MapView":{"TopLeft":{"Latitude":51.4827857,"Longitude":-2.5290199},"BottomRight":{"Latitude":51.4805374,"Longitude":-2.5254097}},"Address":{"Label":"1 Straits Parade, Bristol, BS16 2LA, United Kingdom","Country":"GBR","State":"England","County":"Avon","City":"Bristol","District":"Fishponds","Street":"Straits Parade","HouseNumber":"1","PostalCode":"BS16 2LA","AdditionalData":[{"value":"United Kingdom","key":"CountryName"},{"value":"England","key":"StateName"},{"value":"Avon","key":"CountyName"}]},"MapReference":{"ReferenceId":"26754595","Spot":0.51,"SideOfStreet":"left","StateId":"20248595","CountyId":"20352323","CityId":"20352420","DistrictId":"20352484"}}},{"Relevance":1.0,"Distance":15.1,"MatchLevel":"houseNumber","MatchQuality":{"Country":1.0,"State":1.0,"County":1.0,"City":1.0,"District":1.0,"Street":[1.0],"HouseNumber":1.0,"PostalCode":1.0},"MatchType":"interpolated","Location":{"LocationId":"NT_jz9Acl7.hOVH0bWnBOoDTD_l_26754596_L_3czN","LocationType":"point","DisplayPosition":{"Latitude":51.4815383,"Longitude":-2.5274411},"MapView":{"TopLeft":{"Latitude":51.4826625,"Longitude":-2.5292462},"BottomRight":{"Latitude":51.4804142,"Longitude":-2.525636}},"Address":{"Label":"777 Fishponds Road, Bristol, BS16 3BS, United Kingdom","Country":"GBR","State":"England","County":"Avon","City":"Bristol","District":"Fishponds","Street":"Fishponds Road","HouseNumber":"777","PostalCode":"BS16 3BS","AdditionalData":[{"value":"United Kingdom","key":"CountryName"},{"value":"England","key":"StateName"},{"value":"Avon","key":"CountyName"}]},"MapReference":{"ReferenceId":"26754596","Spot":0.5,"SideOfStreet":"left","StateId":"20248595","CountyId":"20352323","CityId":"20352420","DistrictId":"20352484"}}},{"Relevance":1.0,"Distance":18.3,"MatchLevel":"houseNumber","MatchQuality":{"Country":1.0,"State":1.0,"County":1.0,"City":1.0,"District":1.0,"Street":[1.0],"HouseNumber":1.0,"PostalCode":1.0},"MatchType":"interpolated","Location":{"LocationId":"NT_jz9Acl7.hOVH0bWnBOoDTD_l_26754606_L_3czM","LocationType":"point","DisplayPosition":{"Latitude":51.481526,"Longitude":-2.5277142},"MapView":{"TopLeft":{"Latitude":51.4826502,"Longitude":-2.5295193},"BottomRight":{"Latitude":51.4804019,"Longitude":-2.5259091}},"Address":{"Label":"773 Fishponds Road, Bristol, BS16 3BS, United Kingdom","Country":"GBR","State":"England","County":"Avon","City":"Bristol","District":"Fishponds","Street":"Fishponds Road","HouseNumber":"773","PostalCode":"BS16 3BS","AdditionalData":[{"value":"United Kingdom","key":"CountryName"},{"value":"England","key":"StateName"},{"value":"Avon","key":"CountyName"}]},"MapReference":{"ReferenceId":"26754606","Spot":0.8,"SideOfStreet":"left","StateId":"20248595","CountyId":"20352323","CityId":"20352420","DistrictId":"20352484"}}},{"Relevance":1.0,"Distance":18.4,"MatchLevel":"street","MatchQuality":{"Country":1.0,"State":1.0,"County":1.0,"City":1.0,"District":1.0,"PostalCode":1.0},"Location":{"LocationId":"NT_vqcm11bZYL-mwVWYbuUgDD_l_881261653_R","LocationType":"point","DisplayPosition":{"Latitude":51.48192,"Longitude":-2.52772},"MapView":{"TopLeft":{"Latitude":51.48309,"Longitude":-2.52822},"BottomRight":{"Latitude":51.48192,"Longitude":-2.52765}},"Address":{"Label":"Bristol, BS16 3, United Kingdom","Country":"GBR","State":"England","County":"Avon","City":"Bristol","District":"Fishponds","PostalCode":"BS16 3","AdditionalData":[{"value":"United Kingdom","key":"CountryName"},{"value":"England","key":"StateName"},{"value":"Avon","key":"CountyName"}]},"MapReference":{"ReferenceId":"881261653","Spot":0.3,"SideOfStreet":"right","StateId":"20248595","CountyId":"20352323","CityId":"20352420","DistrictId":"20352484"}}},{"Relevance":1.0,"Distance":23.9,"MatchLevel":"street","MatchQuality":{"Country":1.0,"State":1.0,"County":1.0,"City":1.0,"District":1.0,"Street":[1.0],"PostalCode":1.0},"Location":{"LocationId":"NT_CSzfRoaSi1.NfRVaWKmNmB_l_26754550_L","LocationType":"point","DisplayPosition":{"Latitude":51.48176,"Longitude":-2.5272},"MapView":{"TopLeft":{"Latitude":51.48187,"Longitude":-2.5272},"BottomRight":{"Latitude":51.48176,"Longitude":-2.52581}},"Address":{"Label":"Straits Parade, Bristol, BS16 2, United Kingdom","Country":"GBR","State":"England","County":"Avon","City":"Bristol","District":"Fishponds","Street":"Straits Parade","PostalCode":"BS16 2","AdditionalData":[{"value":"United Kingdom","key":"CountryName"},{"value":"England","key":"StateName"},{"value":"Avon","key":"CountyName"}]},"MapReference":{"ReferenceId":"26754550","Spot":0.0,"SideOfStreet":"left","StateId":"20248595","CountyId":"20352323","CityId":"20352420","DistrictId":"20352484"}}},{"Relevance":1.0,"Distance":24.8,"MatchLevel":"houseNumber","MatchQuality":{"Country":1.0,"State":1.0,"County":1.0,"City":1.0,"District":1.0,"Street":[1.0],"HouseNumber":1.0,"PostalCode":1.0},"MatchType":"interpolated","Location":{"LocationId":"NT_tv.PjOuisj1fTVTyT20gFA_l_881261661_L_zA","LocationType":"point","DisplayPosition":{"Latitude":51.48188,"Longitude":-2.52713},"MapView":{"TopLeft":{"Latitude":51.4830042,"Longitude":-2.5289351},"BottomRight":{"Latitude":51.4807559,"Longitude":-2.5253249}},"Address":{"Label":"3 Oldbury Court Road, Bristol, BS16 2HH, United Kingdom","Country":"GBR","State":"England","County":"Avon","City":"Bristol","District":"Fishponds","Street":"Oldbury Court Road","HouseNumber":"3","PostalCode":"BS16 2HH","AdditionalData":[{"value":"United Kingdom","key":"CountryName"},{"value":"England","key":"StateName"},{"value":"Avon","key":"CountyName"}]},"MapReference":{"ReferenceId":"881261661","Spot":0.35,"SideOfStreet":"left","StateId":"20248595","CountyId":"20352323","CityId":"20352420","DistrictId":"20352484"}}},{"Relevance":1.0,"Distance":30.4,"MatchLevel":"postalCode","MatchQuality":{"PostalCode":1.0},"MatchType":"interpolated","Location":{"LocationId":"NT_jz9Acl7.hOVH0bWnBOoDTD_l_26754606_L_3czM","LocationType":"point","DisplayPosition":{"Latitude":51.48157,"Longitude":-2.52778},"MapView":{"TopLeft":{"Latitude":51.4905632,"Longitude":-2.5422208},"BottomRight":{"Latitude":51.4725768,"Longitude":-2.5133392}},"Address":{"Label":"BS16 3BS, Bristol, England, United Kingdom","Country":"GBR","State":"England","County":"Avon","City":"Bristol","PostalCode":"BS16 3BS","AdditionalData":[{"value":"United Kingdom","key":"CountryName"},{"value":"England","key":"StateName"},{"value":"Avon","key":"CountyName"}]},"MapReference":{"ReferenceId":"26754606","Spot":0.8,"SideOfStreet":"neither","StateId":"20248595","CountyId":"20352323","CityId":"20352420"}}},{"Relevance":1.0,"Distance":34.1,"MatchLevel":"houseNumber","MatchQuality":{"Country":1.0,"State":1.0,"County":1.0,"City":1.0,"District":1.0,"Street":[1.0],"HouseNumber":1.0,"PostalCode":1.0},"MatchType":"interpolated","Location":{"LocationId":"NT_jz9Acl7.hOVH0bWnBOoDTD_l_26754594_R_4EjN","LocationType":"point","DisplayPosition":{"Latitude":51.48156,"Longitude":-2.5272299},"MapView":{"TopLeft":{"Latitude":51.4826842,"Longitude":-2.529035},"BottomRight":{"Latitude":51.4804359,"Longitude":-2.5254248}},"Address":{"Label":"816 Fishponds Road, Bristol, BS16 3TE, United Kingdom","Country":"GBR","State":"England","County":"Avon","City":"Bristol","District":"Fishponds","Street":"Fishponds Road","HouseNumber":"816","PostalCode":"BS16 3TE","AdditionalData":[{"value":"United Kingdom","key":"CountryName"},{"value":"England","key":"StateName"},{"value":"Avon","key":"CountyName"}]},"MapReference":{"ReferenceId":"26754594","Spot":0.0,"SideOfStreet":"right","StateId":"20248595","CountyId":"20352323","CityId":"20352420","DistrictId":"20352484"}}},{"Relevance":1.0,"Distance":37.0,"MatchLevel":"houseNumber","MatchQuality":{"Country":1.0,"State":1.0,"County":1.0,"City":1.0,"District":1.0,"Street":[1.0],"HouseNumber":1.0,"PostalCode":1.0},"MatchType":"interpolated","Location":{"LocationId":"NT_0jXt4LepeqZPAnPn3YT3BD_l_26754623_R_4EjM","LocationType":"point","DisplayPosition":{"Latitude":51.4814759,"Longitude":-2.5276705},"MapView":{"TopLeft":{"Latitude":51.4826001,"Longitude":-2.5294755},"BottomRight":{"Latitude":51.4803518,"Longitude":-2.5258654}},"Address":{"Label":"812 Fishponds Road, Bristol, BS16 3TE, United Kingdom","Country":"GBR","State":"England","County":"Avon","City":"Bristol","District":"Fishponds","Street":"Fishponds Road","HouseNumber":"812","PostalCode":"BS16 3TE","AdditionalData":[{"value":"United Kingdom","key":"CountryName"},{"value":"England","key":"StateName"},{"value":"Avon","key":"CountyName"}]},"MapReference":{"ReferenceId":"26754623","Spot":0.8,"SideOfStreet":"right","StateId":"20248595","CountyId":"20352323","CityId":"20352420","DistrictId":"20352484"}}}]}]}}