{"Response":{"MetaInfo":{"Timestamp":"2020-03-28T10:08:19.653+0000","NextPageInformation":"2"},"View":[{"_type":"SearchResultsViewType","ViewId":0,"Result":[{"Relevance":1.0,"Distance":0.0,"Direction":0.0,"MatchLevel":"district","MatchQuality":{"Country":1.0,"State":1.0,"County":1.0,"City":1.0,"District":1.0,"PostalCode":1.0},"Location":{"LocationId":"NT_oYLTVee12.apASyCOqGiPD","LocationType":"point","DisplayPosition":{"Latitude":51.4643445,"Longitude":-0.2734221},"MapView":{"TopLeft":{"Latitude":51.47307,"Longitude":-0.279},"BottomRight":{"Latitude":51.45185,"Longitude":-0.25109}},"Address":{"Label":"SW14, London, England, United Kingdom","Country":"GBR","State":"England","County":"London","City":"London","District":"SW14","PostalCode":"SW14 8","AdditionalData":[{"value":"United Kingdom","key":"CountryName"},{"value":"England","key":"StateName"},{"value":"London","key":"CountyName"}]},"MapReference":{"ReferenceId":"25491771","SideOfStreet":"neither","StateId":"20248595","CountyId":"20337453","CityId":"20337454","DistrictId":"20337547"}}},{"Relevance":1.0,"Distance":5.2,"MatchLevel":"houseNumber","MatchQuality":{"Country":1.0,"State":1.0,"County":1.0,"City":1.0,"District":1.0,"Street":[1.0],"HouseNumber":1.0,"PostalCode":1.0},"MatchType":"interpolated","Location":{"LocationId":"NT_vVVQyjPbRmHLKs1JmxwaxC_zYjN","LocationType":"point","DisplayPosition":{"Latitude":51.46421,"Longitude":-0.27346},"MapView":{"TopLeft":{"Latitude":51.4653342,"Longitude":-0.2752644},"BottomRight":{"Latitude":51.4630858,"Longitude":-0.2716556}},"Address":{"Label":"366 Upper Richmond Road West, London, SW14 7, United Kingdom","Country":"GBR","State":"England","County":"London","City":"London","District":"Mortlake","Street":"Upper Richmond Road West","HouseNumber":"366","PostalCode":"SW14 7","AdditionalData":[{"value":"United Kingdom","key":"CountryName"},{"value":"England","key":"StateName"},{"value":"London","key":"CountyName"}]},"MapReference":{"ReferenceId":"25409031","Spot":0.91,"SideOfStreet":"right","StateId":"20248595","CountyId":"20337453","CityId":"20337454","AddressId":"748187536","RoadLinkId":"82342025"}}},{"Relevance":1.0,"Distance":8.6,"MatchLevel":"houseNumber","MatchQuality":{"Country":1.0,"State":1.0,"County":1.0,"City":1.0,"District":1.0,"Street":[1.0],"HouseNumber":1.0,"PostalCode":1.0},"MatchType":"interpolated","Location":{"LocationId":"NT_vVVQyjPbRmHLKs1JmxwaxC_zcDM","LocationType":"point","DisplayPosition":{"Latitude":51.46421,"Longitude":-0.27356},"MapView":{"TopLeft":{"Latitude":51.4653342,"Longitude":-0.2753644},"BottomRight":{"Latitude":51.4630858,"Longitude":-0.2717556}},"Address":{"Label":"370 Upper Richmond Road West, London, SW14 7JU, United Kingdom","Country":"GBR","State":"England","County":"London","City":"London","District":"Mortlake","Street":"Upper Richmond Road West","HouseNumber":"370","PostalCode":"SW14 7JU","AdditionalData":[{"value":"United Kingdom","key":"CountryName"},{"value":"England","key":"StateName"},{"value":"London","key":"CountyName"}]},"MapReference":{"ReferenceId":"1147457390","Spot":0.1,"SideOfStreet":"right","StateId":"20248595","CountyId":"20337453","CityId":"20337454","AddressId":"748176294","RoadLinkId":"452645420"}}},{"Relevance":1.0,"Distance":15.5,"MatchLevel":"street","MatchQuality":{"Country":1.0,"State":1.0,"County":1.0,"City":1.0,"District":1.0,"Street":[1.0],"PostalCode":1.0},"Location":{"LocationId":"NT_ftBU4jY84-.uQozq.Y-rcB_l_566003725_R","LocationType":"point","DisplayPosition":{"Latitude":51.46421,"Longitude":-0.27348},"MapView":{"TopLeft":{"Latitude":51.46421,"Longitude":-0.27348},"BottomRight":{"Latitude":51.46394,"Longitude":-0.27348}},"Address":{"Label":"Coval Road, London, SW14 7, United Kingdom","Country":"GBR","State":"England","County":"London","City":"London","District":"Mortlake","Street":"Coval Road","PostalCode":"SW14 7","AdditionalData":[{"value":"United Kingdom","key":"CountryName"},{"value":"England","key":"StateName"},{"value":"London","key":"CountyName"}]},"MapReference":{"ReferenceId":"566003725","Spot":1.0,"SideOfStreet":"right","StateId":"20248595","CountyId":"20337453","CityId":"20337454"}}},{"Relevance":1.0,"Distance":17.0,"MatchLevel":"houseNumber","MatchQuality":{"Country":1.0,"State":1.0,"County":1.0,"City":1.0,"District":1.0,"Street":[1.0],"HouseNumber":1.0,"PostalCode":1.0},"MatchType":"interpolated","Location":{"LocationId":"NT_vVVQyjPbRmHLKs1JmxwaxC_zYjM","LocationType":"point","DisplayPosition":{"Latitude":51.4642,"Longitude":-0.27319},"MapView":{"TopLeft":{"Latitude":51.4653242,"Longitude":-0.2749944},"BottomRight":{"Latitude":51.4630758,"Longitude":-0.2713856}},"Address":{"Label":"362 Upper Richmond Road West, London, SW14 7JT, United Kingdom","Country":"GBR","State":"England","County":"London","City":"London","District":"Mortlake","Street":"Upper Richmond Road West","HouseNumber":"362","PostalCode":"SW14 7JT","AdditionalData":[{"value":"United Kingdom","key":"CountryName"},{"value":"England","key":"StateName"},{"value":"London","key":"CountyName"}]},"MapReference":{"ReferenceId":"920903059","Spot":0.89,"SideOfStreet":"right","StateId":"20248595","CountyId":"20337453","CityId":"20337454","AddressId":"748462195","RoadLinkId":"277865486"}}},{"Relevance":1.0,"Distance":34.3,"MatchLevel":"houseNumber","MatchQuality":{"Country":1.0,"State":1.0,"County":1.0,"City":1.0,"District":1.0,"Street":[1.0],"HouseNumber":1.0,"PostalCode":1.0},"MatchType":"interpolated","Location":{"LocationId":"NT_AoSP-7cTMAz1gMrtiOwCzD_xA","LocationType":"point","DisplayPosition":{"Latitude":51.46465,"Longitude":-0.27335},"MapView":{"TopLeft":{"Latitude":51.4657742,"Longitude":-0.2751544},"BottomRight":{"Latitude":51.4635258,"Longitude":-0.2715456}},"Address":{"Label":"1 Carlton Road, London, SW14 7, United Kingdom","Country":"GBR","State":"England","County":"London","City":"London","District":"Mortlake","Street":"Carlton Road","HouseNumber":"1","PostalCode":"SW14 7","AdditionalData":[{"value":"United Kingdom","key":"CountryName"},{"value":"England","key":"StateName"},{"value":"London","key":"CountyName"}]},"MapReference":{"ReferenceId":"25409030","Spot":0.22,"SideOfStreet":"left","StateId":"20248595","CountyId":"20337453","CityId":"20337454","AddressId":"748236231","RoadLinkId":"83017122"}}},{"Relevance":1.0,"Distance":39.1,"MatchLevel":"postalCode","MatchQuality":{"PostalCode":1.0},"MatchType":"interpolated","Location":{"LocationId":"NT_vVVQyjPbRmHLKs1JmxwaxC_zcDM","LocationType":"point","DisplayPosition":{"Latitude":51.46429,"Longitude":-0.27398},"MapView":{"TopLeft":{"Latitude":51.4732832,"Longitude":-0.2884153},"BottomRight":{"Latitude":51.4552968,"Longitude":-0.2595447}},"Address":{"Label":"SW14 7JU, London, England, United Kingdom","Country":"GBR","State":"England","County":"London","City":"London","PostalCode":"SW14 7JU","AdditionalData":[{"value":"United Kingdom","key":"CountryName"},{"value":"England","key":"StateName"},{"value":"London","key":"CountyName"}]},"MapReference":{"ReferenceId":"1147457390","Spot":0.1,"SideOfStreet":"neither","StateId":"20248595","CountyId":"20337453","CityId":"20337454"}}},{"Relevance":1.0,"Distance":42.6,"MatchLevel":"postalCode","MatchQuality":{"PostalCode":1.0},"MatchType":"interpolated","Location":{"LocationId":"NT_vVVQyjPbRmHLKs1JmxwaxC_zYjM","LocationType":"point","DisplayPosition":{"Latitude":51.46424,"Longitude":-0.27283},"MapView":{"TopLeft":{"Latitude":51.4732332,"Longitude":-0.2872653},"BottomRight":{"Latitude":51.4552468,"Longitude":-0.2583947}},"Address":{"Label":"SW14 7JT, London, England, United Kingdom","Country":"GBR","State":"England","County":"London","City":"London","PostalCode":"SW14 7JT","AdditionalData":[{"value":"United Kingdom","key":"CountryName"},{"value":"England","key":"StateName"},{"value":"London","key":"CountyName"}]},"MapReference":{"ReferenceId":"920903059","Spot":0.89,"SideOfStreet":"neither","StateId":"20248595","CountyId":"20337453","CityId":"20337454"}}},{"Relevance":1.0,"Distance":48.5,"MatchLevel":"houseNumber","MatchQuality":{"Country":1.0,"State":1.0,"County":1.0,"City":1.0,"District":1.0,"Street":[1.0],"HouseNumber":1.0,"PostalCode":1.0},"MatchType":"interpolated","Location":{"LocationId":"NT_ftBU4jY84-.uQozq.Y-rcB_1YD","LocationType":"point","DisplayPosition":{"Latitude":51.46391,"Longitude":-0.27348},"MapView":{"TopLeft":{"Latitude":51.4650342,"Longitude":-0.2752844},"BottomRight":{"Latitude":51.4627858,"Longitude":-0.2716756}},"Address":{"Label":"56 Coval Road, London, SW14 7, United Kingdom","Country":"GBR","State":"England","County":"London","City":"London","District":"Mortlake","Street":"Coval Road","HouseNumber":"56","PostalCode":"SW14 7","AdditionalData":[{"value":"United Kingdom","key":"CountryName"},{"value":"England","key":"StateName"},{"value":"London","key":"CountyName"}]},"MapReference":{"ReferenceId":"566003724","Spot":0.91,"SideOfStreet":"right","StateId":"20248595","CountyId":"20337453","CityId":"20337454","AddressId":"748570628","RoadLinkId":"82985728"}}},{"Relevance":1.0,"Distance":55.5,"MatchLevel":"houseNumber","MatchQuality":{"Country":1.0,"State":1.0,"County":1.0,"City":1.0,"District":1.0,"Street":[1.0],"HouseNumber":1.0,"PostalCode":1.0},"MatchType":"interpolated","Location":{"LocationId":"NT_tHUEB8YmN6eI0ppizn4OaD_zAD","LocationType":"point","DisplayPosition":{"Latitude":51.46474,"Longitude":-0.27418},"MapView":{"TopLeft":{"Latitude":51.4658642,"Longitude":-0.2759844},"BottomRight":{"Latitude":51.4636158,"Longitude":-0.2723756}},"Address":{"Label":"30 Holmesdale Avenue, London, SW14 7BQ, United Kingdom","Country":"GBR","State":"England","County":"London","City":"London","District":"Mortlake","Street":"Holmesdale Avenue","HouseNumber":"30","PostalCode":"SW14 7BQ","AdditionalData":[{"value":"United Kingdom","key":"CountryName"},{"value":"England","key":"StateName"},{"value":"London","key":"CountyName"}]},"MapReference":{"ReferenceId":"25408949","Spot":0.0,"SideOfStreet":"right","StateId":"20248595","CountyId":"20337453","CityId":"20337454","AddressId":"747593113","RoadLinkId":"83022917"}}}]}]}}