{"Response":{"MetaInfo":{"Timestamp":"2020-03-28T10:07:13.903+0000","NextPageInformation":"2"},"View":[{"_type":"SearchResultsViewType","ViewId":0,"Result":[{"Relevance":1.0,"Distance":0.0,"Direction":0.0,"MatchLevel":"district","MatchQuality":{"Country":1.0,"State":1.0,"County":1.0,"City":1.0,"District":1.0,"PostalCode":1.0},"Location":{"LocationId":"NT_g5-FBj1SmEDpCiIbmgFF6C","LocationType":"point","DisplayPosition":{"Latitude":51.4170599,"Longitude":-2.4986205},"MapView":{"TopLeft":{"Latitude":51.42715,"Longitude":-2.52011},"BottomRight":{"Latitude":51.39687,"Longitude":-2.46996}},"Address":{"Label":"Keynsham, Bristol, England, United Kingdom","Country":"GBR","State":"England","County":"Avon","City":"Bristol","District":"Keynsham","PostalCode":"BS31 1","AdditionalData":[{"value":"United Kingdom","key":"CountryName"},{"value":"England","key":"StateName"},{"value":"Avon","key":"CountyName"}]},"MapReference":{"ReferenceId":"1197555300","SideOfStreet":"neither","StateId":"20248595","CountyId":"20352323","CityId":"20352420","DistrictId":"20352502"}}},{"Relevance":1.0,"Distance":17.0,"MatchLevel":"houseNumber","MatchQuality":{"Country":1.0,"State":1.0,"County":1.0,"City":1.0,"District":1.0,"Street":[1.0],"HouseNumber":1.0,"PostalCode":1.0},"MatchType":"interpolated","Location":{"LocationId":"NT_m5xtjbdkJ5SChHmZhAaNsD_l_26734282_R_xMD","LocationType":"point","DisplayPosition":{"Latitude":51.4169326,"Longitude":-2.4990156},"MapView":{"TopLeft":{"Latitude":51.4180568,"Longitude":-2.5008181},"BottomRight":{"Latitude":51.4158085,"Longitude":-2.497213}},"Address":{"Label":"13 High Street, Bristol, BS31 1DP, United Kingdom","Country":"GBR","State":"England","County":"Avon","City":"Bristol","District":"Keynsham","Street":"High Street","HouseNumber":"13","PostalCode":"BS31 1DP","AdditionalData":[{"value":"United Kingdom","key":"CountryName"},{"value":"England","key":"StateName"},{"value":"Avon","key":"CountyName"}]},"MapReference":{"ReferenceId":"26734282","Spot":0.55,"SideOfStreet":"right","StateId":"20248595","CountyId":"20352323","CityId":"20352420","DistrictId":"20352502"}}},{"Relevance":1.0,"Distance":32.9,"MatchLevel":"postalCode","MatchQuality":{"PostalCode":1.0},"MatchType":"interpolated","Location":{"LocationId":"NT_m5xtjbdkJ5SChHmZhAaNsD_l_26734282_R_xMD","LocationType":"point","DisplayPosition":{"Latitude":51.41686,"Longitude":-2.49897},"MapView":{"TopLeft":{"Latitude":51.4258532,"Longitude":-2.5133903},"BottomRight":{"Latitude":51.4078668,"Longitude":-2.4845497}},"Address":{"Label":"BS31 1DZ, Bristol, England, United Kingdom","Country":"GBR","State":"England","County":"Avon","City":"Bristol","PostalCode":"BS31 1DZ","AdditionalData":[{"value":"United Kingdom","key":"CountryName"},{"value":"England","key":"StateName"},{"value":"Avon","key":"CountyName"}]},"MapReference":{"ReferenceId":"26734282","Spot":0.55,"SideOfStreet":"neither","StateId":"20248595","CountyId":"20352323","CityId":"20352420"}}},{"Relevance":1.0,"Distance":65.5,"MatchLevel":"houseNumber","MatchQuality":{"Country":1.0,"State":1.0,"County":1.0,"City":1.0,"District":1.0,"Street":[1.0],"HouseNumber":1.0,"PostalCode":1.0},"MatchType":"interpolated","Location":{"LocationId":"NT_xGSkYy1hAxGSMhfteeKMVD_l_1198431040_L_5A","LocationType":"point","DisplayPosition":{"Latitude":51.41758,"Longitude":-2.499065},"MapView":{"TopLeft":{"Latitude":51.4187042,"Longitude":-2.5008676},"BottomRight":{"Latitude":51.4164559,"Longitude":-2.4972624}},"Address":{"Label":"9 Station Road, Bristol, BS31 2BH, United Kingdom","Country":"GBR","State":"England","County":"Avon","City":"Bristol","District":"Keynsham","Street":"Station Road","HouseNumber":"9","PostalCode":"BS31 2BH","AdditionalData":[{"value":"United Kingdom","key":"CountryName"},{"value":"England","key":"StateName"},{"value":"Avon","key":"CountyName"}]},"MapReference":{"ReferenceId":"1198431040","Spot":0.5,"SideOfStreet":"left","StateId":"20248595","CountyId":"20352323","CityId":"20352420","DistrictId":"20352502"}}},{"Relevance":1.0,"Distance":66.4,"MatchLevel":"houseNumber","MatchQuality":{"Country":1.0,"State":1.0,"County":1.0,"City":1.0,"District":1.0,"Street":[1.0],"HouseNumber":1.0,"PostalCode":1.0},"MatchType":"interpolated","Location":{"LocationId":"NT_xGSkYy1hAxGSMhfteeKMVD_l_1034234128_L_1A","LocationType":"point","DisplayPosition":{"Latitude":51.41752,"Longitude":-2.49923},"MapView":{"TopLeft":{"Latitude":51.4186442,"Longitude":-2.5010326},"BottomRight":{"Latitude":51.4163959,"Longitude":-2.4974274}},"Address":{"Label":"5 Station Road, Bristol, BS31 2BH, United Kingdom","Country":"GBR","State":"England","County":"Avon","City":"Bristol","District":"Keynsham","Street":"Station Road","HouseNumber":"5","PostalCode":"BS31 2BH","AdditionalData":[{"value":"United Kingdom","key":"CountryName"},{"value":"England","key":"StateName"},{"value":"Avon","key":"CountyName"}]},"MapReference":{"ReferenceId":"1034234128","Spot":0.67,"SideOfStreet":"left","StateId":"20248595","CountyId":"20352323","CityId":"20352420","DistrictId":"20352502"}}},{"Relevance":1.0,"Distance":67.1,"MatchLevel":"street","MatchQuality":{"Country":1.0,"State":1.0,"County":1.0,"City":1.0,"District":1.0,"PostalCode":1.0},"Location":{"LocationId":"NT_if..C6xe53kj8cjzVK.LyA_l_762199142_L","LocationType":"point","DisplayPosition":{"Latitude":51.4174,"Longitude":-2.49942},"MapView":{"TopLeft":{"Latitude":51.41746,"Longitude":-2.49954},"BottomRight":{"Latitude":51.41739,"Longitude":-2.49942}},"Address":{"Label":"Bristol, BS31 1, United Kingdom","Country":"GBR","State":"England","County":"Avon","City":"Bristol","District":"Keynsham","PostalCode":"BS31 1","AdditionalData":[{"value":"United Kingdom","key":"CountryName"},{"value":"England","key":"StateName"},{"value":"Avon","key":"CountyName"}]},"MapReference":{"ReferenceId":"762199142","Spot":0.0,"SideOfStreet":"left","StateId":"20248595","CountyId":"20352323","CityId":"20352420","DistrictId":"20352502"}}},{"Relevance":1.0,"Distance":67.5,"MatchLevel":"street","MatchQuality":{"Country":1.0,"State":1.0,"County":1.0,"City":1.0,"District":1.0,"PostalCode":1.0},"Location":{"LocationId":"NT_if..C6xe53kj8cjzVK.LyA_l_762199144_R","LocationType":"point","DisplayPosition":{"Latitude":51.4174397,"Longitude":-2.4993801},"MapView":{"TopLeft":{"Latitude":51.41746,"Longitude":-2.49942},"BottomRight":{"Latitude":51.4174,"Longitude":-2.49938}},"Address":{"Label":"Bristol, BS31 1, United Kingdom","Country":"GBR","State":"England","County":"Avon","City":"Bristol","District":"Keynsham","PostalCode":"BS31 1","AdditionalData":[{"value":"United Kingdom","key":"CountryName"},{"value":"England","key":"StateName"},{"value":"Avon","key":"CountyName"}]},"MapReference":{"ReferenceId":"762199144","Spot":0.72,"SideOfStreet":"right","StateId":"20248595","CountyId":"20352323","CityId":"20352420","DistrictId":"20352502"}}},{"Relevance":1.0,"Distance":68.9,"MatchLevel":"houseNumber","MatchQuality":{"Country":1.0,"State":1.0,"County":1.0,"City":1.0,"District":1.0,"Street":[1.0],"HouseNumber":1.0,"PostalCode":1.0},"MatchType":"interpolated","Location":{"LocationId":"NT_xGSkYy1hAxGSMhfteeKMVD_l_1198431041_L_xED","LocationType":"point","DisplayPosition":{"Latitude":51.41767,"Longitude":-2.4987899},"MapView":{"TopLeft":{"Latitude":51.4187942,"Longitude":-2.5005925},"BottomRight":{"Latitude":51.4165459,"Longitude":-2.4969874}},"Address":{"Label":"11 Station Road, Bristol, BS31 2BH, United Kingdom","Country":"GBR","State":"England","County":"Avon","City":"Bristol","District":"Keynsham","Street":"Station Road","HouseNumber":"11","PostalCode":"BS31 2BH","AdditionalData":[{"value":"United Kingdom","key":"CountryName"},{"value":"England","key":"StateName"},{"value":"Avon","key":"CountyName"}]},"MapReference":{"ReferenceId":"1198431041","Spot":0.24,"SideOfStreet":"left","StateId":"20248595","CountyId":"20352323","CityId":"20352420","DistrictId":"20352502"}}},{"Relevance":1.0,"Distance":69.5,"MatchLevel":"street","MatchQuality":{"Country":1.0,"State":1.0,"County":1.0,"City":1.0,"District":1.0,"PostalCode":1.0},"Location":{"LocationId":"NT_if..C6xe53kj8cjzVK.LyA_l_762199143_L","LocationType":"point","DisplayPosition":{"Latitude":51.41746,"Longitude":-2.49939},"MapView":{"TopLeft":{"Latitude":51.41749,"Longitude":-2.49953},"BottomRight":{"Latitude":51.41746,"Longitude":-2.49939}},"Address":{"Label":"Bristol, BS31 1, United Kingdom","Country":"GBR","State":"England","County":"Avon","City":"Bristol","District":"Keynsham","PostalCode":"BS31 1","AdditionalData":[{"value":"United Kingdom","key":"CountryName"},{"value":"England","key":"StateName"},{"value":"Avon","key":"CountyName"}]},"MapReference":{"ReferenceId":"762199143","Spot":1.0,"SideOfStreet":"left","StateId":"20248595","CountyId":"20352323","CityId":"20352420","DistrictId":"20352502"}}},{"Relevance":1.0,"Distance":73.4,"MatchLevel":"houseNumber","MatchQuality":{"Country":1.0,"State":1.0,"County":1.0,"City":1.0,"District":1.0,"Street":[1.0],"HouseNumber":1.0,"PostalCode":1.0},"MatchType":"interpolated","Location":{"LocationId":"NT_tE4OeWjjcwl48QIZB50qLA_l_26734248_L_xA","LocationType":"point","DisplayPosition":{"Latitude":51.41714,"Longitude":-2.49757},"MapView":{"TopLeft":{"Latitude":51.4182642,"Longitude":-2.4993725},"BottomRight":{"Latitude":51.4160158,"Longitude":-2.4957674}},"Address":{"Label":"1 The Park, Bristol, BS31 2BL, United Kingdom","Country":"GBR","State":"England","County":"Avon","City":"Bristol","District":"Keynsham","Street":"The Park","HouseNumber":"1","PostalCode":"BS31 2BL","AdditionalData":[{"value":"United Kingdom","key":"CountryName"},{"value":"England","key":"StateName"},{"value":"Avon","key":"CountyName"}]},"MapReference":{"ReferenceId":"26734248","Spot":0.13,"SideOfStreet":"left","StateId":"20248595","CountyId":"20352323","CityId":"20352420","DistrictId":"20352502"}}}]}]}}