{"Response":{"MetaInfo":{"Timestamp":"2020-03-28T10:11:51.993+0000","NextPageInformation":"2"},"View":[{"_type":"SearchResultsViewType","ViewId":0,"Result":[{"Relevance":1.0,"Distance":0.0,"Direction":0.0,"MatchLevel":"district","MatchQuality":{"Country":1.0,"State":1.0,"County":1.0,"City":1.0,"District":1.0,"PostalCode":1.0},"Location":{"LocationId":"NT_cPyW8rU9U2hj-dU7rqyu1C","LocationType":"point","DisplayPosition":{"Latitude":51.4554526,"Longitude":-2.6054269},"MapView":{"TopLeft":{"Latitude":51.51753,"Longitude":-2.65532},"BottomRight":{"Latitude":51.39937,"Longitude":-2.51087}},"Address":{"Label":"Bristol, England, United Kingdom","Country":"GBR","State":"England","County":"Avon","City":"Bristol","District":"Bristol","PostalCode":"BS1 6","AdditionalData":[{"value":"United Kingdom","key":"CountryName"},{"value":"England","key":"StateName"},{"value":"Avon","key":"CountyName"}]},"MapReference":{"ReferenceId":"786168041","SideOfStreet":"neither","StateId":"20248595","CountyId":"20352323","CityId":"20352420","DistrictId":"20352421"}}},{"Relevance":1.0,"Distance":4.4,"MatchLevel":"postalCode","MatchQuality":{"PostalCode":1.0},"MatchType":"interpolated","Location":{"LocationId":"NT_nyP79r.yEzpDKLWE66VjhD_l_836665125_R_yUD","LocationType":"point","DisplayPosition":{"Latitude":51.45545,"Longitude":-2.60549},"MapView":{"TopLeft":{"Latitude":51.4644432,"Longitude":-2.6199225},"BottomRight":{"Latitude":51.4464568,"Longitude":-2.5910575}},"Address":{"Label":"BS8 1HP, Bristol, England, United Kingdom","Country":"GBR","State":"England","County":"Avon","City":"Bristol","PostalCode":"BS8 1HP","AdditionalData":[{"value":"United Kingdom","key":"CountryName"},{"value":"England","key":"StateName"},{"value":"Avon","key":"CountyName"}]},"MapReference":{"ReferenceId":"836665125","Spot":0.51,"SideOfStreet":"neither","StateId":"20248595","CountyId":"20352323","CityId":"20352420"}}},{"Relevance":1.0,"Distance":7.1,"MatchLevel":"houseNumber","MatchQuality":{"Country":1.0,"State":1.0,"County":1.0,"City":1.0,"District":1.0,"Street":[1.0],"HouseNumber":1.0,"PostalCode":1.0},"MatchType":"interpolated","Location":{"LocationId":"NT_nyP79r.yEzpDKLWE66VjhD_l_836665125_R_yUD","LocationType":"point","DisplayPosition":{"Latitude":51.455378,"Longitude":-2.605418},"MapView":{"TopLeft":{"Latitude":51.4565022,"Longitude":-2.6072221},"BottomRight":{"Latitude":51.4542539,"Longitude":-2.603614}},"Address":{"Label":"25 Berkeley Square, Bristol, BS8 1HP, United Kingdom","Country":"GBR","State":"England","County":"Avon","City":"Bristol","District":"Bristol","Street":"Berkeley Square","HouseNumber":"25","PostalCode":"BS8 1HP","AdditionalData":[{"value":"United Kingdom","key":"CountryName"},{"value":"England","key":"StateName"},{"value":"Avon","key":"CountyName"}]},"MapReference":{"ReferenceId":"836665125","Spot":0.51,"SideOfStreet":"right","StateId":"20248595","CountyId":"20352323","CityId":"20352420","DistrictId":"20352421"}}},{"Relevance":1.0,"Distance":26.8,"MatchLevel":"houseNumber","MatchQuality":{"Country":1.0,"State":1.0,"County":1.0,"City":1.0,"District":1.0,"Street":[1.0],"HouseNumber":1.0,"PostalCode":1.0},"MatchType":"interpolated","Location":{"LocationId":"NT_nyP79r.yEzpDKLWE66VjhD_l_836665124_R_ykD","LocationType":"point","DisplayPosition":{"Latitude":51.4553167,"Longitude":-2.6050633},"MapView":{"TopLeft":{"Latitude":51.4564408,"Longitude":-2.6068674},"BottomRight":{"Latitude":51.4541925,"Longitude":-2.6032593}},"Address":{"Label":"29 Berkeley Square, Bristol, BS8 1HP, United Kingdom","Country":"GBR","State":"England","County":"Avon","City":"Bristol","District":"Bristol","Street":"Berkeley Square","HouseNumber":"29","PostalCode":"BS8 1HP","AdditionalData":[{"value":"United Kingdom","key":"CountryName"},{"value":"England","key":"StateName"},{"value":"Avon","key":"CountyName"}]},"MapReference":{"ReferenceId":"836665124","Spot":0.67,"SideOfStreet":"right","StateId":"20248595","CountyId":"20352323","CityId":"20352420","DistrictId":"20352421"}}},{"Relevance":1.0,"Distance":31.5,"MatchLevel":"houseNumber","MatchQuality":{"Country":1.0,"State":1.0,"County":1.0,"City":1.0,"District":1.0,"Street":[1.0],"HouseNumber":1.0,"PostalCode":1.0},"MatchType":"interpolated","Location":{"LocationId":"NT_nyP79r.yEzpDKLWE66VjhD_l_836665126_R_yMD","LocationType":"point","DisplayPosition":{"Latitude":51.45547,"Longitude":-2.6058801},"MapView":{"TopLeft":{"Latitude":51.4565942,"Longitude":-2.6076841},"BottomRight":{"Latitude":51.4543459,"Longitude":-2.604076}},"Address":{"Label":"23 Berkeley Square, Bristol, BS8 1HP, United Kingdom","Country":"GBR","State":"England","County":"Avon","City":"Bristol","District":"Bristol","Street":"Berkeley Square","HouseNumber":"23","PostalCode":"BS8 1HP","AdditionalData":[{"value":"United Kingdom","key":"CountryName"},{"value":"England","key":"StateName"},{"value":"Avon","key":"CountyName"}]},"MapReference":{"ReferenceId":"836665126","Spot":0.38,"SideOfStreet":"right","StateId":"20248595","CountyId":"20352323","CityId":"20352420","DistrictId":"20352421"}}},{"Relevance":1.0,"Distance":34.6,"MatchLevel":"postalCode","MatchQuality":{"PostalCode":1.0},"MatchType":"interpolated","Location":{"LocationId":"NT_nyP79r.yEzpDKLWE66VjhD_l_836665126_R_yMD","LocationType":"point","DisplayPosition":{"Latitude":51.45553,"Longitude":-2.60591},"MapView":{"TopLeft":{"Latitude":51.4645232,"Longitude":-2.6203425},"BottomRight":{"Latitude":51.4465368,"Longitude":-2.5914775}},"Address":{"Label":"BS8 1HT, Bristol, England, United Kingdom","Country":"GBR","State":"England","County":"Avon","City":"Bristol","PostalCode":"BS8 1HT","AdditionalData":[{"value":"United Kingdom","key":"CountryName"},{"value":"England","key":"StateName"},{"value":"Avon","key":"CountyName"}]},"MapReference":{"ReferenceId":"836665126","Spot":0.38,"SideOfStreet":"neither","StateId":"20248595","CountyId":"20352323","CityId":"20352420"}}},{"Relevance":1.0,"Distance":40.1,"MatchLevel":"street","MatchQuality":{"Country":1.0,"State":1.0,"County":1.0,"City":1.0,"District":1.0,"Street":[1.0],"PostalCode":1.0},"Location":{"LocationId":"NT_TTT1gVRKNOFznGVkp6qIvD_l_26726620_L","LocationType":"point","DisplayPosition":{"Latitude":51.45529,"Longitude":-2.60491},"MapView":{"TopLeft":{"Latitude":51.45538,"Longitude":-2.60491},"BottomRight":{"Latitude":51.45529,"Longitude":-2.60479}},"Address":{"Label":"Berkeley Avenue, Bristol, BS1 5, United Kingdom","Country":"GBR","State":"England","County":"Avon","City":"Bristol","District":"Bristol","Street":"Berkeley Avenue","PostalCode":"BS1 5","AdditionalData":[{"value":"United Kingdom","key":"CountryName"},{"value":"England","key":"StateName"},{"value":"Avon","key":"CountyName"}]},"MapReference":{"ReferenceId":"26726620","Spot":0.0,"SideOfStreet":"left","StateId":"20248595","CountyId":"20352323","CityId":"20352420","DistrictId":"20352421"}}},{"Relevance":1.0,"Distance":41.3,"MatchLevel":"houseNumber","MatchQuality":{"Country":1.0,"State":1.0,"County":1.0,"City":1.0,"District":1.0,"Street":[1.0],"HouseNumber":1.0,"PostalCode":1.0},"MatchType":"interpolated","Location":{"LocationId":"NT_nyP79r.yEzpDKLWE66VjhD_l_26801578_R_zID","LocationType":"point","DisplayPosition":{"Latitude":51.45514,"Longitude":-2.6051044},"MapView":{"TopLeft":{"Latitude":51.4562642,"Longitude":-2.6069085},"BottomRight":{"Latitude":51.4540159,"Longitude":-2.6033004}},"Address":{"Label":"32 Berkeley Square, Bristol, BS8 1, United Kingdom","Country":"GBR","State":"England","County":"Avon","City":"Bristol","District":"Bristol","Street":"Berkeley Square","HouseNumber":"32","PostalCode":"BS8 1","AdditionalData":[{"value":"United Kingdom","key":"CountryName"},{"value":"England","key":"StateName"},{"value":"Avon","key":"CountyName"}]},"MapReference":{"ReferenceId":"26801578","Spot":0.75,"SideOfStreet":"right","StateId":"20248595","CountyId":"20352323","CityId":"20352420","DistrictId":"20352421"}}},{"Relevance":1.0,"Distance":42.1,"MatchLevel":"houseNumber","MatchQuality":{"Country":1.0,"State":1.0,"County":1.0,"City":1.0,"District":1.0,"Street":[1.0],"HouseNumber":1.0,"PostalCode":1.0},"MatchType":"interpolated","Location":{"LocationId":"NT_druS3Y7kM56fQEHWWlIMhB_l_26851377_L_xYD","LocationType":"point","DisplayPosition":{"Latitude":51.4559547,"Longitude":-2.6052641},"MapView":{"TopLeft":{"Latitude":51.4570789,"Longitude":-2.6070682},"BottomRight":{"Latitude":51.4548306,"Longitude":-2.6034601}},"Address":{"Label":"16 Queens Road, Bristol, BS8 1, United Kingdom","Country":"GBR","State":"England","County":"Avon","City":"Bristol","District":"Bristol","Street":"Queens Road","HouseNumber":"16","PostalCode":"BS8 1","AdditionalData":[{"value":"United Kingdom","key":"CountryName"},{"value":"England","key":"StateName"},{"value":"Avon","key":"CountyName"}]},"MapReference":{"ReferenceId":"26851377","Spot":0.44,"SideOfStreet":"left","StateId":"20248595","CountyId":"20352323","CityId":"20352420","DistrictId":"20352421"}}},{"Relevance":1.0,"Distance":44.9,"MatchLevel":"street","MatchQuality":{"Country":1.0,"State":1.0,"County":1.0,"City":1.0,"District":1.0,"Street":[1.0],"PostalCode":1.0},"Location":{"LocationId":"NT_TTT1gVRKNOFznGVkp6qIvD_l_26726585_L","LocationType":"point","DisplayPosition":{"Latitude":51.45538,"Longitude":-2.60479},"MapView":{"TopLeft":{"Latitude":51.45571,"Longitude":-2.60479},"BottomRight":{"Latitude":51.45538,"Longitude":-2.60439}},"Address":{"Label":"Berkeley Avenue, Bristol, BS1 5, United Kingdom","Country":"GBR","State":"England","County":"Avon","City":"Bristol","District":"Bristol","Street":"Berkeley Avenue","PostalCode":"BS1 5","AdditionalData":[{"value":"United Kingdom","key":"CountryName"},{"value":"England","key":"StateName"},{"value":"Avon","key":"CountyName"}]},"MapReference":{"ReferenceId":"26726585","Spot":0.0,"SideOfStreet":"left","StateId":"20248595","CountyId":"20352323","CityId":"20352420","DistrictId":"20352421"}}}]}]}}