{"Response":{"MetaInfo":{"Timestamp":"2020-03-28T10:36:42.744+0000","NextPageInformation":"2"},"View":[{"_type":"SearchResultsViewType","ViewId":0,"Result":[{"Relevance":1.0,"Distance":0.0,"Direction":0.0,"MatchLevel":"district","MatchQuality":{"Country":1.0,"State":1.0,"County":1.0,"City":1.0,"District":1.0,"PostalCode":1.0},"Location":{"LocationId":"NT_GdlY9d69Uzj2fTDIUboHyD","LocationType":"point","DisplayPosition":{"Latitude":51.4178402,"Longitude":-1.7304653},"MapView":{"TopLeft":{"Latitude":51.43132,"Longitude":-1.75974},"BottomRight":{"Latitude":51.41318,"Longitude":-1.70228}},"Address":{"Label":"Marlborough, England, United Kingdom","Country":"GBR","State":"England","County":"Wiltshire","City":"Marlborough","District":"Marlborough","PostalCode":"SN8 1","AdditionalData":[{"value":"United Kingdom","key":"CountryName"},{"value":"England","key":"StateName"},{"value":"Wiltshire","key":"CountyName"}]},"MapReference":{"ReferenceId":"26570700","SideOfStreet":"neither","StateId":"20248595","CountyId":"20338966","CityId":"20338967","DistrictId":"20351975"}}},{"Relevance":1.0,"Distance":13.0,"MatchLevel":"landmark","MatchQuality":{"Country":1.0,"State":1.0,"Name":1.0},"Location":{"LocationId":"NT_6fQO8FaZ6xFVC0T1oP8K5D","LocationType":"river","Name":"Kennet","DisplayPosition":{"Latitude":51.4241,"Longitude":-1.71881},"MapView":{"TopLeft":{"Latitude":51.47992,"Longitude":-1.86217},"BottomRight":{"Latitude":51.40797,"Longitude":-1.52545}},"Address":{"Label":"United Kingdom","Country":"GBR","State":"England","AdditionalData":[{"value":"United Kingdom","key":"CountryName"},{"value":"England","key":"StateName"}]},"MapReference":{"StateId":"20248595","PlaceId":"718830181"}}},{"Relevance":1.0,"Distance":36.3,"MatchLevel":"street","MatchQuality":{"Country":1.0,"State":1.0,"County":1.0,"City":1.0,"District":1.0,"Street":[1.0],"PostalCode":1.0},"Location":{"LocationId":"NT_PLjr7emYc1kYZQcUDClfAA_l_577367417_L","LocationType":"point","DisplayPosition":{"Latitude":51.41803,"Longitude":-1.73004},"MapView":{"TopLeft":{"Latitude":51.41815,"Longitude":-1.73006},"BottomRight":{"Latitude":51.41803,"Longitude":-1.73004}},"Address":{"Label":"Figgins Lane, Marlborough, SN8 4, United Kingdom","Country":"GBR","State":"England","County":"Wiltshire","City":"Marlborough","District":"Marlborough","Street":"Figgins Lane","PostalCode":"SN8 4","AdditionalData":[{"value":"United Kingdom","key":"CountryName"},{"value":"England","key":"StateName"},{"value":"Wiltshire","key":"CountyName"}]},"MapReference":{"ReferenceId":"577367417","Spot":0.0,"SideOfStreet":"left","StateId":"20248595","CountyId":"20338966","CityId":"20338967","DistrictId":"20351975"}}},{"Relevance":1.0,"Distance":36.3,"MatchLevel":"street","MatchQuality":{"Country":1.0,"State":1.0,"County":1.0,"City":1.0,"District":1.0,"Street":[1.0],"PostalCode":1.0},"Location":{"LocationId":"NT_PLjr7emYc1kYZQcUDClfAA_l_577367416_L","LocationType":"point","DisplayPosition":{"Latitude":51.41803,"Longitude":-1.73004},"MapView":{"TopLeft":{"Latitude":51.41803,"Longitude":-1.73004},"BottomRight":{"Latitude":51.41757,"Longitude":-1.72933}},"Address":{"Label":"Figgins Lane, Marlborough, SN8 4, United Kingdom","Country":"GBR","State":"England","County":"Wiltshire","City":"Marlborough","District":"Marlborough","Street":"Figgins Lane","PostalCode":"SN8 4","AdditionalData":[{"value":"United Kingdom","key":"CountryName"},{"value":"England","key":"StateName"},{"value":"Wiltshire","key":"CountyName"}]},"MapReference":{"ReferenceId":"577367416","Spot":1.0,"SideOfStreet":"left","StateId":"20248595","CountyId":"20338966","CityId":"20338967","DistrictId":"20351975"}}},{"Relevance":1.0,"Distance":43.5,"MatchLevel":"street","MatchQuality":{"Country":1.0,"State":1.0,"County":1.0,"City":1.0,"District":1.0,"Street":[1.0],"PostalCode":1.0},"Location":{"LocationId":"NT_o.ssT2rQtGsvtIi6FnA9iD_l_737140703_L","LocationType":"point","DisplayPosition":{"Latitude":51.4182271,"Longitude":-1.7303686},"MapView":{"TopLeft":{"Latitude":51.41888,"Longitude":-1.732},"BottomRight":{"Latitude":51.41815,"Longitude":-1.73006}},"Address":{"Label":"Figgins Lane, Marlborough, SN8 1, United Kingdom","Country":"GBR","State":"England","County":"Wiltshire","City":"Marlborough","District":"Marlborough","Street":"Figgins Lane","PostalCode":"SN8 1","AdditionalData":[{"value":"United Kingdom","key":"CountryName"},{"value":"England","key":"StateName"},{"value":"Wiltshire","key":"CountyName"}]},"MapReference":{"ReferenceId":"737140703","Spot":0.15,"SideOfStreet":"left","StateId":"20248595","CountyId":"20338966","CityId":"20338967","DistrictId":"20351975"}}},{"Relevance":1.0,"Distance":44.5,"MatchLevel":"street","MatchQuality":{"Country":1.0,"State":1.0,"County":1.0,"City":1.0,"District":1.0,"Street":[1.0],"PostalCode":1.0},"Location":{"LocationId":"NT_c5lk0noqkcKIlM5BXr6PyA_l_1200057797_L","LocationType":"point","DisplayPosition":{"Latitude":51.41815,"Longitude":-1.73006},"MapView":{"TopLeft":{"Latitude":51.41907,"Longitude":-1.73006},"BottomRight":{"Latitude":51.41815,"Longitude":-1.72973}},"Address":{"Label":"Hilliers Yard, Marlborough, SN8 1, United Kingdom","Country":"GBR","State":"England","County":"Wiltshire","City":"Marlborough","District":"Marlborough","Street":"Hilliers Yard","PostalCode":"SN8 1","AdditionalData":[{"value":"United Kingdom","key":"CountryName"},{"value":"England","key":"StateName"},{"value":"Wiltshire","key":"CountyName"}]},"MapReference":{"ReferenceId":"1200057797","Spot":0.0,"SideOfStreet":"left","StateId":"20248595","CountyId":"20338966","CityId":"20338967","DistrictId":"20351975"}}},{"Relevance":1.0,"Distance":49.1,"MatchLevel":"houseNumber","MatchQuality":{"Country":1.0,"State":1.0,"County":1.0,"City":1.0,"District":1.0,"Street":[1.0],"HouseNumber":1.0,"PostalCode":1.0},"MatchType":"interpolated","Location":{"LocationId":"NT_Ix6lUXG-oQerAM6ayrVLyD_l_26570842_R_zYD","LocationType":"point","DisplayPosition":{"Latitude":51.418146,"Longitude":-1.731222},"MapView":{"TopLeft":{"Latitude":51.4192702,"Longitude":-1.7330246},"BottomRight":{"Latitude":51.4170219,"Longitude":-1.7294194}},"Address":{"Label":"36 River Park, Marlborough, SN8 1NH, United Kingdom","Country":"GBR","State":"England","County":"Wiltshire","City":"Marlborough","District":"Marlborough","Street":"River Park","HouseNumber":"36","PostalCode":"SN8 1NH","AdditionalData":[{"value":"United Kingdom","key":"CountryName"},{"value":"England","key":"StateName"},{"value":"Wiltshire","key":"CountyName"}]},"MapReference":{"ReferenceId":"26570842","Spot":0.63,"SideOfStreet":"right","StateId":"20248595","CountyId":"20338966","CityId":"20338967","DistrictId":"20351975"}}},{"Relevance":1.0,"Distance":60.2,"MatchLevel":"houseNumber","MatchQuality":{"Country":1.0,"State":1.0,"County":1.0,"City":1.0,"District":1.0,"Street":[1.0],"HouseNumber":1.0,"PostalCode":1.0},"MatchType":"interpolated","Location":{"LocationId":"NT_Ti.RRekiWtbX1SIpyVWbjC_l_781540830_L_1UD","LocationType":"point","DisplayPosition":{"Latitude":51.4172516,"Longitude":-1.7299465},"MapView":{"TopLeft":{"Latitude":51.4183758,"Longitude":-1.7317491},"BottomRight":{"Latitude":51.4161275,"Longitude":-1.728144}},"Address":{"Label":"55 George Lane, Marlborough, SN8 4BY, United Kingdom","Country":"GBR","State":"England","County":"Wiltshire","City":"Marlborough","District":"Marlborough","Street":"George Lane","HouseNumber":"55","PostalCode":"SN8 4BY","AdditionalData":[{"value":"United Kingdom","key":"CountryName"},{"value":"England","key":"StateName"},{"value":"Wiltshire","key":"CountyName"}]},"MapReference":{"ReferenceId":"781540830","Spot":0.68,"SideOfStreet":"left","StateId":"20248595","CountyId":"20338966","CityId":"20338967","DistrictId":"20351975"}}},{"Relevance":1.0,"Distance":79.6,"MatchLevel":"houseNumber","MatchQuality":{"Country":1.0,"State":1.0,"County":1.0,"City":1.0,"District":1.0,"Street":[1.0],"HouseNumber":1.0,"PostalCode":1.0},"MatchType":"interpolated","Location":{"LocationId":"NT_Ix6lUXG-oQerAM6ayrVLyD_l_26570868_R_0ED","LocationType":"point","DisplayPosition":{"Latitude":51.4177138,"Longitude":-1.731652},"MapView":{"TopLeft":{"Latitude":51.418838,"Longitude":-1.7334546},"BottomRight":{"Latitude":51.4165897,"Longitude":-1.7298494}},"Address":{"Label":"41 River Park, Marlborough, SN8 1NH, United Kingdom","Country":"GBR","State":"England","County":"Wiltshire","City":"Marlborough","District":"Marlborough","Street":"River Park","HouseNumber":"41","PostalCode":"SN8 1NH","AdditionalData":[{"value":"United Kingdom","key":"CountryName"},{"value":"England","key":"StateName"},{"value":"Wiltshire","key":"CountyName"}]},"MapReference":{"ReferenceId":"26570868","Spot":0.76,"SideOfStreet":"right","StateId":"20248595","CountyId":"20338966","CityId":"20338967","DistrictId":"20351975"}}},{"Relevance":1.0,"Distance":80.4,"MatchLevel":"houseNumber","MatchQuality":{"Country":1.0,"State":1.0,"County":1.0,"City":1.0,"District":1.0,"Street":[1.0],"HouseNumber":1.0,"PostalCode":1.0},"MatchType":"interpolated","Location":{"LocationId":"NT_Ti.RRekiWtbX1SIpyVWbjC_l_26570856_R_ycD","LocationType":"point","DisplayPosition":{"Latitude":51.4175081,"Longitude":-1.7294347},"MapView":{"TopLeft":{"Latitude":51.4186323,"Longitude":-1.7312372},"BottomRight":{"Latitude":51.416384,"Longitude":-1.7276321}},"Address":{"Label":"27 George Lane, Marlborough, SN8 4BX, United Kingdom","Country":"GBR","State":"England","County":"Wiltshire","City":"Marlborough","District":"Marlborough","Street":"George Lane","HouseNumber":"27","PostalCode":"SN8 4BX","AdditionalData":[{"value":"United Kingdom","key":"CountryName"},{"value":"England","key":"StateName"},{"value":"Wiltshire","key":"CountyName"}]},"MapReference":{"ReferenceId":"26570856","Spot":0.52,"SideOfStreet":"right","StateId":"20248595","CountyId":"20338966","CityId":"20338967","DistrictId":"20351975"}}}]}]}}