{"Response":{"MetaInfo":{"Timestamp":"2020-03-28T10:11:54.917+0000","NextPageInformation":"2"},"View":[{"_type":"SearchResultsViewType","ViewId":0,"Result":[{"Relevance":1.0,"Distance":0.0,"Direction":0.0,"MatchLevel":"district","MatchQuality":{"Country":1.0,"State":1.0,"County":1.0,"City":1.0,"District":1.0,"PostalCode":1.0},"Location":{"LocationId":"NT_cPyW8rU9U2hj-dU7rqyu1C","LocationType":"point","DisplayPosition":{"Latitude":51.4952005,"Longitude":-2.5735221},"MapView":{"TopLeft":{"Latitude":51.51753,"Longitude":-2.65532},"BottomRight":{"Latitude":51.39937,"Longitude":-2.51087}},"Address":{"Label":"Bristol, England, United Kingdom","Country":"GBR","State":"England","County":"Avon","City":"Bristol","District":"Bristol","PostalCode":"BS1 6","AdditionalData":[{"value":"United Kingdom","key":"CountryName"},{"value":"England","key":"StateName"},{"value":"Avon","key":"CountyName"}]},"MapReference":{"ReferenceId":"786168041","SideOfStreet":"neither","StateId":"20248595","CountyId":"20352323","CityId":"20352420","DistrictId":"20352421"}}},{"Relevance":1.0,"Distance":2.3,"MatchLevel":"houseNumber","MatchQuality":{"Country":1.0,"State":1.0,"County":1.0,"City":1.0,"District":1.0,"Street":[1.0],"HouseNumber":1.0,"PostalCode":1.0},"MatchType":"interpolated","Location":{"LocationId":"NT_vHUBkJRxSfC2Ow8ut9reWC_l_881176510_L_yA","LocationType":"point","DisplayPosition":{"Latitude":51.4953533,"Longitude":-2.5735133},"MapView":{"TopLeft":{"Latitude":51.4964775,"Longitude":-2.575319},"BottomRight":{"Latitude":51.4942292,"Longitude":-2.5717077}},"Address":{"Label":"2 Bridge Walk, Bristol, BS7 0LE, United Kingdom","Country":"GBR","State":"England","County":"Avon","City":"Bristol","District":"Bristol","Street":"Bridge Walk","HouseNumber":"2","PostalCode":"BS7 0LE","AdditionalData":[{"value":"United Kingdom","key":"CountryName"},{"value":"England","key":"StateName"},{"value":"Avon","key":"CountyName"}]},"MapReference":{"ReferenceId":"881176510","Spot":0.56,"SideOfStreet":"left","StateId":"20248595","CountyId":"20352323","CityId":"20352420","DistrictId":"20352421"}}},{"Relevance":1.0,"Distance":20.2,"MatchLevel":"houseNumber","MatchQuality":{"Country":1.0,"State":1.0,"County":1.0,"City":1.0,"District":1.0,"Street":[1.0],"HouseNumber":1.0,"PostalCode":1.0},"MatchType":"interpolated","Location":{"LocationId":"NT_q1J59UDxzvFdx7tc2vcgzD_l_881176513_R_zcTM","LocationType":"point","DisplayPosition":{"Latitude":51.49523,"Longitude":-2.57394},"MapView":{"TopLeft":{"Latitude":51.4963542,"Longitude":-2.5757456},"BottomRight":{"Latitude":51.4941059,"Longitude":-2.5721344}},"Address":{"Label":"371 Filton Avenue, Bristol, BS7 0BD, United Kingdom","Country":"GBR","State":"England","County":"Avon","City":"Bristol","District":"Bristol","Street":"Filton Avenue","HouseNumber":"371","PostalCode":"BS7 0BD","AdditionalData":[{"value":"United Kingdom","key":"CountryName"},{"value":"England","key":"StateName"},{"value":"Avon","key":"CountyName"}]},"MapReference":{"ReferenceId":"881176513","Spot":0.62,"SideOfStreet":"right","StateId":"20248595","CountyId":"20352323","CityId":"20352420","DistrictId":"20352421"}}},{"Relevance":1.0,"Distance":27.4,"MatchLevel":"houseNumber","MatchQuality":{"Country":1.0,"State":1.0,"County":1.0,"City":1.0,"District":1.0,"Street":[1.0],"HouseNumber":1.0,"PostalCode":1.0},"MatchType":"interpolated","Location":{"LocationId":"NT_q1J59UDxzvFdx7tc2vcgzD_l_1197802123_R_zczM","LocationType":"point","DisplayPosition":{"Latitude":51.4955401,"Longitude":-2.57373},"MapView":{"TopLeft":{"Latitude":51.4966642,"Longitude":-2.5755356},"BottomRight":{"Latitude":51.4944159,"Longitude":-2.5719243}},"Address":{"Label":"373 Filton Avenue, Bristol, BS7 0LH, United Kingdom","Country":"GBR","State":"England","County":"Avon","City":"Bristol","District":"Bristol","Street":"Filton Avenue","HouseNumber":"373","PostalCode":"BS7 0LH","AdditionalData":[{"value":"United Kingdom","key":"CountryName"},{"value":"England","key":"StateName"},{"value":"Avon","key":"CountyName"}]},"MapReference":{"ReferenceId":"1197802123","Spot":0.22,"SideOfStreet":"right","StateId":"20248595","CountyId":"20352323","CityId":"20352420","DistrictId":"20352421"}}},{"Relevance":1.0,"Distance":29.2,"MatchLevel":"street","MatchQuality":{"Country":1.0,"State":1.0,"County":1.0,"City":1.0,"District":1.0,"PostalCode":1.0},"Location":{"LocationId":"NT_KkqMmYjDaq9VM7mTCARnED_l_881176511_L","LocationType":"point","DisplayPosition":{"Latitude":51.49528,"Longitude":-2.57312},"MapView":{"TopLeft":{"Latitude":51.49571,"Longitude":-2.57312},"BottomRight":{"Latitude":51.49528,"Longitude":-2.57287}},"Address":{"Label":"Bristol, BS7 0, United Kingdom","Country":"GBR","State":"England","County":"Avon","City":"Bristol","District":"Bristol","PostalCode":"BS7 0","AdditionalData":[{"value":"United Kingdom","key":"CountryName"},{"value":"England","key":"StateName"},{"value":"Avon","key":"CountyName"}]},"MapReference":{"ReferenceId":"881176511","Spot":0.0,"SideOfStreet":"left","StateId":"20248595","CountyId":"20352323","CityId":"20352420","DistrictId":"20352421"}}},{"Relevance":1.0,"Distance":31.9,"MatchLevel":"postalCode","MatchQuality":{"PostalCode":1.0},"MatchType":"interpolated","Location":{"LocationId":"NT_q1J59UDxzvFdx7tc2vcgzD_l_881176513_R_zcTM","LocationType":"point","DisplayPosition":{"Latitude":51.49511,"Longitude":-2.57396},"MapView":{"TopLeft":{"Latitude":51.5041032,"Longitude":-2.588405},"BottomRight":{"Latitude":51.4861168,"Longitude":-2.559515}},"Address":{"Label":"BS7 0BD, Bristol, England, United Kingdom","Country":"GBR","State":"England","County":"Avon","City":"Bristol","PostalCode":"BS7 0BD","AdditionalData":[{"value":"United Kingdom","key":"CountryName"},{"value":"England","key":"StateName"},{"value":"Avon","key":"CountyName"}]},"MapReference":{"ReferenceId":"881176513","Spot":0.62,"SideOfStreet":"neither","StateId":"20248595","CountyId":"20352323","CityId":"20352420"}}},{"Relevance":1.0,"Distance":39.3,"MatchLevel":"houseNumber","MatchQuality":{"Country":1.0,"State":1.0,"County":1.0,"City":1.0,"District":1.0,"Street":[1.0],"HouseNumber":1.0,"PostalCode":1.0},"MatchType":"interpolated","Location":{"LocationId":"NT_G4cGFV-VUXxavbKvU.HC1D_l_1197794732_L_xATO","LocationType":"point","DisplayPosition":{"Latitude":51.49546,"Longitude":-2.5740201},"MapView":{"TopLeft":{"Latitude":51.4965842,"Longitude":-2.5758257},"BottomRight":{"Latitude":51.4943359,"Longitude":-2.5722144}},"Address":{"Label":"109 Toronto Road, Bristol, BS7 0JU, United Kingdom","Country":"GBR","State":"England","County":"Avon","City":"Bristol","District":"Bristol","Street":"Toronto Road","HouseNumber":"109","PostalCode":"BS7 0JU","AdditionalData":[{"value":"United Kingdom","key":"CountryName"},{"value":"England","key":"StateName"},{"value":"Avon","key":"CountyName"}]},"MapReference":{"ReferenceId":"1197794732","Spot":0.24,"SideOfStreet":"left","StateId":"20248595","CountyId":"20352323","CityId":"20352420","DistrictId":"20352421"}}},{"Relevance":1.0,"Distance":48.7,"MatchLevel":"postalCode","MatchQuality":{"PostalCode":1.0},"MatchType":"interpolated","Location":{"LocationId":"NT_vHUBkJRxSfC2Ow8ut9reWC_l_881176509_L_4A","LocationType":"point","DisplayPosition":{"Latitude":51.49517,"Longitude":-2.57282},"MapView":{"TopLeft":{"Latitude":51.5041632,"Longitude":-2.5872651},"BottomRight":{"Latitude":51.4861768,"Longitude":-2.5583749}},"Address":{"Label":"BS7 0LE, Bristol, England, United Kingdom","Country":"GBR","State":"England","County":"Avon","City":"Bristol","PostalCode":"BS7 0LE","AdditionalData":[{"value":"United Kingdom","key":"CountryName"},{"value":"England","key":"StateName"},{"value":"Avon","key":"CountyName"}]},"MapReference":{"ReferenceId":"881176509","Spot":0.65,"SideOfStreet":"neither","StateId":"20248595","CountyId":"20352323","CityId":"20352420"}}},{"Relevance":1.0,"Distance":48.9,"MatchLevel":"houseNumber","MatchQuality":{"Country":1.0,"State":1.0,"County":1.0,"City":1.0,"District":1.0,"Street":[1.0],"HouseNumber":1.0,"PostalCode":1.0},"MatchType":"interpolated","Location":{"LocationId":"NT_vHUBkJRxSfC2Ow8ut9reWC_l_881176509_L_4A","LocationType":"point","DisplayPosition":{"Latitude":51.4952128,"Longitude":-2.5728156},"MapView":{"TopLeft":{"Latitude":51.496337,"Longitude":-2.5746212},"BottomRight":{"Latitude":51.4940887,"Longitude":-2.57101}},"Address":{"Label":"8 Bridge Walk, Bristol, BS7 0LE, United Kingdom","Country":"GBR","State":"England","County":"Avon","City":"Bristol","District":"Bristol","Street":"Bridge Walk","HouseNumber":"8","PostalCode":"BS7 0LE","AdditionalData":[{"value":"United Kingdom","key":"CountryName"},{"value":"England","key":"StateName"},{"value":"Avon","key":"CountyName"}]},"MapReference":{"ReferenceId":"881176509","Spot":0.65,"SideOfStreet":"left","StateId":"20248595","CountyId":"20352323","CityId":"20352420","DistrictId":"20352421"}}},{"Relevance":1.0,"Distance":52.9,"MatchLevel":"street","MatchQuality":{"Country":1.0,"State":1.0,"County":1.0,"City":1.0,"District":1.0,"PostalCode":1.0},"Location":{"LocationId":"NT_KkqMmYjDaq9VM7mTCARnED_l_881176520_R","LocationType":"point","DisplayPosition":{"Latitude":51.49493,"Longitude":-2.57415},"MapView":{"TopLeft":{"Latitude":51.49504,"Longitude":-2.57464},"BottomRight":{"Latitude":51.49493,"Longitude":-2.57415}},"Address":{"Label":"Bristol, BS7 0, United Kingdom","Country":"GBR","State":"England","County":"Avon","City":"Bristol","District":"Bristol","PostalCode":"BS7 0","AdditionalData":[{"value":"United Kingdom","key":"CountryName"},{"value":"England","key":"StateName"},{"value":"Avon","key":"CountyName"}]},"MapReference":{"ReferenceId":"881176520","Spot":0.0,"SideOfStreet":"right","StateId":"20248595","CountyId":"20352323","CityId":"20352420","DistrictId":"20352421"}}}]}]}}