{"Response":{"MetaInfo":{"Timestamp":"2020-03-28T10:11:10.276+0000","NextPageInformation":"2"},"View":[{"_type":"SearchResultsViewType","ViewId":0,"Result":[{"Relevance":1.0,"Distance":0.0,"Direction":0.0,"MatchLevel":"district","MatchQuality":{"Country":1.0,"State":1.0,"County":1.0,"City":1.0,"District":1.0,"PostalCode":1.0},"Location":{"LocationId":"NT_Ek0UAZrdkheSjLblpLykDB","LocationType":"point","DisplayPosition":{"Latitude":51.4611954,"Longitude":-1.0171674},"MapView":{"TopLeft":{"Latitude":51.49313,"Longitude":-1.06499},"BottomRight":{"Latitude":51.4115,"Longitude":-0.92837}},"Address":{"Label":"Reading, England, United Kingdom","Country":"GBR","State":"England","County":"Berkshire","City":"Reading","District":"Reading","PostalCode":"RG1 4","AdditionalData":[{"value":"United Kingdom","key":"CountryName"},{"value":"England","key":"StateName"},{"value":"Berkshire","key":"CountyName"}]},"MapReference":{"ReferenceId":"25821342","SideOfStreet":"neither","StateId":"20248595","CountyId":"20334448","CityId":"20334562","DistrictId":"20334563"}}},{"Relevance":1.0,"Distance":28.7,"MatchLevel":"houseNumber","MatchQuality":{"Country":1.0,"State":1.0,"County":1.0,"City":1.0,"District":1.0,"Street":[1.0],"HouseNumber":1.0,"PostalCode":1.0},"MatchType":"interpolated","Location":{"LocationId":"NT_41rGx26oUXmx6SHxtJ4SqB_l_25819830_L_4A","LocationType":"point","DisplayPosition":{"Latitude":51.4613782,"Longitude":-1.016617},"MapView":{"TopLeft":{"Latitude":51.4625024,"Longitude":-1.0184213},"BottomRight":{"Latitude":51.4602541,"Longitude":-1.0148127}},"Address":{"Label":"8 Edgar Milward Close, Reading, RG30 6, United Kingdom","Country":"GBR","State":"England","County":"Berkshire","City":"Reading","District":"Reading","Street":"Edgar Milward Close","HouseNumber":"8","PostalCode":"RG30 6","AdditionalData":[{"value":"United Kingdom","key":"CountryName"},{"value":"England","key":"StateName"},{"value":"Berkshire","key":"CountyName"}]},"MapReference":{"ReferenceId":"25819830","Spot":0.28,"SideOfStreet":"left","StateId":"20248595","CountyId":"20334448","CityId":"20334562","DistrictId":"20334563"}}},{"Relevance":1.0,"Distance":40.2,"MatchLevel":"postalCode","MatchQuality":{"PostalCode":1.0},"MatchType":"interpolated","Location":{"LocationId":"NT_XfvGVXsEDB9paSausQjcMC_l_25819788_R_yUjN","LocationType":"point","DisplayPosition":{"Latitude":51.46136,"Longitude":-1.01665},"MapView":{"TopLeft":{"Latitude":51.4703532,"Longitude":-1.0310844},"BottomRight":{"Latitude":51.4523668,"Longitude":-1.0022156}},"Address":{"Label":"RG30 6AD, Reading, England, United Kingdom","Country":"GBR","State":"England","County":"Berkshire","City":"Reading","PostalCode":"RG30 6AD","AdditionalData":[{"value":"United Kingdom","key":"CountryName"},{"value":"England","key":"StateName"},{"value":"Berkshire","key":"CountyName"}]},"MapReference":{"ReferenceId":"25819788","Spot":0.48,"SideOfStreet":"neither","StateId":"20248595","CountyId":"20334448","CityId":"20334562"}}},{"Relevance":1.0,"Distance":40.9,"MatchLevel":"postalCode","MatchQuality":{"PostalCode":1.0},"MatchType":"interpolated","Location":{"LocationId":"NT_41rGx26oUXmx6SHxtJ4SqB_l_25819830_L_4A","LocationType":"point","DisplayPosition":{"Latitude":51.46123,"Longitude":-1.01658},"MapView":{"TopLeft":{"Latitude":51.4702232,"Longitude":-1.0310143},"BottomRight":{"Latitude":51.4522368,"Longitude":-1.0021457}},"Address":{"Label":"RG30 6AA, Reading, England, United Kingdom","Country":"GBR","State":"England","County":"Berkshire","City":"Reading","PostalCode":"RG30 6AA","AdditionalData":[{"value":"United Kingdom","key":"CountryName"},{"value":"England","key":"StateName"},{"value":"Berkshire","key":"CountyName"}]},"MapReference":{"ReferenceId":"25819830","Spot":0.28,"SideOfStreet":"neither","StateId":"20248595","CountyId":"20334448","CityId":"20334562"}}},{"Relevance":1.0,"Distance":43.2,"MatchLevel":"houseNumber","MatchQuality":{"Country":1.0,"State":1.0,"County":1.0,"City":1.0,"District":1.0,"Street":[1.0],"HouseNumber":1.0,"PostalCode":1.0},"MatchType":"interpolated","Location":{"LocationId":"NT_XfvGVXsEDB9paSausQjcMC_l_25819788_R_yUjN","LocationType":"point","DisplayPosition":{"Latitude":51.461677,"Longitude":-1.0174902},"MapView":{"TopLeft":{"Latitude":51.4628012,"Longitude":-1.0192945},"BottomRight":{"Latitude":51.4605529,"Longitude":-1.0156859}},"Address":{"Label":"256 Norcot Road, Reading, RG30 6AD, United Kingdom","Country":"GBR","State":"England","County":"Berkshire","City":"Reading","District":"Reading","Street":"Norcot Road","HouseNumber":"256","PostalCode":"RG30 6AD","AdditionalData":[{"value":"United Kingdom","key":"CountryName"},{"value":"England","key":"StateName"},{"value":"Berkshire","key":"CountyName"}]},"MapReference":{"ReferenceId":"25819788","Spot":0.48,"SideOfStreet":"right","StateId":"20248595","CountyId":"20334448","CityId":"20334562","DistrictId":"20334563"}}},{"Relevance":1.0,"Distance":63.7,"MatchLevel":"houseNumber","MatchQuality":{"Country":1.0,"State":1.0,"County":1.0,"City":1.0,"District":1.0,"Street":[1.0],"HouseNumber":1.0,"PostalCode":1.0},"MatchType":"interpolated","Location":{"LocationId":"NT_Ahd7SUebv9OVJY5CcG3vIB_l_25820031_R_0gD","LocationType":"point","DisplayPosition":{"Latitude":51.4610039,"Longitude":-1.0180352},"MapView":{"TopLeft":{"Latitude":51.462128,"Longitude":-1.0198395},"BottomRight":{"Latitude":51.4598797,"Longitude":-1.0162309}},"Address":{"Label":"48 Mowbray Drive, Reading, RG30 4XY, United Kingdom","Country":"GBR","State":"England","County":"Berkshire","City":"Reading","District":"Reading","Street":"Mowbray Drive","HouseNumber":"48","PostalCode":"RG30 4XY","AdditionalData":[{"value":"United Kingdom","key":"CountryName"},{"value":"England","key":"StateName"},{"value":"Berkshire","key":"CountyName"}]},"MapReference":{"ReferenceId":"25820031","Spot":0.86,"SideOfStreet":"right","StateId":"20248595","CountyId":"20334448","CityId":"20334562","DistrictId":"20334563"}}},{"Relevance":1.0,"Distance":65.9,"MatchLevel":"houseNumber","MatchQuality":{"Country":1.0,"State":1.0,"County":1.0,"City":1.0,"District":1.0,"Street":[1.0],"HouseNumber":1.0,"PostalCode":1.0},"MatchType":"interpolated","Location":{"LocationId":"NT_XfvGVXsEDB9paSausQjcMC_l_25819980_L_zMzM","LocationType":"point","DisplayPosition":{"Latitude":51.4613122,"Longitude":-1.0180998},"MapView":{"TopLeft":{"Latitude":51.4624363,"Longitude":-1.0199041},"BottomRight":{"Latitude":51.460188,"Longitude":-1.0162955}},"Address":{"Label":"333 Norcot Road, Reading, RG30 6AG, United Kingdom","Country":"GBR","State":"England","County":"Berkshire","City":"Reading","District":"Reading","Street":"Norcot Road","HouseNumber":"333","PostalCode":"RG30 6AG","AdditionalData":[{"value":"United Kingdom","key":"CountryName"},{"value":"England","key":"StateName"},{"value":"Berkshire","key":"CountyName"}]},"MapReference":{"ReferenceId":"25819980","Spot":0.86,"SideOfStreet":"left","StateId":"20248595","CountyId":"20334448","CityId":"20334562","DistrictId":"20334563"}}},{"Relevance":1.0,"Distance":72.8,"MatchLevel":"houseNumber","MatchQuality":{"Country":1.0,"State":1.0,"County":1.0,"City":1.0,"District":1.0,"Street":[1.0],"HouseNumber":1.0,"PostalCode":1.0},"MatchType":"interpolated","Location":{"LocationId":"NT_90MSDkWnioZkt8S0KFwobB_l_25819789_R_yA","LocationType":"point","DisplayPosition":{"Latitude":51.4615601,"Longitude":-1.0180402},"MapView":{"TopLeft":{"Latitude":51.4626843,"Longitude":-1.0198445},"BottomRight":{"Latitude":51.460436,"Longitude":-1.0162359}},"Address":{"Label":"2 Romany Lane, Reading, RG30 6AP, United Kingdom","Country":"GBR","State":"England","County":"Berkshire","City":"Reading","District":"Reading","Street":"Romany Lane","HouseNumber":"2","PostalCode":"RG30 6AP","AdditionalData":[{"value":"United Kingdom","key":"CountryName"},{"value":"England","key":"StateName"},{"value":"Berkshire","key":"CountyName"}]},"MapReference":{"ReferenceId":"25819789","Spot":0.11,"SideOfStreet":"right","StateId":"20248595","CountyId":"20334448","CityId":"20334562","DistrictId":"20334563"}}},{"Relevance":1.0,"Distance":76.7,"MatchLevel":"houseNumber","MatchQuality":{"Country":1.0,"State":1.0,"County":1.0,"City":1.0,"District":1.0,"Street":[1.0],"HouseNumber":1.0,"PostalCode":1.0},"MatchType":"interpolated","Location":{"LocationId":"NT_XfvGVXsEDB9paSausQjcMC_l_25819743_L_zUzN","LocationType":"point","DisplayPosition":{"Latitude":51.4618501,"Longitude":-1.0168197},"MapView":{"TopLeft":{"Latitude":51.4629743,"Longitude":-1.018624},"BottomRight":{"Latitude":51.460726,"Longitude":-1.0150154}},"Address":{"Label":"357 Norcot Road, Reading, RG30 6AB, United Kingdom","Country":"GBR","State":"England","County":"Berkshire","City":"Reading","District":"Reading","Street":"Norcot Road","HouseNumber":"357","PostalCode":"RG30 6AB","AdditionalData":[{"value":"United Kingdom","key":"CountryName"},{"value":"England","key":"StateName"},{"value":"Berkshire","key":"CountyName"}]},"MapReference":{"ReferenceId":"25819743","Spot":0.12,"SideOfStreet":"left","StateId":"20248595","CountyId":"20334448","CityId":"20334562","DistrictId":"20334563"}}},{"Relevance":1.0,"Distance":78.7,"MatchLevel":"postalCode","MatchQuality":{"PostalCode":1.0},"MatchType":"interpolated","Location":{"LocationId":"NT_Ahd7SUebv9OVJY5CcG3vIB_l_25820031_R_0gD","LocationType":"point","DisplayPosition":{"Latitude":51.46084,"Longitude":-1.01815},"MapView":{"TopLeft":{"Latitude":51.4698332,"Longitude":-1.0325842},"BottomRight":{"Latitude":51.4518468,"Longitude":-1.0037158}},"Address":{"Label":"RG30 4XY, Reading, England, United Kingdom","Country":"GBR","State":"England","County":"Berkshire","City":"Reading","PostalCode":"RG30 4XY","AdditionalData":[{"value":"United Kingdom","key":"CountryName"},{"value":"England","key":"StateName"},{"value":"Berkshire","key":"CountyName"}]},"MapReference":{"ReferenceId":"25820031","Spot":0.86,"SideOfStreet":"neither","StateId":"20248595","CountyId":"20334448","CityId":"20334562"}}}]}]}}