{"Response":{"MetaInfo":{"Timestamp":"2020-03-28T11:43:03.456+0000","NextPageInformation":"2"},"View":[{"_type":"SearchResultsViewType","ViewId":0,"Result":[{"Relevance":1.0,"Distance":0.0,"Direction":0.0,"MatchLevel":"district","MatchQuality":{"Country":1.0,"State":1.0,"County":1.0,"City":1.0,"District":1.0,"PostalCode":1.0},"Location":{"LocationId":"NT_iV1CIr.gxN2w-VykrAaG0B","LocationType":"point","DisplayPosition":{"Latitude":51.4205525,"Longitude":10.7384089},"MapView":{"TopLeft":{"Latitude":51.43134,"Longitude":10.73273},"BottomRight":{"Latitude":51.41667,"Longitude":10.74264}},"Address":{"Label":"Wolkramshausen, Bleicherode, Thüringen, Deutschland","Country":"DEU","State":"Thüringen","County":"Nordhausen","City":"Bleicherode","District":"Wolkramshausen","PostalCode":"99735","AdditionalData":[{"value":"Deutschland","key":"CountryName"},{"value":"Thüringen","key":"StateName"},{"value":"Nordhausen","key":"CountyName"}]},"MapReference":{"ReferenceId":"548036898","SideOfStreet":"neither","CountryId":"20147700","StateId":"20196974","CountyId":"20197233","CityId":"20197240","DistrictId":"20197326"}}},{"Relevance":1.0,"Distance":18.2,"MatchLevel":"houseNumber","MatchQuality":{"Country":1.0,"State":1.0,"County":1.0,"City":1.0,"District":1.0,"Street":[1.0],"HouseNumber":1.0,"PostalCode":1.0},"MatchType":"interpolated","Location":{"LocationId":"NT_g0B-hKjFi8T-OHbpip51XB_xYD","LocationType":"point","DisplayPosition":{"Latitude":51.42069,"Longitude":10.73855},"MapView":{"TopLeft":{"Latitude":51.4218142,"Longitude":10.7367473},"BottomRight":{"Latitude":51.4195658,"Longitude":10.7403527}},"Address":{"Label":"Sondershäuser Straße 16, 99735 Bleicherode, Deutschland","Country":"DEU","State":"Thüringen","County":"Nordhausen","City":"Bleicherode","District":"Wolkramshausen","Street":"Sondershäuser Straße","HouseNumber":"16","PostalCode":"99735","AdditionalData":[{"value":"Deutschland","key":"CountryName"},{"value":"Thüringen","key":"StateName"},{"value":"Nordhausen","key":"CountyName"}]},"MapReference":{"ReferenceId":"548037065","Spot":0.66,"SideOfStreet":"left","CountryId":"20147700","StateId":"20196974","CountyId":"20197233","CityId":"20197240","DistrictId":"20197326","AddressId":"189217388","RoadLinkId":"40044645"}}},{"Relevance":1.0,"Distance":55.2,"MatchLevel":"houseNumber","MatchQuality":{"Country":1.0,"State":1.0,"County":1.0,"City":1.0,"District":1.0,"Street":[1.0],"HouseNumber":1.0,"PostalCode":1.0},"MatchType":"interpolated","Location":{"LocationId":"NT_g0B-hKjFi8T-OHbpip51XB_xgD","LocationType":"point","DisplayPosition":{"Latitude":51.42104,"Longitude":10.73826},"MapView":{"TopLeft":{"Latitude":51.4221642,"Longitude":10.7364573},"BottomRight":{"Latitude":51.4199158,"Longitude":10.7400627}},"Address":{"Label":"Sondershäuser Straße 18, 99735 Bleicherode, Deutschland","Country":"DEU","State":"Thüringen","County":"Nordhausen","City":"Bleicherode","District":"Wolkramshausen","Street":"Sondershäuser Straße","HouseNumber":"18","PostalCode":"99735","AdditionalData":[{"value":"Deutschland","key":"CountryName"},{"value":"Thüringen","key":"StateName"},{"value":"Nordhausen","key":"CountyName"}]},"MapReference":{"ReferenceId":"833131479","Spot":0.38,"SideOfStreet":"left","CountryId":"20147700","StateId":"20196974","CountyId":"20197233","CityId":"20197240","DistrictId":"20197326","AddressId":"189182822","RoadLinkId":"216400470"}}},{"Relevance":1.0,"Distance":66.9,"MatchLevel":"street","MatchQuality":{"Country":1.0,"State":1.0,"County":1.0,"City":1.0,"District":1.0,"Street":[1.0],"PostalCode":1.0},"Location":{"LocationId":"NT_JqQmMc--Ayb6uCtvTsXCIA_l_833131480_L","LocationType":"point","DisplayPosition":{"Latitude":51.42114,"Longitude":10.7382},"MapView":{"TopLeft":{"Latitude":51.42121,"Longitude":10.73816},"BottomRight":{"Latitude":51.42114,"Longitude":10.7382}},"Address":{"Label":"Sondershäuser Straße, 99735 Bleicherode, Deutschland","Country":"DEU","State":"Thüringen","County":"Nordhausen","City":"Bleicherode","District":"Wolkramshausen","Street":"Sondershäuser Straße","PostalCode":"99735","AdditionalData":[{"value":"Deutschland","key":"CountryName"},{"value":"Thüringen","key":"StateName"},{"value":"Nordhausen","key":"CountyName"}]},"MapReference":{"ReferenceId":"833131480","Spot":0.0,"SideOfStreet":"left","CountryId":"20147700","StateId":"20196974","CountyId":"20197233","CityId":"20197240","DistrictId":"20197326"}}},{"Relevance":1.0,"Distance":78.7,"MatchLevel":"houseNumber","MatchQuality":{"Country":1.0,"State":1.0,"County":1.0,"City":1.0,"District":1.0,"Street":[1.0],"HouseNumber":1.0,"PostalCode":1.0},"MatchType":"interpolated","Location":{"LocationId":"NT_g0B-hKjFi8T-OHbpip51XB_4A","LocationType":"point","DisplayPosition":{"Latitude":51.42124,"Longitude":10.73814},"MapView":{"TopLeft":{"Latitude":51.4223642,"Longitude":10.7363373},"BottomRight":{"Latitude":51.4201158,"Longitude":10.7399427}},"Address":{"Label":"Sondershäuser Straße 8, 99735 Bleicherode, Deutschland","Country":"DEU","State":"Thüringen","County":"Nordhausen","City":"Bleicherode","District":"Wolkramshausen","Street":"Sondershäuser Straße","HouseNumber":"8","PostalCode":"99735","AdditionalData":[{"value":"Deutschland","key":"CountryName"},{"value":"Thüringen","key":"StateName"},{"value":"Nordhausen","key":"CountyName"}]},"MapReference":{"ReferenceId":"833131481","Spot":0.15,"SideOfStreet":"left","CountryId":"20147700","StateId":"20196974","CountyId":"20197233","CityId":"20197240","DistrictId":"20197326","AddressId":"189182821","RoadLinkId":"216400473"}}},{"Relevance":1.0,"Distance":81.9,"MatchLevel":"houseNumber","MatchQuality":{"Country":1.0,"State":1.0,"County":1.0,"City":1.0,"District":1.0,"Street":[1.0],"HouseNumber":1.0,"PostalCode":1.0},"MatchType":"interpolated","Location":{"LocationId":"NT_LfsRYKeDx54sIPXomkhg7B_xA","LocationType":"point","DisplayPosition":{"Latitude":51.42069,"Longitude":10.73714},"MapView":{"TopLeft":{"Latitude":51.4218142,"Longitude":10.7353373},"BottomRight":{"Latitude":51.4195658,"Longitude":10.7389427}},"Address":{"Label":"Triftweg 1, 99735 Bleicherode, Deutschland","Country":"DEU","State":"Thüringen","County":"Nordhausen","City":"Bleicherode","District":"Wolkramshausen","Street":"Triftweg","HouseNumber":"1","PostalCode":"99735","AdditionalData":[{"value":"Deutschland","key":"CountryName"},{"value":"Thüringen","key":"StateName"},{"value":"Nordhausen","key":"CountyName"}]},"MapReference":{"ReferenceId":"554820714","Spot":0.16,"SideOfStreet":"right","CountryId":"20147700","StateId":"20196974","CountyId":"20197233","CityId":"20197240","DistrictId":"20197326","AddressId":"189369992","RoadLinkId":"39668221"}}},{"Relevance":1.0,"Distance":83.5,"MatchLevel":"houseNumber","MatchQuality":{"Country":1.0,"State":1.0,"County":1.0,"City":1.0,"District":1.0,"Street":[1.0],"HouseNumber":1.0,"PostalCode":1.0},"MatchType":"interpolated","Location":{"LocationId":"NT_x8SwgXlUZCRn8mFsTPnxhD_zA","LocationType":"point","DisplayPosition":{"Latitude":51.42134,"Longitude":10.73896},"MapView":{"TopLeft":{"Latitude":51.4224642,"Longitude":10.7371573},"BottomRight":{"Latitude":51.4202158,"Longitude":10.7407627}},"Address":{"Label":"Eckengasse 3, 99735 Bleicherode, Deutschland","Country":"DEU","State":"Thüringen","County":"Nordhausen","City":"Bleicherode","District":"Wolkramshausen","Street":"Eckengasse","HouseNumber":"3","PostalCode":"99735","AdditionalData":[{"value":"Deutschland","key":"CountryName"},{"value":"Thüringen","key":"StateName"},{"value":"Nordhausen","key":"CountyName"}]},"MapReference":{"ReferenceId":"548036909","Spot":0.0,"SideOfStreet":"left","CountryId":"20147700","StateId":"20196974","CountyId":"20197233","CityId":"20197240","DistrictId":"20197326","AddressId":"622367315","RoadLinkId":"39956938"}}},{"Relevance":1.0,"Distance":87.3,"MatchLevel":"houseNumber","MatchQuality":{"Country":1.0,"State":1.0,"County":1.0,"City":1.0,"District":1.0,"Street":[1.0],"HouseNumber":1.0,"PostalCode":1.0},"MatchType":"interpolated","Location":{"LocationId":"NT_g0B-hKjFi8T-OHbpip51XB_xQD","LocationType":"point","DisplayPosition":{"Latitude":51.42001,"Longitude":10.73933},"MapView":{"TopLeft":{"Latitude":51.4211342,"Longitude":10.7375273},"BottomRight":{"Latitude":51.4188858,"Longitude":10.7411327}},"Address":{"Label":"Sondershäuser Straße 14, 99735 Bleicherode, Deutschland","Country":"DEU","State":"Thüringen","County":"Nordhausen","City":"Bleicherode","District":"Wolkramshausen","Street":"Sondershäuser Straße","HouseNumber":"14","PostalCode":"99735","AdditionalData":[{"value":"Deutschland","key":"CountryName"},{"value":"Thüringen","key":"StateName"},{"value":"Nordhausen","key":"CountyName"}]},"MapReference":{"ReferenceId":"554820712","Spot":0.87,"SideOfStreet":"left","CountryId":"20147700","StateId":"20196974","CountyId":"20197233","CityId":"20197240","DistrictId":"20197326","AddressId":"189422967","RoadLinkId":"39731731"}}},{"Relevance":1.0,"Distance":99.8,"MatchLevel":"street","MatchQuality":{"Country":1.0,"State":1.0,"County":1.0,"City":1.0,"District":1.0,"Street":[1.0],"PostalCode":1.0},"Location":{"LocationId":"NT_JqQmMc--Ayb6uCtvTsXCIA_l_833131482_L","LocationType":"point","DisplayPosition":{"Latitude":51.42142,"Longitude":10.73804},"MapView":{"TopLeft":{"Latitude":51.42151,"Longitude":10.73797},"BottomRight":{"Latitude":51.42142,"Longitude":10.73804}},"Address":{"Label":"Sondershäuser Straße, 99735 Bleicherode, Deutschland","Country":"DEU","State":"Thüringen","County":"Nordhausen","City":"Bleicherode","District":"Wolkramshausen","Street":"Sondershäuser Straße","PostalCode":"99735","AdditionalData":[{"value":"Deutschland","key":"CountryName"},{"value":"Thüringen","key":"StateName"},{"value":"Nordhausen","key":"CountyName"}]},"MapReference":{"ReferenceId":"833131482","Spot":0.0,"SideOfStreet":"left","CountryId":"20147700","StateId":"20196974","CountyId":"20197233","CityId":"20197240","DistrictId":"20197326"}}},{"Relevance":1.0,"Distance":100.8,"MatchLevel":"houseNumber","MatchQuality":{"Country":1.0,"State":1.0,"County":1.0,"City":1.0,"District":1.0,"Street":[1.0],"HouseNumber":1.0,"PostalCode":1.0},"MatchType":"interpolated","Location":{"LocationId":"NT_8Ge2csiNl6Vlovvt8vcRMA_xID","LocationType":"point","DisplayPosition":{"Latitude":51.41984,"Longitude":10.73742},"MapView":{"TopLeft":{"Latitude":51.4209642,"Longitude":10.7356173},"BottomRight":{"Latitude":51.4187158,"Longitude":10.7392227}},"Address":{"Label":"Schwarzer Weg 12, 99735 Bleicherode, Deutschland","Country":"DEU","State":"Thüringen","County":"Nordhausen","City":"Bleicherode","District":"Wolkramshausen","Street":"Schwarzer Weg","HouseNumber":"12","PostalCode":"99735","AdditionalData":[{"value":"Deutschland","key":"CountryName"},{"value":"Thüringen","key":"StateName"},{"value":"Nordhausen","key":"CountyName"}]},"MapReference":{"ReferenceId":"548037024","Spot":0.4,"SideOfStreet":"right","CountryId":"20147700","StateId":"20196974","CountyId":"20197233","CityId":"20197240","DistrictId":"20197326","AddressId":"743424975","RoadLinkId":"40042062"}}}]}]}}