{"Response":{"MetaInfo":{"Timestamp":"2020-03-28T11:54:31.765+0000","NextPageInformation":"2"},"View":[{"_type":"SearchResultsViewType","ViewId":0,"Result":[{"Relevance":1.0,"Distance":0.0,"Direction":0.0,"MatchLevel":"district","MatchQuality":{"Country":1.0,"State":1.0,"County":1.0,"City":1.0,"District":1.0,"PostalCode":1.0},"Location":{"LocationId":"NT_G3LL7ZiSAKVRkreJA4IUVA","LocationType":"point","DisplayPosition":{"Latitude":51.4158671,"Longitude":-0.1844984},"MapView":{"TopLeft":{"Latitude":51.42424,"Longitude":-0.21427},"BottomRight":{"Latitude":51.40168,"Longitude":-0.16723}},"Address":{"Label":"Merton, London, England, United Kingdom","Country":"GBR","State":"England","County":"London","City":"London","District":"Merton","PostalCode":"SW19 1","AdditionalData":[{"value":"United Kingdom","key":"CountryName"},{"value":"England","key":"StateName"},{"value":"London","key":"CountyName"}]},"MapReference":{"ReferenceId":"25481386","SideOfStreet":"neither","StateId":"20248595","CountyId":"20337453","CityId":"20337454"}}},{"Relevance":1.0,"Distance":14.1,"MatchLevel":"houseNumber","MatchQuality":{"Country":1.0,"State":1.0,"County":1.0,"City":1.0,"District":1.0,"Street":[1.0],"HouseNumber":1.0,"PostalCode":1.0},"MatchType":"interpolated","Location":{"LocationId":"NT_ekU3wAAmOWNC1BjOm4Mm.A_0MD","LocationType":"point","DisplayPosition":{"Latitude":51.41561,"Longitude":-0.18448},"MapView":{"TopLeft":{"Latitude":51.4167342,"Longitude":-0.1862825},"BottomRight":{"Latitude":51.4144858,"Longitude":-0.1826775}},"Address":{"Label":"43 Croft Road, London, SW19 2NF, United Kingdom","Country":"GBR","State":"England","County":"London","City":"London","District":"Merton","Street":"Croft Road","HouseNumber":"43","PostalCode":"SW19 2NF","AdditionalData":[{"value":"United Kingdom","key":"CountryName"},{"value":"England","key":"StateName"},{"value":"London","key":"CountyName"}]},"MapReference":{"ReferenceId":"25423411","Spot":0.78,"SideOfStreet":"left","StateId":"20248595","CountyId":"20337453","CityId":"20337454","AddressId":"747706950","RoadLinkId":"82319948"}}},{"Relevance":1.0,"Distance":15.5,"MatchLevel":"houseNumber","MatchQuality":{"Country":1.0,"State":1.0,"County":1.0,"City":1.0,"District":1.0,"Street":[1.0],"HouseNumber":1.0,"PostalCode":1.0},"MatchType":"interpolated","Location":{"LocationId":"NT_xoLHSUd8FVGeK5sIHaDQXC_xITY","LocationType":"point","DisplayPosition":{"Latitude":51.41611,"Longitude":-0.18467},"MapView":{"TopLeft":{"Latitude":51.4172342,"Longitude":-0.1864725},"BottomRight":{"Latitude":51.4149858,"Longitude":-0.1828675}},"Address":{"Label":"12a Merton High Street, London, SW19 1, United Kingdom","Country":"GBR","State":"England","County":"London","City":"London","District":"Merton","Street":"Merton High Street","HouseNumber":"12a","PostalCode":"SW19 1","AdditionalData":[{"value":"United Kingdom","key":"CountryName"},{"value":"England","key":"StateName"},{"value":"London","key":"CountyName"}]},"MapReference":{"ReferenceId":"1218145077","Spot":0.36,"SideOfStreet":"right","StateId":"20248595","CountyId":"20337453","CityId":"20337454","AddressId":"747533195","RoadLinkId":"534730755"}}},{"Relevance":1.0,"Distance":15.6,"MatchLevel":"houseNumber","MatchQuality":{"Country":1.0,"State":1.0,"County":1.0,"City":1.0,"District":1.0,"Street":[1.0],"HouseNumber":1.0,"PostalCode":1.0},"MatchType":"interpolated","Location":{"LocationId":"NT_xoLHSUd8FVGeK5sIHaDQXC_xAD","LocationType":"point","DisplayPosition":{"Latitude":51.41613,"Longitude":-0.18441},"MapView":{"TopLeft":{"Latitude":51.4172542,"Longitude":-0.1862125},"BottomRight":{"Latitude":51.4150058,"Longitude":-0.1826075}},"Address":{"Label":"10 Merton High Street, London, SW19 1, United Kingdom","Country":"GBR","State":"England","County":"London","City":"London","District":"Merton","Street":"Merton High Street","HouseNumber":"10","PostalCode":"SW19 1","AdditionalData":[{"value":"United Kingdom","key":"CountryName"},{"value":"England","key":"StateName"},{"value":"London","key":"CountyName"}]},"MapReference":{"ReferenceId":"835969301","Spot":0.08,"SideOfStreet":"right","StateId":"20248595","CountyId":"20337453","CityId":"20337454","AddressId":"748464814","RoadLinkId":"219133916"}}},{"Relevance":1.0,"Distance":23.4,"MatchLevel":"postalCode","MatchQuality":{"PostalCode":1.0},"MatchType":"interpolated","Location":{"LocationId":"NT_xoLHSUd8FVGeK5sIHaDQXC_xITY","LocationType":"point","DisplayPosition":{"Latitude":51.41607,"Longitude":-0.18459},"MapView":{"TopLeft":{"Latitude":51.4250632,"Longitude":-0.1990101},"BottomRight":{"Latitude":51.4070768,"Longitude":-0.1701699}},"Address":{"Label":"SW19 1DQ, London, England, United Kingdom","Country":"GBR","State":"England","County":"London","City":"London","PostalCode":"SW19 1DQ","AdditionalData":[{"value":"United Kingdom","key":"CountryName"},{"value":"England","key":"StateName"},{"value":"London","key":"CountyName"}]},"MapReference":{"ReferenceId":"1218145077","Spot":0.36,"SideOfStreet":"neither","StateId":"20248595","CountyId":"20337453","CityId":"20337454"}}},{"Relevance":1.0,"Distance":28.0,"MatchLevel":"houseNumber","MatchQuality":{"Country":1.0,"State":1.0,"County":1.0,"City":1.0,"District":1.0,"Street":[1.0],"HouseNumber":1.0,"PostalCode":1.0},"MatchType":"interpolated","Location":{"LocationId":"NT_xoLHSUd8FVGeK5sIHaDQXC_xID","LocationType":"point","DisplayPosition":{"Latitude":51.41609,"Longitude":-0.1849},"MapView":{"TopLeft":{"Latitude":51.4172142,"Longitude":-0.1867025},"BottomRight":{"Latitude":51.4149658,"Longitude":-0.1830975}},"Address":{"Label":"12 Merton High Street, London, SW19 1DG, United Kingdom","Country":"GBR","State":"England","County":"London","City":"London","District":"Merton","Street":"Merton High Street","HouseNumber":"12","PostalCode":"SW19 1DG","AdditionalData":[{"value":"United Kingdom","key":"CountryName"},{"value":"England","key":"StateName"},{"value":"London","key":"CountyName"}]},"MapReference":{"ReferenceId":"1218145076","Spot":0.71,"SideOfStreet":"right","StateId":"20248595","CountyId":"20337453","CityId":"20337454","AddressId":"747714985","RoadLinkId":"534730754"}}},{"Relevance":1.0,"Distance":32.9,"MatchLevel":"houseNumber","MatchQuality":{"Country":1.0,"State":1.0,"County":1.0,"City":1.0,"District":1.0,"Street":[1.0],"HouseNumber":1.0,"PostalCode":1.0},"MatchType":"interpolated","Location":{"LocationId":"NT_NSPvQt7JlTCgvnzJ0qHlqD_zA","LocationType":"point","DisplayPosition":{"Latitude":51.41582,"Longitude":-0.18403},"MapView":{"TopLeft":{"Latitude":51.4169442,"Longitude":-0.1858325},"BottomRight":{"Latitude":51.4146958,"Longitude":-0.1822275}},"Address":{"Label":"3 Mill Road, London, SW19 2NE, United Kingdom","Country":"GBR","State":"England","County":"London","City":"London","District":"Merton","Street":"Mill Road","HouseNumber":"3","PostalCode":"SW19 2NE","AdditionalData":[{"value":"United Kingdom","key":"CountryName"},{"value":"England","key":"StateName"},{"value":"London","key":"CountyName"}]},"MapReference":{"ReferenceId":"25423357","Spot":0.35,"SideOfStreet":"right","StateId":"20248595","CountyId":"20337453","CityId":"20337454","AddressId":"748465129","RoadLinkId":"82757696"}}},{"Relevance":1.0,"Distance":34.4,"MatchLevel":"postalCode","MatchQuality":{"PostalCode":1.0},"MatchType":"interpolated","Location":{"LocationId":"NT_xoLHSUd8FVGeK5sIHaDQXC_xID","LocationType":"point","DisplayPosition":{"Latitude":51.41604,"Longitude":-0.18491},"MapView":{"TopLeft":{"Latitude":51.4250332,"Longitude":-0.19933},"BottomRight":{"Latitude":51.4070468,"Longitude":-0.17049}},"Address":{"Label":"SW19 1DT, London, England, United Kingdom","Country":"GBR","State":"England","County":"London","City":"London","PostalCode":"SW19 1DT","AdditionalData":[{"value":"United Kingdom","key":"CountryName"},{"value":"England","key":"StateName"},{"value":"London","key":"CountyName"}]},"MapReference":{"ReferenceId":"1218145076","Spot":0.71,"SideOfStreet":"neither","StateId":"20248595","CountyId":"20337453","CityId":"20337454"}}},{"Relevance":1.0,"Distance":41.8,"MatchLevel":"postalCode","MatchQuality":{"PostalCode":1.0},"MatchType":"interpolated","Location":{"LocationId":"NT_xoLHSUd8FVGeK5sIHaDQXC_xAD","LocationType":"point","DisplayPosition":{"Latitude":51.41619,"Longitude":-0.18419},"MapView":{"TopLeft":{"Latitude":51.4251832,"Longitude":-0.1986101},"BottomRight":{"Latitude":51.4071968,"Longitude":-0.1697699}},"Address":{"Label":"SW19 1BE, London, England, United Kingdom","Country":"GBR","State":"England","County":"London","City":"London","PostalCode":"SW19 1BE","AdditionalData":[{"value":"United Kingdom","key":"CountryName"},{"value":"England","key":"StateName"},{"value":"London","key":"CountyName"}]},"MapReference":{"ReferenceId":"835969301","Spot":0.08,"SideOfStreet":"neither","StateId":"20248595","CountyId":"20337453","CityId":"20337454"}}},{"Relevance":1.0,"Distance":42.4,"MatchLevel":"houseNumber","MatchQuality":{"Country":1.0,"State":1.0,"County":1.0,"City":1.0,"District":1.0,"Street":[1.0],"HouseNumber":1.0,"PostalCode":1.0},"MatchType":"interpolated","Location":{"LocationId":"NT_1IyxDUkUvhMBZjFAH3wKXD_yA","LocationType":"point","DisplayPosition":{"Latitude":51.41556,"Longitude":-0.184},"MapView":{"TopLeft":{"Latitude":51.4166842,"Longitude":-0.1858025},"BottomRight":{"Latitude":51.4144358,"Longitude":-0.1821975}},"Address":{"Label":"2 Mill Road, London, SW19 2NE, United Kingdom","Country":"GBR","State":"England","County":"London","City":"London","District":"Merton","Street":"Mill Road","HouseNumber":"2","PostalCode":"SW19 2NE","AdditionalData":[{"value":"United Kingdom","key":"CountryName"},{"value":"England","key":"StateName"},{"value":"London","key":"CountyName"}]},"MapReference":{"ReferenceId":"25423538","Spot":0.84,"SideOfStreet":"left","StateId":"20248595","CountyId":"20337453","CityId":"20337454","AddressId":"748171867","RoadLinkId":"82267355"}}}]}]}}