{"Response":{"MetaInfo":{"Timestamp":"2020-03-28T11:58:27.742+0000","NextPageInformation":"2"},"View":[{"_type":"SearchResultsViewType","ViewId":0,"Result":[{"Relevance":1.0,"Distance":0.0,"Direction":0.0,"MatchLevel":"district","MatchQuality":{"Country":1.0,"State":1.0,"County":1.0,"City":1.0,"District":1.0,"PostalCode":1.0},"Location":{"LocationId":"NT_CQRQzE5rNLhiInzDh-fjLB","LocationType":"point","DisplayPosition":{"Latitude":51.469652,"Longitude":-0.0928359},"MapView":{"TopLeft":{"Latitude":51.48829,"Longitude":-0.11084},"BottomRight":{"Latitude":51.45883,"Longitude":-0.07553}},"Address":{"Label":"SE5, London, England, United Kingdom","Country":"GBR","State":"England","County":"London","City":"London","District":"SE5","PostalCode":"SE5 7","AdditionalData":[{"value":"United Kingdom","key":"CountryName"},{"value":"England","key":"StateName"},{"value":"London","key":"CountyName"}]},"MapReference":{"ReferenceId":"1183021608","SideOfStreet":"neither","StateId":"20248595","CountyId":"20337453","CityId":"20337454","DistrictId":"20337537"}}},{"Relevance":1.0,"Distance":18.0,"MatchLevel":"street","MatchQuality":{"Country":1.0,"State":1.0,"County":1.0,"City":1.0,"District":1.0,"Street":[1.0],"PostalCode":1.0},"Location":{"LocationId":"NT_gKs1iCR-Cx3EOZjF1k7xIB_l_25405122_R","LocationType":"point","DisplayPosition":{"Latitude":51.46979,"Longitude":-0.0927},"MapView":{"TopLeft":{"Latitude":51.47011,"Longitude":-0.0927},"BottomRight":{"Latitude":51.46979,"Longitude":-0.09137}},"Address":{"Label":"De Crespigny Park, London, SE5 8, United Kingdom","Country":"GBR","State":"England","County":"London","City":"London","District":"Camberwell","Street":"De Crespigny Park","PostalCode":"SE5 8","AdditionalData":[{"value":"United Kingdom","key":"CountryName"},{"value":"England","key":"StateName"},{"value":"London","key":"CountyName"}]},"MapReference":{"ReferenceId":"25405122","Spot":0.0,"SideOfStreet":"right","StateId":"20248595","CountyId":"20337453","CityId":"20337454"}}},{"Relevance":1.0,"Distance":28.7,"MatchLevel":"houseNumber","MatchQuality":{"Country":1.0,"State":1.0,"County":1.0,"City":1.0,"District":1.0,"Street":[1.0],"HouseNumber":1.0,"PostalCode":1.0},"MatchType":"interpolated","Location":{"LocationId":"NT_n9AZ8VJE8jzhvJDPdQje9D_l_25405244_R_5kD","LocationType":"point","DisplayPosition":{"Latitude":51.469484,"Longitude":-0.0925207},"MapView":{"TopLeft":{"Latitude":51.4706081,"Longitude":-0.0943253},"BottomRight":{"Latitude":51.4683598,"Longitude":-0.0907161}},"Address":{"Label":"99 Denmark Hill, London, SE5 8AA, United Kingdom","Country":"GBR","State":"England","County":"London","City":"London","District":"Camberwell","Street":"Denmark Hill","HouseNumber":"99","PostalCode":"SE5 8AA","AdditionalData":[{"value":"United Kingdom","key":"CountryName"},{"value":"England","key":"StateName"},{"value":"London","key":"CountyName"}]},"MapReference":{"ReferenceId":"25405244","Spot":0.5,"SideOfStreet":"right","StateId":"20248595","CountyId":"20337453","CityId":"20337454"}}},{"Relevance":1.0,"Distance":32.3,"MatchLevel":"houseNumber","MatchQuality":{"Country":1.0,"State":1.0,"County":1.0,"City":1.0,"District":1.0,"Street":[1.0],"HouseNumber":1.0,"PostalCode":1.0},"MatchType":"interpolated","Location":{"LocationId":"NT_n9AZ8VJE8jzhvJDPdQje9D_xMDN","LocationType":"point","DisplayPosition":{"Latitude":51.46994,"Longitude":-0.09277},"MapView":{"TopLeft":{"Latitude":51.4710642,"Longitude":-0.0945746},"BottomRight":{"Latitude":51.4688158,"Longitude":-0.0909654}},"Address":{"Label":"134 Denmark Hill, London, SE5 8RX, United Kingdom","Country":"GBR","State":"England","County":"London","City":"London","District":"Camberwell","Street":"Denmark Hill","HouseNumber":"134","PostalCode":"SE5 8RX","AdditionalData":[{"value":"United Kingdom","key":"CountryName"},{"value":"England","key":"StateName"},{"value":"London","key":"CountyName"}]},"MapReference":{"ReferenceId":"25405123","Spot":0.16,"SideOfStreet":"left","StateId":"20248595","CountyId":"20337453","CityId":"20337454","AddressId":"763594920","RoadLinkId":"82356395"}}},{"Relevance":1.0,"Distance":63.1,"MatchLevel":"street","MatchQuality":{"Country":1.0,"State":1.0,"County":1.0,"City":1.0,"District":1.0,"Street":[1.0],"PostalCode":1.0},"Location":{"LocationId":"NT_nIMzjrE8tyr1DmVufhb7vB_l_1218202590_L","LocationType":"point","DisplayPosition":{"Latitude":51.46918,"Longitude":-0.09233},"MapView":{"TopLeft":{"Latitude":51.46918,"Longitude":-0.09233},"BottomRight":{"Latitude":51.46892,"Longitude":-0.09214}},"Address":{"Label":"Denmark Hill, London, SE5 8, United Kingdom","Country":"GBR","State":"England","County":"London","City":"London","District":"Camberwell","Street":"Denmark Hill","PostalCode":"SE5 8","AdditionalData":[{"value":"United Kingdom","key":"CountryName"},{"value":"England","key":"StateName"},{"value":"London","key":"CountyName"}]},"MapReference":{"ReferenceId":"1218202590","Spot":1.0,"SideOfStreet":"left","StateId":"20248595","CountyId":"20337453","CityId":"20337454"}}},{"Relevance":1.0,"Distance":66.1,"MatchLevel":"landmark","MatchQuality":{"Country":1.0,"State":1.0,"County":1.0,"City":1.0,"District":1.0,"Street":[1.0],"PostalCode":1.0,"Name":1.0},"Location":{"LocationId":"NT_L5Ln4noqhpsHtbMbQuna7B_p_oN.qp8nxWVopXgRnp6z15A","LocationType":"hospital","Name":"Kings College Hospital","DisplayPosition":{"Latitude":51.46855,"Longitude":-0.0941},"MapView":{"TopLeft":{"Latitude":51.46973,"Longitude":-0.09802},"BottomRight":{"Latitude":51.46608,"Longitude":-0.09114}},"Address":{"Label":"Bessemer Road, London, SE5 9, United Kingdom","Country":"GBR","State":"England","County":"London","City":"London","District":"Camberwell","Street":"Bessemer Road","PostalCode":"SE5 9","AdditionalData":[{"value":"United Kingdom","key":"CountryName"},{"value":"England","key":"StateName"},{"value":"London","key":"CountyName"}]},"MapReference":{"StateId":"20248595","CountyId":"20337453","CityId":"20337454","PlaceId":"546179957"}}},{"Relevance":1.0,"Distance":66.1,"MatchLevel":"street","MatchQuality":{"Country":1.0,"State":1.0,"County":1.0,"City":1.0,"District":1.0,"Street":[1.0],"PostalCode":1.0},"Location":{"LocationId":"NT_bs7y4lFI7yyEnGM1jtYZKA_l_25405305_L","LocationType":"point","DisplayPosition":{"Latitude":51.4690726,"Longitude":-0.0926252},"MapView":{"TopLeft":{"Latitude":51.46918,"Longitude":-0.09332},"BottomRight":{"Latitude":51.46882,"Longitude":-0.09233}},"Address":{"Label":"Bessemer Road, London, SE5 9, United Kingdom","Country":"GBR","State":"England","County":"London","City":"London","District":"Camberwell","Street":"Bessemer Road","PostalCode":"SE5 9","AdditionalData":[{"value":"United Kingdom","key":"CountryName"},{"value":"England","key":"StateName"},{"value":"London","key":"CountyName"}]},"MapReference":{"ReferenceId":"25405305","Spot":0.7,"SideOfStreet":"left","StateId":"20248595","CountyId":"20337453","CityId":"20337454"}}},{"Relevance":1.0,"Distance":68.7,"MatchLevel":"houseNumber","MatchQuality":{"Country":1.0,"State":1.0,"County":1.0,"City":1.0,"District":1.0,"Street":[1.0],"HouseNumber":1.0,"PostalCode":1.0},"MatchType":"interpolated","Location":{"LocationId":"NT_e-bqiVIHtXSNHx5-V2KVnC_l_1162518273_R_yID","LocationType":"point","DisplayPosition":{"Latitude":51.4693821,"Longitude":-0.0939074},"MapView":{"TopLeft":{"Latitude":51.4705062,"Longitude":-0.095712},"BottomRight":{"Latitude":51.4682579,"Longitude":-0.0921028}},"Address":{"Label":"22 Caldecot Road, London, SE5 9, United Kingdom","Country":"GBR","State":"England","County":"London","City":"London","District":"Camberwell","Street":"Caldecot Road","HouseNumber":"22","PostalCode":"SE5 9","AdditionalData":[{"value":"United Kingdom","key":"CountryName"},{"value":"England","key":"StateName"},{"value":"London","key":"CountyName"}]},"MapReference":{"ReferenceId":"1162518273","Spot":0.53,"SideOfStreet":"right","StateId":"20248595","CountyId":"20337453","CityId":"20337454"}}},{"Relevance":1.0,"Distance":73.3,"MatchLevel":"postalCode","MatchQuality":{"PostalCode":1.0},"MatchType":"interpolated","Location":{"LocationId":"NT_e-bqiVIHtXSNHx5-V2KVnC_l_1162518273_R_yID","LocationType":"point","DisplayPosition":{"Latitude":51.46933,"Longitude":-0.09376},"MapView":{"TopLeft":{"Latitude":51.4783232,"Longitude":-0.1081969},"BottomRight":{"Latitude":51.4603368,"Longitude":-0.0793231}},"Address":{"Label":"SE5 9RW, London, England, United Kingdom","Country":"GBR","State":"England","County":"London","City":"London","PostalCode":"SE5 9RW","AdditionalData":[{"value":"United Kingdom","key":"CountryName"},{"value":"England","key":"StateName"},{"value":"London","key":"CountyName"}]},"MapReference":{"ReferenceId":"1162518273","Spot":0.53,"SideOfStreet":"neither","StateId":"20248595","CountyId":"20337453","CityId":"20337454"}}},{"Relevance":1.0,"Distance":74.3,"MatchLevel":"postalCode","MatchQuality":{"PostalCode":1.0},"MatchType":"interpolated","Location":{"LocationId":"NT_n9AZ8VJE8jzhvJDPdQje9D_xMDN","LocationType":"point","DisplayPosition":{"Latitude":51.47032,"Longitude":-0.0928},"MapView":{"TopLeft":{"Latitude":51.4793132,"Longitude":-0.1072372},"BottomRight":{"Latitude":51.4613268,"Longitude":-0.0783628}},"Address":{"Label":"SE5 8AA, London, England, United Kingdom","Country":"GBR","State":"England","County":"London","City":"London","PostalCode":"SE5 8AA","AdditionalData":[{"value":"United Kingdom","key":"CountryName"},{"value":"England","key":"StateName"},{"value":"London","key":"CountyName"}]},"MapReference":{"ReferenceId":"25405123","Spot":0.16,"SideOfStreet":"neither","StateId":"20248595","CountyId":"20337453","CityId":"20337454"}}}]}]}}