{"Response":{"MetaInfo":{"Timestamp":"2020-03-28T11:54:50.306+0000","NextPageInformation":"2"},"View":[{"_type":"SearchResultsViewType","ViewId":0,"Result":[{"Relevance":1.0,"Distance":0.0,"Direction":0.0,"MatchLevel":"district","MatchQuality":{"Country":1.0,"State":1.0,"County":1.0,"City":1.0,"District":1.0,"PostalCode":1.0},"Location":{"LocationId":"NT_tWqqr7Ro5JNLKDUtt6Wt1A","LocationType":"point","DisplayPosition":{"Latitude":51.4338598,"Longitude":-2.7593181},"MapView":{"TopLeft":{"Latitude":51.43996,"Longitude":-2.78531},"BottomRight":{"Latitude":51.41991,"Longitude":-2.73883}},"Address":{"Label":"Nailsea, Bristol, England, United Kingdom","Country":"GBR","State":"England","County":"Avon","City":"Bristol","District":"Nailsea","PostalCode":"BS48 1","AdditionalData":[{"value":"United Kingdom","key":"CountryName"},{"value":"England","key":"StateName"},{"value":"Avon","key":"CountyName"}]},"MapReference":{"ReferenceId":"26730950","SideOfStreet":"neither","StateId":"20248595","CountyId":"20352323","CityId":"20352420","DistrictId":"20352516"}}},{"Relevance":1.0,"Distance":21.4,"MatchLevel":"street","MatchQuality":{"Country":1.0,"State":1.0,"County":1.0,"City":1.0,"District":1.0,"Street":[1.0],"PostalCode":1.0},"Location":{"LocationId":"NT_b1TkU3FHeDTUXYEEeMmWaA_l_975045420_L","LocationType":"point","DisplayPosition":{"Latitude":51.433981,"Longitude":-2.7590791},"MapView":{"TopLeft":{"Latitude":51.43418,"Longitude":-2.75918},"BottomRight":{"Latitude":51.43349,"Longitude":-2.75883}},"Address":{"Label":"Clevedon Walk, Bristol, BS48 1, United Kingdom","Country":"GBR","State":"England","County":"Avon","City":"Bristol","District":"Nailsea","Street":"Clevedon Walk","PostalCode":"BS48 1","AdditionalData":[{"value":"United Kingdom","key":"CountryName"},{"value":"England","key":"StateName"},{"value":"Avon","key":"CountyName"}]},"MapReference":{"ReferenceId":"975045420","Spot":0.71,"SideOfStreet":"left","StateId":"20248595","CountyId":"20352323","CityId":"20352420","DistrictId":"20352516"}}},{"Relevance":1.0,"Distance":26.9,"MatchLevel":"postalCode","MatchQuality":{"PostalCode":1.0},"Location":{"LocationId":"NT_b1TkU3FHeDTUXYEEeMmWaA_l_975045420_L","LocationType":"point","DisplayPosition":{"Latitude":51.43373,"Longitude":-2.75899},"MapView":{"TopLeft":{"Latitude":51.4427232,"Longitude":-2.7734156},"BottomRight":{"Latitude":51.4247368,"Longitude":-2.7445644}},"Address":{"Label":"BS48 1RS, Bristol, England, United Kingdom","Country":"GBR","State":"England","County":"Avon","City":"Bristol","PostalCode":"BS48 1RS","AdditionalData":[{"value":"United Kingdom","key":"CountryName"},{"value":"England","key":"StateName"},{"value":"Avon","key":"CountyName"}]},"MapReference":{"ReferenceId":"975045420","Spot":0.71,"SideOfStreet":"neither","StateId":"20248595","CountyId":"20352323","CityId":"20352420"}}},{"Relevance":1.0,"Distance":36.9,"MatchLevel":"street","MatchQuality":{"Country":1.0,"State":1.0,"County":1.0,"City":1.0,"District":1.0,"Street":[1.0],"PostalCode":1.0},"Location":{"LocationId":"NT_GfkVkZb8wZsIT69iZ0rn-A_l_1197814376_R","LocationType":"point","DisplayPosition":{"Latitude":51.43418,"Longitude":-2.75918},"MapView":{"TopLeft":{"Latitude":51.43425,"Longitude":-2.75918},"BottomRight":{"Latitude":51.43418,"Longitude":-2.75866}},"Address":{"Label":"Stock Way North, Bristol, BS48 1, United Kingdom","Country":"GBR","State":"England","County":"Avon","City":"Bristol","District":"Nailsea","Street":"Stock Way North","PostalCode":"BS48 1","AdditionalData":[{"value":"United Kingdom","key":"CountryName"},{"value":"England","key":"StateName"},{"value":"Avon","key":"CountyName"}]},"MapReference":{"ReferenceId":"1197814376","Spot":0.0,"SideOfStreet":"right","StateId":"20248595","CountyId":"20352323","CityId":"20352420","DistrictId":"20352516"}}},{"Relevance":1.0,"Distance":50.7,"MatchLevel":"street","MatchQuality":{"Country":1.0,"State":1.0,"County":1.0,"City":1.0,"District":1.0,"Street":[1.0],"PostalCode":1.0},"Location":{"LocationId":"NT_UcfyR9rNutrs-5hufDWrNA_l_975045422_L","LocationType":"point","DisplayPosition":{"Latitude":51.4334075,"Longitude":-2.7592233},"MapView":{"TopLeft":{"Latitude":51.43349,"Longitude":-2.75963},"BottomRight":{"Latitude":51.43332,"Longitude":-2.75883}},"Address":{"Label":"Somerset Square, Bristol, BS48 1, United Kingdom","Country":"GBR","State":"England","County":"Avon","City":"Bristol","District":"Nailsea","Street":"Somerset Square","PostalCode":"BS48 1","AdditionalData":[{"value":"United Kingdom","key":"CountryName"},{"value":"England","key":"StateName"},{"value":"Avon","key":"CountyName"}]},"MapReference":{"ReferenceId":"975045422","Spot":0.51,"SideOfStreet":"left","StateId":"20248595","CountyId":"20352323","CityId":"20352420","DistrictId":"20352516"}}},{"Relevance":1.0,"Distance":53.3,"MatchLevel":"street","MatchQuality":{"Country":1.0,"State":1.0,"County":1.0,"City":1.0,"District":1.0,"PostalCode":1.0},"Location":{"LocationId":"NT_N6oZN8x4ldheay16070laB_l_975045419_R","LocationType":"point","DisplayPosition":{"Latitude":51.43349,"Longitude":-2.75883},"MapView":{"TopLeft":{"Latitude":51.43349,"Longitude":-2.75883},"BottomRight":{"Latitude":51.4333,"Longitude":-2.75836}},"Address":{"Label":"Bristol, BS48 1, United Kingdom","Country":"GBR","State":"England","County":"Avon","City":"Bristol","District":"Nailsea","PostalCode":"BS48 1","AdditionalData":[{"value":"United Kingdom","key":"CountryName"},{"value":"England","key":"StateName"},{"value":"Avon","key":"CountyName"}]},"MapReference":{"ReferenceId":"975045419","Spot":1.0,"SideOfStreet":"right","StateId":"20248595","CountyId":"20352323","CityId":"20352420","DistrictId":"20352516"}}},{"Relevance":1.0,"Distance":54.7,"MatchLevel":"postalCode","MatchQuality":{"PostalCode":1.0},"Location":{"LocationId":"NT_UcfyR9rNutrs-5hufDWrNA_l_975045422_L","LocationType":"point","DisplayPosition":{"Latitude":51.43339,"Longitude":-2.75955},"MapView":{"TopLeft":{"Latitude":51.4423832,"Longitude":-2.7739755},"BottomRight":{"Latitude":51.4243968,"Longitude":-2.7451245}},"Address":{"Label":"BS48 1RQ, Bristol, England, United Kingdom","Country":"GBR","State":"England","County":"Avon","City":"Bristol","PostalCode":"BS48 1RQ","AdditionalData":[{"value":"United Kingdom","key":"CountryName"},{"value":"England","key":"StateName"},{"value":"Avon","key":"CountyName"}]},"MapReference":{"ReferenceId":"975045422","Spot":0.51,"SideOfStreet":"neither","StateId":"20248595","CountyId":"20352323","CityId":"20352420"}}},{"Relevance":1.0,"Distance":63.0,"MatchLevel":"street","MatchQuality":{"Country":1.0,"State":1.0,"County":1.0,"City":1.0,"District":1.0,"Street":[1.0],"PostalCode":1.0},"Location":{"LocationId":"NT_GfkVkZb8wZsIT69iZ0rn-A_l_26747046_R","LocationType":"point","DisplayPosition":{"Latitude":51.43425,"Longitude":-2.75866},"MapView":{"TopLeft":{"Latitude":51.43432,"Longitude":-2.75866},"BottomRight":{"Latitude":51.43425,"Longitude":-2.75821}},"Address":{"Label":"Stock Way North, Bristol, BS48 1, United Kingdom","Country":"GBR","State":"England","County":"Avon","City":"Bristol","District":"Nailsea","Street":"Stock Way North","PostalCode":"BS48 1","AdditionalData":[{"value":"United Kingdom","key":"CountryName"},{"value":"England","key":"StateName"},{"value":"Avon","key":"CountyName"}]},"MapReference":{"ReferenceId":"26747046","Spot":0.0,"SideOfStreet":"right","StateId":"20248595","CountyId":"20352323","CityId":"20352420","DistrictId":"20352516"}}},{"Relevance":1.0,"Distance":63.1,"MatchLevel":"street","MatchQuality":{"Country":1.0,"State":1.0,"County":1.0,"City":1.0,"District":1.0,"Street":[1.0],"PostalCode":1.0},"Location":{"LocationId":"NT_KbX5qWqhkzpHDIFXLRDJsA_l_1197814377_L","LocationType":"point","DisplayPosition":{"Latitude":51.4342534,"Longitude":-2.7586621},"MapView":{"TopLeft":{"Latitude":51.43455,"Longitude":-2.75883},"BottomRight":{"Latitude":51.43425,"Longitude":-2.75866}},"Address":{"Label":"Clevedon Road, Bristol, BS48 1, United Kingdom","Country":"GBR","State":"England","County":"Avon","City":"Bristol","District":"Nailsea","Street":"Clevedon Road","PostalCode":"BS48 1","AdditionalData":[{"value":"United Kingdom","key":"CountryName"},{"value":"England","key":"StateName"},{"value":"Avon","key":"CountyName"}]},"MapReference":{"ReferenceId":"1197814377","Spot":0.01,"SideOfStreet":"left","StateId":"20248595","CountyId":"20352323","CityId":"20352420","DistrictId":"20352516"}}},{"Relevance":1.0,"Distance":63.8,"MatchLevel":"street","MatchQuality":{"Country":1.0,"State":1.0,"County":1.0,"City":1.0,"District":1.0,"Street":[1.0],"PostalCode":1.0},"Location":{"LocationId":"NT_NDxtxgktL3xwRSxUBk33JD_l_975045433_R","LocationType":"point","DisplayPosition":{"Latitude":51.43332,"Longitude":-2.75963},"MapView":{"TopLeft":{"Latitude":51.43332,"Longitude":-2.75963},"BottomRight":{"Latitude":51.43245,"Longitude":-2.75914}},"Address":{"Label":"Colliers Walk, Bristol, BS48 1, United Kingdom","Country":"GBR","State":"England","County":"Avon","City":"Bristol","District":"Nailsea","Street":"Colliers Walk","PostalCode":"BS48 1","AdditionalData":[{"value":"United Kingdom","key":"CountryName"},{"value":"England","key":"StateName"},{"value":"Avon","key":"CountyName"}]},"MapReference":{"ReferenceId":"975045433","Spot":1.0,"SideOfStreet":"right","StateId":"20248595","CountyId":"20352323","CityId":"20352420","DistrictId":"20352516"}}}]}]}}