{"Response":{"MetaInfo":{"Timestamp":"2020-03-28T10:36:04.334+0000","NextPageInformation":"2"},"View":[{"_type":"SearchResultsViewType","ViewId":0,"Result":[{"Relevance":1.0,"Distance":0.0,"Direction":0.0,"MatchLevel":"district","MatchQuality":{"Country":1.0,"State":1.0,"County":1.0,"City":1.0,"District":1.0,"PostalCode":1.0},"Location":{"LocationId":"NT_zQuRjkSZCh.OYXTEhNzvaB","LocationType":"point","DisplayPosition":{"Latitude":51.4630811,"Longitude":-2.4999787},"MapView":{"TopLeft":{"Latitude":51.47297,"Longitude":-2.50173},"BottomRight":{"Latitude":51.46258,"Longitude":-2.48942}},"Address":{"Label":"New Cheltenham, Bristol, England, United Kingdom","Country":"GBR","State":"England","County":"Avon","City":"Bristol","District":"New Cheltenham","PostalCode":"BS15 4","AdditionalData":[{"value":"United Kingdom","key":"CountryName"},{"value":"England","key":"StateName"},{"value":"Avon","key":"CountyName"}]},"MapReference":{"ReferenceId":"26723905","SideOfStreet":"neither","StateId":"20248595","CountyId":"20352323","CityId":"20352420","DistrictId":"20352517"}}},{"Relevance":1.0,"Distance":29.5,"MatchLevel":"houseNumber","MatchQuality":{"Country":1.0,"State":1.0,"County":1.0,"City":1.0,"District":1.0,"Street":[1.0],"HouseNumber":1.0,"PostalCode":1.0},"MatchType":"interpolated","Location":{"LocationId":"NT_KqJOS0rBQiIguUYaBIfrBB_l_26724707_R_0A","LocationType":"point","DisplayPosition":{"Latitude":51.46325,"Longitude":-2.49965},"MapView":{"TopLeft":{"Latitude":51.4643742,"Longitude":-2.5014544},"BottomRight":{"Latitude":51.4621259,"Longitude":-2.4978456}},"Address":{"Label":"4 Alma Road, Bristol, BS15 4EH, United Kingdom","Country":"GBR","State":"England","County":"Avon","City":"Bristol","District":"New Cheltenham","Street":"Alma Road","HouseNumber":"4","PostalCode":"BS15 4EH","AdditionalData":[{"value":"United Kingdom","key":"CountryName"},{"value":"England","key":"StateName"},{"value":"Avon","key":"CountyName"}]},"MapReference":{"ReferenceId":"26724707","Spot":0.0,"SideOfStreet":"right","StateId":"20248595","CountyId":"20352323","CityId":"20352420","DistrictId":"20352517"}}},{"Relevance":1.0,"Distance":29.7,"MatchLevel":"houseNumber","MatchQuality":{"Country":1.0,"State":1.0,"County":1.0,"City":1.0,"District":1.0,"Street":[1.0],"HouseNumber":1.0,"PostalCode":1.0},"MatchType":"interpolated","Location":{"LocationId":"NT_KqJOS0rBQiIguUYaBIfrBB_l_26724778_R_yA","LocationType":"point","DisplayPosition":{"Latitude":51.4631124,"Longitude":-2.4995524},"MapView":{"TopLeft":{"Latitude":51.4642365,"Longitude":-2.5013567},"BottomRight":{"Latitude":51.4619882,"Longitude":-2.497748}},"Address":{"Label":"2 Alma Road, Bristol, BS15 4EH, United Kingdom","Country":"GBR","State":"England","County":"Avon","City":"Bristol","District":"New Cheltenham","Street":"Alma Road","HouseNumber":"2","PostalCode":"BS15 4EH","AdditionalData":[{"value":"United Kingdom","key":"CountryName"},{"value":"England","key":"StateName"},{"value":"Avon","key":"CountyName"}]},"MapReference":{"ReferenceId":"26724778","Spot":0.49,"SideOfStreet":"right","StateId":"20248595","CountyId":"20352323","CityId":"20352420","DistrictId":"20352517"}}},{"Relevance":1.0,"Distance":33.0,"MatchLevel":"postalCode","MatchQuality":{"PostalCode":1.0},"MatchType":"interpolated","Location":{"LocationId":"NT_v-DJsq9TNPuJwOllJ0WcpD_l_1022059303_L_xUD","LocationType":"point","DisplayPosition":{"Latitude":51.46284,"Longitude":-2.4997},"MapView":{"TopLeft":{"Latitude":51.4718332,"Longitude":-2.5141348},"BottomRight":{"Latitude":51.4538468,"Longitude":-2.4852652}},"Address":{"Label":"BS15 4EJ, Bristol, England, United Kingdom","Country":"GBR","State":"England","County":"Avon","City":"Bristol","PostalCode":"BS15 4EJ","AdditionalData":[{"value":"United Kingdom","key":"CountryName"},{"value":"England","key":"StateName"},{"value":"Avon","key":"CountyName"}]},"MapReference":{"ReferenceId":"1022059303","Spot":0.63,"SideOfStreet":"neither","StateId":"20248595","CountyId":"20352323","CityId":"20352420"}}},{"Relevance":1.0,"Distance":36.1,"MatchLevel":"street","MatchQuality":{"Country":1.0,"State":1.0,"County":1.0,"City":1.0,"District":1.0,"Street":[1.0],"PostalCode":1.0},"Location":{"LocationId":"NT_KqJOS0rBQiIguUYaBIfrBB_l_26724830_L","LocationType":"point","DisplayPosition":{"Latitude":51.46282,"Longitude":-2.49967},"MapView":{"TopLeft":{"Latitude":51.46298,"Longitude":-2.49967},"BottomRight":{"Latitude":51.46282,"Longitude":-2.49946}},"Address":{"Label":"Alma Road, Bristol, BS15 4, United Kingdom","Country":"GBR","State":"England","County":"Avon","City":"Bristol","District":"New Cheltenham","Street":"Alma Road","PostalCode":"BS15 4","AdditionalData":[{"value":"United Kingdom","key":"CountryName"},{"value":"England","key":"StateName"},{"value":"Avon","key":"CountyName"}]},"MapReference":{"ReferenceId":"26724830","Spot":0.0,"SideOfStreet":"left","StateId":"20248595","CountyId":"20352323","CityId":"20352420","DistrictId":"20352517"}}},{"Relevance":1.0,"Distance":38.2,"MatchLevel":"street","MatchQuality":{"Country":1.0,"State":1.0,"County":1.0,"City":1.0,"District":1.0,"PostalCode":1.0},"Location":{"LocationId":"NT_dMdygzBL89BWDUz8wQWJLA_l_26724675_R","LocationType":"point","DisplayPosition":{"Latitude":51.463424,"Longitude":-2.5000176},"MapView":{"TopLeft":{"Latitude":51.46346,"Longitude":-2.50067},"BottomRight":{"Latitude":51.46335,"Longitude":-2.4997}},"Address":{"Label":"Bristol, BS15 4, United Kingdom","Country":"GBR","State":"England","County":"Avon","City":"Bristol","District":"New Cheltenham","PostalCode":"BS15 4","AdditionalData":[{"value":"United Kingdom","key":"CountryName"},{"value":"England","key":"StateName"},{"value":"Avon","key":"CountyName"}]},"MapReference":{"ReferenceId":"26724675","Spot":0.67,"SideOfStreet":"right","StateId":"20248595","CountyId":"20352323","CityId":"20352420","DistrictId":"20352517"}}},{"Relevance":1.0,"Distance":40.3,"MatchLevel":"houseNumber","MatchQuality":{"Country":1.0,"State":1.0,"County":1.0,"City":1.0,"District":1.0,"Street":[1.0],"HouseNumber":1.0,"PostalCode":1.0},"MatchType":"interpolated","Location":{"LocationId":"NT_v-DJsq9TNPuJwOllJ0WcpD_l_1022059303_L_xUD","LocationType":"point","DisplayPosition":{"Latitude":51.4626576,"Longitude":-2.4997175},"MapView":{"TopLeft":{"Latitude":51.4637818,"Longitude":-2.5015218},"BottomRight":{"Latitude":51.4615335,"Longitude":-2.4979131}},"Address":{"Label":"15 Alma Road, Bristol, BS15 4DA, United Kingdom","Country":"GBR","State":"England","County":"Avon","City":"Bristol","District":"Kingswood","Street":"Alma Road","HouseNumber":"15","PostalCode":"BS15 4DA","AdditionalData":[{"value":"United Kingdom","key":"CountryName"},{"value":"England","key":"StateName"},{"value":"Avon","key":"CountyName"}]},"MapReference":{"ReferenceId":"1022059303","Spot":0.63,"SideOfStreet":"left","StateId":"20248595","CountyId":"20352323","CityId":"20352420","DistrictId":"20352504"}}},{"Relevance":1.0,"Distance":44.8,"MatchLevel":"houseNumber","MatchQuality":{"Country":1.0,"State":1.0,"County":1.0,"City":1.0,"District":1.0,"Street":[1.0],"HouseNumber":1.0,"PostalCode":1.0},"MatchType":"interpolated","Location":{"LocationId":"NT_djtmUThgSiZkfrZZehtpdC_l_565664728_L_xA","LocationType":"point","DisplayPosition":{"Latitude":51.46303,"Longitude":-2.49926},"MapView":{"TopLeft":{"Latitude":51.4641542,"Longitude":-2.5010643},"BottomRight":{"Latitude":51.4619059,"Longitude":-2.4974556}},"Address":{"Label":"1 Holly Hill Road, Bristol, BS15 4DB, United Kingdom","Country":"GBR","State":"England","County":"Avon","City":"Bristol","District":"New Cheltenham","Street":"Holly Hill Road","HouseNumber":"1","PostalCode":"BS15 4DB","AdditionalData":[{"value":"United Kingdom","key":"CountryName"},{"value":"England","key":"StateName"},{"value":"Avon","key":"CountyName"}]},"MapReference":{"ReferenceId":"565664728","Spot":0.23,"SideOfStreet":"left","StateId":"20248595","CountyId":"20352323","CityId":"20352420","DistrictId":"20352517"}}},{"Relevance":1.0,"Distance":50.8,"MatchLevel":"houseNumber","MatchQuality":{"Country":1.0,"State":1.0,"County":1.0,"City":1.0,"District":1.0,"Street":[1.0],"HouseNumber":1.0,"PostalCode":1.0},"MatchType":"interpolated","Location":{"LocationId":"NT_KqJOS0rBQiIguUYaBIfrBB_l_26724649_L_zkD","LocationType":"point","DisplayPosition":{"Latitude":51.4635902,"Longitude":-2.49973},"MapView":{"TopLeft":{"Latitude":51.4647143,"Longitude":-2.5015344},"BottomRight":{"Latitude":51.462466,"Longitude":-2.4979257}},"Address":{"Label":"39 Alma Road, Bristol, BS15 4EQ, United Kingdom","Country":"GBR","State":"England","County":"Avon","City":"Bristol","District":"New Cheltenham","Street":"Alma Road","HouseNumber":"39","PostalCode":"BS15 4EQ","AdditionalData":[{"value":"United Kingdom","key":"CountryName"},{"value":"England","key":"StateName"},{"value":"Avon","key":"CountyName"}]},"MapReference":{"ReferenceId":"26724649","Spot":0.11,"SideOfStreet":"left","StateId":"20248595","CountyId":"20352323","CityId":"20352420","DistrictId":"20352517"}}},{"Relevance":1.0,"Distance":56.5,"MatchLevel":"street","MatchQuality":{"Country":1.0,"State":1.0,"County":1.0,"City":1.0,"District":1.0,"PostalCode":1.0},"Location":{"LocationId":"NT_dMdygzBL89BWDUz8wQWJLA_l_26724835_R","LocationType":"point","DisplayPosition":{"Latitude":51.46335,"Longitude":-2.50067},"MapView":{"TopLeft":{"Latitude":51.46335,"Longitude":-2.50171},"BottomRight":{"Latitude":51.46282,"Longitude":-2.50067}},"Address":{"Label":"Bristol, BS15 4, United Kingdom","Country":"GBR","State":"England","County":"Avon","City":"Bristol","District":"New Cheltenham","PostalCode":"BS15 4","AdditionalData":[{"value":"United Kingdom","key":"CountryName"},{"value":"England","key":"StateName"},{"value":"Avon","key":"CountyName"}]},"MapReference":{"ReferenceId":"26724835","Spot":1.0,"SideOfStreet":"right","StateId":"20248595","CountyId":"20352323","CityId":"20352420","DistrictId":"20352517"}}}]}]}}