{"Response":{"MetaInfo":{"Timestamp":"2020-03-28T09:52:58.057+0000","NextPageInformation":"2"},"View":[{"_type":"SearchResultsViewType","ViewId":0,"Result":[{"Relevance":1.0,"Distance":0.0,"Direction":0.0,"MatchLevel":"district","MatchQuality":{"Country":1.0,"State":1.0,"County":1.0,"City":1.0,"District":1.0,"PostalCode":1.0},"Location":{"LocationId":"NT_fcZnDeYZdPupL-S06jEkqC","LocationType":"point","DisplayPosition":{"Latitude":51.458975,"Longitude":-2.6091858},"MapView":{"TopLeft":{"Latitude":51.46235,"Longitude":-2.60914},"BottomRight":{"Latitude":51.45534,"Longitude":-2.60041}},"Address":{"Label":"Tyndalls Park, Bristol, England, United Kingdom","Country":"GBR","State":"England","County":"Avon","City":"Bristol","District":"Tyndalls Park","PostalCode":"BS8 1","AdditionalData":[{"value":"United Kingdom","key":"CountryName"},{"value":"England","key":"StateName"},{"value":"Avon","key":"CountyName"}]},"MapReference":{"ReferenceId":"26725788","SideOfStreet":"neither","StateId":"20248595","CountyId":"20352323","CityId":"20352420","DistrictId":"20352570"}}},{"Relevance":1.0,"Distance":11.4,"MatchLevel":"houseNumber","MatchQuality":{"Country":1.0,"State":1.0,"County":1.0,"City":1.0,"District":1.0,"Street":[1.0],"HouseNumber":1.0,"PostalCode":1.0},"MatchType":"interpolated","Location":{"LocationId":"NT_om4J4iCVh4W9zuB0t2rimB_l_26725800_R_2A","LocationType":"point","DisplayPosition":{"Latitude":51.4590176,"Longitude":-2.6093354},"MapView":{"TopLeft":{"Latitude":51.4601417,"Longitude":-2.6111396},"BottomRight":{"Latitude":51.4578934,"Longitude":-2.6075312}},"Address":{"Label":"6 Sunderland Place, Bristol, BS8 1NA, United Kingdom","Country":"GBR","State":"England","County":"Avon","City":"Bristol","District":"Bristol","Street":"Sunderland Place","HouseNumber":"6","PostalCode":"BS8 1NA","AdditionalData":[{"value":"United Kingdom","key":"CountryName"},{"value":"England","key":"StateName"},{"value":"Avon","key":"CountyName"}]},"MapReference":{"ReferenceId":"26725800","Spot":0.76,"SideOfStreet":"right","StateId":"20248595","CountyId":"20352323","CityId":"20352420","DistrictId":"20352421"}}},{"Relevance":1.0,"Distance":12.6,"MatchLevel":"houseNumber","MatchQuality":{"Country":1.0,"State":1.0,"County":1.0,"City":1.0,"District":1.0,"Street":[1.0],"HouseNumber":1.0,"PostalCode":1.0},"MatchType":"interpolated","Location":{"LocationId":"NT_QYoEza9NdTbCfwOYVBVqhA_l_1212029106_L_4A","LocationType":"point","DisplayPosition":{"Latitude":51.4589,"Longitude":-2.60881},"MapView":{"TopLeft":{"Latitude":51.4600242,"Longitude":-2.6106142},"BottomRight":{"Latitude":51.4577759,"Longitude":-2.6070058}},"Address":{"Label":"8 Whiteladies Road, Bristol, BS8 1PD, United Kingdom","Country":"GBR","State":"England","County":"Avon","City":"Bristol","District":"Tyndalls Park","Street":"Whiteladies Road","HouseNumber":"8","PostalCode":"BS8 1PD","AdditionalData":[{"value":"United Kingdom","key":"CountryName"},{"value":"England","key":"StateName"},{"value":"Avon","key":"CountyName"}]},"MapReference":{"ReferenceId":"1212029106","Spot":0.24,"SideOfStreet":"left","StateId":"20248595","CountyId":"20352323","CityId":"20352420","DistrictId":"20352570"}}},{"Relevance":1.0,"Distance":25.2,"MatchLevel":"postalCode","MatchQuality":{"PostalCode":1.0},"MatchType":"interpolated","Location":{"LocationId":"NT_om4J4iCVh4W9zuB0t2rimB_l_26725800_R_2A","LocationType":"point","DisplayPosition":{"Latitude":51.45898,"Longitude":-2.60955},"MapView":{"TopLeft":{"Latitude":51.4679732,"Longitude":-2.6239836},"BottomRight":{"Latitude":51.4499868,"Longitude":-2.5951164}},"Address":{"Label":"BS8 1NA, Bristol, England, United Kingdom","Country":"GBR","State":"England","County":"Avon","City":"Bristol","PostalCode":"BS8 1NA","AdditionalData":[{"value":"United Kingdom","key":"CountryName"},{"value":"England","key":"StateName"},{"value":"Avon","key":"CountyName"}]},"MapReference":{"ReferenceId":"26725800","Spot":0.76,"SideOfStreet":"neither","StateId":"20248595","CountyId":"20352323","CityId":"20352420"}}},{"Relevance":1.0,"Distance":31.0,"MatchLevel":"postalCode","MatchQuality":{"PostalCode":1.0},"MatchType":"interpolated","Location":{"LocationId":"NT_QYoEza9NdTbCfwOYVBVqhA_l_1212029106_L_4A","LocationType":"point","DisplayPosition":{"Latitude":51.45889,"Longitude":-2.60876},"MapView":{"TopLeft":{"Latitude":51.4678832,"Longitude":-2.6231936},"BottomRight":{"Latitude":51.4498968,"Longitude":-2.5943264}},"Address":{"Label":"BS8 1NN, Bristol, England, United Kingdom","Country":"GBR","State":"England","County":"Avon","City":"Bristol","PostalCode":"BS8 1NN","AdditionalData":[{"value":"United Kingdom","key":"CountryName"},{"value":"England","key":"StateName"},{"value":"Avon","key":"CountyName"}]},"MapReference":{"ReferenceId":"1212029106","Spot":0.24,"SideOfStreet":"neither","StateId":"20248595","CountyId":"20352323","CityId":"20352420"}}},{"Relevance":1.0,"Distance":44.2,"MatchLevel":"houseNumber","MatchQuality":{"Country":1.0,"State":1.0,"County":1.0,"City":1.0,"District":1.0,"Street":[1.0],"HouseNumber":1.0,"PostalCode":1.0},"MatchType":"interpolated","Location":{"LocationId":"NT_QYoEza9NdTbCfwOYVBVqhA_l_1212029002_L_2A","LocationType":"point","DisplayPosition":{"Latitude":51.4585568,"Longitude":-2.6088617},"MapView":{"TopLeft":{"Latitude":51.4596809,"Longitude":-2.6106658},"BottomRight":{"Latitude":51.4574326,"Longitude":-2.6070575}},"Address":{"Label":"6 Whiteladies Road, Bristol, BS8 1PD, United Kingdom","Country":"GBR","State":"England","County":"Avon","City":"Bristol","District":"Tyndalls Park","Street":"Whiteladies Road","HouseNumber":"6","PostalCode":"BS8 1PD","AdditionalData":[{"value":"United Kingdom","key":"CountryName"},{"value":"England","key":"StateName"},{"value":"Avon","key":"CountyName"}]},"MapReference":{"ReferenceId":"1212029002","Spot":0.57,"SideOfStreet":"left","StateId":"20248595","CountyId":"20352323","CityId":"20352420","DistrictId":"20352570"}}},{"Relevance":1.0,"Distance":49.9,"MatchLevel":"postalCode","MatchQuality":{"PostalCode":1.0},"MatchType":"interpolated","Location":{"LocationId":"NT_QYoEza9NdTbCfwOYVBVqhA_l_1212029002_L_2A","LocationType":"point","DisplayPosition":{"Latitude":51.4586,"Longitude":-2.60879},"MapView":{"TopLeft":{"Latitude":51.4675932,"Longitude":-2.6232235},"BottomRight":{"Latitude":51.4496068,"Longitude":-2.5943565}},"Address":{"Label":"BS8 1NU, Bristol, England, United Kingdom","Country":"GBR","State":"England","County":"Avon","City":"Bristol","PostalCode":"BS8 1NU","AdditionalData":[{"value":"United Kingdom","key":"CountryName"},{"value":"England","key":"StateName"},{"value":"Avon","key":"CountyName"}]},"MapReference":{"ReferenceId":"1212029002","Spot":0.57,"SideOfStreet":"neither","StateId":"20248595","CountyId":"20352323","CityId":"20352420"}}},{"Relevance":1.0,"Distance":57.1,"MatchLevel":"houseNumber","MatchQuality":{"Country":1.0,"State":1.0,"County":1.0,"City":1.0,"District":1.0,"Street":[1.0],"HouseNumber":1.0,"PostalCode":1.0},"MatchType":"interpolated","Location":{"LocationId":"NT_cBuBFxNfzOhrzo9n24A9qD_l_26725549_R_xA","LocationType":"point","DisplayPosition":{"Latitude":51.459621,"Longitude":-2.609222},"MapView":{"TopLeft":{"Latitude":51.4607451,"Longitude":-2.6110262},"BottomRight":{"Latitude":51.4584968,"Longitude":-2.6074178}},"Address":{"Label":"1 St Paul's Road, Bristol, BS8 1LX, United Kingdom","Country":"GBR","State":"England","County":"Avon","City":"Bristol","District":"Bristol","Street":"St Paul's Road","HouseNumber":"1","PostalCode":"BS8 1LX","AdditionalData":[{"value":"United Kingdom","key":"CountryName"},{"value":"England","key":"StateName"},{"value":"Avon","key":"CountyName"}]},"MapReference":{"ReferenceId":"26725549","Spot":0.51,"SideOfStreet":"right","StateId":"20248595","CountyId":"20352323","CityId":"20352420","DistrictId":"20352421"}}},{"Relevance":1.0,"Distance":59.4,"MatchLevel":"houseNumber","MatchQuality":{"Country":1.0,"State":1.0,"County":1.0,"City":1.0,"District":1.0,"Street":[1.0],"HouseNumber":1.0,"PostalCode":1.0},"MatchType":"interpolated","Location":{"LocationId":"NT_QYoEza9NdTbCfwOYVBVqhA_l_1212029107_L_xID","LocationType":"point","DisplayPosition":{"Latitude":51.459473,"Longitude":-2.60874},"MapView":{"TopLeft":{"Latitude":51.4605972,"Longitude":-2.6105442},"BottomRight":{"Latitude":51.4583489,"Longitude":-2.6069358}},"Address":{"Label":"12 Whiteladies Road, Bristol, BS8 1PD, United Kingdom","Country":"GBR","State":"England","County":"Avon","City":"Bristol","District":"Tyndalls Park","Street":"Whiteladies Road","HouseNumber":"12","PostalCode":"BS8 1PD","AdditionalData":[{"value":"United Kingdom","key":"CountryName"},{"value":"England","key":"StateName"},{"value":"Avon","key":"CountyName"}]},"MapReference":{"ReferenceId":"1212029107","Spot":0.5,"SideOfStreet":"left","StateId":"20248595","CountyId":"20352323","CityId":"20352420","DistrictId":"20352570"}}},{"Relevance":1.0,"Distance":59.5,"MatchLevel":"houseNumber","MatchQuality":{"Country":1.0,"State":1.0,"County":1.0,"City":1.0,"District":1.0,"Street":[1.0],"HouseNumber":1.0,"PostalCode":1.0},"MatchType":"interpolated","Location":{"LocationId":"NT_cBuBFxNfzOhrzo9n24A9qD_l_26725689_R_zA","LocationType":"point","DisplayPosition":{"Latitude":51.4593373,"Longitude":-2.610014},"MapView":{"TopLeft":{"Latitude":51.4604615,"Longitude":-2.6118182},"BottomRight":{"Latitude":51.4582132,"Longitude":-2.6082098}},"Address":{"Label":"3 St Paul's Road, Bristol, BS8 1LX, United Kingdom","Country":"GBR","State":"England","County":"Avon","City":"Bristol","District":"Bristol","Street":"St Paul's Road","HouseNumber":"3","PostalCode":"BS8 1LX","AdditionalData":[{"value":"United Kingdom","key":"CountryName"},{"value":"England","key":"StateName"},{"value":"Avon","key":"CountyName"}]},"MapReference":{"ReferenceId":"26725689","Spot":0.8,"SideOfStreet":"right","StateId":"20248595","CountyId":"20352323","CityId":"20352420","DistrictId":"20352421"}}}]}]}}