{"Response":{"MetaInfo":{"Timestamp":"2020-03-28T10:35:43.497+0000","NextPageInformation":"2"},"View":[{"_type":"SearchResultsViewType","ViewId":0,"Result":[{"Relevance":1.0,"Distance":0.0,"Direction":0.0,"MatchLevel":"district","MatchQuality":{"Country":1.0,"State":1.0,"County":1.0,"City":1.0,"District":1.0,"PostalCode":1.0},"Location":{"LocationId":"NT_jcemRrz9cbouWt5I9eNrbD","LocationType":"point","DisplayPosition":{"Latitude":51.438601,"Longitude":0.1245951},"MapView":{"TopLeft":{"Latitude":51.4525,"Longitude":0.11468},"BottomRight":{"Latitude":51.42281,"Longitude":0.18561}},"Address":{"Label":"Bexley, England, United Kingdom","Country":"GBR","State":"England","County":"Kent","City":"Bexley","District":"Bexley","PostalCode":"DA5 1","AdditionalData":[{"value":"United Kingdom","key":"CountryName"},{"value":"England","key":"StateName"},{"value":"Kent","key":"CountyName"}]},"MapReference":{"ReferenceId":"924331691","SideOfStreet":"neither","StateId":"20248595","CountyId":"20336836","CityId":"20336901","DistrictId":"20336902"}}},{"Relevance":1.0,"Distance":18.6,"MatchLevel":"postalCode","MatchQuality":{"PostalCode":1.0},"MatchType":"interpolated","Location":{"LocationId":"NT_JpD.uplxuHxnOYr9k6V6dC_xA","LocationType":"point","DisplayPosition":{"Latitude":51.43848,"Longitude":0.12478},"MapView":{"TopLeft":{"Latitude":51.4474732,"Longitude":0.1103529},"BottomRight":{"Latitude":51.4294868,"Longitude":0.1392071}},"Address":{"Label":"DA5 3LH, Bexley, England, United Kingdom","Country":"GBR","State":"England","County":"Kent","City":"Bexley","PostalCode":"DA5 3LH","AdditionalData":[{"value":"United Kingdom","key":"CountryName"},{"value":"England","key":"StateName"},{"value":"Kent","key":"CountyName"}]},"MapReference":{"ReferenceId":"865287474","Spot":0.0,"SideOfStreet":"neither","StateId":"20248595","CountyId":"20336836","CityId":"20336901"}}},{"Relevance":1.0,"Distance":24.0,"MatchLevel":"postalCode","MatchQuality":{"PostalCode":1.0},"MatchType":"interpolated","Location":{"LocationId":"NT_h.n094IR0avc7Tv.XyVwBC_1A","LocationType":"point","DisplayPosition":{"Latitude":51.43858,"Longitude":0.12494},"MapView":{"TopLeft":{"Latitude":51.4475732,"Longitude":0.1105128},"BottomRight":{"Latitude":51.4295868,"Longitude":0.1393672}},"Address":{"Label":"DA5 3AG, Bexley, England, United Kingdom","Country":"GBR","State":"England","County":"Kent","City":"Bexley","PostalCode":"DA5 3AG","AdditionalData":[{"value":"United Kingdom","key":"CountryName"},{"value":"England","key":"StateName"},{"value":"Kent","key":"CountyName"}]},"MapReference":{"ReferenceId":"25443962","Spot":0.88,"SideOfStreet":"neither","StateId":"20248595","CountyId":"20336836","CityId":"20336901"}}},{"Relevance":1.0,"Distance":25.9,"MatchLevel":"houseNumber","MatchQuality":{"Country":1.0,"State":1.0,"County":1.0,"City":1.0,"District":1.0,"Street":[1.0],"HouseNumber":1.0,"PostalCode":1.0},"MatchType":"interpolated","Location":{"LocationId":"NT_JpD.uplxuHxnOYr9k6V6dC_xA","LocationType":"point","DisplayPosition":{"Latitude":51.43847,"Longitude":0.12483},"MapView":{"TopLeft":{"Latitude":51.4395942,"Longitude":0.1230266},"BottomRight":{"Latitude":51.4373458,"Longitude":0.1266334}},"Address":{"Label":"1 Penfold Lane, Bexley, DA5 3AQ, United Kingdom","Country":"GBR","State":"England","County":"Kent","City":"Bexley","District":"Bexley","Street":"Penfold Lane","HouseNumber":"1","PostalCode":"DA5 3AQ","AdditionalData":[{"value":"United Kingdom","key":"CountryName"},{"value":"England","key":"StateName"},{"value":"Kent","key":"CountyName"}]},"MapReference":{"ReferenceId":"865287474","Spot":0.0,"SideOfStreet":"left","StateId":"20248595","CountyId":"20336836","CityId":"20336901","DistrictId":"20336902","AddressId":"748902200","RoadLinkId":"238606309"}}},{"Relevance":1.0,"Distance":45.4,"MatchLevel":"houseNumber","MatchQuality":{"Country":1.0,"State":1.0,"County":1.0,"City":1.0,"District":1.0,"Street":[1.0],"HouseNumber":1.0,"PostalCode":1.0},"MatchType":"interpolated","Location":{"LocationId":"NT_h.n094IR0avc7Tv.XyVwBC_1A","LocationType":"point","DisplayPosition":{"Latitude":51.4386,"Longitude":0.1253},"MapView":{"TopLeft":{"Latitude":51.4397242,"Longitude":0.1234966},"BottomRight":{"Latitude":51.4374758,"Longitude":0.1271034}},"Address":{"Label":"5 Shoreham Close, Bexley, DA5 3AG, United Kingdom","Country":"GBR","State":"England","County":"Kent","City":"Bexley","District":"Bexley","Street":"Shoreham Close","HouseNumber":"5","PostalCode":"DA5 3AG","AdditionalData":[{"value":"United Kingdom","key":"CountryName"},{"value":"England","key":"StateName"},{"value":"Kent","key":"CountyName"}]},"MapReference":{"ReferenceId":"25443962","Spot":0.88,"SideOfStreet":"left","StateId":"20248595","CountyId":"20336836","CityId":"20336901","DistrictId":"20336902","AddressId":"785191909","RoadLinkId":"82807473"}}},{"Relevance":1.0,"Distance":50.3,"MatchLevel":"houseNumber","MatchQuality":{"Country":1.0,"State":1.0,"County":1.0,"City":1.0,"District":1.0,"Street":[1.0],"HouseNumber":1.0,"PostalCode":1.0},"MatchType":"interpolated","Location":{"LocationId":"NT_xjko.Hse6RN4NSakxvsHFC_xgD","LocationType":"point","DisplayPosition":{"Latitude":51.43908,"Longitude":0.12541},"MapView":{"TopLeft":{"Latitude":51.4402042,"Longitude":0.1236066},"BottomRight":{"Latitude":51.4379558,"Longitude":0.1272134}},"Address":{"Label":"18 Hurst Road, Bexley, DA5 3, United Kingdom","Country":"GBR","State":"England","County":"Kent","City":"Bexley","District":"Bexley","Street":"Hurst Road","HouseNumber":"18","PostalCode":"DA5 3","AdditionalData":[{"value":"United Kingdom","key":"CountryName"},{"value":"England","key":"StateName"},{"value":"Kent","key":"CountyName"}]},"MapReference":{"ReferenceId":"974610765","Spot":0.67,"SideOfStreet":"left","StateId":"20248595","CountyId":"20336836","CityId":"20336901","DistrictId":"20336902","AddressId":"748775559","RoadLinkId":"310193370"}}},{"Relevance":1.0,"Distance":52.2,"MatchLevel":"houseNumber","MatchQuality":{"Country":1.0,"State":1.0,"County":1.0,"City":1.0,"District":1.0,"Street":[1.0],"HouseNumber":1.0,"PostalCode":1.0},"MatchType":"interpolated","Location":{"LocationId":"NT_-fymQPZXRsGJqUzBObFzuD_ygD","LocationType":"point","DisplayPosition":{"Latitude":51.43796,"Longitude":0.12441},"MapView":{"TopLeft":{"Latitude":51.4390842,"Longitude":0.1226066},"BottomRight":{"Latitude":51.4368358,"Longitude":0.1262134}},"Address":{"Label":"28 Stansted Crescent, Bexley, DA5 3JB, United Kingdom","Country":"GBR","State":"England","County":"Kent","City":"Bexley","District":"Bexley","Street":"Stansted Crescent","HouseNumber":"28","PostalCode":"DA5 3JB","AdditionalData":[{"value":"United Kingdom","key":"CountryName"},{"value":"England","key":"StateName"},{"value":"Kent","key":"CountyName"}]},"MapReference":{"ReferenceId":"25443976","Spot":0.61,"SideOfStreet":"left","StateId":"20248595","CountyId":"20336836","CityId":"20336901","DistrictId":"20336902","AddressId":"763383370","RoadLinkId":"82359355"}}},{"Relevance":1.0,"Distance":66.0,"MatchLevel":"postalCode","MatchQuality":{"PostalCode":1.0},"MatchType":"interpolated","Location":{"LocationId":"NT_-fymQPZXRsGJqUzBObFzuD_ygD","LocationType":"point","DisplayPosition":{"Latitude":51.43801,"Longitude":0.12451},"MapView":{"TopLeft":{"Latitude":51.4470032,"Longitude":0.110083},"BottomRight":{"Latitude":51.4290168,"Longitude":0.138937}},"Address":{"Label":"DA5 3JB, Bexley, England, United Kingdom","Country":"GBR","State":"England","County":"Kent","City":"Bexley","PostalCode":"DA5 3JB","AdditionalData":[{"value":"United Kingdom","key":"CountryName"},{"value":"England","key":"StateName"},{"value":"Kent","key":"CountyName"}]},"MapReference":{"ReferenceId":"25443976","Spot":0.61,"SideOfStreet":"neither","StateId":"20248595","CountyId":"20336836","CityId":"20336901"}}},{"Relevance":1.0,"Distance":75.6,"MatchLevel":"houseNumber","MatchQuality":{"Country":1.0,"State":1.0,"County":1.0,"City":1.0,"District":1.0,"Street":[1.0],"HouseNumber":1.0,"PostalCode":1.0},"MatchType":"interpolated","Location":{"LocationId":"NT_xjko.Hse6RN4NSakxvsHFC_zgzM","LocationType":"point","DisplayPosition":{"Latitude":51.43925,"Longitude":0.12492},"MapView":{"TopLeft":{"Latitude":51.4403742,"Longitude":0.1231166},"BottomRight":{"Latitude":51.4381258,"Longitude":0.1267234}},"Address":{"Label":"383 Hurst Road, Bexley, DA5 3DT, United Kingdom","Country":"GBR","State":"England","County":"Kent","City":"Bexley","District":"Bexley","Street":"Hurst Road","HouseNumber":"383","PostalCode":"DA5 3DT","AdditionalData":[{"value":"United Kingdom","key":"CountryName"},{"value":"England","key":"StateName"},{"value":"Kent","key":"CountyName"}]},"MapReference":{"ReferenceId":"940398047","Spot":0.83,"SideOfStreet":"right","StateId":"20248595","CountyId":"20336836","CityId":"20336901","DistrictId":"20336902","AddressId":"748813528","RoadLinkId":"290369708"}}},{"Relevance":1.0,"Distance":75.8,"MatchLevel":"houseNumber","MatchQuality":{"Country":1.0,"State":1.0,"County":1.0,"City":1.0,"District":1.0,"Street":[1.0],"HouseNumber":1.0,"PostalCode":1.0},"MatchType":"interpolated","Location":{"LocationId":"NT_z-JsDcaOx8aycI1C6toI1A_l_974610766_R_zgzN","LocationType":"point","DisplayPosition":{"Latitude":51.4391309,"Longitude":0.1252829},"MapView":{"TopLeft":{"Latitude":51.440255,"Longitude":0.1234794},"BottomRight":{"Latitude":51.4380067,"Longitude":0.1270863}},"Address":{"Label":"387 Hurst Road, Bexley, DA5 3, United Kingdom","Country":"GBR","State":"England","County":"Kent","City":"Bexley","District":"Bexley","Street":"Hurst Road","HouseNumber":"387","PostalCode":"DA5 3","AdditionalData":[{"value":"United Kingdom","key":"CountryName"},{"value":"England","key":"StateName"},{"value":"Kent","key":"CountyName"}]},"MapReference":{"ReferenceId":"974610766","Spot":0.51,"SideOfStreet":"right","StateId":"20248595","CountyId":"20336836","CityId":"20336901","DistrictId":"20336902"}}}]}]}}