{"Response":{"MetaInfo":{"Timestamp":"2020-03-28T12:00:06.658+0000","NextPageInformation":"2"},"View":[{"_type":"SearchResultsViewType","ViewId":0,"Result":[{"Relevance":1.0,"Distance":0.0,"Direction":0.0,"MatchLevel":"district","MatchQuality":{"Country":1.0,"State":1.0,"County":1.0,"City":1.0,"District":1.0,"PostalCode":1.0},"Location":{"LocationId":"NT_H6YHD2zcNbXRUqzQRc-9dA","LocationType":"point","DisplayPosition":{"Latitude":51.4619957,"Longitude":-0.2965967},"MapView":{"TopLeft":{"Latitude":51.48329,"Longitude":-0.31898},"BottomRight":{"Latitude":51.42778,"Longitude":-0.26415}},"Address":{"Label":"Richmond, England, United Kingdom","Country":"GBR","State":"England","County":"Surrey","City":"Richmond","District":"Richmond","PostalCode":"TW9 1","AdditionalData":[{"value":"United Kingdom","key":"CountryName"},{"value":"England","key":"StateName"},{"value":"Surrey","key":"CountyName"}]},"MapReference":{"ReferenceId":"25493212","SideOfStreet":"neither","StateId":"20248595","CountyId":"20338357","CityId":"20338598","DistrictId":"20338599"}}},{"Relevance":1.0,"Distance":1.9,"MatchLevel":"houseNumber","MatchQuality":{"Country":1.0,"State":1.0,"County":1.0,"City":1.0,"District":1.0,"Street":[1.0],"HouseNumber":1.0,"PostalCode":1.0},"MatchType":"interpolated","Location":{"LocationId":"NT_F8fdRZtCq3MhgfO9uSpEuA_4YD","LocationType":"point","DisplayPosition":{"Latitude":51.46188,"Longitude":-0.2965},"MapView":{"TopLeft":{"Latitude":51.4630042,"Longitude":-0.2983043},"BottomRight":{"Latitude":51.4607558,"Longitude":-0.2946957}},"Address":{"Label":"86 Sheen Road, Richmond, TW9 1AX, United Kingdom","Country":"GBR","State":"England","County":"Surrey","City":"Richmond","District":"Richmond","Street":"Sheen Road","HouseNumber":"86","PostalCode":"TW9 1AX","AdditionalData":[{"value":"United Kingdom","key":"CountryName"},{"value":"England","key":"StateName"},{"value":"Surrey","key":"CountyName"}]},"MapReference":{"ReferenceId":"25409475","Spot":0.38,"SideOfStreet":"left","StateId":"20248595","CountyId":"20338357","CityId":"20338598","DistrictId":"20338599","AddressId":"749182490","RoadLinkId":"82410447"}}},{"Relevance":1.0,"Distance":13.9,"MatchLevel":"houseNumber","MatchQuality":{"Country":1.0,"State":1.0,"County":1.0,"City":1.0,"District":1.0,"Street":[1.0],"HouseNumber":1.0,"PostalCode":1.0},"MatchType":"interpolated","Location":{"LocationId":"NT_0ZrhgeNmfnp1CdqcOJrTyC_yYjY","LocationType":"point","DisplayPosition":{"Latitude":51.46199,"Longitude":-0.29691},"MapView":{"TopLeft":{"Latitude":51.4631142,"Longitude":-0.2987143},"BottomRight":{"Latitude":51.4608658,"Longitude":-0.2951057}},"Address":{"Label":"26b Dunstable Road, Richmond, TW9 1, United Kingdom","Country":"GBR","State":"England","County":"Surrey","City":"Richmond","District":"Richmond","Street":"Dunstable Road","HouseNumber":"26b","PostalCode":"TW9 1","AdditionalData":[{"value":"United Kingdom","key":"CountryName"},{"value":"England","key":"StateName"},{"value":"Surrey","key":"CountyName"}]},"MapReference":{"ReferenceId":"25409476","Spot":0.11,"SideOfStreet":"right","StateId":"20248595","CountyId":"20338357","CityId":"20338598","DistrictId":"20338599","AddressId":"748697562","RoadLinkId":"82373350"}}},{"Relevance":1.0,"Distance":15.3,"MatchLevel":"postalCode","MatchQuality":{"PostalCode":1.0},"MatchType":"interpolated","Location":{"LocationId":"NT_F8fdRZtCq3MhgfO9uSpEuA_4YD","LocationType":"point","DisplayPosition":{"Latitude":51.46196,"Longitude":-0.29681},"MapView":{"TopLeft":{"Latitude":51.4709532,"Longitude":-0.3112445},"BottomRight":{"Latitude":51.4529668,"Longitude":-0.2823755}},"Address":{"Label":"TW9 1UF, Richmond, England, United Kingdom","Country":"GBR","State":"England","County":"Surrey","City":"Richmond","PostalCode":"TW9 1UF","AdditionalData":[{"value":"United Kingdom","key":"CountryName"},{"value":"England","key":"StateName"},{"value":"Surrey","key":"CountyName"}]},"MapReference":{"ReferenceId":"25409475","Spot":0.38,"SideOfStreet":"neither","StateId":"20248595","CountyId":"20338357","CityId":"20338598"}}},{"Relevance":1.0,"Distance":26.6,"MatchLevel":"houseNumber","MatchQuality":{"Country":1.0,"State":1.0,"County":1.0,"City":1.0,"District":1.0,"Street":[1.0],"HouseNumber":1.0,"PostalCode":1.0},"MatchType":"interpolated","Location":{"LocationId":"NT_hjhymEDqog3p7bnj7dNM7D_xUD","LocationType":"point","DisplayPosition":{"Latitude":51.46162,"Longitude":-0.2965},"MapView":{"TopLeft":{"Latitude":51.4627442,"Longitude":-0.2983043},"BottomRight":{"Latitude":51.4604958,"Longitude":-0.2946957}},"Address":{"Label":"15 Worple Way, Richmond, TW9 1, United Kingdom","Country":"GBR","State":"England","County":"Surrey","City":"Richmond","District":"Richmond","Street":"Worple Way","HouseNumber":"15","PostalCode":"TW9 1","AdditionalData":[{"value":"United Kingdom","key":"CountryName"},{"value":"England","key":"StateName"},{"value":"Surrey","key":"CountyName"}]},"MapReference":{"ReferenceId":"25459753","Spot":0.26,"SideOfStreet":"left","StateId":"20248595","CountyId":"20338357","CityId":"20338598","DistrictId":"20338599","AddressId":"749331831","RoadLinkId":"82869339"}}},{"Relevance":1.0,"Distance":30.1,"MatchLevel":"houseNumber","MatchQuality":{"Country":1.0,"State":1.0,"County":1.0,"City":1.0,"District":1.0,"Street":[1.0],"HouseNumber":1.0,"PostalCode":1.0},"MatchType":"interpolated","Location":{"LocationId":"NT_F8fdRZtCq3MhgfO9uSpEuA_3YD","LocationType":"point","DisplayPosition":{"Latitude":51.46179,"Longitude":-0.29688},"MapView":{"TopLeft":{"Latitude":51.4629142,"Longitude":-0.2986843},"BottomRight":{"Latitude":51.4606658,"Longitude":-0.2950757}},"Address":{"Label":"76 Sheen Road, Richmond, TW9 1AX, United Kingdom","Country":"GBR","State":"England","County":"Surrey","City":"Richmond","District":"Richmond","Street":"Sheen Road","HouseNumber":"76","PostalCode":"TW9 1AX","AdditionalData":[{"value":"United Kingdom","key":"CountryName"},{"value":"England","key":"StateName"},{"value":"Surrey","key":"CountyName"}]},"MapReference":{"ReferenceId":"25409501","Spot":0.8,"SideOfStreet":"left","StateId":"20248595","CountyId":"20338357","CityId":"20338598","DistrictId":"20338599","AddressId":"749184141","RoadLinkId":"82975051"}}},{"Relevance":1.0,"Distance":31.1,"MatchLevel":"houseNumber","MatchQuality":{"Country":1.0,"State":1.0,"County":1.0,"City":1.0,"District":1.0,"Street":[1.0],"HouseNumber":1.0,"PostalCode":1.0},"MatchType":"interpolated","Location":{"LocationId":"NT_jL4cw2qczFlHLMDJuCMPFB_xA","LocationType":"point","DisplayPosition":{"Latitude":51.46229,"Longitude":-0.29628},"MapView":{"TopLeft":{"Latitude":51.4634142,"Longitude":-0.2980843},"BottomRight":{"Latitude":51.4611658,"Longitude":-0.2944757}},"Address":{"Label":"1 Alton Road, Richmond, TW9 1, United Kingdom","Country":"GBR","State":"England","County":"Surrey","City":"Richmond","District":"Richmond","Street":"Alton Road","HouseNumber":"1","PostalCode":"TW9 1","AdditionalData":[{"value":"United Kingdom","key":"CountryName"},{"value":"England","key":"StateName"},{"value":"Surrey","key":"CountyName"}]},"MapReference":{"ReferenceId":"25409439","Spot":0.2,"SideOfStreet":"left","StateId":"20248595","CountyId":"20338357","CityId":"20338598","DistrictId":"20338599","AddressId":"749265448","RoadLinkId":"82942475"}}},{"Relevance":1.0,"Distance":32.7,"MatchLevel":"houseNumber","MatchQuality":{"Country":1.0,"State":1.0,"County":1.0,"City":1.0,"District":1.0,"Street":[1.0],"HouseNumber":1.0,"PostalCode":1.0},"MatchType":"interpolated","Location":{"LocationId":"NT_hjhymEDqog3p7bnj7dNM7D_5A","LocationType":"point","DisplayPosition":{"Latitude":51.46161,"Longitude":-0.29671},"MapView":{"TopLeft":{"Latitude":51.4627342,"Longitude":-0.2985143},"BottomRight":{"Latitude":51.4604858,"Longitude":-0.2949057}},"Address":{"Label":"9 Worple Way, Richmond, TW9 1, United Kingdom","Country":"GBR","State":"England","County":"Surrey","City":"Richmond","District":"Richmond","Street":"Worple Way","HouseNumber":"9","PostalCode":"TW9 1","AdditionalData":[{"value":"United Kingdom","key":"CountryName"},{"value":"England","key":"StateName"},{"value":"Surrey","key":"CountyName"}]},"MapReference":{"ReferenceId":"25409518","Spot":0.21,"SideOfStreet":"left","StateId":"20248595","CountyId":"20338357","CityId":"20338598","DistrictId":"20338599","AddressId":"749166072","RoadLinkId":"82530483"}}},{"Relevance":1.0,"Distance":43.0,"MatchLevel":"street","MatchQuality":{"Country":1.0,"State":1.0,"County":1.0,"City":1.0,"District":1.0,"Street":[1.0],"PostalCode":1.0},"Location":{"LocationId":"NT_icyBWmDIFD8M7EGLQejItB_l_1090176984_R","LocationType":"point","DisplayPosition":{"Latitude":51.46161,"Longitude":-0.29656},"MapView":{"TopLeft":{"Latitude":51.46161,"Longitude":-0.29656},"BottomRight":{"Latitude":51.45991,"Longitude":-0.2956}},"Address":{"Label":"Albany Passage, Richmond, TW10 6, United Kingdom","Country":"GBR","State":"England","County":"Surrey","City":"Richmond","District":"Richmond","Street":"Albany Passage","PostalCode":"TW10 6","AdditionalData":[{"value":"United Kingdom","key":"CountryName"},{"value":"England","key":"StateName"},{"value":"Surrey","key":"CountyName"}]},"MapReference":{"ReferenceId":"1090176984","Spot":1.0,"SideOfStreet":"right","StateId":"20248595","CountyId":"20338357","CityId":"20338598","DistrictId":"20338599"}}},{"Relevance":1.0,"Distance":43.8,"MatchLevel":"houseNumber","MatchQuality":{"Country":1.0,"State":1.0,"County":1.0,"City":1.0,"District":1.0,"Street":[1.0],"HouseNumber":1.0,"PostalCode":1.0},"MatchType":"interpolated","Location":{"LocationId":"NT_F8fdRZtCq3MhgfO9uSpEuA_5YD","LocationType":"point","DisplayPosition":{"Latitude":51.46199,"Longitude":-0.29594},"MapView":{"TopLeft":{"Latitude":51.4631142,"Longitude":-0.2977443},"BottomRight":{"Latitude":51.4608658,"Longitude":-0.2941357}},"Address":{"Label":"96 Sheen Road, Richmond, TW9 1AX, United Kingdom","Country":"GBR","State":"England","County":"Surrey","City":"Richmond","District":"Richmond","Street":"Sheen Road","HouseNumber":"96","PostalCode":"TW9 1AX","AdditionalData":[{"value":"United Kingdom","key":"CountryName"},{"value":"England","key":"StateName"},{"value":"Surrey","key":"CountyName"}]},"MapReference":{"ReferenceId":"25409438","Spot":0.18,"SideOfStreet":"left","StateId":"20248595","CountyId":"20338357","CityId":"20338598","DistrictId":"20338599","AddressId":"749366445","RoadLinkId":"82415200"}}}]}]}}