{"Response":{"MetaInfo":{"Timestamp":"2020-03-28T11:57:00.443+0000","NextPageInformation":"2"},"View":[{"_type":"SearchResultsViewType","ViewId":0,"Result":[{"Relevance":1.0,"Distance":0.0,"Direction":0.0,"MatchLevel":"district","MatchQuality":{"Country":1.0,"State":1.0,"County":1.0,"City":1.0,"District":1.0,"PostalCode":1.0},"Location":{"LocationId":"NT_dfMggbE7foqrbgKhIr1Y9A","LocationType":"point","DisplayPosition":{"Latitude":51.4927681,"Longitude":-0.2564028},"MapView":{"TopLeft":{"Latitude":51.50487,"Longitude":-0.28764},"BottomRight":{"Latitude":51.47158,"Longitude":-0.24407}},"Address":{"Label":"W4, London, England, United Kingdom","Country":"GBR","State":"England","County":"London","City":"London","District":"W4","PostalCode":"W4 4","AdditionalData":[{"value":"United Kingdom","key":"CountryName"},{"value":"England","key":"StateName"},{"value":"London","key":"CountyName"}]},"MapReference":{"ReferenceId":"25316597","SideOfStreet":"neither","StateId":"20248595","CountyId":"20337453","CityId":"20337454","DistrictId":"20337573"}}},{"Relevance":1.0,"Distance":5.8,"MatchLevel":"houseNumber","MatchQuality":{"Country":1.0,"State":1.0,"County":1.0,"City":1.0,"District":1.0,"Street":[1.0],"HouseNumber":1.0,"PostalCode":1.0},"MatchType":"interpolated","Location":{"LocationId":"NT_SXSa.W-Ohb-PV-aVngXfnA_yADM","LocationType":"point","DisplayPosition":{"Latitude":51.49263,"Longitude":-0.25638},"MapView":{"TopLeft":{"Latitude":51.4937542,"Longitude":-0.2581855},"BottomRight":{"Latitude":51.4915058,"Longitude":-0.2545745}},"Address":{"Label":"200 Chiswick High Road, London, W4 1PD, United Kingdom","Country":"GBR","State":"England","County":"London","City":"London","District":"Chiswick","Street":"Chiswick High Road","HouseNumber":"200","PostalCode":"W4 1PD","AdditionalData":[{"value":"United Kingdom","key":"CountryName"},{"value":"England","key":"StateName"},{"value":"London","key":"CountyName"}]},"MapReference":{"ReferenceId":"1218722298","Spot":0.33,"SideOfStreet":"left","StateId":"20248595","CountyId":"20337453","CityId":"20337454","AddressId":"748282715","RoadLinkId":"535424228"}}},{"Relevance":1.0,"Distance":15.4,"MatchLevel":"houseNumber","MatchQuality":{"Country":1.0,"State":1.0,"County":1.0,"City":1.0,"District":1.0,"Street":[1.0],"HouseNumber":1.0,"PostalCode":1.0},"MatchType":"interpolated","Location":{"LocationId":"NT_SXSa.W-Ohb-PV-aVngXfnA_yAjN","LocationType":"point","DisplayPosition":{"Latitude":51.49262,"Longitude":-0.2566},"MapView":{"TopLeft":{"Latitude":51.4937442,"Longitude":-0.2584055},"BottomRight":{"Latitude":51.4914958,"Longitude":-0.2547945}},"Address":{"Label":"206 Chiswick High Road, London, W4 1PD, United Kingdom","Country":"GBR","State":"England","County":"London","City":"London","District":"Chiswick","Street":"Chiswick High Road","HouseNumber":"206","PostalCode":"W4 1PD","AdditionalData":[{"value":"United Kingdom","key":"CountryName"},{"value":"England","key":"StateName"},{"value":"London","key":"CountyName"}]},"MapReference":{"ReferenceId":"1218722297","Spot":0.92,"SideOfStreet":"left","StateId":"20248595","CountyId":"20337453","CityId":"20337454","AddressId":"747649365","RoadLinkId":"535424227"}}},{"Relevance":1.0,"Distance":28.8,"MatchLevel":"houseNumber","MatchQuality":{"Country":1.0,"State":1.0,"County":1.0,"City":1.0,"District":1.0,"Street":[1.0],"HouseNumber":1.0,"PostalCode":1.0},"MatchType":"interpolated","Location":{"LocationId":"NT_SJiJcaAOCLlsIVNdh60liB_l_566004751_R_xkD","LocationType":"point","DisplayPosition":{"Latitude":51.4928236,"Longitude":-0.2570271},"MapView":{"TopLeft":{"Latitude":51.4939478,"Longitude":-0.2588327},"BottomRight":{"Latitude":51.4916995,"Longitude":-0.2552216}},"Address":{"Label":"19 Windmill Road, London, W4 1, United Kingdom","Country":"GBR","State":"England","County":"London","City":"London","District":"Chiswick","Street":"Windmill Road","HouseNumber":"19","PostalCode":"W4 1","AdditionalData":[{"value":"United Kingdom","key":"CountryName"},{"value":"England","key":"StateName"},{"value":"London","key":"CountyName"}]},"MapReference":{"ReferenceId":"566004751","Spot":0.54,"SideOfStreet":"right","StateId":"20248595","CountyId":"20337453","CityId":"20337454"}}},{"Relevance":1.0,"Distance":29.1,"MatchLevel":"houseNumber","MatchQuality":{"Country":1.0,"State":1.0,"County":1.0,"City":1.0,"District":1.0,"Street":[1.0],"HouseNumber":1.0,"PostalCode":1.0},"MatchType":"interpolated","Location":{"LocationId":"NT_2nZ5HKVlvSmATVHNscIjFC_xYzN","LocationType":"point","DisplayPosition":{"Latitude":51.49251,"Longitude":-0.25633},"MapView":{"TopLeft":{"Latitude":51.4936342,"Longitude":-0.2581355},"BottomRight":{"Latitude":51.4913858,"Longitude":-0.2545245}},"Address":{"Label":"167 Chiswick High Road, London, W4 2DR, United Kingdom","Country":"GBR","State":"England","County":"London","City":"London","District":"Chiswick","Street":"Chiswick High Road","HouseNumber":"167","PostalCode":"W4 2DR","AdditionalData":[{"value":"United Kingdom","key":"CountryName"},{"value":"England","key":"StateName"},{"value":"London","key":"CountyName"}]},"MapReference":{"ReferenceId":"565983935","Spot":0.8,"SideOfStreet":"right","StateId":"20248595","CountyId":"20337453","CityId":"20337454","AddressId":"747623442","RoadLinkId":"82578052"}}},{"Relevance":1.0,"Distance":32.9,"MatchLevel":"street","MatchQuality":{"Country":1.0,"State":1.0,"County":1.0,"City":1.0,"District":1.0,"Street":[1.0],"PostalCode":1.0},"Location":{"LocationId":"NT_sjgHUIDo0rfn2XWTJDoP9C_l_25776533_L","LocationType":"point","DisplayPosition":{"Latitude":51.4925406,"Longitude":-0.2560995},"MapView":{"TopLeft":{"Latitude":51.49266,"Longitude":-0.2561},"BottomRight":{"Latitude":51.49254,"Longitude":-0.25601}},"Address":{"Label":"Devonshire Road, London, W4 1, United Kingdom","Country":"GBR","State":"England","County":"London","City":"London","District":"Chiswick","Street":"Devonshire Road","PostalCode":"W4 1","AdditionalData":[{"value":"United Kingdom","key":"CountryName"},{"value":"England","key":"StateName"},{"value":"London","key":"CountyName"}]},"MapReference":{"ReferenceId":"25776533","Spot":0.01,"SideOfStreet":"left","StateId":"20248595","CountyId":"20337453","CityId":"20337454"}}},{"Relevance":1.0,"Distance":33.6,"MatchLevel":"houseNumber","MatchQuality":{"Country":1.0,"State":1.0,"County":1.0,"City":1.0,"District":1.0,"Street":[1.0],"HouseNumber":1.0,"PostalCode":1.0},"MatchType":"interpolated","Location":{"LocationId":"NT_3qPo4BbL7vT7sJMD3aWRBA_xAD","LocationType":"point","DisplayPosition":{"Latitude":51.49304,"Longitude":-0.25597},"MapView":{"TopLeft":{"Latitude":51.4941642,"Longitude":-0.2577755},"BottomRight":{"Latitude":51.4919158,"Longitude":-0.2541645}},"Address":{"Label":"10 Elliott Road, London, W4 1PE, United Kingdom","Country":"GBR","State":"England","County":"London","City":"London","District":"Chiswick","Street":"Elliott Road","HouseNumber":"10","PostalCode":"W4 1PE","AdditionalData":[{"value":"United Kingdom","key":"CountryName"},{"value":"England","key":"StateName"},{"value":"London","key":"CountyName"}]},"MapReference":{"ReferenceId":"25315810","Spot":0.29,"SideOfStreet":"left","StateId":"20248595","CountyId":"20337453","CityId":"20337454","AddressId":"747583064","RoadLinkId":"82331316"}}},{"Relevance":1.0,"Distance":34.8,"MatchLevel":"postalCode","MatchQuality":{"PostalCode":1.0},"Location":{"LocationId":"NT_ryCBAOIuwG-7wT-4ZlQ4cC_l_566004752_L","LocationType":"point","DisplayPosition":{"Latitude":51.49302,"Longitude":-0.2567},"MapView":{"TopLeft":{"Latitude":51.5020132,"Longitude":-0.2711444},"BottomRight":{"Latitude":51.4840268,"Longitude":-0.2422556}},"Address":{"Label":"W4 1RW, London, England, United Kingdom","Country":"GBR","State":"England","County":"London","City":"London","PostalCode":"W4 1RW","AdditionalData":[{"value":"United Kingdom","key":"CountryName"},{"value":"England","key":"StateName"},{"value":"London","key":"CountyName"}]},"MapReference":{"ReferenceId":"566004752","Spot":0.0,"SideOfStreet":"neither","StateId":"20248595","CountyId":"20337453","CityId":"20337454"}}},{"Relevance":1.0,"Distance":35.3,"MatchLevel":"postalCode","MatchQuality":{"PostalCode":1.0},"MatchType":"interpolated","Location":{"LocationId":"NT_SXSa.W-Ohb-PV-aVngXfnA_xkjM","LocationType":"point","DisplayPosition":{"Latitude":51.49287,"Longitude":-0.25592},"MapView":{"TopLeft":{"Latitude":51.5018632,"Longitude":-0.2703643},"BottomRight":{"Latitude":51.4838768,"Longitude":-0.2414757}},"Address":{"Label":"W4 1PP, London, England, United Kingdom","Country":"GBR","State":"England","County":"London","City":"London","PostalCode":"W4 1PP","AdditionalData":[{"value":"United Kingdom","key":"CountryName"},{"value":"England","key":"StateName"},{"value":"London","key":"CountyName"}]},"MapReference":{"ReferenceId":"25315809","Spot":0.22,"SideOfStreet":"neither","StateId":"20248595","CountyId":"20337453","CityId":"20337454"}}},{"Relevance":1.0,"Distance":35.7,"MatchLevel":"houseNumber","MatchQuality":{"Country":1.0,"State":1.0,"County":1.0,"City":1.0,"District":1.0,"Street":[1.0],"HouseNumber":1.0,"PostalCode":1.0},"MatchType":"interpolated","Location":{"LocationId":"NT_2nZ5HKVlvSmATVHNscIjFC_xYTN","LocationType":"point","DisplayPosition":{"Latitude":51.49254,"Longitude":-0.25604},"MapView":{"TopLeft":{"Latitude":51.4936642,"Longitude":-0.2578455},"BottomRight":{"Latitude":51.4914158,"Longitude":-0.2542345}},"Address":{"Label":"165 Chiswick High Road, London, W4 2, United Kingdom","Country":"GBR","State":"England","County":"London","City":"London","District":"Chiswick","Street":"Chiswick High Road","HouseNumber":"165","PostalCode":"W4 2","AdditionalData":[{"value":"United Kingdom","key":"CountryName"},{"value":"England","key":"StateName"},{"value":"London","key":"CountyName"}]},"MapReference":{"ReferenceId":"565983944","Spot":0.1,"SideOfStreet":"right","StateId":"20248595","CountyId":"20337453","CityId":"20337454","AddressId":"748449891","RoadLinkId":"82952714"}}}]}]}}