{"Response":{"MetaInfo":{"Timestamp":"2020-03-28T09:53:12.576+0000","NextPageInformation":"2"},"View":[{"_type":"SearchResultsViewType","ViewId":0,"Result":[{"Relevance":1.0,"Distance":0.0,"Direction":0.0,"MatchLevel":"district","MatchQuality":{"Country":1.0,"State":1.0,"County":1.0,"City":1.0,"District":1.0,"PostalCode":1.0},"Location":{"LocationId":"NT_Fqj9xdmhonCuhft8BP88aC","LocationType":"point","DisplayPosition":{"Latitude":51.4596111,"Longitude":-2.6101199},"MapView":{"TopLeft":{"Latitude":51.47264,"Longitude":-2.63573},"BottomRight":{"Latitude":51.44402,"Longitude":-2.60865}},"Address":{"Label":"Clifton, Bristol, England, United Kingdom","Country":"GBR","State":"England","County":"Avon","City":"Bristol","District":"Clifton","PostalCode":"BS8 3","AdditionalData":[{"value":"United Kingdom","key":"CountryName"},{"value":"England","key":"StateName"},{"value":"Avon","key":"CountyName"}]},"MapReference":{"ReferenceId":"26725339","SideOfStreet":"neither","StateId":"20248595","CountyId":"20352323","CityId":"20352420","DistrictId":"20352461"}}},{"Relevance":1.0,"Distance":5.6,"MatchLevel":"houseNumber","MatchQuality":{"Country":1.0,"State":1.0,"County":1.0,"City":1.0,"District":1.0,"Street":[1.0],"HouseNumber":1.0,"PostalCode":1.0},"MatchType":"interpolated","Location":{"LocationId":"NT_WaRaI4PE.vb8bxiFuHhRnB_l_26725559_L_zA","LocationType":"point","DisplayPosition":{"Latitude":51.4596916,"Longitude":-2.6100677},"MapView":{"TopLeft":{"Latitude":51.4608157,"Longitude":-2.611872},"BottomRight":{"Latitude":51.4585674,"Longitude":-2.6082635}},"Address":{"Label":"3 Oakfield Place, Bristol, BS8 2BJ, United Kingdom","Country":"GBR","State":"England","County":"Avon","City":"Bristol","District":"Clifton","Street":"Oakfield Place","HouseNumber":"3","PostalCode":"BS8 2BJ","AdditionalData":[{"value":"United Kingdom","key":"CountryName"},{"value":"England","key":"StateName"},{"value":"Avon","key":"CountyName"}]},"MapReference":{"ReferenceId":"26725559","Spot":0.27,"SideOfStreet":"left","StateId":"20248595","CountyId":"20352323","CityId":"20352420","DistrictId":"20352461"}}},{"Relevance":1.0,"Distance":16.1,"MatchLevel":"houseNumber","MatchQuality":{"Country":1.0,"State":1.0,"County":1.0,"City":1.0,"District":1.0,"Street":[1.0],"HouseNumber":1.0,"PostalCode":1.0},"MatchType":"interpolated","Location":{"LocationId":"NT_cBuBFxNfzOhrzo9n24A9qD_l_26725689_L_xID","LocationType":"point","DisplayPosition":{"Latitude":51.45934,"Longitude":-2.6100076},"MapView":{"TopLeft":{"Latitude":51.4604642,"Longitude":-2.6118119},"BottomRight":{"Latitude":51.4582159,"Longitude":-2.6082034}},"Address":{"Label":"12 St Paul's Road, Bristol, BS8 1LR, United Kingdom","Country":"GBR","State":"England","County":"Avon","City":"Bristol","District":"Bristol","Street":"St Paul's Road","HouseNumber":"12","PostalCode":"BS8 1LR","AdditionalData":[{"value":"United Kingdom","key":"CountryName"},{"value":"England","key":"StateName"},{"value":"Avon","key":"CountyName"}]},"MapReference":{"ReferenceId":"26725689","Spot":0.81,"SideOfStreet":"left","StateId":"20248595","CountyId":"20352323","CityId":"20352420","DistrictId":"20352421"}}},{"Relevance":1.0,"Distance":29.7,"MatchLevel":"street","MatchQuality":{"Country":1.0,"State":1.0,"County":1.0,"City":1.0,"District":1.0,"Street":[1.0],"PostalCode":1.0},"Location":{"LocationId":"NT_cBuBFxNfzOhrzo9n24A9qD_l_26725558_L","LocationType":"point","DisplayPosition":{"Latitude":51.45944,"Longitude":-2.60979},"MapView":{"TopLeft":{"Latitude":51.45945,"Longitude":-2.60979},"BottomRight":{"Latitude":51.45944,"Longitude":-2.60976}},"Address":{"Label":"St Paul's Road, Bristol, BS8 1, United Kingdom","Country":"GBR","State":"England","County":"Avon","City":"Bristol","District":"Bristol","Street":"St Paul's Road","PostalCode":"BS8 1","AdditionalData":[{"value":"United Kingdom","key":"CountryName"},{"value":"England","key":"StateName"},{"value":"Avon","key":"CountyName"}]},"MapReference":{"ReferenceId":"26725558","Spot":0.0,"SideOfStreet":"left","StateId":"20248595","CountyId":"20352323","CityId":"20352420","DistrictId":"20352421"}}},{"Relevance":1.0,"Distance":36.0,"MatchLevel":"houseNumber","MatchQuality":{"Country":1.0,"State":1.0,"County":1.0,"City":1.0,"District":1.0,"Street":[1.0],"HouseNumber":1.0,"PostalCode":1.0},"MatchType":"interpolated","Location":{"LocationId":"NT_cBuBFxNfzOhrzo9n24A9qD_l_26725549_L_xAD","LocationType":"point","DisplayPosition":{"Latitude":51.45951,"Longitude":-2.6095599},"MapView":{"TopLeft":{"Latitude":51.4606342,"Longitude":-2.6113642},"BottomRight":{"Latitude":51.4583859,"Longitude":-2.6077557}},"Address":{"Label":"10 St Paul's Road, Bristol, BS8 1LT, United Kingdom","Country":"GBR","State":"England","County":"Avon","City":"Bristol","District":"Bristol","Street":"St Paul's Road","HouseNumber":"10","PostalCode":"BS8 1LT","AdditionalData":[{"value":"United Kingdom","key":"CountryName"},{"value":"England","key":"StateName"},{"value":"Avon","key":"CountyName"}]},"MapReference":{"ReferenceId":"26725549","Spot":0.19,"SideOfStreet":"left","StateId":"20248595","CountyId":"20352323","CityId":"20352420","DistrictId":"20352421"}}},{"Relevance":1.0,"Distance":38.9,"MatchLevel":"postalCode","MatchQuality":{"PostalCode":1.0},"MatchType":"interpolated","Location":{"LocationId":"NT_cBuBFxNfzOhrzo9n24A9qD_l_26725689_L_xID","LocationType":"point","DisplayPosition":{"Latitude":51.45928,"Longitude":-2.6103},"MapView":{"TopLeft":{"Latitude":51.4682732,"Longitude":-2.6247337},"BottomRight":{"Latitude":51.4502868,"Longitude":-2.5958663}},"Address":{"Label":"BS8 1LR, Bristol, England, United Kingdom","Country":"GBR","State":"England","County":"Avon","City":"Bristol","PostalCode":"BS8 1LR","AdditionalData":[{"value":"United Kingdom","key":"CountryName"},{"value":"England","key":"StateName"},{"value":"Avon","key":"CountyName"}]},"MapReference":{"ReferenceId":"26725689","Spot":0.81,"SideOfStreet":"neither","StateId":"20248595","CountyId":"20352323","CityId":"20352420"}}},{"Relevance":1.0,"Distance":54.1,"MatchLevel":"postalCode","MatchQuality":{"PostalCode":1.0},"MatchType":"interpolated","Location":{"LocationId":"NT_WaRaI4PE.vb8bxiFuHhRnB_l_26725559_L_zA","LocationType":"point","DisplayPosition":{"Latitude":51.4596,"Longitude":-2.6109},"MapView":{"TopLeft":{"Latitude":51.4685932,"Longitude":-2.6253338},"BottomRight":{"Latitude":51.4506068,"Longitude":-2.5964662}},"Address":{"Label":"BS8 2BJ, Bristol, England, United Kingdom","Country":"GBR","State":"England","County":"Avon","City":"Bristol","PostalCode":"BS8 2BJ","AdditionalData":[{"value":"United Kingdom","key":"CountryName"},{"value":"England","key":"StateName"},{"value":"Avon","key":"CountyName"}]},"MapReference":{"ReferenceId":"26725559","Spot":0.27,"SideOfStreet":"neither","StateId":"20248595","CountyId":"20352323","CityId":"20352420"}}},{"Relevance":1.0,"Distance":54.1,"MatchLevel":"postalCode","MatchQuality":{"PostalCode":1.0},"MatchType":"interpolated","Location":{"LocationId":"NT_cBuBFxNfzOhrzo9n24A9qD_l_26725549_L_xAD","LocationType":"point","DisplayPosition":{"Latitude":51.45964,"Longitude":-2.60934},"MapView":{"TopLeft":{"Latitude":51.4686332,"Longitude":-2.6237738},"BottomRight":{"Latitude":51.4506468,"Longitude":-2.5949062}},"Address":{"Label":"BS8 1LT, Bristol, England, United Kingdom","Country":"GBR","State":"England","County":"Avon","City":"Bristol","PostalCode":"BS8 1LT","AdditionalData":[{"value":"United Kingdom","key":"CountryName"},{"value":"England","key":"StateName"},{"value":"Avon","key":"CountyName"}]},"MapReference":{"ReferenceId":"26725549","Spot":0.19,"SideOfStreet":"neither","StateId":"20248595","CountyId":"20352323","CityId":"20352420"}}},{"Relevance":1.0,"Distance":57.4,"MatchLevel":"houseNumber","MatchQuality":{"Country":1.0,"State":1.0,"County":1.0,"City":1.0,"District":1.0,"Street":[1.0],"HouseNumber":1.0,"PostalCode":1.0},"MatchType":"interpolated","Location":{"LocationId":"NT_om4J4iCVh4W9zuB0t2rimB_l_26725800_L_5A","LocationType":"point","DisplayPosition":{"Latitude":51.459238,"Longitude":-2.609548},"MapView":{"TopLeft":{"Latitude":51.4603622,"Longitude":-2.6113522},"BottomRight":{"Latitude":51.4581139,"Longitude":-2.6077438}},"Address":{"Label":"9 Sunderland Place, Bristol, BS8 1NA, United Kingdom","Country":"GBR","State":"England","County":"Avon","City":"Bristol","District":"Bristol","Street":"Sunderland Place","HouseNumber":"9","PostalCode":"BS8 1NA","AdditionalData":[{"value":"United Kingdom","key":"CountryName"},{"value":"England","key":"StateName"},{"value":"Avon","key":"CountyName"}]},"MapReference":{"ReferenceId":"26725800","Spot":0.88,"SideOfStreet":"left","StateId":"20248595","CountyId":"20352323","CityId":"20352420","DistrictId":"20352421"}}},{"Relevance":1.0,"Distance":64.6,"MatchLevel":"houseNumber","MatchQuality":{"Country":1.0,"State":1.0,"County":1.0,"City":1.0,"District":1.0,"Street":[1.0],"HouseNumber":1.0,"PostalCode":1.0},"MatchType":"interpolated","Location":{"LocationId":"NT_F3K3RDT.lq1nrNJm17aP2B_l_26725485_R_xA","LocationType":"point","DisplayPosition":{"Latitude":51.4597502,"Longitude":-2.6110702},"MapView":{"TopLeft":{"Latitude":51.4608743,"Longitude":-2.6128744},"BottomRight":{"Latitude":51.458626,"Longitude":-2.6092659}},"Address":{"Label":"1 Southleigh Road, Bristol, BS8 2BQ, United Kingdom","Country":"GBR","State":"England","County":"Avon","City":"Bristol","District":"Clifton","Street":"Southleigh Road","HouseNumber":"1","PostalCode":"BS8 2BQ","AdditionalData":[{"value":"United Kingdom","key":"CountryName"},{"value":"England","key":"StateName"},{"value":"Avon","key":"CountyName"}]},"MapReference":{"ReferenceId":"26725485","Spot":0.1,"SideOfStreet":"right","StateId":"20248595","CountyId":"20352323","CityId":"20352420","DistrictId":"20352461"}}}]}]}}