{"Response":{"MetaInfo":{"Timestamp":"2020-03-28T11:43:49.526+0000","NextPageInformation":"2"},"View":[{"_type":"SearchResultsViewType","ViewId":0,"Result":[{"Relevance":1.0,"Distance":0.0,"Direction":0.0,"MatchLevel":"district","MatchQuality":{"Country":1.0,"State":1.0,"County":1.0,"City":1.0,"District":1.0,"PostalCode":1.0},"Location":{"LocationId":"NT_3mHiR7qlu.ekVCr8umny8D","LocationType":"point","DisplayPosition":{"Latitude":51.4665144,"Longitude":6.47058},"MapView":{"TopLeft":{"Latitude":51.48232,"Longitude":6.46259},"BottomRight":{"Latitude":51.45398,"Longitude":6.4823}},"Address":{"Label":"Rheurdt, Nordrhein-Westfalen, Deutschland","Country":"DEU","State":"Nordrhein-Westfalen","County":"Kleve","City":"Rheurdt","District":"Rheurdt","PostalCode":"47509","AdditionalData":[{"value":"Deutschland","key":"CountryName"},{"value":"Nordrhein-Westfalen","key":"StateName"},{"value":"Kleve","key":"CountyName"}]},"MapReference":{"ReferenceId":"841851226","SideOfStreet":"neither","CountryId":"20147700","StateId":"20157369","CountyId":"20157516","CityId":"20157602","DistrictId":"20157605"}}},{"Relevance":1.0,"Distance":7.3,"MatchLevel":"houseNumber","MatchQuality":{"Country":1.0,"State":1.0,"County":1.0,"City":1.0,"District":1.0,"Street":[1.0],"HouseNumber":1.0,"PostalCode":1.0},"MatchType":"interpolated","Location":{"LocationId":"NT_hIaPmVhltqGi0qVJbgACHC_xkD","LocationType":"point","DisplayPosition":{"Latitude":51.46651,"Longitude":6.47071},"MapView":{"TopLeft":{"Latitude":51.4676342,"Longitude":6.4689055},"BottomRight":{"Latitude":51.4653858,"Longitude":6.4725145}},"Address":{"Label":"Rathausstraße 19, 47509 Rheurdt, Deutschland","Country":"DEU","State":"Nordrhein-Westfalen","County":"Kleve","City":"Rheurdt","District":"Rheurdt","Street":"Rathausstraße","HouseNumber":"19","PostalCode":"47509","AdditionalData":[{"value":"Deutschland","key":"CountryName"},{"value":"Nordrhein-Westfalen","key":"StateName"},{"value":"Kleve","key":"CountyName"}]},"MapReference":{"ReferenceId":"74587008","Spot":0.92,"SideOfStreet":"left","CountryId":"20147700","StateId":"20157369","CountyId":"20157516","CityId":"20157602","DistrictId":"20157605","AddressId":"195365548","RoadLinkId":"35506836"}}},{"Relevance":1.0,"Distance":28.3,"MatchLevel":"houseNumber","MatchQuality":{"Country":1.0,"State":1.0,"County":1.0,"City":1.0,"District":1.0,"Street":[1.0],"HouseNumber":1.0,"PostalCode":1.0},"MatchType":"interpolated","Location":{"LocationId":"NT_hIaPmVhltqGi0qVJbgACHC_yED","LocationType":"point","DisplayPosition":{"Latitude":51.46672,"Longitude":6.47034},"MapView":{"TopLeft":{"Latitude":51.4678442,"Longitude":6.4685355},"BottomRight":{"Latitude":51.4655958,"Longitude":6.4721445}},"Address":{"Label":"Rathausstraße 21, 47509 Rheurdt, Deutschland","Country":"DEU","State":"Nordrhein-Westfalen","County":"Kleve","City":"Rheurdt","District":"Rheurdt","Street":"Rathausstraße","HouseNumber":"21","PostalCode":"47509","AdditionalData":[{"value":"Deutschland","key":"CountryName"},{"value":"Nordrhein-Westfalen","key":"StateName"},{"value":"Kleve","key":"CountyName"}]},"MapReference":{"ReferenceId":"51203979","Spot":0.23,"SideOfStreet":"left","CountryId":"20147700","StateId":"20157369","CountyId":"20157516","CityId":"20157602","DistrictId":"20157605","AddressId":"194879689","RoadLinkId":"35347644"}}},{"Relevance":1.0,"Distance":31.6,"MatchLevel":"houseNumber","MatchQuality":{"Country":1.0,"State":1.0,"County":1.0,"City":1.0,"District":1.0,"Street":[1.0],"HouseNumber":1.0,"PostalCode":1.0},"MatchType":"interpolated","Location":{"LocationId":"NT_-w2YtqEXiVG0dHR7eBBp-A_yA","LocationType":"point","DisplayPosition":{"Latitude":51.46649,"Longitude":6.47012},"MapView":{"TopLeft":{"Latitude":51.4676142,"Longitude":6.4683155},"BottomRight":{"Latitude":51.4653658,"Longitude":6.4719245}},"Address":{"Label":"Wallstraße 2, 47509 Rheurdt, Deutschland","Country":"DEU","State":"Nordrhein-Westfalen","County":"Kleve","City":"Rheurdt","District":"Rheurdt","Street":"Wallstraße","HouseNumber":"2","PostalCode":"47509","AdditionalData":[{"value":"Deutschland","key":"CountryName"},{"value":"Nordrhein-Westfalen","key":"StateName"},{"value":"Kleve","key":"CountyName"}]},"MapReference":{"ReferenceId":"75374579","Spot":0.42,"SideOfStreet":"right","CountryId":"20147700","StateId":"20157369","CountyId":"20157516","CityId":"20157602","DistrictId":"20157605","AddressId":"193422030","RoadLinkId":"35388620"}}},{"Relevance":1.0,"Distance":56.7,"MatchLevel":"street","MatchQuality":{"Country":1.0,"State":1.0,"County":1.0,"City":1.0,"District":1.0,"Street":[1.0],"PostalCode":1.0},"Location":{"LocationId":"NT_-w2YtqEXiVG0dHR7eBBp-A_l_75374582_R","LocationType":"point","DisplayPosition":{"Latitude":51.46644,"Longitude":6.46977},"MapView":{"TopLeft":{"Latitude":51.46644,"Longitude":6.46968},"BottomRight":{"Latitude":51.46634,"Longitude":6.46977}},"Address":{"Label":"Wallstraße, 47509 Rheurdt, Deutschland","Country":"DEU","State":"Nordrhein-Westfalen","County":"Kleve","City":"Rheurdt","District":"Rheurdt","Street":"Wallstraße","PostalCode":"47509","AdditionalData":[{"value":"Deutschland","key":"CountryName"},{"value":"Nordrhein-Westfalen","key":"StateName"},{"value":"Kleve","key":"CountyName"}]},"MapReference":{"ReferenceId":"75374582","Spot":1.0,"SideOfStreet":"right","CountryId":"20147700","StateId":"20157369","CountyId":"20157516","CityId":"20157602","DistrictId":"20157605"}}},{"Relevance":1.0,"Distance":56.7,"MatchLevel":"street","MatchQuality":{"Country":1.0,"State":1.0,"County":1.0,"City":1.0,"District":1.0,"Street":[1.0],"PostalCode":1.0},"Location":{"LocationId":"NT_-w2YtqEXiVG0dHR7eBBp-A_l_75374578_R","LocationType":"point","DisplayPosition":{"Latitude":51.46644,"Longitude":6.46977},"MapView":{"TopLeft":{"Latitude":51.46644,"Longitude":6.46962},"BottomRight":{"Latitude":51.46642,"Longitude":6.46977}},"Address":{"Label":"Wallstraße, 47509 Rheurdt, Deutschland","Country":"DEU","State":"Nordrhein-Westfalen","County":"Kleve","City":"Rheurdt","District":"Rheurdt","Street":"Wallstraße","PostalCode":"47509","AdditionalData":[{"value":"Deutschland","key":"CountryName"},{"value":"Nordrhein-Westfalen","key":"StateName"},{"value":"Kleve","key":"CountyName"}]},"MapReference":{"ReferenceId":"75374578","Spot":1.0,"SideOfStreet":"right","CountryId":"20147700","StateId":"20157369","CountyId":"20157516","CityId":"20157602","DistrictId":"20157605"}}},{"Relevance":1.0,"Distance":65.0,"MatchLevel":"houseNumber","MatchQuality":{"Country":1.0,"State":1.0,"County":1.0,"City":1.0,"District":1.0,"Street":[1.0],"HouseNumber":1.0,"PostalCode":1.0},"MatchType":"interpolated","Location":{"LocationId":"NT_KsboeQWgzao.8In5LG-ulC_zA","LocationType":"point","DisplayPosition":{"Latitude":51.46623,"Longitude":6.46976},"MapView":{"TopLeft":{"Latitude":51.4673542,"Longitude":6.4679555},"BottomRight":{"Latitude":51.4651058,"Longitude":6.4715645}},"Address":{"Label":"Oberweg 3, 47509 Rheurdt, Deutschland","Country":"DEU","State":"Nordrhein-Westfalen","County":"Kleve","City":"Rheurdt","District":"Rheurdt","Street":"Oberweg","HouseNumber":"3","PostalCode":"47509","AdditionalData":[{"value":"Deutschland","key":"CountryName"},{"value":"Nordrhein-Westfalen","key":"StateName"},{"value":"Kleve","key":"CountyName"}]},"MapReference":{"ReferenceId":"75374580","Spot":0.5,"SideOfStreet":"left","CountryId":"20147700","StateId":"20157369","CountyId":"20157516","CityId":"20157602","DistrictId":"20157605","AddressId":"194622445","RoadLinkId":"34963971"}}},{"Relevance":1.0,"Distance":65.7,"MatchLevel":"houseNumber","MatchQuality":{"Country":1.0,"State":1.0,"County":1.0,"City":1.0,"District":1.0,"Street":[1.0],"HouseNumber":1.0,"PostalCode":1.0},"MatchType":"interpolated","Location":{"LocationId":"NT_KsboeQWgzao.8In5LG-ulC_xA","LocationType":"point","DisplayPosition":{"Latitude":51.46637,"Longitude":6.46966},"MapView":{"TopLeft":{"Latitude":51.4674942,"Longitude":6.4678555},"BottomRight":{"Latitude":51.4652458,"Longitude":6.4714645}},"Address":{"Label":"Oberweg 1, 47509 Rheurdt, Deutschland","Country":"DEU","State":"Nordrhein-Westfalen","County":"Kleve","City":"Rheurdt","District":"Rheurdt","Street":"Oberweg","HouseNumber":"1","PostalCode":"47509","AdditionalData":[{"value":"Deutschland","key":"CountryName"},{"value":"Nordrhein-Westfalen","key":"StateName"},{"value":"Kleve","key":"CountyName"}]},"MapReference":{"ReferenceId":"75374581","Spot":0.36,"SideOfStreet":"left","CountryId":"20147700","StateId":"20157369","CountyId":"20157516","CityId":"20157602","DistrictId":"20157605","AddressId":"196180702","RoadLinkId":"35138741"}}},{"Relevance":1.0,"Distance":69.9,"MatchLevel":"houseNumber","MatchQuality":{"Country":1.0,"State":1.0,"County":1.0,"City":1.0,"District":1.0,"Street":[1.0],"HouseNumber":1.0,"PostalCode":1.0},"MatchType":"interpolated","Location":{"LocationId":"NT_KsboeQWgzao.8In5LG-ulC_0A","LocationType":"point","DisplayPosition":{"Latitude":51.46587,"Longitude":6.4701},"MapView":{"TopLeft":{"Latitude":51.4669942,"Longitude":6.4682955},"BottomRight":{"Latitude":51.4647458,"Longitude":6.4719045}},"Address":{"Label":"Oberweg 4, 47509 Rheurdt, Deutschland","Country":"DEU","State":"Nordrhein-Westfalen","County":"Kleve","City":"Rheurdt","District":"Rheurdt","Street":"Oberweg","HouseNumber":"4","PostalCode":"47509","AdditionalData":[{"value":"Deutschland","key":"CountryName"},{"value":"Nordrhein-Westfalen","key":"StateName"},{"value":"Kleve","key":"CountyName"}]},"MapReference":{"ReferenceId":"74587041","Spot":0.8,"SideOfStreet":"right","CountryId":"20147700","StateId":"20157369","CountyId":"20157516","CityId":"20157602","DistrictId":"20157605","AddressId":"195113310","RoadLinkId":"35276521"}}},{"Relevance":1.0,"Distance":70.3,"MatchLevel":"street","MatchQuality":{"Country":1.0,"State":1.0,"County":1.0,"City":1.0,"District":1.0,"Street":[1.0],"PostalCode":1.0},"Location":{"LocationId":"NT_KsboeQWgzao.8In5LG-ulC_l_74587038_R","LocationType":"point","DisplayPosition":{"Latitude":51.46604,"Longitude":6.46991},"MapView":{"TopLeft":{"Latitude":51.46612,"Longitude":6.46984},"BottomRight":{"Latitude":51.46604,"Longitude":6.46991}},"Address":{"Label":"Oberweg, 47509 Rheurdt, Deutschland","Country":"DEU","State":"Nordrhein-Westfalen","County":"Kleve","City":"Rheurdt","District":"Rheurdt","Street":"Oberweg","PostalCode":"47509","AdditionalData":[{"value":"Deutschland","key":"CountryName"},{"value":"Nordrhein-Westfalen","key":"StateName"},{"value":"Kleve","key":"CountyName"}]},"MapReference":{"ReferenceId":"74587038","Spot":0.0,"SideOfStreet":"right","CountryId":"20147700","StateId":"20157369","CountyId":"20157516","CityId":"20157602","DistrictId":"20157605"}}}]}]}}