{"Response":{"MetaInfo":{"Timestamp":"2020-03-28T12:00:37.686+0000","NextPageInformation":"2"},"View":[{"_type":"SearchResultsViewType","ViewId":0,"Result":[{"Relevance":1.0,"Distance":0.0,"Direction":0.0,"MatchLevel":"district","MatchQuality":{"Country":1.0,"State":1.0,"County":1.0,"City":1.0,"District":1.0,"PostalCode":1.0},"Location":{"LocationId":"NT_cPyW8rU9U2hj-dU7rqyu1C","LocationType":"point","DisplayPosition":{"Latitude":51.4893907,"Longitude":-2.5401704},"MapView":{"TopLeft":{"Latitude":51.51753,"Longitude":-2.65532},"BottomRight":{"Latitude":51.39937,"Longitude":-2.51087}},"Address":{"Label":"Bristol, England, United Kingdom","Country":"GBR","State":"England","County":"Avon","City":"Bristol","District":"Bristol","PostalCode":"BS1 6","AdditionalData":[{"value":"United Kingdom","key":"CountryName"},{"value":"England","key":"StateName"},{"value":"Avon","key":"CountyName"}]},"MapReference":{"ReferenceId":"786168041","SideOfStreet":"neither","StateId":"20248595","CountyId":"20352323","CityId":"20352420","DistrictId":"20352421"}}},{"Relevance":1.0,"Distance":2.4,"MatchLevel":"houseNumber","MatchQuality":{"Country":1.0,"State":1.0,"County":1.0,"City":1.0,"District":1.0,"Street":[1.0],"HouseNumber":1.0,"PostalCode":1.0},"MatchType":"interpolated","Location":{"LocationId":"NT_51L0Z9TQYIOJiEgc2wm79C_l_26753522_R_5A","LocationType":"point","DisplayPosition":{"Latitude":51.48926,"Longitude":-2.54024},"MapView":{"TopLeft":{"Latitude":51.4903842,"Longitude":-2.5420454},"BottomRight":{"Latitude":51.4881359,"Longitude":-2.5384346}},"Address":{"Label":"9 Frome Valley Road, Bristol, BS16 1HD, United Kingdom","Country":"GBR","State":"England","County":"Avon","City":"Bristol","District":"Bristol","Street":"Frome Valley Road","HouseNumber":"9","PostalCode":"BS16 1HD","AdditionalData":[{"value":"United Kingdom","key":"CountryName"},{"value":"England","key":"StateName"},{"value":"Avon","key":"CountyName"}]},"MapReference":{"ReferenceId":"26753522","Spot":0.15,"SideOfStreet":"right","StateId":"20248595","CountyId":"20352323","CityId":"20352420","DistrictId":"20352421"}}},{"Relevance":1.0,"Distance":21.1,"MatchLevel":"postalCode","MatchQuality":{"PostalCode":1.0},"MatchType":"interpolated","Location":{"LocationId":"NT_51L0Z9TQYIOJiEgc2wm79C_l_26753522_R_5A","LocationType":"point","DisplayPosition":{"Latitude":51.48949,"Longitude":-2.54043},"MapView":{"TopLeft":{"Latitude":51.4984832,"Longitude":-2.5548733},"BottomRight":{"Latitude":51.4804968,"Longitude":-2.5259867}},"Address":{"Label":"BS16 1HD, Bristol, England, United Kingdom","Country":"GBR","State":"England","County":"Avon","City":"Bristol","PostalCode":"BS16 1HD","AdditionalData":[{"value":"United Kingdom","key":"CountryName"},{"value":"England","key":"StateName"},{"value":"Avon","key":"CountyName"}]},"MapReference":{"ReferenceId":"26753522","Spot":0.15,"SideOfStreet":"neither","StateId":"20248595","CountyId":"20352323","CityId":"20352420"}}},{"Relevance":1.0,"Distance":27.4,"MatchLevel":"houseNumber","MatchQuality":{"Country":1.0,"State":1.0,"County":1.0,"City":1.0,"District":1.0,"Street":[1.0],"HouseNumber":1.0,"PostalCode":1.0},"MatchType":"interpolated","Location":{"LocationId":"NT_lC3eURHxLlB307oAI8iXrB_l_26753521_L_xA","LocationType":"point","DisplayPosition":{"Latitude":51.4893219,"Longitude":-2.5397307},"MapView":{"TopLeft":{"Latitude":51.4904461,"Longitude":-2.5415361},"BottomRight":{"Latitude":51.4881977,"Longitude":-2.5379253}},"Address":{"Label":"1 Alberton Road, Bristol, BS16 1HH, United Kingdom","Country":"GBR","State":"England","County":"Avon","City":"Bristol","District":"Bristol","Street":"Alberton Road","HouseNumber":"1","PostalCode":"BS16 1HH","AdditionalData":[{"value":"United Kingdom","key":"CountryName"},{"value":"England","key":"StateName"},{"value":"Avon","key":"CountyName"}]},"MapReference":{"ReferenceId":"26753521","Spot":0.51,"SideOfStreet":"left","StateId":"20248595","CountyId":"20352323","CityId":"20352420","DistrictId":"20352421"}}},{"Relevance":1.0,"Distance":41.8,"MatchLevel":"houseNumber","MatchQuality":{"Country":1.0,"State":1.0,"County":1.0,"City":1.0,"District":1.0,"Street":[1.0],"HouseNumber":1.0,"PostalCode":1.0},"MatchType":"interpolated","Location":{"LocationId":"NT_51L0Z9TQYIOJiEgc2wm79C_l_26753734_R_xED","LocationType":"point","DisplayPosition":{"Latitude":51.4889743,"Longitude":-2.5399007},"MapView":{"TopLeft":{"Latitude":51.4900984,"Longitude":-2.5417061},"BottomRight":{"Latitude":51.4878501,"Longitude":-2.5380953}},"Address":{"Label":"11 Frome Valley Road, Bristol, BS16 1HF, United Kingdom","Country":"GBR","State":"England","County":"Avon","City":"Bristol","District":"Bristol","Street":"Frome Valley Road","HouseNumber":"11","PostalCode":"BS16 1HF","AdditionalData":[{"value":"United Kingdom","key":"CountryName"},{"value":"England","key":"StateName"},{"value":"Avon","key":"CountyName"}]},"MapReference":{"ReferenceId":"26753734","Spot":0.86,"SideOfStreet":"right","StateId":"20248595","CountyId":"20352323","CityId":"20352420","DistrictId":"20352421"}}},{"Relevance":1.0,"Distance":42.1,"MatchLevel":"postalCode","MatchQuality":{"PostalCode":1.0},"MatchType":"interpolated","Location":{"LocationId":"NT_lC3eURHxLlB307oAI8iXrB_l_26753521_L_xA","LocationType":"point","DisplayPosition":{"Latitude":51.48945,"Longitude":-2.53957},"MapView":{"TopLeft":{"Latitude":51.4984432,"Longitude":-2.5540133},"BottomRight":{"Latitude":51.4804568,"Longitude":-2.5251267}},"Address":{"Label":"BS16 1HH, Bristol, England, United Kingdom","Country":"GBR","State":"England","County":"Avon","City":"Bristol","PostalCode":"BS16 1HH","AdditionalData":[{"value":"United Kingdom","key":"CountryName"},{"value":"England","key":"StateName"},{"value":"Avon","key":"CountyName"}]},"MapReference":{"ReferenceId":"26753521","Spot":0.51,"SideOfStreet":"neither","StateId":"20248595","CountyId":"20352323","CityId":"20352420"}}},{"Relevance":1.0,"Distance":49.9,"MatchLevel":"houseNumber","MatchQuality":{"Country":1.0,"State":1.0,"County":1.0,"City":1.0,"District":1.0,"Street":[1.0],"HouseNumber":1.0,"PostalCode":1.0},"MatchType":"interpolated","Location":{"LocationId":"NT_lC3eURHxLlB307oAI8iXrB_l_26753563_R_yA","LocationType":"point","DisplayPosition":{"Latitude":51.4890109,"Longitude":-2.5405533},"MapView":{"TopLeft":{"Latitude":51.4901351,"Longitude":-2.5423587},"BottomRight":{"Latitude":51.4878868,"Longitude":-2.5387479}},"Address":{"Label":"2 Alberton Road, Bristol, BS16 1HH, United Kingdom","Country":"GBR","State":"England","County":"Avon","City":"Bristol","District":"Bristol","Street":"Alberton Road","HouseNumber":"2","PostalCode":"BS16 1HH","AdditionalData":[{"value":"United Kingdom","key":"CountryName"},{"value":"England","key":"StateName"},{"value":"Avon","key":"CountyName"}]},"MapReference":{"ReferenceId":"26753563","Spot":0.51,"SideOfStreet":"right","StateId":"20248595","CountyId":"20352323","CityId":"20352420","DistrictId":"20352421"}}},{"Relevance":1.0,"Distance":53.1,"MatchLevel":"houseNumber","MatchQuality":{"Country":1.0,"State":1.0,"County":1.0,"City":1.0,"District":1.0,"Street":[1.0],"HouseNumber":1.0,"PostalCode":1.0},"MatchType":"interpolated","Location":{"LocationId":"NT_tKQKYX0FwPjyzTAwHfTyZC_l_942956664_R_xMjN","LocationType":"point","DisplayPosition":{"Latitude":51.48991,"Longitude":-2.5406667},"MapView":{"TopLeft":{"Latitude":51.4910342,"Longitude":-2.5424721},"BottomRight":{"Latitude":51.4887859,"Longitude":-2.5388612}},"Address":{"Label":"136 Frenchay Park Road, Bristol, BS16 1HB, United Kingdom","Country":"GBR","State":"England","County":"Avon","City":"Bristol","District":"Bristol","Street":"Frenchay Park Road","HouseNumber":"136","PostalCode":"BS16 1HB","AdditionalData":[{"value":"United Kingdom","key":"CountryName"},{"value":"England","key":"StateName"},{"value":"Avon","key":"CountyName"}]},"MapReference":{"ReferenceId":"942956664","Spot":0.54,"SideOfStreet":"right","StateId":"20248595","CountyId":"20352323","CityId":"20352420","DistrictId":"20352421"}}},{"Relevance":1.0,"Distance":59.9,"MatchLevel":"houseNumber","MatchQuality":{"Country":1.0,"State":1.0,"County":1.0,"City":1.0,"District":1.0,"Street":[1.0],"HouseNumber":1.0,"PostalCode":1.0},"MatchType":"interpolated","Location":{"LocationId":"NT_tKQKYX0FwPjyzTAwHfTyZC_l_942956665_R_xMDO","LocationType":"point","DisplayPosition":{"Latitude":51.49006,"Longitude":-2.54026},"MapView":{"TopLeft":{"Latitude":51.4911842,"Longitude":-2.5420654},"BottomRight":{"Latitude":51.4889359,"Longitude":-2.5384545}},"Address":{"Label":"138 Frenchay Park Road, Bristol, BS16 1HB, United Kingdom","Country":"GBR","State":"England","County":"Avon","City":"Bristol","District":"Bristol","Street":"Frenchay Park Road","HouseNumber":"138","PostalCode":"BS16 1HB","AdditionalData":[{"value":"United Kingdom","key":"CountryName"},{"value":"England","key":"StateName"},{"value":"Avon","key":"CountyName"}]},"MapReference":{"ReferenceId":"942956665","Spot":0.36,"SideOfStreet":"right","StateId":"20248595","CountyId":"20352323","CityId":"20352420","DistrictId":"20352421"}}},{"Relevance":1.0,"Distance":69.5,"MatchLevel":"houseNumber","MatchQuality":{"Country":1.0,"State":1.0,"County":1.0,"City":1.0,"District":1.0,"Street":[1.0],"HouseNumber":1.0,"PostalCode":1.0},"MatchType":"interpolated","Location":{"LocationId":"NT_twMAAjZzV5JN7KMRR8xK7A_l_26753598_R_2YD","LocationType":"point","DisplayPosition":{"Latitude":51.48879,"Longitude":-2.540915},"MapView":{"TopLeft":{"Latitude":51.4899142,"Longitude":-2.5427204},"BottomRight":{"Latitude":51.4876659,"Longitude":-2.5391096}},"Address":{"Label":"66 Brambling Walk, Bristol, BS16 1TY, United Kingdom","Country":"GBR","State":"England","County":"Avon","City":"Bristol","District":"Bristol","Street":"Brambling Walk","HouseNumber":"66","PostalCode":"BS16 1TY","AdditionalData":[{"value":"United Kingdom","key":"CountryName"},{"value":"England","key":"StateName"},{"value":"Avon","key":"CountyName"}]},"MapReference":{"ReferenceId":"26753598","Spot":0.5,"SideOfStreet":"right","StateId":"20248595","CountyId":"20352323","CityId":"20352420","DistrictId":"20352421"}}}]}]}}