{"Response":{"MetaInfo":{"Timestamp":"2020-03-28T12:00:29.000+0000","NextPageInformation":"2"},"View":[{"_type":"SearchResultsViewType","ViewId":0,"Result":[{"Relevance":1.0,"Distance":0.0,"Direction":0.0,"MatchLevel":"district","MatchQuality":{"Country":1.0,"State":1.0,"County":1.0,"City":1.0,"District":1.0,"PostalCode":1.0},"Location":{"LocationId":"NT_CQRQzE5rNLhiInzDh-fjLB","LocationType":"point","DisplayPosition":{"Latitude":51.4796729,"Longitude":-0.0997336},"MapView":{"TopLeft":{"Latitude":51.48829,"Longitude":-0.11084},"BottomRight":{"Latitude":51.45883,"Longitude":-0.07553}},"Address":{"Label":"SE5, London, England, United Kingdom","Country":"GBR","State":"England","County":"London","City":"London","District":"SE5","PostalCode":"SE5 7","AdditionalData":[{"value":"United Kingdom","key":"CountryName"},{"value":"England","key":"StateName"},{"value":"London","key":"CountyName"}]},"MapReference":{"ReferenceId":"1183021608","SideOfStreet":"neither","StateId":"20248595","CountyId":"20337453","CityId":"20337454","DistrictId":"20337537"}}},{"Relevance":1.0,"Distance":7.8,"MatchLevel":"houseNumber","MatchQuality":{"Country":1.0,"State":1.0,"County":1.0,"City":1.0,"District":1.0,"Street":[1.0],"HouseNumber":1.0,"PostalCode":1.0},"MatchType":"interpolated","Location":{"LocationId":"NT_5e-CxkoS8Ub3nGVgdST6wC_yA","LocationType":"point","DisplayPosition":{"Latitude":51.47977,"Longitude":-0.09965},"MapView":{"TopLeft":{"Latitude":51.4808942,"Longitude":-0.101455},"BottomRight":{"Latitude":51.4786458,"Longitude":-0.097845}},"Address":{"Label":"2 Sir John Kirk Close, London, SE5 0, United Kingdom","Country":"GBR","State":"England","County":"London","City":"London","District":"Camberwell","Street":"Sir John Kirk Close","HouseNumber":"2","PostalCode":"SE5 0","AdditionalData":[{"value":"United Kingdom","key":"CountryName"},{"value":"England","key":"StateName"},{"value":"London","key":"CountyName"}]},"MapReference":{"ReferenceId":"25476642","Spot":0.48,"SideOfStreet":"left","StateId":"20248595","CountyId":"20337453","CityId":"20337454","AddressId":"747881506","RoadLinkId":"82428691"}}},{"Relevance":1.0,"Distance":13.4,"MatchLevel":"postalCode","MatchQuality":{"PostalCode":1.0},"MatchType":"interpolated","Location":{"LocationId":"NT_5e-CxkoS8Ub3nGVgdST6wC_yA","LocationType":"point","DisplayPosition":{"Latitude":51.47971,"Longitude":-0.09955},"MapView":{"TopLeft":{"Latitude":51.4887032,"Longitude":-0.1139902},"BottomRight":{"Latitude":51.4707168,"Longitude":-0.0851098}},"Address":{"Label":"SE5 0BB, London, England, United Kingdom","Country":"GBR","State":"England","County":"London","City":"London","PostalCode":"SE5 0BB","AdditionalData":[{"value":"United Kingdom","key":"CountryName"},{"value":"England","key":"StateName"},{"value":"London","key":"CountyName"}]},"MapReference":{"ReferenceId":"25476642","Spot":0.48,"SideOfStreet":"neither","StateId":"20248595","CountyId":"20337453","CityId":"20337454"}}},{"Relevance":1.0,"Distance":18.1,"MatchLevel":"houseNumber","MatchQuality":{"Country":1.0,"State":1.0,"County":1.0,"City":1.0,"District":1.0,"Street":[1.0],"HouseNumber":1.0,"PostalCode":1.0},"MatchType":"interpolated","Location":{"LocationId":"NT_XHGVfVYQTVzlFII6S8uqOB_zcD","LocationType":"point","DisplayPosition":{"Latitude":51.47934,"Longitude":-0.09972},"MapView":{"TopLeft":{"Latitude":51.4804642,"Longitude":-0.101525},"BottomRight":{"Latitude":51.4782158,"Longitude":-0.097915}},"Address":{"Label":"37 Pitman Street, London, SE5 0TS, United Kingdom","Country":"GBR","State":"England","County":"London","City":"London","District":"Camberwell","Street":"Pitman Street","HouseNumber":"37","PostalCode":"SE5 0TS","AdditionalData":[{"value":"United Kingdom","key":"CountryName"},{"value":"England","key":"StateName"},{"value":"London","key":"CountyName"}]},"MapReference":{"ReferenceId":"25403431","Spot":0.9,"SideOfStreet":"right","StateId":"20248595","CountyId":"20337453","CityId":"20337454","AddressId":"769343313","RoadLinkId":"82958977"}}},{"Relevance":1.0,"Distance":24.0,"MatchLevel":"postalCode","MatchQuality":{"PostalCode":1.0},"MatchType":"interpolated","Location":{"LocationId":"NT_XHGVfVYQTVzlFII6S8uqOB_zcD","LocationType":"point","DisplayPosition":{"Latitude":51.47948,"Longitude":-0.09989},"MapView":{"TopLeft":{"Latitude":51.4884732,"Longitude":-0.1143301},"BottomRight":{"Latitude":51.4704868,"Longitude":-0.0854499}},"Address":{"Label":"SE5 0TS, London, England, United Kingdom","Country":"GBR","State":"England","County":"London","City":"London","PostalCode":"SE5 0TS","AdditionalData":[{"value":"United Kingdom","key":"CountryName"},{"value":"England","key":"StateName"},{"value":"London","key":"CountyName"}]},"MapReference":{"ReferenceId":"25403431","Spot":0.9,"SideOfStreet":"neither","StateId":"20248595","CountyId":"20337453","CityId":"20337454"}}},{"Relevance":1.0,"Distance":33.8,"MatchLevel":"houseNumber","MatchQuality":{"Country":1.0,"State":1.0,"County":1.0,"City":1.0,"District":1.0,"Street":[1.0],"HouseNumber":1.0,"PostalCode":1.0},"MatchType":"interpolated","Location":{"LocationId":"NT_NXRHQjox-vvD2E20uDUE2D_0A","LocationType":"point","DisplayPosition":{"Latitude":51.47978,"Longitude":-0.10019},"MapView":{"TopLeft":{"Latitude":51.4809042,"Longitude":-0.101995},"BottomRight":{"Latitude":51.4786558,"Longitude":-0.098385}},"Address":{"Label":"4 Kirwyn Way, London, SE5 0YA, United Kingdom","Country":"GBR","State":"England","County":"London","City":"London","District":"Camberwell","Street":"Kirwyn Way","HouseNumber":"4","PostalCode":"SE5 0YA","AdditionalData":[{"value":"United Kingdom","key":"CountryName"},{"value":"England","key":"StateName"},{"value":"London","key":"CountyName"}]},"MapReference":{"ReferenceId":"25403361","Spot":1.0,"SideOfStreet":"left","StateId":"20248595","CountyId":"20337453","CityId":"20337454","AddressId":"747971747","RoadLinkId":"82930117"}}},{"Relevance":1.0,"Distance":33.8,"MatchLevel":"houseNumber","MatchQuality":{"Country":1.0,"State":1.0,"County":1.0,"City":1.0,"District":1.0,"Street":[1.0],"HouseNumber":1.0,"PostalCode":1.0},"MatchType":"interpolated","Location":{"LocationId":"NT_NXRHQjox-vvD2E20uDUE2D_xA","LocationType":"point","DisplayPosition":{"Latitude":51.47978,"Longitude":-0.10019},"MapView":{"TopLeft":{"Latitude":51.4809042,"Longitude":-0.101995},"BottomRight":{"Latitude":51.4786558,"Longitude":-0.098385}},"Address":{"Label":"1 Kirwyn Way, London, SE5 0YA, United Kingdom","Country":"GBR","State":"England","County":"London","City":"London","District":"Camberwell","Street":"Kirwyn Way","HouseNumber":"1","PostalCode":"SE5 0YA","AdditionalData":[{"value":"United Kingdom","key":"CountryName"},{"value":"England","key":"StateName"},{"value":"London","key":"CountyName"}]},"MapReference":{"ReferenceId":"25459726","Spot":0.0,"SideOfStreet":"left","StateId":"20248595","CountyId":"20337453","CityId":"20337454","AddressId":"747911657","RoadLinkId":"82954401"}}},{"Relevance":1.0,"Distance":37.3,"MatchLevel":"houseNumber","MatchQuality":{"Country":1.0,"State":1.0,"County":1.0,"City":1.0,"District":1.0,"Street":[1.0],"HouseNumber":1.0,"PostalCode":1.0},"MatchType":"interpolated","Location":{"LocationId":"NT_Tzc.RYJMwfJsZI6MjUDhID_l_25403341_R_5A","LocationType":"point","DisplayPosition":{"Latitude":51.4795267,"Longitude":-0.1002183},"MapView":{"TopLeft":{"Latitude":51.4806508,"Longitude":-0.1020233},"BottomRight":{"Latitude":51.4784025,"Longitude":-0.0984133}},"Address":{"Label":"9 Laxley Close, London, SE5 0, United Kingdom","Country":"GBR","State":"England","County":"London","City":"London","District":"Camberwell","Street":"Laxley Close","HouseNumber":"9","PostalCode":"SE5 0","AdditionalData":[{"value":"United Kingdom","key":"CountryName"},{"value":"England","key":"StateName"},{"value":"London","key":"CountyName"}]},"MapReference":{"ReferenceId":"25403341","Spot":0.7,"SideOfStreet":"right","StateId":"20248595","CountyId":"20337453","CityId":"20337454"}}},{"Relevance":1.0,"Distance":60.2,"MatchLevel":"houseNumber","MatchQuality":{"Country":1.0,"State":1.0,"County":1.0,"City":1.0,"District":1.0,"Street":[1.0],"PostalCode":1.0},"MatchType":"interpolated","Location":{"LocationId":"NT_lVSid7aPuOoosMUgW7TFYA","LocationType":"point","DisplayPosition":{"Latitude":51.48026,"Longitude":-0.09909},"MapView":{"TopLeft":{"Latitude":51.4813842,"Longitude":-0.100895},"BottomRight":{"Latitude":51.4791358,"Longitude":-0.097285}},"Address":{"Label":"Bethwin Road, London, SE5 0, United Kingdom","Country":"GBR","State":"England","County":"London","City":"London","District":"Camberwell","Street":"Bethwin Road","PostalCode":"SE5 0","AdditionalData":[{"value":"United Kingdom","key":"CountryName"},{"value":"England","key":"StateName"},{"value":"London","key":"CountyName"}],"Building":"Carlyle House"},"MapReference":{"ReferenceId":"25476640","Spot":0.4,"SideOfStreet":"left","StateId":"20248595","CountyId":"20337453","CityId":"20337454","AddressId":"763626402","RoadLinkId":"82894730"}}},{"Relevance":1.0,"Distance":61.3,"MatchLevel":"houseNumber","MatchQuality":{"Country":1.0,"State":1.0,"County":1.0,"City":1.0,"District":1.0,"Street":[1.0],"HouseNumber":1.0,"PostalCode":1.0},"MatchType":"interpolated","Location":{"LocationId":"NT_YDnpwCeS1Gc5ToJV2zkTYA_l_25476641_L_5cD","LocationType":"point","DisplayPosition":{"Latitude":51.48031,"Longitude":-0.10008},"MapView":{"TopLeft":{"Latitude":51.4814342,"Longitude":-0.1018851},"BottomRight":{"Latitude":51.4791859,"Longitude":-0.098275}},"Address":{"Label":"97 Bethwin Road, London, SE5 0, United Kingdom","Country":"GBR","State":"England","County":"London","City":"London","District":"Camberwell","Street":"Bethwin Road","HouseNumber":"97","PostalCode":"SE5 0","AdditionalData":[{"value":"United Kingdom","key":"CountryName"},{"value":"England","key":"StateName"},{"value":"London","key":"CountyName"}]},"MapReference":{"ReferenceId":"25476641","Spot":0.41,"SideOfStreet":"left","StateId":"20248595","CountyId":"20337453","CityId":"20337454"}}}]}]}}