{"Response":{"MetaInfo":{"Timestamp":"2020-03-28T10:11:17.698+0000","NextPageInformation":"2"},"View":[{"_type":"SearchResultsViewType","ViewId":0,"Result":[{"Relevance":1.0,"Distance":0.0,"Direction":0.0,"MatchLevel":"district","MatchQuality":{"Country":1.0,"State":1.0,"County":1.0,"City":1.0,"District":1.0,"PostalCode":1.0},"Location":{"LocationId":"NT_LAEhM8cxYJEySYuZ08PbVB","LocationType":"point","DisplayPosition":{"Latitude":51.4632564,"Longitude":-2.5532077},"MapView":{"TopLeft":{"Latitude":51.46901,"Longitude":-2.56313},"BottomRight":{"Latitude":51.45945,"Longitude":-2.54164}},"Address":{"Label":"Whitehall, Bristol, England, United Kingdom","Country":"GBR","State":"England","County":"Avon","City":"Bristol","District":"Whitehall","PostalCode":"BS5 7","AdditionalData":[{"value":"United Kingdom","key":"CountryName"},{"value":"England","key":"StateName"},{"value":"Avon","key":"CountyName"}]},"MapReference":{"ReferenceId":"26724505","SideOfStreet":"neither","StateId":"20248595","CountyId":"20352323","CityId":"20352420","DistrictId":"20352578"}}},{"Relevance":1.0,"Distance":7.3,"MatchLevel":"houseNumber","MatchQuality":{"Country":1.0,"State":1.0,"County":1.0,"City":1.0,"District":1.0,"Street":[1.0],"HouseNumber":1.0,"PostalCode":1.0},"MatchType":"interpolated","Location":{"LocationId":"NT_prQsrZZcoFD5-xrzCaa2BA_l_26724705_R_2A","LocationType":"point","DisplayPosition":{"Latitude":51.4632886,"Longitude":-2.5533061},"MapView":{"TopLeft":{"Latitude":51.4644127,"Longitude":-2.5551105},"BottomRight":{"Latitude":51.4621644,"Longitude":-2.5515017}},"Address":{"Label":"6 Neath Road, Bristol, BS5 9AP, United Kingdom","Country":"GBR","State":"England","County":"Avon","City":"Bristol","District":"Whitehall","Street":"Neath Road","HouseNumber":"6","PostalCode":"BS5 9AP","AdditionalData":[{"value":"United Kingdom","key":"CountryName"},{"value":"England","key":"StateName"},{"value":"Avon","key":"CountyName"}]},"MapReference":{"ReferenceId":"26724705","Spot":0.25,"SideOfStreet":"right","StateId":"20248595","CountyId":"20352323","CityId":"20352420","DistrictId":"20352578"}}},{"Relevance":1.0,"Distance":19.1,"MatchLevel":"houseNumber","MatchQuality":{"Country":1.0,"State":1.0,"County":1.0,"City":1.0,"District":1.0,"Street":[1.0],"HouseNumber":1.0,"PostalCode":1.0},"MatchType":"interpolated","Location":{"LocationId":"NT_.6AHDD-W2nafm2v6cR-0ZC_l_1212032975_L_yYTO","LocationType":"point","DisplayPosition":{"Latitude":51.4629829,"Longitude":-2.5530026},"MapView":{"TopLeft":{"Latitude":51.4641071,"Longitude":-2.554807},"BottomRight":{"Latitude":51.4618588,"Longitude":-2.5511983}},"Address":{"Label":"269 Whitehall Road, Bristol, BS5 7BH, United Kingdom","Country":"GBR","State":"England","County":"Avon","City":"Bristol","District":"Whitehall","Street":"Whitehall Road","HouseNumber":"269","PostalCode":"BS5 7BH","AdditionalData":[{"value":"United Kingdom","key":"CountryName"},{"value":"England","key":"StateName"},{"value":"Avon","key":"CountyName"}]},"MapReference":{"ReferenceId":"1212032975","Spot":0.5,"SideOfStreet":"left","StateId":"20248595","CountyId":"20352323","CityId":"20352420","DistrictId":"20352578"}}},{"Relevance":1.0,"Distance":23.3,"MatchLevel":"houseNumber","MatchQuality":{"Country":1.0,"State":1.0,"County":1.0,"City":1.0,"District":1.0,"Street":[1.0],"HouseNumber":1.0,"PostalCode":1.0},"MatchType":"interpolated","Location":{"LocationId":"NT_XjGB0pIiy6pimaTMOaZ9sA_l_26724706_R_yA","LocationType":"point","DisplayPosition":{"Latitude":51.4631,"Longitude":-2.5535801},"MapView":{"TopLeft":{"Latitude":51.4642242,"Longitude":-2.5553844},"BottomRight":{"Latitude":51.4619759,"Longitude":-2.5517757}},"Address":{"Label":"2 Westminster Road, Bristol, BS5 9AP, United Kingdom","Country":"GBR","State":"England","County":"Avon","City":"Bristol","District":"Whitehall","Street":"Westminster Road","HouseNumber":"2","PostalCode":"BS5 9AP","AdditionalData":[{"value":"United Kingdom","key":"CountryName"},{"value":"England","key":"StateName"},{"value":"Avon","key":"CountyName"}]},"MapReference":{"ReferenceId":"26724706","Spot":0.27,"SideOfStreet":"right","StateId":"20248595","CountyId":"20352323","CityId":"20352420","DistrictId":"20352578"}}},{"Relevance":1.0,"Distance":24.6,"MatchLevel":"houseNumber","MatchQuality":{"Country":1.0,"State":1.0,"County":1.0,"City":1.0,"District":1.0,"Street":[1.0],"HouseNumber":1.0,"PostalCode":1.0},"MatchType":"interpolated","Location":{"LocationId":"NT_.6AHDD-W2nafm2v6cR-0ZC_l_1212032974_L_yYTN","LocationType":"point","DisplayPosition":{"Latitude":51.4629067,"Longitude":-2.55319},"MapView":{"TopLeft":{"Latitude":51.4640308,"Longitude":-2.5549943},"BottomRight":{"Latitude":51.4617825,"Longitude":-2.5513856}},"Address":{"Label":"265 Whitehall Road, Bristol, BS5 7BH, United Kingdom","Country":"GBR","State":"England","County":"Avon","City":"Bristol","District":"Whitehall","Street":"Whitehall Road","HouseNumber":"265","PostalCode":"BS5 7BH","AdditionalData":[{"value":"United Kingdom","key":"CountryName"},{"value":"England","key":"StateName"},{"value":"Avon","key":"CountyName"}]},"MapReference":{"ReferenceId":"1212032974","Spot":0.67,"SideOfStreet":"left","StateId":"20248595","CountyId":"20352323","CityId":"20352420","DistrictId":"20352578"}}},{"Relevance":1.0,"Distance":27.7,"MatchLevel":"postalCode","MatchQuality":{"PostalCode":1.0},"MatchType":"interpolated","Location":{"LocationId":"NT_prQsrZZcoFD5-xrzCaa2BA_l_26724705_R_2A","LocationType":"point","DisplayPosition":{"Latitude":51.4635,"Longitude":-2.55329},"MapView":{"TopLeft":{"Latitude":51.4724932,"Longitude":-2.567725},"BottomRight":{"Latitude":51.4545068,"Longitude":-2.538855}},"Address":{"Label":"BS5 9AP, Bristol, England, United Kingdom","Country":"GBR","State":"England","County":"Avon","City":"Bristol","PostalCode":"BS5 9AP","AdditionalData":[{"value":"United Kingdom","key":"CountryName"},{"value":"England","key":"StateName"},{"value":"Avon","key":"CountyName"}]},"MapReference":{"ReferenceId":"26724705","Spot":0.25,"SideOfStreet":"neither","StateId":"20248595","CountyId":"20352323","CityId":"20352420"}}},{"Relevance":1.0,"Distance":30.0,"MatchLevel":"houseNumber","MatchQuality":{"Country":1.0,"State":1.0,"County":1.0,"City":1.0,"District":1.0,"Street":[1.0],"HouseNumber":1.0,"PostalCode":1.0},"MatchType":"interpolated","Location":{"LocationId":"NT_prQsrZZcoFD5-xrzCaa2BA_l_26724755_L_1A","LocationType":"point","DisplayPosition":{"Latitude":51.4629993,"Longitude":-2.5533394},"MapView":{"TopLeft":{"Latitude":51.4641234,"Longitude":-2.5551438},"BottomRight":{"Latitude":51.4618751,"Longitude":-2.5515351}},"Address":{"Label":"5 Neath Road, Bristol, BS5 9AP, United Kingdom","Country":"GBR","State":"England","County":"Avon","City":"Bristol","District":"Whitehall","Street":"Neath Road","HouseNumber":"5","PostalCode":"BS5 9AP","AdditionalData":[{"value":"United Kingdom","key":"CountryName"},{"value":"England","key":"StateName"},{"value":"Avon","key":"CountyName"}]},"MapReference":{"ReferenceId":"26724755","Spot":0.67,"SideOfStreet":"left","StateId":"20248595","CountyId":"20352323","CityId":"20352420","DistrictId":"20352578"}}},{"Relevance":1.0,"Distance":33.5,"MatchLevel":"houseNumber","MatchQuality":{"Country":1.0,"State":1.0,"County":1.0,"City":1.0,"District":1.0,"Street":[1.0],"HouseNumber":1.0,"PostalCode":1.0},"MatchType":"interpolated","Location":{"LocationId":"NT_.6AHDD-W2nafm2v6cR-0ZC_l_756082125_L_ycTM","LocationType":"point","DisplayPosition":{"Latitude":51.46312,"Longitude":-2.5526699},"MapView":{"TopLeft":{"Latitude":51.4642442,"Longitude":-2.5544743},"BottomRight":{"Latitude":51.4619959,"Longitude":-2.5508656}},"Address":{"Label":"271 Whitehall Road, Bristol, BS5 7BH, United Kingdom","Country":"GBR","State":"England","County":"Avon","City":"Bristol","District":"Whitehall","Street":"Whitehall Road","HouseNumber":"271","PostalCode":"BS5 7BH","AdditionalData":[{"value":"United Kingdom","key":"CountryName"},{"value":"England","key":"StateName"},{"value":"Avon","key":"CountyName"}]},"MapReference":{"ReferenceId":"756082125","Spot":0.28,"SideOfStreet":"left","StateId":"20248595","CountyId":"20352323","CityId":"20352420","DistrictId":"20352578"}}},{"Relevance":1.0,"Distance":33.8,"MatchLevel":"street","MatchQuality":{"Country":1.0,"State":1.0,"County":1.0,"City":1.0,"District":1.0,"Street":[1.0],"PostalCode":1.0},"Location":{"LocationId":"NT_xe5pMaTQs3aaE69RU5XyHB_l_756082126_L","LocationType":"point","DisplayPosition":{"Latitude":51.46305,"Longitude":-2.55285},"MapView":{"TopLeft":{"Latitude":51.46305,"Longitude":-2.55296},"BottomRight":{"Latitude":51.46273,"Longitude":-2.55269}},"Address":{"Label":"Oxenham Court, Bristol, BS5 7, United Kingdom","Country":"GBR","State":"England","County":"Avon","City":"Bristol","District":"Whitehall","Street":"Oxenham Court","PostalCode":"BS5 7","AdditionalData":[{"value":"United Kingdom","key":"CountryName"},{"value":"England","key":"StateName"},{"value":"Avon","key":"CountyName"}]},"MapReference":{"ReferenceId":"756082126","Spot":1.0,"SideOfStreet":"left","StateId":"20248595","CountyId":"20352323","CityId":"20352420","DistrictId":"20352578"}}},{"Relevance":1.0,"Distance":37.2,"MatchLevel":"houseNumber","MatchQuality":{"Country":1.0,"State":1.0,"County":1.0,"City":1.0,"District":1.0,"Street":[1.0],"HouseNumber":1.0,"PostalCode":1.0},"MatchType":"interpolated","Location":{"LocationId":"NT_.6AHDD-W2nafm2v6cR-0ZC_l_1232157707_L_yQzM","LocationType":"point","DisplayPosition":{"Latitude":51.4628239,"Longitude":-2.5533808},"MapView":{"TopLeft":{"Latitude":51.4639481,"Longitude":-2.5551852},"BottomRight":{"Latitude":51.4616998,"Longitude":-2.5515765}},"Address":{"Label":"243 Whitehall Road, Bristol, BS5 7BJ, United Kingdom","Country":"GBR","State":"England","County":"Avon","City":"Bristol","District":"Whitehall","Street":"Whitehall Road","HouseNumber":"243","PostalCode":"BS5 7BJ","AdditionalData":[{"value":"United Kingdom","key":"CountryName"},{"value":"England","key":"StateName"},{"value":"Avon","key":"CountyName"}]},"MapReference":{"ReferenceId":"1232157707","Spot":0.53,"SideOfStreet":"left","StateId":"20248595","CountyId":"20352323","CityId":"20352420","DistrictId":"20352578"}}}]}]}}