{"Response":{"MetaInfo":{"Timestamp":"2020-03-28T10:08:19.415+0000","NextPageInformation":"2"},"View":[{"_type":"SearchResultsViewType","ViewId":0,"Result":[{"Relevance":1.0,"Distance":0.0,"Direction":0.0,"MatchLevel":"district","MatchQuality":{"Country":1.0,"State":1.0,"County":1.0,"City":1.0,"District":1.0,"PostalCode":1.0},"Location":{"LocationId":"NT_GGCiBt.FhnN52kbIBfXHTA","LocationType":"point","DisplayPosition":{"Latitude":51.497665,"Longitude":-0.2119306},"MapView":{"TopLeft":{"Latitude":51.50562,"Longitude":-0.22244},"BottomRight":{"Latitude":51.48442,"Longitude":-0.19947}},"Address":{"Label":"W14, London, England, United Kingdom","Country":"GBR","State":"England","County":"London","City":"London","District":"W14","PostalCode":"W14 8","AdditionalData":[{"value":"United Kingdom","key":"CountryName"},{"value":"England","key":"StateName"},{"value":"London","key":"CountyName"}]},"MapReference":{"ReferenceId":"786758707","SideOfStreet":"neither","StateId":"20248595","CountyId":"20337453","CityId":"20337454","DistrictId":"20337570"}}},{"Relevance":1.0,"Distance":3.4,"MatchLevel":"houseNumber","MatchQuality":{"Country":1.0,"State":1.0,"County":1.0,"City":1.0,"District":1.0,"Street":[1.0],"HouseNumber":1.0,"PostalCode":1.0},"MatchType":"interpolated","Location":{"LocationId":"NT_RlfR1nRw6QSuiOwG5uTJ-B_2A","LocationType":"point","DisplayPosition":{"Latitude":51.49752,"Longitude":-0.21187},"MapView":{"TopLeft":{"Latitude":51.4986442,"Longitude":-0.2136757},"BottomRight":{"Latitude":51.4963958,"Longitude":-0.2100643}},"Address":{"Label":"6 Maclise Road, London, W14 0NH, United Kingdom","Country":"GBR","State":"England","County":"London","City":"London","District":"Kensington","Street":"Maclise Road","HouseNumber":"6","PostalCode":"W14 0NH","AdditionalData":[{"value":"United Kingdom","key":"CountryName"},{"value":"England","key":"StateName"},{"value":"London","key":"CountyName"}]},"MapReference":{"ReferenceId":"25314174","Spot":0.1,"SideOfStreet":"left","StateId":"20248595","CountyId":"20337453","CityId":"20337454","AddressId":"748591441","RoadLinkId":"82573501"}}},{"Relevance":1.0,"Distance":8.5,"MatchLevel":"houseNumber","MatchQuality":{"Country":1.0,"State":1.0,"County":1.0,"City":1.0,"District":1.0,"Street":[1.0],"HouseNumber":1.0,"PostalCode":1.0},"MatchType":"interpolated","Location":{"LocationId":"NT_RlfR1nRw6QSuiOwG5uTJ-B_4A","LocationType":"point","DisplayPosition":{"Latitude":51.4975,"Longitude":-0.21196},"MapView":{"TopLeft":{"Latitude":51.4986242,"Longitude":-0.2137657},"BottomRight":{"Latitude":51.4963758,"Longitude":-0.2101543}},"Address":{"Label":"8 Maclise Road, London, W14 0NH, United Kingdom","Country":"GBR","State":"England","County":"London","City":"London","District":"Kensington","Street":"Maclise Road","HouseNumber":"8","PostalCode":"W14 0NH","AdditionalData":[{"value":"United Kingdom","key":"CountryName"},{"value":"England","key":"StateName"},{"value":"London","key":"CountyName"}]},"MapReference":{"ReferenceId":"25314182","Spot":0.01,"SideOfStreet":"right","StateId":"20248595","CountyId":"20337453","CityId":"20337454","AddressId":"747686402","RoadLinkId":"82310934"}}},{"Relevance":1.0,"Distance":16.6,"MatchLevel":"landmark","MatchQuality":{"Country":1.0,"State":1.0,"County":1.0,"City":1.0,"District":1.0,"Street":[1.0],"PostalCode":1.0,"Name":1.0},"Location":{"LocationId":"NT_HTSdhwir846iFWDJ7IAb5B_p_0bqVFTUTbaPJhDlsdt.Z6B","LocationType":"sportsComplex","Name":"Olympia Exhibition Centre","DisplayPosition":{"Latitude":51.49598,"Longitude":-0.20847},"MapView":{"TopLeft":{"Latitude":51.49784,"Longitude":-0.21251},"BottomRight":{"Latitude":51.49492,"Longitude":-0.20839}},"Address":{"Label":"Hammersmith Road, London, W14 8, United Kingdom","Country":"GBR","State":"England","County":"London","City":"London","District":"Kensington","Street":"Hammersmith Road","PostalCode":"W14 8","AdditionalData":[{"value":"United Kingdom","key":"CountryName"},{"value":"England","key":"StateName"},{"value":"London","key":"CountyName"}]},"MapReference":{"StateId":"20248595","CountyId":"20337453","CityId":"20337454","PlaceId":"18024070"}}},{"Relevance":1.0,"Distance":29.0,"MatchLevel":"houseNumber","MatchQuality":{"Country":1.0,"State":1.0,"County":1.0,"City":1.0,"District":1.0,"Street":[1.0],"HouseNumber":1.0,"PostalCode":1.0},"MatchType":"interpolated","Location":{"LocationId":"NT_uY6qcqkoClqRO-XD-4SN1D_3A","LocationType":"point","DisplayPosition":{"Latitude":51.49799,"Longitude":-0.21151},"MapView":{"TopLeft":{"Latitude":51.4991142,"Longitude":-0.2133157},"BottomRight":{"Latitude":51.4968658,"Longitude":-0.2097043}},"Address":{"Label":"7 Sinclair Road, London, W14 0NS, United Kingdom","Country":"GBR","State":"England","County":"London","City":"London","District":"Kensington","Street":"Sinclair Road","HouseNumber":"7","PostalCode":"W14 0NS","AdditionalData":[{"value":"United Kingdom","key":"CountryName"},{"value":"England","key":"StateName"},{"value":"London","key":"CountyName"}]},"MapReference":{"ReferenceId":"1160593075","Spot":0.38,"SideOfStreet":"left","StateId":"20248595","CountyId":"20337453","CityId":"20337454","AddressId":"747983674","RoadLinkId":"467014242"}}},{"Relevance":1.0,"Distance":34.5,"MatchLevel":"postalCode","MatchQuality":{"PostalCode":1.0},"MatchType":"interpolated","Location":{"LocationId":"NT_RlfR1nRw6QSuiOwG5uTJ-B_4A","LocationType":"point","DisplayPosition":{"Latitude":51.49753,"Longitude":-0.21238},"MapView":{"TopLeft":{"Latitude":51.5065232,"Longitude":-0.2268258},"BottomRight":{"Latitude":51.4885368,"Longitude":-0.1979342}},"Address":{"Label":"W14 0PR, London, England, United Kingdom","Country":"GBR","State":"England","County":"London","City":"London","PostalCode":"W14 0PR","AdditionalData":[{"value":"United Kingdom","key":"CountryName"},{"value":"England","key":"StateName"},{"value":"London","key":"CountyName"}]},"MapReference":{"ReferenceId":"25314182","Spot":0.01,"SideOfStreet":"neither","StateId":"20248595","CountyId":"20337453","CityId":"20337454"}}},{"Relevance":1.0,"Distance":39.9,"MatchLevel":"houseNumber","MatchQuality":{"Country":1.0,"State":1.0,"County":1.0,"City":1.0,"District":1.0,"Street":[1.0],"HouseNumber":1.0,"PostalCode":1.0},"MatchType":"interpolated","Location":{"LocationId":"NT_QWIcdYcO5da5jsWZtGRykD_yA","LocationType":"point","DisplayPosition":{"Latitude":51.49786,"Longitude":-0.21251},"MapView":{"TopLeft":{"Latitude":51.4989842,"Longitude":-0.2143157},"BottomRight":{"Latitude":51.4967358,"Longitude":-0.2107043}},"Address":{"Label":"2 Hazlitt Mews, London, W14 0NH, United Kingdom","Country":"GBR","State":"England","County":"London","City":"London","District":"Kensington","Street":"Hazlitt Mews","HouseNumber":"2","PostalCode":"W14 0NH","AdditionalData":[{"value":"United Kingdom","key":"CountryName"},{"value":"England","key":"StateName"},{"value":"London","key":"CountyName"}]},"MapReference":{"ReferenceId":"566004726","Spot":0.0,"SideOfStreet":"left","StateId":"20248595","CountyId":"20337453","CityId":"20337454","AddressId":"748413247","RoadLinkId":"82334684"}}},{"Relevance":1.0,"Distance":40.9,"MatchLevel":"postalCode","MatchQuality":{"PostalCode":1.0},"MatchType":"interpolated","Location":{"LocationId":"NT_QWIcdYcO5da5jsWZtGRykD_yA","LocationType":"point","DisplayPosition":{"Latitude":51.49784,"Longitude":-0.21245},"MapView":{"TopLeft":{"Latitude":51.5068332,"Longitude":-0.2268959},"BottomRight":{"Latitude":51.4888468,"Longitude":-0.1980041}},"Address":{"Label":"W14 0JZ, London, England, United Kingdom","Country":"GBR","State":"England","County":"London","City":"London","PostalCode":"W14 0JZ","AdditionalData":[{"value":"United Kingdom","key":"CountryName"},{"value":"England","key":"StateName"},{"value":"London","key":"CountyName"}]},"MapReference":{"ReferenceId":"566004726","Spot":0.0,"SideOfStreet":"neither","StateId":"20248595","CountyId":"20337453","CityId":"20337454"}}},{"Relevance":1.0,"Distance":45.1,"MatchLevel":"houseNumber","MatchQuality":{"Country":1.0,"State":1.0,"County":1.0,"City":1.0,"District":1.0,"Street":[1.0],"HouseNumber":1.0,"PostalCode":1.0},"MatchType":"interpolated","Location":{"LocationId":"NT_m-nXMankqH6nf.cObMGfgB_xAD","LocationType":"point","DisplayPosition":{"Latitude":51.49726,"Longitude":-0.21196},"MapView":{"TopLeft":{"Latitude":51.4983842,"Longitude":-0.2137657},"BottomRight":{"Latitude":51.4961358,"Longitude":-0.2101543}},"Address":{"Label":"10 Beaconsfield Terrace Road, London, W14 0PP, United Kingdom","Country":"GBR","State":"England","County":"London","City":"London","District":"Kensington","Street":"Beaconsfield Terrace Road","HouseNumber":"10","PostalCode":"W14 0PP","AdditionalData":[{"value":"United Kingdom","key":"CountryName"},{"value":"England","key":"StateName"},{"value":"London","key":"CountyName"}]},"MapReference":{"ReferenceId":"25314375","Spot":0.63,"SideOfStreet":"right","StateId":"20248595","CountyId":"20337453","CityId":"20337454","AddressId":"748187153","RoadLinkId":"82664460"}}},{"Relevance":1.0,"Distance":47.9,"MatchLevel":"houseNumber","MatchQuality":{"Country":1.0,"State":1.0,"County":1.0,"City":1.0,"District":1.0,"Street":[1.0],"HouseNumber":1.0,"PostalCode":1.0},"MatchType":"interpolated","Location":{"LocationId":"NT_uY6qcqkoClqRO-XD-4SN1D_yA","LocationType":"point","DisplayPosition":{"Latitude":51.49777,"Longitude":-0.21126},"MapView":{"TopLeft":{"Latitude":51.4988942,"Longitude":-0.2130657},"BottomRight":{"Latitude":51.4966458,"Longitude":-0.2094543}},"Address":{"Label":"2 Sinclair Road, London, W14 0, United Kingdom","Country":"GBR","State":"England","County":"London","City":"London","District":"Kensington","Street":"Sinclair Road","HouseNumber":"2","PostalCode":"W14 0","AdditionalData":[{"value":"United Kingdom","key":"CountryName"},{"value":"England","key":"StateName"},{"value":"London","key":"CountyName"}]},"MapReference":{"ReferenceId":"1160593074","Spot":0.88,"SideOfStreet":"right","StateId":"20248595","CountyId":"20337453","CityId":"20337454","AddressId":"748126684","RoadLinkId":"467014241"}}}]}]}}