{"Response":{"MetaInfo":{"Timestamp":"2020-03-28T10:04:02.744+0000","NextPageInformation":"2"},"View":[{"_type":"SearchResultsViewType","ViewId":0,"Result":[{"Relevance":1.0,"Distance":0.0,"Direction":0.0,"MatchLevel":"district","MatchQuality":{"Country":1.0,"State":1.0,"County":1.0,"City":1.0,"District":1.0,"PostalCode":1.0},"Location":{"LocationId":"NT_zZQIq.zTxM1eBHzlSdOdGA","LocationType":"point","DisplayPosition":{"Latitude":51.4837969,"Longitude":11.9419308},"MapView":{"TopLeft":{"Latitude":51.48979,"Longitude":11.88641},"BottomRight":{"Latitude":51.46339,"Longitude":11.9471}},"Address":{"Label":"Neustadt, Halle (Saale), Sachsen-Anhalt, Deutschland","Country":"DEU","State":"Sachsen-Anhalt","County":"Halle (Saale)","City":"Halle (Saale)","District":"Neustadt","PostalCode":"06122","AdditionalData":[{"value":"Deutschland","key":"CountryName"},{"value":"Sachsen-Anhalt","key":"StateName"},{"value":"Halle (Saale)","key":"CountyName"}]},"MapReference":{"ReferenceId":"743610597","SideOfStreet":"neither","CountryId":"20147700","StateId":"20194537","CountyId":"20195036","CityId":"20195037","DistrictId":"20195044"}}},{"Relevance":1.0,"Distance":15.5,"MatchLevel":"houseNumber","MatchQuality":{"Country":1.0,"State":1.0,"County":1.0,"City":1.0,"District":1.0,"Street":[1.0],"HouseNumber":1.0,"PostalCode":1.0},"MatchType":"interpolated","Location":{"LocationId":"NT_MfPNcTVj.u-VHxB6m2REqC_0A","LocationType":"point","DisplayPosition":{"Latitude":51.48375,"Longitude":11.94172},"MapView":{"TopLeft":{"Latitude":51.4848742,"Longitude":11.9399148},"BottomRight":{"Latitude":51.4826258,"Longitude":11.9435252}},"Address":{"Label":"Bodestraße 4, 06122 Halle (Saale), Deutschland","Country":"DEU","State":"Sachsen-Anhalt","County":"Halle (Saale)","City":"Halle (Saale)","District":"Neustadt","Street":"Bodestraße","HouseNumber":"4","PostalCode":"06122","AdditionalData":[{"value":"Deutschland","key":"CountryName"},{"value":"Sachsen-Anhalt","key":"StateName"},{"value":"Halle (Saale)","key":"CountyName"}]},"MapReference":{"ReferenceId":"53542385","Spot":0.62,"SideOfStreet":"left","CountryId":"20147700","StateId":"20194537","CountyId":"20195036","CityId":"20195037","DistrictId":"20195044","AddressId":"185255814","RoadLinkId":"37860438"}}},{"Relevance":1.0,"Distance":17.2,"MatchLevel":"houseNumber","MatchQuality":{"Country":1.0,"State":1.0,"County":1.0,"City":1.0,"District":1.0,"Street":[1.0],"HouseNumber":1.0,"PostalCode":1.0},"MatchType":"interpolated","Location":{"LocationId":"NT_.UwF6rwxhwM0kzHjP-vlXB_yA","LocationType":"point","DisplayPosition":{"Latitude":51.484,"Longitude":11.94211},"MapView":{"TopLeft":{"Latitude":51.4851242,"Longitude":11.9403048},"BottomRight":{"Latitude":51.4828758,"Longitude":11.9439152}},"Address":{"Label":"Helmeweg 2, 06122 Halle (Saale), Deutschland","Country":"DEU","State":"Sachsen-Anhalt","County":"Halle (Saale)","City":"Halle (Saale)","District":"Neustadt","Street":"Helmeweg","HouseNumber":"2","PostalCode":"06122","AdditionalData":[{"value":"Deutschland","key":"CountryName"},{"value":"Sachsen-Anhalt","key":"StateName"},{"value":"Halle (Saale)","key":"CountyName"}]},"MapReference":{"ReferenceId":"53537519","Spot":0.76,"SideOfStreet":"left","CountryId":"20147700","StateId":"20194537","CountyId":"20195036","CityId":"20195037","DistrictId":"20195044","AddressId":"185116357","RoadLinkId":"37583832"}}},{"Relevance":1.0,"Distance":28.5,"MatchLevel":"houseNumber","MatchQuality":{"Country":1.0,"State":1.0,"County":1.0,"City":1.0,"District":1.0,"Street":[1.0],"HouseNumber":1.0,"PostalCode":1.0},"MatchType":"interpolated","Location":{"LocationId":"NT_MfPNcTVj.u-VHxB6m2REqC_yA","LocationType":"point","DisplayPosition":{"Latitude":51.484,"Longitude":11.94168},"MapView":{"TopLeft":{"Latitude":51.4851242,"Longitude":11.9398748},"BottomRight":{"Latitude":51.4828758,"Longitude":11.9434852}},"Address":{"Label":"Bodestraße 2, 06122 Halle (Saale), Deutschland","Country":"DEU","State":"Sachsen-Anhalt","County":"Halle (Saale)","City":"Halle (Saale)","District":"Neustadt","Street":"Bodestraße","HouseNumber":"2","PostalCode":"06122","AdditionalData":[{"value":"Deutschland","key":"CountryName"},{"value":"Sachsen-Anhalt","key":"StateName"},{"value":"Halle (Saale)","key":"CountyName"}]},"MapReference":{"ReferenceId":"53537465","Spot":0.05,"SideOfStreet":"left","CountryId":"20147700","StateId":"20194537","CountyId":"20195036","CityId":"20195037","DistrictId":"20195044","AddressId":"185728901","RoadLinkId":"37886176"}}},{"Relevance":1.0,"Distance":47.4,"MatchLevel":"street","MatchQuality":{"Country":1.0,"State":1.0,"County":1.0,"City":1.0,"District":1.0,"Street":[1.0],"PostalCode":1.0},"Location":{"LocationId":"NT_MfPNcTVj.u-VHxB6m2REqC_l_1036079939_R","LocationType":"point","DisplayPosition":{"Latitude":51.48338,"Longitude":11.94179},"MapView":{"TopLeft":{"Latitude":51.48338,"Longitude":11.94179},"BottomRight":{"Latitude":51.4833,"Longitude":11.9418}},"Address":{"Label":"Bodestraße, 06122 Halle (Saale), Deutschland","Country":"DEU","State":"Sachsen-Anhalt","County":"Halle (Saale)","City":"Halle (Saale)","District":"Neustadt","Street":"Bodestraße","PostalCode":"06122","AdditionalData":[{"value":"Deutschland","key":"CountryName"},{"value":"Sachsen-Anhalt","key":"StateName"},{"value":"Halle (Saale)","key":"CountyName"}]},"MapReference":{"ReferenceId":"1036079939","Spot":1.0,"SideOfStreet":"right","CountryId":"20147700","StateId":"20194537","CountyId":"20195036","CityId":"20195037","DistrictId":"20195044"}}},{"Relevance":1.0,"Distance":53.4,"MatchLevel":"houseNumber","MatchQuality":{"Country":1.0,"State":1.0,"County":1.0,"City":1.0,"District":1.0,"Street":[1.0],"HouseNumber":1.0,"PostalCode":1.0},"MatchType":"interpolated","Location":{"LocationId":"NT_s5TDkJTGLjTOGT-6lelg0C_yA","LocationType":"point","DisplayPosition":{"Latitude":51.48382,"Longitude":11.94116},"MapView":{"TopLeft":{"Latitude":51.4849442,"Longitude":11.9393548},"BottomRight":{"Latitude":51.4826958,"Longitude":11.9429652}},"Address":{"Label":"Am Meeresbrunnen 2, 06122 Halle (Saale), Deutschland","Country":"DEU","State":"Sachsen-Anhalt","County":"Halle (Saale)","City":"Halle (Saale)","District":"Neustadt","Street":"Am Meeresbrunnen","HouseNumber":"2","PostalCode":"06122","AdditionalData":[{"value":"Deutschland","key":"CountryName"},{"value":"Sachsen-Anhalt","key":"StateName"},{"value":"Halle (Saale)","key":"CountyName"}]},"MapReference":{"ReferenceId":"53542386","Spot":0.77,"SideOfStreet":"left","CountryId":"20147700","StateId":"20194537","CountyId":"20195036","CityId":"20195037","DistrictId":"20195044","AddressId":"185686174","RoadLinkId":"37855155"}}},{"Relevance":1.0,"Distance":54.4,"MatchLevel":"street","MatchQuality":{"Country":1.0,"State":1.0,"County":1.0,"City":1.0,"District":1.0,"PostalCode":1.0},"Location":{"LocationId":"NT_ct3Jndu0W5IUs-LpirMOLD_l_1036079940_R","LocationType":"point","DisplayPosition":{"Latitude":51.4833082,"Longitude":11.9419565},"MapView":{"TopLeft":{"Latitude":51.48332,"Longitude":11.9418},"BottomRight":{"Latitude":51.48306,"Longitude":11.94222}},"Address":{"Label":"06122 Halle (Saale), Deutschland","Country":"DEU","State":"Sachsen-Anhalt","County":"Halle (Saale)","City":"Halle (Saale)","District":"Neustadt","PostalCode":"06122","AdditionalData":[{"value":"Deutschland","key":"CountryName"},{"value":"Sachsen-Anhalt","key":"StateName"},{"value":"Halle (Saale)","key":"CountyName"}]},"MapReference":{"ReferenceId":"1036079940","Spot":0.76,"SideOfStreet":"right","CountryId":"20147700","StateId":"20194537","CountyId":"20195036","CityId":"20195037","DistrictId":"20195044"}}},{"Relevance":1.0,"Distance":56.0,"MatchLevel":"street","MatchQuality":{"Country":1.0,"State":1.0,"County":1.0,"City":1.0,"District":1.0,"Street":[1.0],"PostalCode":1.0},"Location":{"LocationId":"NT_s5TDkJTGLjTOGT-6lelg0C_l_1036079961_L","LocationType":"point","DisplayPosition":{"Latitude":51.4833,"Longitude":11.9418},"MapView":{"TopLeft":{"Latitude":51.4833,"Longitude":11.94066},"BottomRight":{"Latitude":51.48323,"Longitude":11.9418}},"Address":{"Label":"Am Meeresbrunnen, 06122 Halle (Saale), Deutschland","Country":"DEU","State":"Sachsen-Anhalt","County":"Halle (Saale)","City":"Halle (Saale)","District":"Neustadt","Street":"Am Meeresbrunnen","PostalCode":"06122","AdditionalData":[{"value":"Deutschland","key":"CountryName"},{"value":"Sachsen-Anhalt","key":"StateName"},{"value":"Halle (Saale)","key":"CountyName"}]},"MapReference":{"ReferenceId":"1036079961","Spot":1.0,"SideOfStreet":"left","CountryId":"20147700","StateId":"20194537","CountyId":"20195036","CityId":"20195037","DistrictId":"20195044"}}},{"Relevance":1.0,"Distance":64.1,"MatchLevel":"street","MatchQuality":{"Country":1.0,"State":1.0,"County":1.0,"City":1.0,"District":1.0,"Street":[1.0],"PostalCode":1.0},"Location":{"LocationId":"NT_uxxmDMQ-Bxqp-HU3q75nSD_l_1038312989_R","LocationType":"point","DisplayPosition":{"Latitude":51.48434,"Longitude":11.94162},"MapView":{"TopLeft":{"Latitude":51.48434,"Longitude":11.94109},"BottomRight":{"Latitude":51.4843,"Longitude":11.94162}},"Address":{"Label":"Zur Saaleaue, 06122 Halle (Saale), Deutschland","Country":"DEU","State":"Sachsen-Anhalt","County":"Halle (Saale)","City":"Halle (Saale)","District":"Neustadt","Street":"Zur Saaleaue","PostalCode":"06122","AdditionalData":[{"value":"Deutschland","key":"CountryName"},{"value":"Sachsen-Anhalt","key":"StateName"},{"value":"Halle (Saale)","key":"CountyName"}]},"MapReference":{"ReferenceId":"1038312989","Spot":1.0,"SideOfStreet":"right","CountryId":"20147700","StateId":"20194537","CountyId":"20195036","CityId":"20195037","DistrictId":"20195044"}}},{"Relevance":1.0,"Distance":65.3,"MatchLevel":"houseNumber","MatchQuality":{"Country":1.0,"State":1.0,"County":1.0,"City":1.0,"District":1.0,"Street":[1.0],"HouseNumber":1.0,"PostalCode":1.0},"MatchType":"interpolated","Location":{"LocationId":"NT_MfPNcTVj.u-VHxB6m2REqC_xA","LocationType":"point","DisplayPosition":{"Latitude":51.4832,"Longitude":11.94182},"MapView":{"TopLeft":{"Latitude":51.4843242,"Longitude":11.9400148},"BottomRight":{"Latitude":51.4820758,"Longitude":11.9436252}},"Address":{"Label":"Bodestraße 1, 06122 Halle (Saale), Deutschland","Country":"DEU","State":"Sachsen-Anhalt","County":"Halle (Saale)","City":"Halle (Saale)","District":"Neustadt","Street":"Bodestraße","HouseNumber":"1","PostalCode":"06122","AdditionalData":[{"value":"Deutschland","key":"CountryName"},{"value":"Sachsen-Anhalt","key":"StateName"},{"value":"Halle (Saale)","key":"CountyName"}]},"MapReference":{"ReferenceId":"1036079938","Spot":0.83,"SideOfStreet":"right","CountryId":"20147700","StateId":"20194537","CountyId":"20195036","CityId":"20195037","DistrictId":"20195044","AddressId":"185234772","RoadLinkId":"358019055"}}}]}]}}