{"Response":{"MetaInfo":{"Timestamp":"2020-03-28T12:05:23.547+0000","NextPageInformation":"2"},"View":[{"_type":"SearchResultsViewType","ViewId":0,"Result":[{"Relevance":1.0,"Distance":0.0,"Direction":0.0,"MatchLevel":"district","MatchQuality":{"Country":1.0,"State":1.0,"County":1.0,"City":1.0,"District":1.0,"PostalCode":1.0},"Location":{"LocationId":"NT_nWsWPtfRfj0zotspNrVRjD","LocationType":"point","DisplayPosition":{"Latitude":51.4743376,"Longitude":21.4448563},"MapView":{"TopLeft":{"Latitude":51.49962,"Longitude":21.40473},"BottomRight":{"Latitude":51.44486,"Longitude":21.50154}},"Address":{"Label":"Pionki, Woj. Mazowieckie, Polska","Country":"POL","State":"Woj. Mazowieckie","County":"Powiat Radomski","City":"Pionki","District":"Pionki","PostalCode":"26-670","AdditionalData":[{"value":"Polska","key":"CountryName"},{"value":"Woj. Mazowieckie","key":"StateName"},{"value":"Powiat Radomski","key":"CountyName"}]},"MapReference":{"ReferenceId":"596011856","SideOfStreet":"neither","CountryId":"20624059","StateId":"20627182","CountyId":"20627649","CityId":"20689208","DistrictId":"20689209"}}},{"Relevance":1.0,"Distance":12.5,"MatchLevel":"houseNumber","MatchQuality":{"Country":1.0,"State":1.0,"County":1.0,"City":1.0,"District":1.0,"Street":[1.0],"HouseNumber":1.0,"PostalCode":1.0},"MatchType":"interpolated","Location":{"LocationId":"NT_ReF9yHZwAuFo8KL67-JZqC_yME","LocationType":"point","DisplayPosition":{"Latitude":51.47452,"Longitude":21.44475},"MapView":{"TopLeft":{"Latitude":51.4756442,"Longitude":21.4429452},"BottomRight":{"Latitude":51.4733958,"Longitude":21.4465548}},"Address":{"Label":"ulica Niepodległości 2C, 26-670 Pionki, Polska","Country":"POL","State":"Woj. Mazowieckie","County":"Powiat Radomski","City":"Pionki","District":"Pionki","Street":"ulica Niepodległości","HouseNumber":"2C","PostalCode":"26-670","AdditionalData":[{"value":"Polska","key":"CountryName"},{"value":"Woj. Mazowieckie","key":"StateName"},{"value":"Powiat Radomski","key":"CountyName"}]},"MapReference":{"ReferenceId":"596012150","Spot":0.8,"SideOfStreet":"right","CountryId":"20624059","StateId":"20627182","CountyId":"20627649","CityId":"20689208","DistrictId":"20689209","AddressId":"732165047","RoadLinkId":"95558378"}}},{"Relevance":1.0,"Distance":55.7,"MatchLevel":"street","MatchQuality":{"Country":1.0,"State":1.0,"County":1.0,"City":1.0,"District":1.0,"Street":[1.0],"PostalCode":1.0},"Location":{"LocationId":"NT_daQw91wzg0ZmdfaVzWjNJD_l_596012180_R","LocationType":"point","DisplayPosition":{"Latitude":51.47411,"Longitude":21.44414},"MapView":{"TopLeft":{"Latitude":51.47411,"Longitude":21.44326},"BottomRight":{"Latitude":51.47362,"Longitude":21.44414}},"Address":{"Label":"ulica Niepodległości, 26-670 Pionki, Polska","Country":"POL","State":"Woj. Mazowieckie","County":"Powiat Radomski","City":"Pionki","District":"Pionki","Street":"ulica Niepodległości","PostalCode":"26-670","AdditionalData":[{"value":"Polska","key":"CountryName"},{"value":"Woj. Mazowieckie","key":"StateName"},{"value":"Powiat Radomski","key":"CountyName"}]},"MapReference":{"ReferenceId":"596012180","Spot":1.0,"SideOfStreet":"right","CountryId":"20624059","StateId":"20627182","CountyId":"20627649","CityId":"20689208","DistrictId":"20689209"}}},{"Relevance":1.0,"Distance":58.3,"MatchLevel":"houseNumber","MatchQuality":{"Country":1.0,"State":1.0,"County":1.0,"City":1.0,"District":1.0,"Street":[1.0],"HouseNumber":1.0,"PostalCode":1.0},"MatchType":"interpolated","Location":{"LocationId":"NT_ReF9yHZwAuFo8KL67-JZqC_xA","LocationType":"point","DisplayPosition":{"Latitude":51.47481,"Longitude":21.44522},"MapView":{"TopLeft":{"Latitude":51.4759342,"Longitude":21.4434152},"BottomRight":{"Latitude":51.4736858,"Longitude":21.4470248}},"Address":{"Label":"ulica Niepodległości 1, 26-670 Pionki, Polska","Country":"POL","State":"Woj. Mazowieckie","County":"Powiat Radomski","City":"Pionki","District":"Pionki","Street":"ulica Niepodległości","HouseNumber":"1","PostalCode":"26-670","AdditionalData":[{"value":"Polska","key":"CountryName"},{"value":"Woj. Mazowieckie","key":"StateName"},{"value":"Powiat Radomski","key":"CountyName"}]},"MapReference":{"ReferenceId":"596012123","Spot":0.14,"SideOfStreet":"left","CountryId":"20624059","StateId":"20627182","CountyId":"20627649","CityId":"20689208","DistrictId":"20689209","AddressId":"210279110","RoadLinkId":"95838666"}}},{"Relevance":1.0,"Distance":66.4,"MatchLevel":"houseNumber","MatchQuality":{"Country":1.0,"State":1.0,"County":1.0,"City":1.0,"District":1.0,"Street":[1.0],"HouseNumber":1.0,"PostalCode":1.0},"MatchType":"interpolated","Location":{"LocationId":"NT_vY8J8iTIIxmzxqKm3AvnLD_yIE","LocationType":"point","DisplayPosition":{"Latitude":51.47421,"Longitude":21.44383},"MapView":{"TopLeft":{"Latitude":51.4753342,"Longitude":21.4420252},"BottomRight":{"Latitude":51.4730858,"Longitude":21.4456348}},"Address":{"Label":"ulica Kozienicka 2B, 26-670 Pionki, Polska","Country":"POL","State":"Woj. Mazowieckie","County":"Powiat Radomski","City":"Pionki","District":"Pionki","Street":"ulica Kozienicka","HouseNumber":"2B","PostalCode":"26-670","AdditionalData":[{"value":"Polska","key":"CountryName"},{"value":"Woj. Mazowieckie","key":"StateName"},{"value":"Powiat Radomski","key":"CountyName"}]},"MapReference":{"ReferenceId":"596012151","Spot":0.08,"SideOfStreet":"right","CountryId":"20624059","StateId":"20627182","CountyId":"20627649","CityId":"20689208","DistrictId":"20689209","AddressId":"210628902","RoadLinkId":"95781301"}}},{"Relevance":1.0,"Distance":73.1,"MatchLevel":"street","MatchQuality":{"Country":1.0,"State":1.0,"County":1.0,"City":1.0,"District":1.0,"Street":[1.0],"PostalCode":1.0},"Location":{"LocationId":"NT_vY8J8iTIIxmzxqKm3AvnLD_l_596012187_R","LocationType":"point","DisplayPosition":{"Latitude":51.47377,"Longitude":21.44539},"MapView":{"TopLeft":{"Latitude":51.47377,"Longitude":21.44539},"BottomRight":{"Latitude":51.47365,"Longitude":21.44601}},"Address":{"Label":"ulica Kozienicka, 26-670 Pionki, Polska","Country":"POL","State":"Woj. Mazowieckie","County":"Powiat Radomski","City":"Pionki","District":"Pionki","Street":"ulica Kozienicka","PostalCode":"26-670","AdditionalData":[{"value":"Polska","key":"CountryName"},{"value":"Woj. Mazowieckie","key":"StateName"},{"value":"Powiat Radomski","key":"CountyName"}]},"MapReference":{"ReferenceId":"596012187","Spot":1.0,"SideOfStreet":"right","CountryId":"20624059","StateId":"20627182","CountyId":"20627649","CityId":"20689208","DistrictId":"20689209"}}},{"Relevance":1.0,"Distance":79.6,"MatchLevel":"houseNumber","MatchQuality":{"Country":1.0,"State":1.0,"County":1.0,"City":1.0,"District":1.0,"Street":[1.0],"HouseNumber":1.0,"PostalCode":1.0},"MatchType":"interpolated","Location":{"LocationId":"NT_-mwlBuVIwrS0sR6dlBf3JA_xEE","LocationType":"point","DisplayPosition":{"Latitude":51.47486,"Longitude":21.44407},"MapView":{"TopLeft":{"Latitude":51.4759842,"Longitude":21.4422652},"BottomRight":{"Latitude":51.4737358,"Longitude":21.4458748}},"Address":{"Label":"ulica Szpitalna 1A, 26-670 Pionki, Polska","Country":"POL","State":"Woj. Mazowieckie","County":"Powiat Radomski","City":"Pionki","District":"Pionki","Street":"ulica Szpitalna","HouseNumber":"1A","PostalCode":"26-670","AdditionalData":[{"value":"Polska","key":"CountryName"},{"value":"Woj. Mazowieckie","key":"StateName"},{"value":"Powiat Radomski","key":"CountyName"}]},"MapReference":{"ReferenceId":"596012124","Spot":0.57,"SideOfStreet":"left","CountryId":"20624059","StateId":"20627182","CountyId":"20627649","CityId":"20689208","DistrictId":"20689209","AddressId":"732039939","RoadLinkId":"95538887"}}},{"Relevance":1.0,"Distance":109.8,"MatchLevel":"street","MatchQuality":{"Country":1.0,"State":1.0,"County":1.0,"City":1.0,"District":1.0,"Street":[1.0],"PostalCode":1.0},"Location":{"LocationId":"NT_nu9aX2h0x559-Wl95NOkMC_l_979650415_L","LocationType":"point","DisplayPosition":{"Latitude":51.47354,"Longitude":21.44579},"MapView":{"TopLeft":{"Latitude":51.47365,"Longitude":21.44579},"BottomRight":{"Latitude":51.47354,"Longitude":21.44601}},"Address":{"Label":"ulica Jana Pawła II, 26-670 Pionki, Polska","Country":"POL","State":"Woj. Mazowieckie","County":"Powiat Radomski","City":"Pionki","District":"Pionki","Street":"ulica Jana Pawła II","PostalCode":"26-670","AdditionalData":[{"value":"Polska","key":"CountryName"},{"value":"Woj. Mazowieckie","key":"StateName"},{"value":"Powiat Radomski","key":"CountyName"}]},"MapReference":{"ReferenceId":"979650415","Spot":0.0,"SideOfStreet":"left","CountryId":"20624059","StateId":"20627182","CountyId":"20627649","CityId":"20689208","DistrictId":"20689209"}}},{"Relevance":1.0,"Distance":113.2,"MatchLevel":"street","MatchQuality":{"Country":1.0,"State":1.0,"County":1.0,"City":1.0,"District":1.0,"Street":[1.0],"PostalCode":1.0},"Location":{"LocationId":"NT_R66xxxG267UTgFIAQ5OCyD_l_779257974_R","LocationType":"point","DisplayPosition":{"Latitude":51.47341,"Longitude":21.44553},"MapView":{"TopLeft":{"Latitude":51.47341,"Longitude":21.44553},"BottomRight":{"Latitude":51.47325,"Longitude":21.4457}},"Address":{"Label":"ulica Janusza Korczaka, 26-670 Pionki, Polska","Country":"POL","State":"Woj. Mazowieckie","County":"Powiat Radomski","City":"Pionki","District":"Pionki","Street":"ulica Janusza Korczaka","PostalCode":"26-670","AdditionalData":[{"value":"Polska","key":"CountryName"},{"value":"Woj. Mazowieckie","key":"StateName"},{"value":"Powiat Radomski","key":"CountyName"}]},"MapReference":{"ReferenceId":"779257974","Spot":1.0,"SideOfStreet":"right","CountryId":"20624059","StateId":"20627182","CountyId":"20627649","CityId":"20689208","DistrictId":"20689209"}}},{"Relevance":1.0,"Distance":113.2,"MatchLevel":"street","MatchQuality":{"Country":1.0,"State":1.0,"County":1.0,"City":1.0,"District":1.0,"Street":[1.0],"PostalCode":1.0},"Location":{"LocationId":"NT_nu9aX2h0x559-Wl95NOkMC_l_979650414_L","LocationType":"point","DisplayPosition":{"Latitude":51.47341,"Longitude":21.44553},"MapView":{"TopLeft":{"Latitude":51.47354,"Longitude":21.44553},"BottomRight":{"Latitude":51.47341,"Longitude":21.44579}},"Address":{"Label":"ulica Jana Pawła II, 26-670 Pionki, Polska","Country":"POL","State":"Woj. Mazowieckie","County":"Powiat Radomski","City":"Pionki","District":"Pionki","Street":"ulica Jana Pawła II","PostalCode":"26-670","AdditionalData":[{"value":"Polska","key":"CountryName"},{"value":"Woj. Mazowieckie","key":"StateName"},{"value":"Powiat Radomski","key":"CountyName"}]},"MapReference":{"ReferenceId":"979650414","Spot":0.0,"SideOfStreet":"left","CountryId":"20624059","StateId":"20627182","CountyId":"20627649","CityId":"20689208","DistrictId":"20689209"}}}]}]}}