{"Response":{"MetaInfo":{"Timestamp":"2020-03-28T10:55:02.514+0000","NextPageInformation":"2"},"View":[{"_type":"SearchResultsViewType","ViewId":0,"Result":[{"Relevance":1.0,"Distance":0.0,"Direction":0.0,"MatchLevel":"district","MatchQuality":{"Country":1.0,"State":1.0,"County":1.0,"City":1.0,"District":1.0,"PostalCode":1.0},"Location":{"LocationId":"NT_1g8M7LX0Be7T1O3M.JYewB","LocationType":"point","DisplayPosition":{"Latitude":51.4309115,"Longitude":11.0288662},"MapView":{"TopLeft":{"Latitude":51.43982,"Longitude":11.02804},"BottomRight":{"Latitude":51.42971,"Longitude":11.05381}},"Address":{"Label":"Kelbra (Kyffhäuser), Sachsen-Anhalt, Deutschland","Country":"DEU","State":"Sachsen-Anhalt","County":"Mansfeld-Südharz","City":"Kelbra (Kyffhäuser)","District":"Kelbra (Kyffhäuser)","PostalCode":"06537","AdditionalData":[{"value":"Deutschland","key":"CountryName"},{"value":"Sachsen-Anhalt","key":"StateName"},{"value":"Mansfeld-Südharz","key":"CountyName"}]},"MapReference":{"ReferenceId":"909601767","SideOfStreet":"neither","CountryId":"20147700","StateId":"20194537","CountyId":"20195460","CityId":"20195258","DistrictId":"20195260"}}},{"Relevance":1.0,"Distance":5.9,"MatchLevel":"street","MatchQuality":{"Country":1.0,"State":1.0,"County":1.0,"City":1.0,"District":1.0,"Street":[1.0],"PostalCode":1.0},"Location":{"LocationId":"NT_W0aclnNDqrf5ZGmvZRlJVA_l_565000187_R","LocationType":"point","DisplayPosition":{"Latitude":51.4308787,"Longitude":11.0287993},"MapView":{"TopLeft":{"Latitude":51.43125,"Longitude":11.02851},"BottomRight":{"Latitude":51.43049,"Longitude":11.02899}},"Address":{"Label":"Lange Straße, 06537 Kelbra (Kyffhäuser), Deutschland","Country":"DEU","State":"Sachsen-Anhalt","County":"Mansfeld-Südharz","City":"Kelbra (Kyffhäuser)","District":"Kelbra (Kyffhäuser)","Street":"Lange Straße","PostalCode":"06537","AdditionalData":[{"value":"Deutschland","key":"CountryName"},{"value":"Sachsen-Anhalt","key":"StateName"},{"value":"Mansfeld-Südharz","key":"CountyName"}]},"MapReference":{"ReferenceId":"565000187","Spot":0.48,"SideOfStreet":"right","CountryId":"20147700","StateId":"20194537","CountyId":"20195460","CityId":"20195258","DistrictId":"20195260"}}},{"Relevance":1.0,"Distance":45.0,"MatchLevel":"street","MatchQuality":{"Country":1.0,"State":1.0,"County":1.0,"City":1.0,"Street":[1.0],"PostalCode":1.0},"Location":{"LocationId":"NT_EQt8cyE1NBZ8neY1bXCwxD_l_592190292_R","LocationType":"point","DisplayPosition":{"Latitude":51.43125,"Longitude":11.02851},"MapView":{"TopLeft":{"Latitude":51.43125,"Longitude":11.02777},"BottomRight":{"Latitude":51.43084,"Longitude":11.02851}},"Address":{"Label":"Lange Straße, 06537 Kelbra (Kyffhäuser), Deutschland","Country":"DEU","State":"Sachsen-Anhalt","County":"Mansfeld-Südharz","City":"Kelbra (Kyffhäuser)","Street":"Lange Straße","PostalCode":"06537","AdditionalData":[{"value":"Deutschland","key":"CountryName"},{"value":"Sachsen-Anhalt","key":"StateName"},{"value":"Mansfeld-Südharz","key":"CountyName"}]},"MapReference":{"ReferenceId":"592190292","Spot":1.0,"SideOfStreet":"right","CountryId":"20147700","StateId":"20194537","CountyId":"20195460","CityId":"20195258"}}},{"Relevance":1.0,"Distance":47.6,"MatchLevel":"street","MatchQuality":{"Country":1.0,"State":1.0,"County":1.0,"City":1.0,"District":1.0,"Street":[1.0],"PostalCode":1.0},"Location":{"LocationId":"NT_W0aclnNDqrf5ZGmvZRlJVA_l_565000190_R","LocationType":"point","DisplayPosition":{"Latitude":51.43049,"Longitude":11.02899},"MapView":{"TopLeft":{"Latitude":51.43049,"Longitude":11.02899},"BottomRight":{"Latitude":51.42998,"Longitude":11.02923}},"Address":{"Label":"Lange Straße, 06537 Kelbra (Kyffhäuser), Deutschland","Country":"DEU","State":"Sachsen-Anhalt","County":"Mansfeld-Südharz","City":"Kelbra (Kyffhäuser)","District":"Kelbra (Kyffhäuser)","Street":"Lange Straße","PostalCode":"06537","AdditionalData":[{"value":"Deutschland","key":"CountryName"},{"value":"Sachsen-Anhalt","key":"StateName"},{"value":"Mansfeld-Südharz","key":"CountyName"}]},"MapReference":{"ReferenceId":"565000190","Spot":1.0,"SideOfStreet":"right","CountryId":"20147700","StateId":"20194537","CountyId":"20195460","CityId":"20195258","DistrictId":"20195260"}}},{"Relevance":1.0,"Distance":48.1,"MatchLevel":"street","MatchQuality":{"Country":1.0,"State":1.0,"County":1.0,"City":1.0,"District":1.0,"Street":[1.0],"PostalCode":1.0},"Location":{"LocationId":"NT_6hh9FUjhZUN8eM33uEhZDB_l_565000095_R","LocationType":"point","DisplayPosition":{"Latitude":51.4313256,"Longitude":11.0286681},"MapView":{"TopLeft":{"Latitude":51.43136,"Longitude":11.02851},"BottomRight":{"Latitude":51.43125,"Longitude":11.02874}},"Address":{"Label":"Lange Straße, 06537 Kelbra (Kyffhäuser), Deutschland","Country":"DEU","State":"Sachsen-Anhalt","County":"Mansfeld-Südharz","City":"Kelbra (Kyffhäuser)","District":"Kelbra (Kyffhäuser)","Street":"Lange Straße","PostalCode":"06537","AdditionalData":[{"value":"Deutschland","key":"CountryName"},{"value":"Sachsen-Anhalt","key":"StateName"},{"value":"Mansfeld-Südharz","key":"CountyName"}]},"MapReference":{"ReferenceId":"565000095","Spot":0.69,"SideOfStreet":"right","CountryId":"20147700","StateId":"20194537","CountyId":"20195460","CityId":"20195258","DistrictId":"20195260"}}},{"Relevance":1.0,"Distance":50.6,"MatchLevel":"street","MatchQuality":{"Country":1.0,"State":1.0,"County":1.0,"City":1.0,"District":1.0,"PostalCode":1.0},"Location":{"LocationId":"NT_qxELiYtTKrL1Qeu3wk7gpC_l_541323851_L","LocationType":"point","DisplayPosition":{"Latitude":51.43136,"Longitude":11.02874},"MapView":{"TopLeft":{"Latitude":51.43154,"Longitude":11.02804},"BottomRight":{"Latitude":51.43136,"Longitude":11.02874}},"Address":{"Label":"06537 Kelbra (Kyffhäuser), Deutschland","Country":"DEU","State":"Sachsen-Anhalt","County":"Mansfeld-Südharz","City":"Kelbra (Kyffhäuser)","District":"Kelbra (Kyffhäuser)","PostalCode":"06537","AdditionalData":[{"value":"Deutschland","key":"CountryName"},{"value":"Sachsen-Anhalt","key":"StateName"},{"value":"Mansfeld-Südharz","key":"CountyName"}]},"MapReference":{"ReferenceId":"541323851","Spot":0.0,"SideOfStreet":"left","CountryId":"20147700","StateId":"20194537","CountyId":"20195460","CityId":"20195258","DistrictId":"20195260"}}},{"Relevance":1.0,"Distance":54.7,"MatchLevel":"houseNumber","MatchQuality":{"Country":1.0,"State":1.0,"County":1.0,"City":1.0,"District":1.0,"Street":[1.0],"HouseNumber":1.0,"PostalCode":1.0},"MatchType":"interpolated","Location":{"LocationId":"NT_W0aclnNDqrf5ZGmvZRlJVA_xETM","LocationType":"point","DisplayPosition":{"Latitude":51.43061,"Longitude":11.02949},"MapView":{"TopLeft":{"Latitude":51.4317342,"Longitude":11.0276869},"BottomRight":{"Latitude":51.4294858,"Longitude":11.0312931}},"Address":{"Label":"Lange Straße 111, 06537 Kelbra (Kyffhäuser), Deutschland","Country":"DEU","State":"Sachsen-Anhalt","County":"Mansfeld-Südharz","City":"Kelbra (Kyffhäuser)","District":"Kelbra (Kyffhäuser)","Street":"Lange Straße","HouseNumber":"111","PostalCode":"06537","AdditionalData":[{"value":"Deutschland","key":"CountryName"},{"value":"Sachsen-Anhalt","key":"StateName"},{"value":"Mansfeld-Südharz","key":"CountyName"}]},"MapReference":{"ReferenceId":"565000188","Spot":1.0,"SideOfStreet":"right","CountryId":"20147700","StateId":"20194537","CountyId":"20195460","CityId":"20195258","DistrictId":"20195260","AddressId":"208184628","RoadLinkId":"37365773"}}},{"Relevance":1.0,"Distance":76.4,"MatchLevel":"street","MatchQuality":{"Country":1.0,"State":1.0,"County":1.0,"City":1.0,"Street":[1.0],"PostalCode":1.0},"Location":{"LocationId":"NT_njGHE.8VWyrRZLJakUJpgB_l_841327771_R","LocationType":"point","DisplayPosition":{"Latitude":51.43084,"Longitude":11.02777},"MapView":{"TopLeft":{"Latitude":51.43084,"Longitude":11.02373},"BottomRight":{"Latitude":51.42896,"Longitude":11.02777}},"Address":{"Label":"Lange Straße, 06537 Kelbra (Kyffhäuser), Deutschland","Country":"DEU","State":"Sachsen-Anhalt","County":"Mansfeld-Südharz","City":"Kelbra (Kyffhäuser)","Street":"Lange Straße","PostalCode":"06537","AdditionalData":[{"value":"Deutschland","key":"CountryName"},{"value":"Sachsen-Anhalt","key":"StateName"},{"value":"Mansfeld-Südharz","key":"CountyName"}]},"MapReference":{"ReferenceId":"841327771","Spot":1.0,"SideOfStreet":"right","CountryId":"20147700","StateId":"20194537","CountyId":"20195460","CityId":"20195258"}}},{"Relevance":1.0,"Distance":90.4,"MatchLevel":"street","MatchQuality":{"Country":1.0,"State":1.0,"County":1.0,"City":1.0,"PostalCode":1.0},"Location":{"LocationId":"NT_frp7cLuGi5ywgZ89HYzPRD_l_541323850_L","LocationType":"point","DisplayPosition":{"Latitude":51.43154,"Longitude":11.02804},"MapView":{"TopLeft":{"Latitude":51.43275,"Longitude":11.02558},"BottomRight":{"Latitude":51.43154,"Longitude":11.02804}},"Address":{"Label":"06537 Kelbra (Kyffhäuser), Deutschland","Country":"DEU","State":"Sachsen-Anhalt","County":"Mansfeld-Südharz","City":"Kelbra (Kyffhäuser)","PostalCode":"06537","AdditionalData":[{"value":"Deutschland","key":"CountryName"},{"value":"Sachsen-Anhalt","key":"StateName"},{"value":"Mansfeld-Südharz","key":"CountyName"}]},"MapReference":{"ReferenceId":"541323850","Spot":0.0,"SideOfStreet":"left","CountryId":"20147700","StateId":"20194537","CountyId":"20195460","CityId":"20195258"}}},{"Relevance":1.0,"Distance":106.6,"MatchLevel":"street","MatchQuality":{"Country":1.0,"State":1.0,"County":1.0,"City":1.0,"District":1.0,"Street":[1.0],"PostalCode":1.0},"Location":{"LocationId":"NT_W0aclnNDqrf5ZGmvZRlJVA_l_565000191_L","LocationType":"point","DisplayPosition":{"Latitude":51.42998,"Longitude":11.02923},"MapView":{"TopLeft":{"Latitude":51.43018,"Longitude":11.02923},"BottomRight":{"Latitude":51.42998,"Longitude":11.03019}},"Address":{"Label":"Lange Straße, 06537 Kelbra (Kyffhäuser), Deutschland","Country":"DEU","State":"Sachsen-Anhalt","County":"Mansfeld-Südharz","City":"Kelbra (Kyffhäuser)","District":"Kelbra (Kyffhäuser)","Street":"Lange Straße","PostalCode":"06537","AdditionalData":[{"value":"Deutschland","key":"CountryName"},{"value":"Sachsen-Anhalt","key":"StateName"},{"value":"Mansfeld-Südharz","key":"CountyName"}]},"MapReference":{"ReferenceId":"565000191","Spot":0.0,"SideOfStreet":"left","CountryId":"20147700","StateId":"20194537","CountyId":"20195460","CityId":"20195258","DistrictId":"20195260"}}}]}]}}