{"Response":{"MetaInfo":{"Timestamp":"2020-03-28T09:50:21.542+0000","NextPageInformation":"2"},"View":[{"_type":"SearchResultsViewType","ViewId":0,"Result":[{"Relevance":1.0,"Distance":0.0,"Direction":0.0,"MatchLevel":"city","MatchQuality":{"Country":1.0,"State":1.0,"County":1.0,"City":1.0,"PostalCode":1.0},"Location":{"LocationId":"NT_pjVevA4jf8qwncDBJ8mrdC","LocationType":"point","DisplayPosition":{"Latitude":51.4515121,"Longitude":-0.4301562},"MapView":{"TopLeft":{"Latitude":51.50259,"Longitude":-0.46149},"BottomRight":{"Latitude":51.42074,"Longitude":-0.24343}},"Address":{"Label":"Hounslow, England, United Kingdom","Country":"GBR","State":"England","County":"Middlesex","City":"Hounslow","PostalCode":"TW3 3","AdditionalData":[{"value":"United Kingdom","key":"CountryName"},{"value":"England","key":"StateName"},{"value":"Middlesex","key":"CountyName"}]},"MapReference":{"ReferenceId":"759071326","SideOfStreet":"neither","StateId":"20248595","CountyId":"20337579","CityId":"20337607"}}},{"Relevance":1.0,"Distance":26.2,"MatchLevel":"houseNumber","MatchQuality":{"Country":1.0,"State":1.0,"County":1.0,"City":1.0,"District":1.0,"Street":[1.0],"HouseNumber":1.0,"PostalCode":1.0},"MatchType":"interpolated","Location":{"LocationId":"NT_UVnVFqeS2gNoD0xmNmZl0C_4ED","LocationType":"point","DisplayPosition":{"Latitude":51.4512,"Longitude":-0.42968},"MapView":{"TopLeft":{"Latitude":51.4523242,"Longitude":-0.4314839},"BottomRight":{"Latitude":51.4500758,"Longitude":-0.4278761}},"Address":{"Label":"81 Beech Road, Feltham, TW14 8AJ, United Kingdom","Country":"GBR","State":"England","County":"Middlesex","City":"Feltham","District":"Feltham","Street":"Beech Road","HouseNumber":"81","PostalCode":"TW14 8AJ","AdditionalData":[{"value":"United Kingdom","key":"CountryName"},{"value":"England","key":"StateName"},{"value":"Middlesex","key":"CountyName"}]},"MapReference":{"ReferenceId":"25323081","Spot":1.0,"SideOfStreet":"left","StateId":"20248595","CountyId":"20337579","CityId":"20337589","DistrictId":"20337590","AddressId":"749722361","RoadLinkId":"82699836"}}},{"Relevance":1.0,"Distance":57.7,"MatchLevel":"houseNumber","MatchQuality":{"Country":1.0,"State":1.0,"County":1.0,"City":1.0,"District":1.0,"Street":[1.0],"HouseNumber":1.0,"PostalCode":1.0},"MatchType":"interpolated","Location":{"LocationId":"NT_g6Nw959fav0N.Hl5MuV.XD_ygD","LocationType":"point","DisplayPosition":{"Latitude":51.45182,"Longitude":-0.42917},"MapView":{"TopLeft":{"Latitude":51.4529442,"Longitude":-0.4309739},"BottomRight":{"Latitude":51.4506958,"Longitude":-0.4273661}},"Address":{"Label":"28 Imperial Road, Feltham, TW14 8AG, United Kingdom","Country":"GBR","State":"England","County":"Middlesex","City":"Feltham","District":"Feltham","Street":"Imperial Road","HouseNumber":"28","PostalCode":"TW14 8AG","AdditionalData":[{"value":"United Kingdom","key":"CountryName"},{"value":"England","key":"StateName"},{"value":"Middlesex","key":"CountyName"}]},"MapReference":{"ReferenceId":"25322995","Spot":0.86,"SideOfStreet":"left","StateId":"20248595","CountyId":"20337579","CityId":"20337589","DistrictId":"20337590","AddressId":"749559808","RoadLinkId":"82326735"}}},{"Relevance":1.0,"Distance":63.4,"MatchLevel":"houseNumber","MatchQuality":{"Country":1.0,"State":1.0,"County":1.0,"City":1.0,"District":1.0,"Street":[1.0],"HouseNumber":1.0,"PostalCode":1.0},"MatchType":"interpolated","Location":{"LocationId":"NT_g6Nw959fav0N.Hl5MuV.XD_yID","LocationType":"point","DisplayPosition":{"Latitude":51.45205,"Longitude":-0.42941},"MapView":{"TopLeft":{"Latitude":51.4531742,"Longitude":-0.4312139},"BottomRight":{"Latitude":51.4509258,"Longitude":-0.4276061}},"Address":{"Label":"22 Imperial Road, Feltham, TW14 8AG, United Kingdom","Country":"GBR","State":"England","County":"Middlesex","City":"Feltham","District":"Feltham","Street":"Imperial Road","HouseNumber":"22","PostalCode":"TW14 8AG","AdditionalData":[{"value":"United Kingdom","key":"CountryName"},{"value":"England","key":"StateName"},{"value":"Middlesex","key":"CountyName"}]},"MapReference":{"ReferenceId":"25322954","Spot":0.14,"SideOfStreet":"left","StateId":"20248595","CountyId":"20337579","CityId":"20337589","DistrictId":"20337590","AddressId":"749652562","RoadLinkId":"82854887"}}},{"Relevance":1.0,"Distance":64.1,"MatchLevel":"houseNumber","MatchQuality":{"Country":1.0,"State":1.0,"County":1.0,"City":1.0,"District":1.0,"Street":[1.0],"HouseNumber":1.0,"PostalCode":1.0},"MatchType":"interpolated","Location":{"LocationId":"NT_UVnVFqeS2gNoD0xmNmZl0C_0kD","LocationType":"point","DisplayPosition":{"Latitude":51.45067,"Longitude":-0.43072},"MapView":{"TopLeft":{"Latitude":51.4517942,"Longitude":-0.4325239},"BottomRight":{"Latitude":51.4495458,"Longitude":-0.4289161}},"Address":{"Label":"49 Beech Road, Feltham, TW14 8AH, United Kingdom","Country":"GBR","State":"England","County":"Middlesex","City":"Feltham","District":"Feltham","Street":"Beech Road","HouseNumber":"49","PostalCode":"TW14 8AH","AdditionalData":[{"value":"United Kingdom","key":"CountryName"},{"value":"England","key":"StateName"},{"value":"Middlesex","key":"CountyName"}]},"MapReference":{"ReferenceId":"865434977","Spot":1.0,"SideOfStreet":"right","StateId":"20248595","CountyId":"20337579","CityId":"20337589","DistrictId":"20337590","AddressId":"749551303","RoadLinkId":"238749327"}}},{"Relevance":1.0,"Distance":64.9,"MatchLevel":"houseNumber","MatchQuality":{"Country":1.0,"State":1.0,"County":1.0,"City":1.0,"District":1.0,"Street":[1.0],"HouseNumber":1.0,"PostalCode":1.0},"MatchType":"interpolated","Location":{"LocationId":"NT_kj73N5CWK3ENzq2kPCOvLA_ycD","LocationType":"point","DisplayPosition":{"Latitude":51.45149,"Longitude":-0.4314},"MapView":{"TopLeft":{"Latitude":51.4526142,"Longitude":-0.4332039},"BottomRight":{"Latitude":51.4503658,"Longitude":-0.4295961}},"Address":{"Label":"27 Fairholme, Feltham, TW14 8, United Kingdom","Country":"GBR","State":"England","County":"Middlesex","City":"Feltham","District":"Feltham","Street":"Fairholme","HouseNumber":"27","PostalCode":"TW14 8","AdditionalData":[{"value":"United Kingdom","key":"CountryName"},{"value":"England","key":"StateName"},{"value":"Middlesex","key":"CountyName"}]},"MapReference":{"ReferenceId":"941270706","Spot":0.33,"SideOfStreet":"right","StateId":"20248595","CountyId":"20337579","CityId":"20337589","DistrictId":"20337590","AddressId":"763617895","RoadLinkId":"291308337"}}},{"Relevance":1.0,"Distance":74.2,"MatchLevel":"postalCode","MatchQuality":{"PostalCode":1.0},"MatchType":"interpolated","Location":{"LocationId":"NT_g6Nw959fav0N.Hl5MuV.XD_ygD","LocationType":"point","DisplayPosition":{"Latitude":51.45174,"Longitude":-0.42915},"MapView":{"TopLeft":{"Latitude":51.4607332,"Longitude":-0.4435813},"BottomRight":{"Latitude":51.4427468,"Longitude":-0.4147187}},"Address":{"Label":"TW14 8AG, Feltham, England, United Kingdom","Country":"GBR","State":"England","County":"Middlesex","City":"Feltham","PostalCode":"TW14 8AG","AdditionalData":[{"value":"United Kingdom","key":"CountryName"},{"value":"England","key":"StateName"},{"value":"Middlesex","key":"CountyName"}]},"MapReference":{"ReferenceId":"25322995","Spot":0.86,"SideOfStreet":"neither","StateId":"20248595","CountyId":"20337579","CityId":"20337589"}}},{"Relevance":1.0,"Distance":76.8,"MatchLevel":"postalCode","MatchQuality":{"PostalCode":1.0},"MatchType":"interpolated","Location":{"LocationId":"NT_UVnVFqeS2gNoD0xmNmZl0C_4ED","LocationType":"point","DisplayPosition":{"Latitude":51.45093,"Longitude":-0.42956},"MapView":{"TopLeft":{"Latitude":51.4599232,"Longitude":-0.4439911},"BottomRight":{"Latitude":51.4419368,"Longitude":-0.4151289}},"Address":{"Label":"TW14 8AJ, Feltham, England, United Kingdom","Country":"GBR","State":"England","County":"Middlesex","City":"Feltham","PostalCode":"TW14 8AJ","AdditionalData":[{"value":"United Kingdom","key":"CountryName"},{"value":"England","key":"StateName"},{"value":"Middlesex","key":"CountyName"}]},"MapReference":{"ReferenceId":"25323081","Spot":1.0,"SideOfStreet":"neither","StateId":"20248595","CountyId":"20337579","CityId":"20337589"}}},{"Relevance":1.0,"Distance":92.2,"MatchLevel":"postalCode","MatchQuality":{"PostalCode":1.0},"MatchType":"interpolated","Location":{"LocationId":"NT_g6Nw959fav0N.Hl5MuV.XD_yID","LocationType":"point","DisplayPosition":{"Latitude":51.45224,"Longitude":-0.42952},"MapView":{"TopLeft":{"Latitude":51.4612332,"Longitude":-0.4439515},"BottomRight":{"Latitude":51.4432468,"Longitude":-0.4150885}},"Address":{"Label":"TW14 8AF, Feltham, England, United Kingdom","Country":"GBR","State":"England","County":"Middlesex","City":"Feltham","PostalCode":"TW14 8AF","AdditionalData":[{"value":"United Kingdom","key":"CountryName"},{"value":"England","key":"StateName"},{"value":"Middlesex","key":"CountyName"}]},"MapReference":{"ReferenceId":"25322954","Spot":0.14,"SideOfStreet":"neither","StateId":"20248595","CountyId":"20337579","CityId":"20337589"}}},{"Relevance":1.0,"Distance":94.2,"MatchLevel":"houseNumber","MatchQuality":{"Country":1.0,"State":1.0,"County":1.0,"City":1.0,"District":1.0,"Street":[1.0],"HouseNumber":1.0,"PostalCode":1.0},"MatchType":"interpolated","Location":{"LocationId":"NT_g6Nw959fav0N.Hl5MuV.XD_0ID","LocationType":"point","DisplayPosition":{"Latitude":51.45131,"Longitude":-0.42868},"MapView":{"TopLeft":{"Latitude":51.4524342,"Longitude":-0.4304839},"BottomRight":{"Latitude":51.4501858,"Longitude":-0.4268761}},"Address":{"Label":"42 Imperial Road, Feltham, TW14 8AG, United Kingdom","Country":"GBR","State":"England","County":"Middlesex","City":"Feltham","District":"Feltham","Street":"Imperial Road","HouseNumber":"42","PostalCode":"TW14 8AG","AdditionalData":[{"value":"United Kingdom","key":"CountryName"},{"value":"England","key":"StateName"},{"value":"Middlesex","key":"CountyName"}]},"MapReference":{"ReferenceId":"25323020","Spot":0.94,"SideOfStreet":"left","StateId":"20248595","CountyId":"20337579","CityId":"20337589","DistrictId":"20337590","AddressId":"749588408","RoadLinkId":"82457403"}}}]}]}}