{"Response":{"MetaInfo":{"Timestamp":"2020-03-28T10:09:25.285+0000","NextPageInformation":"2"},"View":[{"_type":"SearchResultsViewType","ViewId":0,"Result":[{"Relevance":1.0,"Distance":0.0,"Direction":0.0,"MatchLevel":"district","MatchQuality":{"Country":1.0,"State":1.0,"County":1.0,"City":1.0,"District":1.0,"PostalCode":1.0},"Location":{"LocationId":"NT_CQRQzE5rNLhiInzDh-fjLB","LocationType":"point","DisplayPosition":{"Latitude":51.4734047,"Longitude":-0.0875895},"MapView":{"TopLeft":{"Latitude":51.48829,"Longitude":-0.11084},"BottomRight":{"Latitude":51.45883,"Longitude":-0.07553}},"Address":{"Label":"SE5, London, England, United Kingdom","Country":"GBR","State":"England","County":"London","City":"London","District":"SE5","PostalCode":"SE5 7","AdditionalData":[{"value":"United Kingdom","key":"CountryName"},{"value":"England","key":"StateName"},{"value":"London","key":"CountyName"}]},"MapReference":{"ReferenceId":"1183021608","SideOfStreet":"neither","StateId":"20248595","CountyId":"20337453","CityId":"20337454","DistrictId":"20337537"}}},{"Relevance":1.0,"Distance":6.2,"MatchLevel":"houseNumber","MatchQuality":{"Country":1.0,"State":1.0,"County":1.0,"City":1.0,"District":1.0,"Street":[1.0],"HouseNumber":1.0,"PostalCode":1.0},"MatchType":"interpolated","Location":{"LocationId":"NT_wbTZ9RYC5sCeaRrGFmYmSC_4ID","LocationType":"point","DisplayPosition":{"Latitude":51.47352,"Longitude":-0.08758},"MapView":{"TopLeft":{"Latitude":51.4746442,"Longitude":-0.0893848},"BottomRight":{"Latitude":51.4723958,"Longitude":-0.0857752}},"Address":{"Label":"82 Camberwell Church Street, London, SE5 8, United Kingdom","Country":"GBR","State":"England","County":"London","City":"London","District":"Camberwell","Street":"Camberwell Church Street","HouseNumber":"82","PostalCode":"SE5 8","AdditionalData":[{"value":"United Kingdom","key":"CountryName"},{"value":"England","key":"StateName"},{"value":"London","key":"CountyName"}]},"MapReference":{"ReferenceId":"1162642776","Spot":0.68,"SideOfStreet":"left","StateId":"20248595","CountyId":"20337453","CityId":"20337454","AddressId":"747993102","RoadLinkId":"468950951"}}},{"Relevance":1.0,"Distance":11.1,"MatchLevel":"houseNumber","MatchQuality":{"Country":1.0,"State":1.0,"County":1.0,"City":1.0,"District":1.0,"Street":[1.0],"HouseNumber":1.0,"PostalCode":1.0},"MatchType":"interpolated","Location":{"LocationId":"NT_wbTZ9RYC5sCeaRrGFmYmSC_4AD","LocationType":"point","DisplayPosition":{"Latitude":51.47353,"Longitude":-0.08773},"MapView":{"TopLeft":{"Latitude":51.4746542,"Longitude":-0.0895348},"BottomRight":{"Latitude":51.4724058,"Longitude":-0.0859252}},"Address":{"Label":"80 Camberwell Church Street, London, SE5 8QZ, United Kingdom","Country":"GBR","State":"England","County":"London","City":"London","District":"Camberwell","Street":"Camberwell Church Street","HouseNumber":"80","PostalCode":"SE5 8QZ","AdditionalData":[{"value":"United Kingdom","key":"CountryName"},{"value":"England","key":"StateName"},{"value":"London","key":"CountyName"}]},"MapReference":{"ReferenceId":"25444778","Spot":0.38,"SideOfStreet":"left","StateId":"20248595","CountyId":"20337453","CityId":"20337454","AddressId":"748294950","RoadLinkId":"82775210"}}},{"Relevance":1.0,"Distance":16.4,"MatchLevel":"houseNumber","MatchQuality":{"Country":1.0,"State":1.0,"County":1.0,"City":1.0,"District":1.0,"Street":[1.0],"HouseNumber":1.0,"PostalCode":1.0},"MatchType":"interpolated","Location":{"LocationId":"NT_wbTZ9RYC5sCeaRrGFmYmSC_4YD","LocationType":"point","DisplayPosition":{"Latitude":51.47351,"Longitude":-0.08734},"MapView":{"TopLeft":{"Latitude":51.4746342,"Longitude":-0.0891448},"BottomRight":{"Latitude":51.4723858,"Longitude":-0.0855352}},"Address":{"Label":"86 Camberwell Church Street, London, SE5 7LL, United Kingdom","Country":"GBR","State":"England","County":"London","City":"London","District":"Camberwell","Street":"Camberwell Church Street","HouseNumber":"86","PostalCode":"SE5 7LL","AdditionalData":[{"value":"United Kingdom","key":"CountryName"},{"value":"England","key":"StateName"},{"value":"London","key":"CountyName"}]},"MapReference":{"ReferenceId":"1162642775","Spot":0.88,"SideOfStreet":"left","StateId":"20248595","CountyId":"20337453","CityId":"20337454","AddressId":"748410833","RoadLinkId":"468950950"}}},{"Relevance":1.0,"Distance":22.5,"MatchLevel":"houseNumber","MatchQuality":{"Country":1.0,"State":1.0,"County":1.0,"City":1.0,"District":1.0,"Street":[1.0],"HouseNumber":1.0,"PostalCode":1.0},"MatchType":"interpolated","Location":{"LocationId":"NT_PweWx9PwBxrZFpL9p9nnYC_l_1026776967_R_1QD","LocationType":"point","DisplayPosition":{"Latitude":51.4736303,"Longitude":-0.0878},"MapView":{"TopLeft":{"Latitude":51.4747544,"Longitude":-0.0896047},"BottomRight":{"Latitude":51.4725061,"Longitude":-0.0859952}},"Address":{"Label":"54 Vicarage Grove, London, SE5 7, United Kingdom","Country":"GBR","State":"England","County":"London","City":"London","District":"Camberwell","Street":"Vicarage Grove","HouseNumber":"54","PostalCode":"SE5 7","AdditionalData":[{"value":"United Kingdom","key":"CountryName"},{"value":"England","key":"StateName"},{"value":"London","key":"CountyName"}]},"MapReference":{"ReferenceId":"1026776967","Spot":0.5,"SideOfStreet":"right","StateId":"20248595","CountyId":"20337453","CityId":"20337454"}}},{"Relevance":1.0,"Distance":25.3,"MatchLevel":"houseNumber","MatchQuality":{"Country":1.0,"State":1.0,"County":1.0,"City":1.0,"District":1.0,"Street":[1.0],"HouseNumber":1.0,"PostalCode":1.0},"MatchType":"interpolated","Location":{"LocationId":"NT_wbTZ9RYC5sCeaRrGFmYmSC_3gD","LocationType":"point","DisplayPosition":{"Latitude":51.47355,"Longitude":-0.08787},"MapView":{"TopLeft":{"Latitude":51.4746742,"Longitude":-0.0896748},"BottomRight":{"Latitude":51.4724258,"Longitude":-0.0860652}},"Address":{"Label":"78 Camberwell Church Street, London, SE5 8QZ, United Kingdom","Country":"GBR","State":"England","County":"London","City":"London","District":"Camberwell","Street":"Camberwell Church Street","HouseNumber":"78","PostalCode":"SE5 8QZ","AdditionalData":[{"value":"United Kingdom","key":"CountryName"},{"value":"England","key":"StateName"},{"value":"London","key":"CountyName"}]},"MapReference":{"ReferenceId":"1218017674","Spot":0.1,"SideOfStreet":"left","StateId":"20248595","CountyId":"20337453","CityId":"20337454","AddressId":"748260061","RoadLinkId":"534576451"}}},{"Relevance":1.0,"Distance":26.5,"MatchLevel":"postalCode","MatchQuality":{"PostalCode":1.0},"MatchType":"interpolated","Location":{"LocationId":"NT_wbTZ9RYC5sCeaRrGFmYmSC_4ID","LocationType":"point","DisplayPosition":{"Latitude":51.47356,"Longitude":-0.0873},"MapView":{"TopLeft":{"Latitude":51.4825532,"Longitude":-0.1017382},"BottomRight":{"Latitude":51.4645668,"Longitude":-0.0728618}},"Address":{"Label":"SE5 8RB, London, England, United Kingdom","Country":"GBR","State":"England","County":"London","City":"London","PostalCode":"SE5 8RB","AdditionalData":[{"value":"United Kingdom","key":"CountryName"},{"value":"England","key":"StateName"},{"value":"London","key":"CountyName"}]},"MapReference":{"ReferenceId":"1162642776","Spot":0.68,"SideOfStreet":"neither","StateId":"20248595","CountyId":"20337453","CityId":"20337454"}}},{"Relevance":1.0,"Distance":33.2,"MatchLevel":"street","MatchQuality":{"Country":1.0,"State":1.0,"County":1.0,"City":1.0,"District":1.0,"Street":[1.0],"PostalCode":1.0},"Location":{"LocationId":"NT_wbTZ9RYC5sCeaRrGFmYmSC_l_1026776965_R","LocationType":"point","DisplayPosition":{"Latitude":51.47349,"Longitude":-0.08713},"MapView":{"TopLeft":{"Latitude":51.47349,"Longitude":-0.08713},"BottomRight":{"Latitude":51.47349,"Longitude":-0.0868}},"Address":{"Label":"Camberwell Church Street, London, SE5 8, United Kingdom","Country":"GBR","State":"England","County":"London","City":"London","District":"Camberwell","Street":"Camberwell Church Street","PostalCode":"SE5 8","AdditionalData":[{"value":"United Kingdom","key":"CountryName"},{"value":"England","key":"StateName"},{"value":"London","key":"CountyName"}]},"MapReference":{"ReferenceId":"1026776965","Spot":0.0,"SideOfStreet":"right","StateId":"20248595","CountyId":"20337453","CityId":"20337454"}}},{"Relevance":1.0,"Distance":35.0,"MatchLevel":"postalCode","MatchQuality":{"PostalCode":1.0},"MatchType":"interpolated","Location":{"LocationId":"NT_oisSGxsNSDQM4KpZU3AMGD_l_25444775_R_4A","LocationType":"point","DisplayPosition":{"Latitude":51.47325,"Longitude":-0.08803},"MapView":{"TopLeft":{"Latitude":51.4822432,"Longitude":-0.1024681},"BottomRight":{"Latitude":51.4642568,"Longitude":-0.0735919}},"Address":{"Label":"SE5 8JD, London, England, United Kingdom","Country":"GBR","State":"England","County":"London","City":"London","PostalCode":"SE5 8JD","AdditionalData":[{"value":"United Kingdom","key":"CountryName"},{"value":"England","key":"StateName"},{"value":"London","key":"CountyName"}]},"MapReference":{"ReferenceId":"25444775","Spot":0.65,"SideOfStreet":"neither","StateId":"20248595","CountyId":"20337453","CityId":"20337454"}}},{"Relevance":1.0,"Distance":39.8,"MatchLevel":"postalCode","MatchQuality":{"PostalCode":1.0},"MatchType":"interpolated","Location":{"LocationId":"NT_wbTZ9RYC5sCeaRrGFmYmSC_3gD","LocationType":"point","DisplayPosition":{"Latitude":51.47373,"Longitude":-0.08783},"MapView":{"TopLeft":{"Latitude":51.4827232,"Longitude":-0.1022683},"BottomRight":{"Latitude":51.4647368,"Longitude":-0.0733917}},"Address":{"Label":"SE5 8TU, London, England, United Kingdom","Country":"GBR","State":"England","County":"London","City":"London","PostalCode":"SE5 8TU","AdditionalData":[{"value":"United Kingdom","key":"CountryName"},{"value":"England","key":"StateName"},{"value":"London","key":"CountyName"}]},"MapReference":{"ReferenceId":"1218017674","Spot":0.1,"SideOfStreet":"neither","StateId":"20248595","CountyId":"20337453","CityId":"20337454"}}}]}]}}