{"Response":{"MetaInfo":{"Timestamp":"2020-03-28T10:09:34.279+0000","NextPageInformation":"2"},"View":[{"_type":"SearchResultsViewType","ViewId":0,"Result":[{"Relevance":1.0,"Distance":0.0,"Direction":0.0,"MatchLevel":"district","MatchQuality":{"Country":1.0,"State":1.0,"County":1.0,"City":1.0,"District":1.0,"PostalCode":1.0},"Location":{"LocationId":"NT_lEBp3Xopjhkt51bX--H4WD","LocationType":"point","DisplayPosition":{"Latitude":51.4376117,"Longitude":-2.4927054},"MapView":{"TopLeft":{"Latitude":51.443,"Longitude":-2.5057},"BottomRight":{"Latitude":51.43213,"Longitude":-2.48869}},"Address":{"Label":"Longwell Green, Bristol, England, United Kingdom","Country":"GBR","State":"England","County":"Avon","City":"Bristol","District":"Longwell Green","PostalCode":"BS30 9","AdditionalData":[{"value":"United Kingdom","key":"CountryName"},{"value":"England","key":"StateName"},{"value":"Avon","key":"CountyName"}]},"MapReference":{"ReferenceId":"26730811","SideOfStreet":"neither","StateId":"20248595","CountyId":"20352323","CityId":"20352420","DistrictId":"20352513"}}},{"Relevance":1.0,"Distance":3.5,"MatchLevel":"houseNumber","MatchQuality":{"Country":1.0,"State":1.0,"County":1.0,"City":1.0,"District":1.0,"Street":[1.0],"HouseNumber":1.0,"PostalCode":1.0},"MatchType":"interpolated","Location":{"LocationId":"NT_OJNq-al3n6sTvkmsvdEaPC_l_26730769_R_yA","LocationType":"point","DisplayPosition":{"Latitude":51.4376301,"Longitude":-2.49297},"MapView":{"TopLeft":{"Latitude":51.4387543,"Longitude":-2.4947733},"BottomRight":{"Latitude":51.436506,"Longitude":-2.4911666}},"Address":{"Label":"2 Shellards Road, Bristol, BS30 9DU, United Kingdom","Country":"GBR","State":"England","County":"Avon","City":"Bristol","District":"Longwell Green","Street":"Shellards Road","HouseNumber":"2","PostalCode":"BS30 9DU","AdditionalData":[{"value":"United Kingdom","key":"CountryName"},{"value":"England","key":"StateName"},{"value":"Avon","key":"CountyName"}]},"MapReference":{"ReferenceId":"26730769","Spot":0.09,"SideOfStreet":"right","StateId":"20248595","CountyId":"20352323","CityId":"20352420","DistrictId":"20352513"}}},{"Relevance":1.0,"Distance":9.6,"MatchLevel":"houseNumber","MatchQuality":{"Country":1.0,"State":1.0,"County":1.0,"City":1.0,"District":1.0,"Street":[1.0],"HouseNumber":1.0,"PostalCode":1.0},"MatchType":"interpolated","Location":{"LocationId":"NT_yYhUzd15BfW0hY9GwJ2XIA_l_26730811_R_xATM","LocationType":"point","DisplayPosition":{"Latitude":51.4374447,"Longitude":-2.4929162},"MapView":{"TopLeft":{"Latitude":51.4385688,"Longitude":-2.4947196},"BottomRight":{"Latitude":51.4363205,"Longitude":-2.4911129}},"Address":{"Label":"101 Bath Road, Bristol, BS30 9DD, United Kingdom","Country":"GBR","State":"England","County":"Avon","City":"Bristol","District":"Longwell Green","Street":"Bath Road","HouseNumber":"101","PostalCode":"BS30 9DD","AdditionalData":[{"value":"United Kingdom","key":"CountryName"},{"value":"England","key":"StateName"},{"value":"Avon","key":"CountyName"}]},"MapReference":{"ReferenceId":"26730811","Spot":0.54,"SideOfStreet":"right","StateId":"20248595","CountyId":"20352323","CityId":"20352420","DistrictId":"20352513"}}},{"Relevance":1.0,"Distance":27.7,"MatchLevel":"houseNumber","MatchQuality":{"Country":1.0,"State":1.0,"County":1.0,"City":1.0,"District":1.0,"Street":[1.0],"HouseNumber":1.0,"PostalCode":1.0},"MatchType":"interpolated","Location":{"LocationId":"NT_0mhhfh4-mjQjhhupyVcqEC_l_1020600974_R_5kD","LocationType":"point","DisplayPosition":{"Latitude":51.43759,"Longitude":-2.4931401},"MapView":{"TopLeft":{"Latitude":51.4387142,"Longitude":-2.4949434},"BottomRight":{"Latitude":51.4364659,"Longitude":-2.4913367}},"Address":{"Label":"99 Bath Road, Bristol, BS30 9DF, United Kingdom","Country":"GBR","State":"England","County":"Avon","City":"Bristol","District":"Longwell Green","Street":"Bath Road","HouseNumber":"99","PostalCode":"BS30 9DF","AdditionalData":[{"value":"United Kingdom","key":"CountryName"},{"value":"England","key":"StateName"},{"value":"Avon","key":"CountyName"}]},"MapReference":{"ReferenceId":"1020600974","Spot":0.25,"SideOfStreet":"right","StateId":"20248595","CountyId":"20352323","CityId":"20352420","DistrictId":"20352513"}}},{"Relevance":1.0,"Distance":32.0,"MatchLevel":"houseNumber","MatchQuality":{"Country":1.0,"State":1.0,"County":1.0,"City":1.0,"District":1.0,"Street":[1.0],"HouseNumber":1.0,"PostalCode":1.0},"MatchType":"interpolated","Location":{"LocationId":"NT_0mhhfh4-mjQjhhupyVcqEC_l_1020600973_R_xAzM","LocationType":"point","DisplayPosition":{"Latitude":51.437227,"Longitude":-2.4925905},"MapView":{"TopLeft":{"Latitude":51.4383512,"Longitude":-2.4943939},"BottomRight":{"Latitude":51.4361029,"Longitude":-2.4907872}},"Address":{"Label":"103 Bath Road, Bristol, BS30 9DD, United Kingdom","Country":"GBR","State":"England","County":"Avon","City":"Bristol","District":"Longwell Green","Street":"Bath Road","HouseNumber":"103","PostalCode":"BS30 9DD","AdditionalData":[{"value":"United Kingdom","key":"CountryName"},{"value":"England","key":"StateName"},{"value":"Avon","key":"CountyName"}]},"MapReference":{"ReferenceId":"1020600973","Spot":0.85,"SideOfStreet":"right","StateId":"20248595","CountyId":"20352323","CityId":"20352420","DistrictId":"20352513"}}},{"Relevance":1.0,"Distance":48.9,"MatchLevel":"houseNumber","MatchQuality":{"Country":1.0,"State":1.0,"County":1.0,"City":1.0,"District":1.0,"Street":[1.0],"HouseNumber":1.0,"PostalCode":1.0},"MatchType":"interpolated","Location":{"LocationId":"NT_hb41acryMiFD3TjATSE1PA_l_26730952_L_yA","LocationType":"point","DisplayPosition":{"Latitude":51.4371943,"Longitude":-2.4931684},"MapView":{"TopLeft":{"Latitude":51.4383185,"Longitude":-2.4949717},"BottomRight":{"Latitude":51.4360701,"Longitude":-2.491365}},"Address":{"Label":"2 Ellacombe Road, Bristol, BS30 9AZ, United Kingdom","Country":"GBR","State":"England","County":"Avon","City":"Bristol","District":"Longwell Green","Street":"Ellacombe Road","HouseNumber":"2","PostalCode":"BS30 9AZ","AdditionalData":[{"value":"United Kingdom","key":"CountryName"},{"value":"England","key":"StateName"},{"value":"Avon","key":"CountyName"}]},"MapReference":{"ReferenceId":"26730952","Spot":0.68,"SideOfStreet":"left","StateId":"20248595","CountyId":"20352323","CityId":"20352420","DistrictId":"20352513"}}},{"Relevance":1.0,"Distance":73.8,"MatchLevel":"postalCode","MatchQuality":{"PostalCode":1.0},"MatchType":"interpolated","Location":{"LocationId":"NT_hb41acryMiFD3TjATSE1PA_l_26730952_L_yA","LocationType":"point","DisplayPosition":{"Latitude":51.43712,"Longitude":-2.49342},"MapView":{"TopLeft":{"Latitude":51.4461132,"Longitude":-2.5078467},"BottomRight":{"Latitude":51.4281268,"Longitude":-2.4789933}},"Address":{"Label":"BS30 9AZ, Bristol, England, United Kingdom","Country":"GBR","State":"England","County":"Avon","City":"Bristol","PostalCode":"BS30 9AZ","AdditionalData":[{"value":"United Kingdom","key":"CountryName"},{"value":"England","key":"StateName"},{"value":"Avon","key":"CountyName"}]},"MapReference":{"ReferenceId":"26730952","Spot":0.68,"SideOfStreet":"neither","StateId":"20248595","CountyId":"20352323","CityId":"20352420"}}},{"Relevance":1.0,"Distance":81.0,"MatchLevel":"houseNumber","MatchQuality":{"Country":1.0,"State":1.0,"County":1.0,"City":1.0,"District":1.0,"Street":[1.0],"HouseNumber":1.0,"PostalCode":1.0},"MatchType":"interpolated","Location":{"LocationId":"NT_0mhhfh4-mjQjhhupyVcqEC_l_1020600975_R_4cD","LocationType":"point","DisplayPosition":{"Latitude":51.4379501,"Longitude":-2.4937401},"MapView":{"TopLeft":{"Latitude":51.4390742,"Longitude":-2.4955435},"BottomRight":{"Latitude":51.4368259,"Longitude":-2.4919367}},"Address":{"Label":"87 Bath Road, Bristol, BS30 9DF, United Kingdom","Country":"GBR","State":"England","County":"Avon","City":"Bristol","District":"Longwell Green","Street":"Bath Road","HouseNumber":"87","PostalCode":"BS30 9DF","AdditionalData":[{"value":"United Kingdom","key":"CountryName"},{"value":"England","key":"StateName"},{"value":"Avon","key":"CountyName"}]},"MapReference":{"ReferenceId":"1020600975","Spot":0.16,"SideOfStreet":"right","StateId":"20248595","CountyId":"20352323","CityId":"20352420","DistrictId":"20352513"}}},{"Relevance":1.0,"Distance":89.6,"MatchLevel":"postalCode","MatchQuality":{"PostalCode":1.0},"MatchType":"interpolated","Location":{"LocationId":"NT_0mhhfh4-mjQjhhupyVcqEC_l_1020600975_R_4cD","LocationType":"point","DisplayPosition":{"Latitude":51.43805,"Longitude":-2.49379},"MapView":{"TopLeft":{"Latitude":51.4470432,"Longitude":-2.508217},"BottomRight":{"Latitude":51.4290568,"Longitude":-2.479363}},"Address":{"Label":"BS30 9DF, Bristol, England, United Kingdom","Country":"GBR","State":"England","County":"Avon","City":"Bristol","PostalCode":"BS30 9DF","AdditionalData":[{"value":"United Kingdom","key":"CountryName"},{"value":"England","key":"StateName"},{"value":"Avon","key":"CountyName"}]},"MapReference":{"ReferenceId":"1020600975","Spot":0.16,"SideOfStreet":"neither","StateId":"20248595","CountyId":"20352323","CityId":"20352420"}}},{"Relevance":1.0,"Distance":97.7,"MatchLevel":"postalCode","MatchQuality":{"PostalCode":1.0},"MatchType":"interpolated","Location":{"LocationId":"NT_0mhhfh4-mjQjhhupyVcqEC_l_1020600973_R_xAzM","LocationType":"point","DisplayPosition":{"Latitude":51.43687,"Longitude":-2.49195},"MapView":{"TopLeft":{"Latitude":51.4458632,"Longitude":-2.5063766},"BottomRight":{"Latitude":51.4278768,"Longitude":-2.4775234}},"Address":{"Label":"BS30 9DD, Bristol, England, United Kingdom","Country":"GBR","State":"England","County":"Avon","City":"Bristol","PostalCode":"BS30 9DD","AdditionalData":[{"value":"United Kingdom","key":"CountryName"},{"value":"England","key":"StateName"},{"value":"Avon","key":"CountyName"}]},"MapReference":{"ReferenceId":"1020600973","Spot":0.85,"SideOfStreet":"neither","StateId":"20248595","CountyId":"20352323","CityId":"20352420"}}}]}]}}