{"Response":{"MetaInfo":{"Timestamp":"2020-03-28T09:52:45.274+0000","NextPageInformation":"2"},"View":[{"_type":"SearchResultsViewType","ViewId":0,"Result":[{"Relevance":1.0,"Distance":0.0,"Direction":0.0,"MatchLevel":"district","MatchQuality":{"Country":1.0,"State":1.0,"County":1.0,"City":1.0,"District":1.0,"PostalCode":1.0},"Location":{"LocationId":"NT_u0yXAri.G6bGhCV9KW2ekB","LocationType":"point","DisplayPosition":{"Latitude":51.4649632,"Longitude":-0.155982},"MapView":{"TopLeft":{"Latitude":51.48364,"Longitude":-0.18783},"BottomRight":{"Latitude":51.45655,"Longitude":-0.14647}},"Address":{"Label":"Battersea, London, England, United Kingdom","Country":"GBR","State":"England","County":"London","City":"London","District":"Battersea","PostalCode":"SW11 2","AdditionalData":[{"value":"United Kingdom","key":"CountryName"},{"value":"England","key":"StateName"},{"value":"London","key":"CountyName"}]},"MapReference":{"ReferenceId":"780282285","SideOfStreet":"neither","StateId":"20248595","CountyId":"20337453","CityId":"20337454"}}},{"Relevance":1.0,"Distance":10.8,"MatchLevel":"houseNumber","MatchQuality":{"Country":1.0,"State":1.0,"County":1.0,"City":1.0,"District":1.0,"Street":[1.0],"HouseNumber":1.0,"PostalCode":1.0},"MatchType":"interpolated","Location":{"LocationId":"NT_viS-sf-mOJf94Hoi1f-gBC_xED","LocationType":"point","DisplayPosition":{"Latitude":51.46488,"Longitude":-0.15626},"MapView":{"TopLeft":{"Latitude":51.4660042,"Longitude":-0.1580644},"BottomRight":{"Latitude":51.4637558,"Longitude":-0.1544556}},"Address":{"Label":"11 Stormont Road, London, SW11 5EQ, United Kingdom","Country":"GBR","State":"England","County":"London","City":"London","District":"Battersea","Street":"Stormont Road","HouseNumber":"11","PostalCode":"SW11 5EQ","AdditionalData":[{"value":"United Kingdom","key":"CountryName"},{"value":"England","key":"StateName"},{"value":"London","key":"CountyName"}]},"MapReference":{"ReferenceId":"25492077","Spot":0.53,"SideOfStreet":"right","StateId":"20248595","CountyId":"20337453","CityId":"20337454","AddressId":"747601310","RoadLinkId":"82618819"}}},{"Relevance":1.0,"Distance":16.5,"MatchLevel":"postalCode","MatchQuality":{"PostalCode":1.0},"MatchType":"interpolated","Location":{"LocationId":"NT_viS-sf-mOJf94Hoi1f-gBC_xED","LocationType":"point","DisplayPosition":{"Latitude":51.46492,"Longitude":-0.15621},"MapView":{"TopLeft":{"Latitude":51.4739132,"Longitude":-0.1706455},"BottomRight":{"Latitude":51.4559268,"Longitude":-0.1417745}},"Address":{"Label":"SW11 5EG, London, England, United Kingdom","Country":"GBR","State":"England","County":"London","City":"London","PostalCode":"SW11 5EG","AdditionalData":[{"value":"United Kingdom","key":"CountryName"},{"value":"England","key":"StateName"},{"value":"London","key":"CountyName"}]},"MapReference":{"ReferenceId":"25492077","Spot":0.53,"SideOfStreet":"neither","StateId":"20248595","CountyId":"20337453","CityId":"20337454"}}},{"Relevance":1.0,"Distance":37.2,"MatchLevel":"postalCode","MatchQuality":{"PostalCode":1.0},"MatchType":"interpolated","Location":{"LocationId":"NT_uc2Ul996GNqDQtXLiXrJYD_xATM","LocationType":"point","DisplayPosition":{"Latitude":51.4647,"Longitude":-0.15565},"MapView":{"TopLeft":{"Latitude":51.4736932,"Longitude":-0.1700854},"BottomRight":{"Latitude":51.4557068,"Longitude":-0.1412146}},"Address":{"Label":"SW11 5PH, London, England, United Kingdom","Country":"GBR","State":"England","County":"London","City":"London","PostalCode":"SW11 5PH","AdditionalData":[{"value":"United Kingdom","key":"CountryName"},{"value":"England","key":"StateName"},{"value":"London","key":"CountyName"}]},"MapReference":{"ReferenceId":"25406374","Spot":0.58,"SideOfStreet":"neither","StateId":"20248595","CountyId":"20337453","CityId":"20337454"}}},{"Relevance":1.0,"Distance":38.7,"MatchLevel":"houseNumber","MatchQuality":{"Country":1.0,"State":1.0,"County":1.0,"City":1.0,"District":1.0,"Street":[1.0],"HouseNumber":1.0,"PostalCode":1.0},"MatchType":"interpolated","Location":{"LocationId":"NT_uc2Ul996GNqDQtXLiXrJYD_xAzN","LocationType":"point","DisplayPosition":{"Latitude":51.46463,"Longitude":-0.15582},"MapView":{"TopLeft":{"Latitude":51.4657542,"Longitude":-0.1576244},"BottomRight":{"Latitude":51.4635058,"Longitude":-0.1540156}},"Address":{"Label":"107 Gowrie Road, London, SW11 5PH, United Kingdom","Country":"GBR","State":"England","County":"London","City":"London","District":"Battersea","Street":"Gowrie Road","HouseNumber":"107","PostalCode":"SW11 5PH","AdditionalData":[{"value":"United Kingdom","key":"CountryName"},{"value":"England","key":"StateName"},{"value":"London","key":"CountyName"}]},"MapReference":{"ReferenceId":"25406331","Spot":0.0,"SideOfStreet":"right","StateId":"20248595","CountyId":"20337453","CityId":"20337454","AddressId":"747867927","RoadLinkId":"82987575"}}},{"Relevance":1.0,"Distance":43.9,"MatchLevel":"houseNumber","MatchQuality":{"Country":1.0,"State":1.0,"County":1.0,"City":1.0,"District":1.0,"Street":[1.0],"HouseNumber":1.0,"PostalCode":1.0},"MatchType":"interpolated","Location":{"LocationId":"NT_iJ1enzk296lR23jWsluLVA_xITM","LocationType":"point","DisplayPosition":{"Latitude":51.46549,"Longitude":-0.15617},"MapView":{"TopLeft":{"Latitude":51.4666142,"Longitude":-0.1579745},"BottomRight":{"Latitude":51.4643658,"Longitude":-0.1543655}},"Address":{"Label":"121 Lavender Hill, London, SW11 5QL, United Kingdom","Country":"GBR","State":"England","County":"London","City":"London","District":"Battersea","Street":"Lavender Hill","HouseNumber":"121","PostalCode":"SW11 5QL","AdditionalData":[{"value":"United Kingdom","key":"CountryName"},{"value":"England","key":"StateName"},{"value":"London","key":"CountyName"}]},"MapReference":{"ReferenceId":"25406156","Spot":0.39,"SideOfStreet":"right","StateId":"20248595","CountyId":"20337453","CityId":"20337454","AddressId":"747996161","RoadLinkId":"82747136"}}},{"Relevance":1.0,"Distance":52.9,"MatchLevel":"street","MatchQuality":{"Country":1.0,"State":1.0,"County":1.0,"City":1.0,"District":1.0,"PostalCode":1.0},"Location":{"LocationId":"NT_MSRg3rcorpQOQM1GFTAXPA_l_25406321_L","LocationType":"point","DisplayPosition":{"Latitude":51.46475,"Longitude":-0.1553},"MapView":{"TopLeft":{"Latitude":51.46479,"Longitude":-0.1553},"BottomRight":{"Latitude":51.46475,"Longitude":-0.15509}},"Address":{"Label":"London, SW11 5, United Kingdom","Country":"GBR","State":"England","County":"London","City":"London","District":"Battersea","PostalCode":"SW11 5","AdditionalData":[{"value":"United Kingdom","key":"CountryName"},{"value":"England","key":"StateName"},{"value":"London","key":"CountyName"}]},"MapReference":{"ReferenceId":"25406321","Spot":0.0,"SideOfStreet":"left","StateId":"20248595","CountyId":"20337453","CityId":"20337454"}}},{"Relevance":1.0,"Distance":53.1,"MatchLevel":"houseNumber","MatchQuality":{"Country":1.0,"State":1.0,"County":1.0,"City":1.0,"District":1.0,"Street":[1.0],"HouseNumber":1.0,"PostalCode":1.0},"MatchType":"interpolated","Location":{"LocationId":"NT_iMW1k30EjgIbGuNwNhu58D_l_25406166_R_xITN","LocationType":"point","DisplayPosition":{"Latitude":51.46541,"Longitude":-0.156585},"MapView":{"TopLeft":{"Latitude":51.4665342,"Longitude":-0.1583894},"BottomRight":{"Latitude":51.4642859,"Longitude":-0.1547805}},"Address":{"Label":"125 Lavender Hill, London, SW11 5, United Kingdom","Country":"GBR","State":"England","County":"London","City":"London","District":"Battersea","Street":"Lavender Hill","HouseNumber":"125","PostalCode":"SW11 5","AdditionalData":[{"value":"United Kingdom","key":"CountryName"},{"value":"England","key":"StateName"},{"value":"London","key":"CountyName"}]},"MapReference":{"ReferenceId":"25406166","Spot":0.5,"SideOfStreet":"right","StateId":"20248595","CountyId":"20337453","CityId":"20337454"}}},{"Relevance":1.0,"Distance":55.5,"MatchLevel":"postalCode","MatchQuality":{"PostalCode":1.0},"MatchType":"interpolated","Location":{"LocationId":"NT_iJ1enzk296lR23jWsluLVA_xETN","LocationType":"point","DisplayPosition":{"Latitude":51.46518,"Longitude":-0.15526},"MapView":{"TopLeft":{"Latitude":51.4741732,"Longitude":-0.1696956},"BottomRight":{"Latitude":51.4561868,"Longitude":-0.1408244}},"Address":{"Label":"SW11 5QF, London, England, United Kingdom","Country":"GBR","State":"England","County":"London","City":"London","PostalCode":"SW11 5QF","AdditionalData":[{"value":"United Kingdom","key":"CountryName"},{"value":"England","key":"StateName"},{"value":"London","key":"CountyName"}]},"MapReference":{"ReferenceId":"25406132","Spot":0.0,"SideOfStreet":"neither","StateId":"20248595","CountyId":"20337453","CityId":"20337454"}}},{"Relevance":1.0,"Distance":55.6,"MatchLevel":"houseNumber","MatchQuality":{"Country":1.0,"State":1.0,"County":1.0,"City":1.0,"District":1.0,"Street":[1.0],"HouseNumber":1.0,"PostalCode":1.0},"MatchType":"interpolated","Location":{"LocationId":"NT_iJ1enzk296lR23jWsluLVA_xETN","LocationType":"point","DisplayPosition":{"Latitude":51.46556,"Longitude":-0.15577},"MapView":{"TopLeft":{"Latitude":51.4666842,"Longitude":-0.1575745},"BottomRight":{"Latitude":51.4644358,"Longitude":-0.1539655}},"Address":{"Label":"115 Lavender Hill, London, SW11 5QL, United Kingdom","Country":"GBR","State":"England","County":"London","City":"London","District":"Battersea","Street":"Lavender Hill","HouseNumber":"115","PostalCode":"SW11 5QL","AdditionalData":[{"value":"United Kingdom","key":"CountryName"},{"value":"England","key":"StateName"},{"value":"London","key":"CountyName"}]},"MapReference":{"ReferenceId":"25406132","Spot":0.0,"SideOfStreet":"right","StateId":"20248595","CountyId":"20337453","CityId":"20337454","AddressId":"747904104","RoadLinkId":"82901110"}}}]}]}}