{"Response":{"MetaInfo":{"Timestamp":"2020-03-28T11:41:58.376+0000","NextPageInformation":"2"},"View":[{"_type":"SearchResultsViewType","ViewId":0,"Result":[{"Relevance":1.0,"Distance":0.0,"Direction":0.0,"MatchLevel":"district","MatchQuality":{"Country":1.0,"State":1.0,"County":1.0,"City":1.0,"District":1.0,"PostalCode":1.0},"Location":{"LocationId":"NT_NQu7NfyH9Cu26h26YI6-MA","LocationType":"point","DisplayPosition":{"Latitude":51.4695889,"Longitude":6.8590434},"MapView":{"TopLeft":{"Latitude":51.49092,"Longitude":6.8145},"BottomRight":{"Latitude":51.46435,"Longitude":6.89473}},"Address":{"Label":"Alt-Oberhausen, Oberhausen, Nordrhein-Westfalen, Deutschland","Country":"DEU","State":"Nordrhein-Westfalen","County":"Oberhausen","City":"Oberhausen","District":"Alt-Oberhausen","PostalCode":"46045","AdditionalData":[{"value":"Deutschland","key":"CountryName"},{"value":"Nordrhein-Westfalen","key":"StateName"},{"value":"Oberhausen","key":"CountyName"}]},"MapReference":{"ReferenceId":"1203308105","SideOfStreet":"neither","CountryId":"20147700","StateId":"20157369","CountyId":"20157469","CityId":"20157470","DistrictId":"20157473"}}},{"Relevance":1.0,"Distance":7.7,"MatchLevel":"houseNumber","MatchQuality":{"Country":1.0,"State":1.0,"County":1.0,"City":1.0,"District":1.0,"Street":[1.0],"HouseNumber":1.0,"PostalCode":1.0},"MatchType":"interpolated","Location":{"LocationId":"NT_CzNFgAmjr6d0I5gXyOyssD_0UD","LocationType":"point","DisplayPosition":{"Latitude":51.4695,"Longitude":6.85933},"MapView":{"TopLeft":{"Latitude":51.4706242,"Longitude":6.8575254},"BottomRight":{"Latitude":51.4683758,"Longitude":6.8611346}},"Address":{"Label":"Düppelstraße 45, 46045 Oberhausen, Deutschland","Country":"DEU","State":"Nordrhein-Westfalen","County":"Oberhausen","City":"Oberhausen","District":"Alt-Oberhausen","Street":"Düppelstraße","HouseNumber":"45","PostalCode":"46045","AdditionalData":[{"value":"Deutschland","key":"CountryName"},{"value":"Nordrhein-Westfalen","key":"StateName"},{"value":"Oberhausen","key":"CountyName"}]},"MapReference":{"ReferenceId":"51432381","Spot":0.77,"SideOfStreet":"left","CountryId":"20147700","StateId":"20157369","CountyId":"20157469","CityId":"20157470","DistrictId":"20157473","AddressId":"193909350","RoadLinkId":"35721320"}}},{"Relevance":1.0,"Distance":13.7,"MatchLevel":"houseNumber","MatchQuality":{"Country":1.0,"State":1.0,"County":1.0,"City":1.0,"District":1.0,"Street":[1.0],"HouseNumber":1.0,"PostalCode":1.0},"MatchType":"interpolated","Location":{"LocationId":"NT_JxaFaZuJqr5tK0JAfuwb0D_xIzN","LocationType":"point","DisplayPosition":{"Latitude":51.46979,"Longitude":6.85895},"MapView":{"TopLeft":{"Latitude":51.4709142,"Longitude":6.8571454},"BottomRight":{"Latitude":51.4686658,"Longitude":6.8607546}},"Address":{"Label":"Helmholtzstraße 127, 46045 Oberhausen, Deutschland","Country":"DEU","State":"Nordrhein-Westfalen","County":"Oberhausen","City":"Oberhausen","District":"Alt-Oberhausen","Street":"Helmholtzstraße","HouseNumber":"127","PostalCode":"46045","AdditionalData":[{"value":"Deutschland","key":"CountryName"},{"value":"Nordrhein-Westfalen","key":"StateName"},{"value":"Oberhausen","key":"CountyName"}]},"MapReference":{"ReferenceId":"51432754","Spot":0.57,"SideOfStreet":"left","CountryId":"20147700","StateId":"20157369","CountyId":"20157469","CityId":"20157470","DistrictId":"20157473","AddressId":"192624338","RoadLinkId":"35634388"}}},{"Relevance":1.0,"Distance":14.3,"MatchLevel":"houseNumber","MatchQuality":{"Country":1.0,"State":1.0,"County":1.0,"City":1.0,"District":1.0,"Street":[1.0],"HouseNumber":1.0,"PostalCode":1.0},"MatchType":"interpolated","Location":{"LocationId":"NT_scdpnfqfDlp9DKmfRh.jeC_1AD","LocationType":"point","DisplayPosition":{"Latitude":51.46955,"Longitude":6.85858},"MapView":{"TopLeft":{"Latitude":51.4706742,"Longitude":6.8567754},"BottomRight":{"Latitude":51.4684258,"Longitude":6.8603846}},"Address":{"Label":"Gewerkschaftsstraße 50, 46045 Oberhausen, Deutschland","Country":"DEU","State":"Nordrhein-Westfalen","County":"Oberhausen","City":"Oberhausen","District":"Alt-Oberhausen","Street":"Gewerkschaftsstraße","HouseNumber":"50","PostalCode":"46045","AdditionalData":[{"value":"Deutschland","key":"CountryName"},{"value":"Nordrhein-Westfalen","key":"StateName"},{"value":"Oberhausen","key":"CountyName"}]},"MapReference":{"ReferenceId":"51432565","Spot":0.77,"SideOfStreet":"right","CountryId":"20147700","StateId":"20157369","CountyId":"20157469","CityId":"20157470","DistrictId":"20157473","AddressId":"193692092","RoadLinkId":"35680893"}}},{"Relevance":1.0,"Distance":44.5,"MatchLevel":"houseNumber","MatchQuality":{"Country":1.0,"State":1.0,"County":1.0,"City":1.0,"District":1.0,"Street":[1.0],"HouseNumber":1.0,"PostalCode":1.0},"MatchType":"interpolated","Location":{"LocationId":"NT_CzNFgAmjr6d0I5gXyOyssD_zQD","LocationType":"point","DisplayPosition":{"Latitude":51.46993,"Longitude":6.85938},"MapView":{"TopLeft":{"Latitude":51.4710542,"Longitude":6.8575754},"BottomRight":{"Latitude":51.4688058,"Longitude":6.8611846}},"Address":{"Label":"Düppelstraße 34, 46045 Oberhausen, Deutschland","Country":"DEU","State":"Nordrhein-Westfalen","County":"Oberhausen","City":"Oberhausen","District":"Alt-Oberhausen","Street":"Düppelstraße","HouseNumber":"34","PostalCode":"46045","AdditionalData":[{"value":"Deutschland","key":"CountryName"},{"value":"Nordrhein-Westfalen","key":"StateName"},{"value":"Oberhausen","key":"CountyName"}]},"MapReference":{"ReferenceId":"51432380","Spot":0.68,"SideOfStreet":"right","CountryId":"20147700","StateId":"20157369","CountyId":"20157469","CityId":"20157470","DistrictId":"20157473","AddressId":"193203191","RoadLinkId":"35694968"}}},{"Relevance":1.0,"Distance":47.0,"MatchLevel":"houseNumber","MatchQuality":{"Country":1.0,"State":1.0,"County":1.0,"City":1.0,"District":1.0,"Street":[1.0],"HouseNumber":1.0,"PostalCode":1.0},"MatchType":"interpolated","Location":{"LocationId":"NT_JxaFaZuJqr5tK0JAfuwb0D_xMTN","LocationType":"point","DisplayPosition":{"Latitude":51.46974,"Longitude":6.85972},"MapView":{"TopLeft":{"Latitude":51.4708642,"Longitude":6.8579154},"BottomRight":{"Latitude":51.4686158,"Longitude":6.8615246}},"Address":{"Label":"Helmholtzstraße 135, 46045 Oberhausen, Deutschland","Country":"DEU","State":"Nordrhein-Westfalen","County":"Oberhausen","City":"Oberhausen","District":"Alt-Oberhausen","Street":"Helmholtzstraße","HouseNumber":"135","PostalCode":"46045","AdditionalData":[{"value":"Deutschland","key":"CountryName"},{"value":"Nordrhein-Westfalen","key":"StateName"},{"value":"Oberhausen","key":"CountyName"}]},"MapReference":{"ReferenceId":"51432755","Spot":0.87,"SideOfStreet":"left","CountryId":"20147700","StateId":"20157369","CountyId":"20157469","CityId":"20157470","DistrictId":"20157473","AddressId":"194967733","RoadLinkId":"35173757"}}},{"Relevance":1.0,"Distance":49.0,"MatchLevel":"street","MatchQuality":{"Country":1.0,"State":1.0,"County":1.0,"City":1.0,"District":1.0,"Street":[1.0],"PostalCode":1.0},"Location":{"LocationId":"NT_CzNFgAmjr6d0I5gXyOyssD_l_51497943_R","LocationType":"point","DisplayPosition":{"Latitude":51.47001,"Longitude":6.85925},"MapView":{"TopLeft":{"Latitude":51.47001,"Longitude":6.85925},"BottomRight":{"Latitude":51.47001,"Longitude":6.85939}},"Address":{"Label":"Düppelstraße, 46045 Oberhausen, Deutschland","Country":"DEU","State":"Nordrhein-Westfalen","County":"Oberhausen","City":"Oberhausen","District":"Alt-Oberhausen","Street":"Düppelstraße","PostalCode":"46045","AdditionalData":[{"value":"Deutschland","key":"CountryName"},{"value":"Nordrhein-Westfalen","key":"StateName"},{"value":"Oberhausen","key":"CountyName"}]},"MapReference":{"ReferenceId":"51497943","Spot":0.0,"SideOfStreet":"right","CountryId":"20147700","StateId":"20157369","CountyId":"20157469","CityId":"20157470","DistrictId":"20157473"}}},{"Relevance":1.0,"Distance":55.8,"MatchLevel":"houseNumber","MatchQuality":{"Country":1.0,"State":1.0,"County":1.0,"City":1.0,"District":1.0,"Street":[1.0],"HouseNumber":1.0,"PostalCode":1.0},"MatchType":"interpolated","Location":{"LocationId":"NT_JxaFaZuJqr5tK0JAfuwb0D_xEzN","LocationType":"point","DisplayPosition":{"Latitude":51.46983,"Longitude":6.8583},"MapView":{"TopLeft":{"Latitude":51.4709542,"Longitude":6.8564954},"BottomRight":{"Latitude":51.4687058,"Longitude":6.8601046}},"Address":{"Label":"Helmholtzstraße 117, 46045 Oberhausen, Deutschland","Country":"DEU","State":"Nordrhein-Westfalen","County":"Oberhausen","City":"Oberhausen","District":"Alt-Oberhausen","Street":"Helmholtzstraße","HouseNumber":"117","PostalCode":"46045","AdditionalData":[{"value":"Deutschland","key":"CountryName"},{"value":"Nordrhein-Westfalen","key":"StateName"},{"value":"Oberhausen","key":"CountyName"}]},"MapReference":{"ReferenceId":"51432753","Spot":0.36,"SideOfStreet":"left","CountryId":"20147700","StateId":"20157369","CountyId":"20157469","CityId":"20157470","DistrictId":"20157473","AddressId":"192954981","RoadLinkId":"35550803"}}},{"Relevance":1.0,"Distance":56.7,"MatchLevel":"street","MatchQuality":{"Country":1.0,"State":1.0,"County":1.0,"City":1.0,"District":1.0,"Street":[1.0],"PostalCode":1.0},"Location":{"LocationId":"NT_scdpnfqfDlp9DKmfRh.jeC_l_51497945_R","LocationType":"point","DisplayPosition":{"Latitude":51.47006,"Longitude":6.85873},"MapView":{"TopLeft":{"Latitude":51.47006,"Longitude":6.85865},"BottomRight":{"Latitude":51.47006,"Longitude":6.85873}},"Address":{"Label":"Gewerkschaftsstraße, 46045 Oberhausen, Deutschland","Country":"DEU","State":"Nordrhein-Westfalen","County":"Oberhausen","City":"Oberhausen","District":"Alt-Oberhausen","Street":"Gewerkschaftsstraße","PostalCode":"46045","AdditionalData":[{"value":"Deutschland","key":"CountryName"},{"value":"Nordrhein-Westfalen","key":"StateName"},{"value":"Oberhausen","key":"CountyName"}]},"MapReference":{"ReferenceId":"51497945","Spot":1.0,"SideOfStreet":"right","CountryId":"20147700","StateId":"20157369","CountyId":"20157469","CityId":"20157470","DistrictId":"20157473"}}},{"Relevance":1.0,"Distance":59.0,"MatchLevel":"houseNumber","MatchQuality":{"Country":1.0,"State":1.0,"County":1.0,"City":1.0,"District":1.0,"Street":[1.0],"HouseNumber":1.0,"PostalCode":1.0},"MatchType":"interpolated","Location":{"LocationId":"NT_scdpnfqfDlp9DKmfRh.jeC_zED","LocationType":"point","DisplayPosition":{"Latitude":51.47006,"Longitude":6.85865},"MapView":{"TopLeft":{"Latitude":51.4711842,"Longitude":6.8568454},"BottomRight":{"Latitude":51.4689358,"Longitude":6.8604546}},"Address":{"Label":"Gewerkschaftsstraße 31, 46045 Oberhausen, Deutschland","Country":"DEU","State":"Nordrhein-Westfalen","County":"Oberhausen","City":"Oberhausen","District":"Alt-Oberhausen","Street":"Gewerkschaftsstraße","HouseNumber":"31","PostalCode":"46045","AdditionalData":[{"value":"Deutschland","key":"CountryName"},{"value":"Nordrhein-Westfalen","key":"StateName"},{"value":"Oberhausen","key":"CountyName"}]},"MapReference":{"ReferenceId":"51432564","Spot":1.0,"SideOfStreet":"left","CountryId":"20147700","StateId":"20157369","CountyId":"20157469","CityId":"20157470","DistrictId":"20157473","AddressId":"193231015","RoadLinkId":"34927153"}}}]}]}}