{"Response":{"MetaInfo":{"Timestamp":"2020-03-28T10:41:39.317+0000","NextPageInformation":"2"},"View":[{"_type":"SearchResultsViewType","ViewId":0,"Result":[{"Relevance":1.0,"Distance":0.0,"Direction":0.0,"MatchLevel":"district","MatchQuality":{"Country":1.0,"State":1.0,"County":1.0,"City":1.0,"District":1.0,"PostalCode":1.0},"Location":{"LocationId":"NT_cPyW8rU9U2hj-dU7rqyu1C","LocationType":"point","DisplayPosition":{"Latitude":51.4650884,"Longitude":-2.6120328},"MapView":{"TopLeft":{"Latitude":51.51753,"Longitude":-2.65532},"BottomRight":{"Latitude":51.39937,"Longitude":-2.51087}},"Address":{"Label":"Bristol, England, United Kingdom","Country":"GBR","State":"England","County":"Avon","City":"Bristol","District":"Bristol","PostalCode":"BS1 6","AdditionalData":[{"value":"United Kingdom","key":"CountryName"},{"value":"England","key":"StateName"},{"value":"Avon","key":"CountyName"}]},"MapReference":{"ReferenceId":"786168041","SideOfStreet":"neither","StateId":"20248595","CountyId":"20352323","CityId":"20352420","DistrictId":"20352421"}}},{"Relevance":1.0,"Distance":2.0,"MatchLevel":"houseNumber","MatchQuality":{"Country":1.0,"State":1.0,"County":1.0,"City":1.0,"District":1.0,"Street":[1.0],"HouseNumber":1.0,"PostalCode":1.0},"MatchType":"interpolated","Location":{"LocationId":"NT_FNRiCqta-VxBjoURMErzGA_l_26724212_L_yQD","LocationType":"point","DisplayPosition":{"Latitude":51.4649564,"Longitude":-2.6119802},"MapView":{"TopLeft":{"Latitude":51.4660805,"Longitude":-2.6137846},"BottomRight":{"Latitude":51.4638322,"Longitude":-2.6101758}},"Address":{"Label":"24 Whatley Road, Bristol, BS8 2, United Kingdom","Country":"GBR","State":"England","County":"Avon","City":"Bristol","District":"Bristol","Street":"Whatley Road","HouseNumber":"24","PostalCode":"BS8 2","AdditionalData":[{"value":"United Kingdom","key":"CountryName"},{"value":"England","key":"StateName"},{"value":"Avon","key":"CountyName"}]},"MapReference":{"ReferenceId":"26724212","Spot":0.48,"SideOfStreet":"left","StateId":"20248595","CountyId":"20352323","CityId":"20352420","DistrictId":"20352421"}}},{"Relevance":1.0,"Distance":21.1,"MatchLevel":"postalCode","MatchQuality":{"PostalCode":1.0},"MatchType":"interpolated","Location":{"LocationId":"NT_FNRiCqta-VxBjoURMErzGA_l_26724212_L_yQD","LocationType":"point","DisplayPosition":{"Latitude":51.4649,"Longitude":-2.612},"MapView":{"TopLeft":{"Latitude":51.4738932,"Longitude":-2.6264355},"BottomRight":{"Latitude":51.4559068,"Longitude":-2.5975645}},"Address":{"Label":"BS8 2PS, Bristol, England, United Kingdom","Country":"GBR","State":"England","County":"Avon","City":"Bristol","PostalCode":"BS8 2PS","AdditionalData":[{"value":"United Kingdom","key":"CountryName"},{"value":"England","key":"StateName"},{"value":"Avon","key":"CountyName"}]},"MapReference":{"ReferenceId":"26724212","Spot":0.48,"SideOfStreet":"neither","StateId":"20248595","CountyId":"20352323","CityId":"20352420"}}},{"Relevance":1.0,"Distance":54.8,"MatchLevel":"houseNumber","MatchQuality":{"Country":1.0,"State":1.0,"County":1.0,"City":1.0,"District":1.0,"Street":[1.0],"HouseNumber":1.0,"PostalCode":1.0},"MatchType":"interpolated","Location":{"LocationId":"NT_2JArJZMkRNLjZZNAa851qA_l_26724037_R_xAD","LocationType":"point","DisplayPosition":{"Latitude":51.46567,"Longitude":-2.6123999},"MapView":{"TopLeft":{"Latitude":51.4667942,"Longitude":-2.6142044},"BottomRight":{"Latitude":51.4645459,"Longitude":-2.6105955}},"Address":{"Label":"10 Chantry Road, Bristol, BS8 2QD, United Kingdom","Country":"GBR","State":"England","County":"Avon","City":"Bristol","District":"Bristol","Street":"Chantry Road","HouseNumber":"10","PostalCode":"BS8 2QD","AdditionalData":[{"value":"United Kingdom","key":"CountryName"},{"value":"England","key":"StateName"},{"value":"Avon","key":"CountyName"}]},"MapReference":{"ReferenceId":"26724037","Spot":0.13,"SideOfStreet":"right","StateId":"20248595","CountyId":"20352323","CityId":"20352420","DistrictId":"20352421"}}},{"Relevance":1.0,"Distance":60.0,"MatchLevel":"street","MatchQuality":{"Country":1.0,"State":1.0,"County":1.0,"City":1.0,"District":1.0,"PostalCode":1.0},"Location":{"LocationId":"NT_adunapQItwcyLVsu9bni6D_l_826993696_L","LocationType":"point","DisplayPosition":{"Latitude":51.4645523,"Longitude":-2.6119307},"MapView":{"TopLeft":{"Latitude":51.46503,"Longitude":-2.61337},"BottomRight":{"Latitude":51.46448,"Longitude":-2.61007}},"Address":{"Label":"Bristol, BS8 2, United Kingdom","Country":"GBR","State":"England","County":"Avon","City":"Bristol","District":"Bristol","PostalCode":"BS8 2","AdditionalData":[{"value":"United Kingdom","key":"CountryName"},{"value":"England","key":"StateName"},{"value":"Avon","key":"CountyName"}]},"MapReference":{"ReferenceId":"826993696","Spot":0.43,"SideOfStreet":"left","StateId":"20248595","CountyId":"20352323","CityId":"20352420","DistrictId":"20352421"}}},{"Relevance":1.0,"Distance":66.9,"MatchLevel":"postalCode","MatchQuality":{"PostalCode":1.0},"MatchType":"interpolated","Location":{"LocationId":"NT_2JArJZMkRNLjZZNAa851qA_l_26724037_R_xAD","LocationType":"point","DisplayPosition":{"Latitude":51.46568,"Longitude":-2.61221},"MapView":{"TopLeft":{"Latitude":51.4746732,"Longitude":-2.6266457},"BottomRight":{"Latitude":51.4566868,"Longitude":-2.5977743}},"Address":{"Label":"BS8 2QD, Bristol, England, United Kingdom","Country":"GBR","State":"England","County":"Avon","City":"Bristol","PostalCode":"BS8 2QD","AdditionalData":[{"value":"United Kingdom","key":"CountryName"},{"value":"England","key":"StateName"},{"value":"Avon","key":"CountyName"}]},"MapReference":{"ReferenceId":"26724037","Spot":0.13,"SideOfStreet":"neither","StateId":"20248595","CountyId":"20352323","CityId":"20352420"}}},{"Relevance":1.0,"Distance":72.4,"MatchLevel":"houseNumber","MatchQuality":{"Country":1.0,"State":1.0,"County":1.0,"City":1.0,"District":1.0,"Street":[1.0],"HouseNumber":1.0,"PostalCode":1.0},"MatchType":"interpolated","Location":{"LocationId":"NT_2JArJZMkRNLjZZNAa851qA_l_26724091_R_4A","LocationType":"point","DisplayPosition":{"Latitude":51.46552,"Longitude":-2.61299},"MapView":{"TopLeft":{"Latitude":51.4666442,"Longitude":-2.6147944},"BottomRight":{"Latitude":51.4643959,"Longitude":-2.6111855}},"Address":{"Label":"8 Chantry Road, Bristol, BS8 2QD, United Kingdom","Country":"GBR","State":"England","County":"Avon","City":"Bristol","District":"Bristol","Street":"Chantry Road","HouseNumber":"8","PostalCode":"BS8 2QD","AdditionalData":[{"value":"United Kingdom","key":"CountryName"},{"value":"England","key":"StateName"},{"value":"Avon","key":"CountyName"}]},"MapReference":{"ReferenceId":"26724091","Spot":0.67,"SideOfStreet":"right","StateId":"20248595","CountyId":"20352323","CityId":"20352420","DistrictId":"20352421"}}},{"Relevance":1.0,"Distance":83.2,"MatchLevel":"houseNumber","MatchQuality":{"Country":1.0,"State":1.0,"County":1.0,"City":1.0,"District":1.0,"Street":[1.0],"HouseNumber":1.0,"PostalCode":1.0},"MatchType":"interpolated","Location":{"LocationId":"NT_0Uqg36X6-nr2PfcvhO3n7B_l_26724038_L_zID","LocationType":"point","DisplayPosition":{"Latitude":51.4657301,"Longitude":-2.61266},"MapView":{"TopLeft":{"Latitude":51.4668542,"Longitude":-2.6144645},"BottomRight":{"Latitude":51.4646059,"Longitude":-2.6108556}},"Address":{"Label":"32 Hurle Crescent, Bristol, BS8 2SZ, United Kingdom","Country":"GBR","State":"England","County":"Avon","City":"Bristol","District":"Bristol","Street":"Hurle Crescent","HouseNumber":"32","PostalCode":"BS8 2SZ","AdditionalData":[{"value":"United Kingdom","key":"CountryName"},{"value":"England","key":"StateName"},{"value":"Avon","key":"CountyName"}]},"MapReference":{"ReferenceId":"26724038","Spot":0.16,"SideOfStreet":"left","StateId":"20248595","CountyId":"20352323","CityId":"20352420","DistrictId":"20352421"}}},{"Relevance":1.0,"Distance":94.5,"MatchLevel":"street","MatchQuality":{"Country":1.0,"State":1.0,"County":1.0,"City":1.0,"District":1.0,"Street":[1.0],"PostalCode":1.0},"Location":{"LocationId":"NT_SD26aCwY20WN4C0I3epc8C_l_774086603_R","LocationType":"point","DisplayPosition":{"Latitude":51.4642395,"Longitude":-2.6119635},"MapView":{"TopLeft":{"Latitude":51.46427,"Longitude":-2.61295},"BottomRight":{"Latitude":51.46423,"Longitude":-2.6115}},"Address":{"Label":"Alma Court, Bristol, BS8 2, United Kingdom","Country":"GBR","State":"England","County":"Avon","City":"Bristol","District":"Clifton","Street":"Alma Court","PostalCode":"BS8 2","AdditionalData":[{"value":"United Kingdom","key":"CountryName"},{"value":"England","key":"StateName"},{"value":"Avon","key":"CountyName"}]},"MapReference":{"ReferenceId":"774086603","Spot":0.32,"SideOfStreet":"right","StateId":"20248595","CountyId":"20352323","CityId":"20352420","DistrictId":"20352461"}}},{"Relevance":1.0,"Distance":99.2,"MatchLevel":"landmark","MatchQuality":{"Country":1.0,"State":1.0,"County":1.0,"City":1.0,"District":1.0,"PostalCode":1.0,"Name":1.0},"Location":{"LocationId":"NT_Ym6CdPwtlfjldPsB2uDImC_p_J7oaUKiw54flxfQ-mf1DyD","LocationType":"shoppingCentre","Name":"Clifton Down Shopping Centre","DisplayPosition":{"Latitude":51.46448,"Longitude":-2.6105},"MapView":{"TopLeft":{"Latitude":51.4645,"Longitude":-2.6115},"BottomRight":{"Latitude":51.46373,"Longitude":-2.60998}},"Address":{"Label":"Bristol, BS8 2, United Kingdom","Country":"GBR","State":"England","County":"Avon","City":"Bristol","District":"Clifton","PostalCode":"BS8 2","AdditionalData":[{"value":"United Kingdom","key":"CountryName"},{"value":"England","key":"StateName"},{"value":"Avon","key":"CountyName"}]},"MapReference":{"StateId":"20248595","CountyId":"20352323","CityId":"20352420","DistrictId":"20352461","PlaceId":"1001026280"}}}]}]}}