{"Response":{"MetaInfo":{"Timestamp":"2020-03-28T12:00:36.512+0000","NextPageInformation":"2"},"View":[{"_type":"SearchResultsViewType","ViewId":0,"Result":[{"Relevance":1.0,"Distance":0.0,"Direction":0.0,"MatchLevel":"district","MatchQuality":{"Country":1.0,"State":1.0,"County":1.0,"City":1.0,"District":1.0,"PostalCode":1.0},"Location":{"LocationId":"NT_ptRUhTr968TXSDx390lEaD","LocationType":"point","DisplayPosition":{"Latitude":51.4251324,"Longitude":0.1042461},"MapView":{"TopLeft":{"Latitude":51.45781,"Longitude":0.079},"BottomRight":{"Latitude":51.40216,"Longitude":0.15888}},"Address":{"Label":"Sidcup, England, United Kingdom","Country":"GBR","State":"England","County":"Kent","City":"Sidcup","District":"Sidcup","PostalCode":"DA14 6","AdditionalData":[{"value":"United Kingdom","key":"CountryName"},{"value":"England","key":"StateName"},{"value":"Kent","key":"CountyName"}]},"MapReference":{"ReferenceId":"25490338","SideOfStreet":"neither","StateId":"20248595","CountyId":"20336836","CityId":"20337337","DistrictId":"20337338"}}},{"Relevance":1.0,"Distance":7.0,"MatchLevel":"street","MatchQuality":{"Country":1.0,"State":1.0,"County":1.0,"City":1.0,"District":1.0,"Street":[1.0],"PostalCode":1.0},"Location":{"LocationId":"NT_PEYpCkqtR7EWJ7FnNxzJJD_l_25444101_L","LocationType":"point","DisplayPosition":{"Latitude":51.42509,"Longitude":0.10432},"MapView":{"TopLeft":{"Latitude":51.42537,"Longitude":0.10432},"BottomRight":{"Latitude":51.42509,"Longitude":0.10478}},"Address":{"Label":"Black Horse Road, Sidcup, DA14 6, United Kingdom","Country":"GBR","State":"England","County":"Kent","City":"Sidcup","District":"Sidcup","Street":"Black Horse Road","PostalCode":"DA14 6","AdditionalData":[{"value":"United Kingdom","key":"CountryName"},{"value":"England","key":"StateName"},{"value":"Kent","key":"CountyName"}]},"MapReference":{"ReferenceId":"25444101","Spot":0.0,"SideOfStreet":"left","StateId":"20248595","CountyId":"20336836","CityId":"20337337","DistrictId":"20337338"}}},{"Relevance":1.0,"Distance":7.9,"MatchLevel":"houseNumber","MatchQuality":{"Country":1.0,"State":1.0,"County":1.0,"City":1.0,"District":1.0,"Street":[1.0],"HouseNumber":1.0,"PostalCode":1.0},"MatchType":"interpolated","Location":{"LocationId":"NT_PEYpCkqtR7EWJ7FnNxzJJD_xA","LocationType":"point","DisplayPosition":{"Latitude":51.42505,"Longitude":0.1043},"MapView":{"TopLeft":{"Latitude":51.4261742,"Longitude":0.1024971},"BottomRight":{"Latitude":51.4239258,"Longitude":0.1061029}},"Address":{"Label":"1 Black Horse Road, Sidcup, DA14 6ET, United Kingdom","Country":"GBR","State":"England","County":"Kent","City":"Sidcup","District":"Sidcup","Street":"Black Horse Road","HouseNumber":"1","PostalCode":"DA14 6ET","AdditionalData":[{"value":"United Kingdom","key":"CountryName"},{"value":"England","key":"StateName"},{"value":"Kent","key":"CountyName"}]},"MapReference":{"ReferenceId":"25444110","Spot":0.92,"SideOfStreet":"left","StateId":"20248595","CountyId":"20336836","CityId":"20337337","DistrictId":"20337338","AddressId":"763642206","RoadLinkId":"82762098"}}},{"Relevance":1.0,"Distance":7.9,"MatchLevel":"postalCode","MatchQuality":{"PostalCode":1.0},"MatchType":"interpolated","Location":{"LocationId":"NT_joZ2Xe5PLi5mykZSMTcRvD_l_25444102_R_3A","LocationType":"point","DisplayPosition":{"Latitude":51.42519,"Longitude":0.10418},"MapView":{"TopLeft":{"Latitude":51.4341832,"Longitude":0.0897571},"BottomRight":{"Latitude":51.4161968,"Longitude":0.1186029}},"Address":{"Label":"DA14 6HA, Sidcup, England, United Kingdom","Country":"GBR","State":"England","County":"Kent","City":"Sidcup","PostalCode":"DA14 6HA","AdditionalData":[{"value":"United Kingdom","key":"CountryName"},{"value":"England","key":"StateName"},{"value":"Kent","key":"CountyName"}]},"MapReference":{"ReferenceId":"25444102","Spot":0.51,"SideOfStreet":"neither","StateId":"20248595","CountyId":"20336836","CityId":"20337337"}}},{"Relevance":1.0,"Distance":22.0,"MatchLevel":"houseNumber","MatchQuality":{"Country":1.0,"State":1.0,"County":1.0,"City":1.0,"District":1.0,"Street":[1.0],"HouseNumber":1.0,"PostalCode":1.0},"MatchType":"interpolated","Location":{"LocationId":"NT_joZ2Xe5PLi5mykZSMTcRvD_l_25444102_R_3A","LocationType":"point","DisplayPosition":{"Latitude":51.4252285,"Longitude":0.1039692},"MapView":{"TopLeft":{"Latitude":51.4263526,"Longitude":0.1021664},"BottomRight":{"Latitude":51.4241043,"Longitude":0.1057721}},"Address":{"Label":"7 Back Road, Sidcup, DA14 6HA, United Kingdom","Country":"GBR","State":"England","County":"Kent","City":"Sidcup","District":"Sidcup","Street":"Back Road","HouseNumber":"7","PostalCode":"DA14 6HA","AdditionalData":[{"value":"United Kingdom","key":"CountryName"},{"value":"England","key":"StateName"},{"value":"Kent","key":"CountyName"}]},"MapReference":{"ReferenceId":"25444102","Spot":0.51,"SideOfStreet":"right","StateId":"20248595","CountyId":"20336836","CityId":"20337337","DistrictId":"20337338"}}},{"Relevance":1.0,"Distance":32.5,"MatchLevel":"postalCode","MatchQuality":{"PostalCode":1.0},"MatchType":"interpolated","Location":{"LocationId":"NT_PEYpCkqtR7EWJ7FnNxzJJD_xA","LocationType":"point","DisplayPosition":{"Latitude":51.42484,"Longitude":0.10424},"MapView":{"TopLeft":{"Latitude":51.4338332,"Longitude":0.0898172},"BottomRight":{"Latitude":51.4158468,"Longitude":0.1186628}},"Address":{"Label":"DA14 6ET, Sidcup, England, United Kingdom","Country":"GBR","State":"England","County":"Kent","City":"Sidcup","PostalCode":"DA14 6ET","AdditionalData":[{"value":"United Kingdom","key":"CountryName"},{"value":"England","key":"StateName"},{"value":"Kent","key":"CountyName"}]},"MapReference":{"ReferenceId":"25444110","Spot":0.92,"SideOfStreet":"neither","StateId":"20248595","CountyId":"20336836","CityId":"20337337"}}},{"Relevance":1.0,"Distance":40.9,"MatchLevel":"houseNumber","MatchQuality":{"Country":1.0,"State":1.0,"County":1.0,"City":1.0,"District":1.0,"Street":[1.0],"HouseNumber":1.0,"PostalCode":1.0},"MatchType":"interpolated","Location":{"LocationId":"NT_JEHcxn0NVm2s.AbJK2-htA_xITY","LocationType":"point","DisplayPosition":{"Latitude":51.4253,"Longitude":0.1049},"MapView":{"TopLeft":{"Latitude":51.4264242,"Longitude":0.1030971},"BottomRight":{"Latitude":51.4241758,"Longitude":0.1067029}},"Address":{"Label":"12a Sidcup High Street, Sidcup, DA14 6, United Kingdom","Country":"GBR","State":"England","County":"Kent","City":"Sidcup","District":"Sidcup","Street":"Sidcup High Street","HouseNumber":"12a","PostalCode":"DA14 6","AdditionalData":[{"value":"United Kingdom","key":"CountryName"},{"value":"England","key":"StateName"},{"value":"Kent","key":"CountyName"}]},"MapReference":{"ReferenceId":"25444099","Spot":0.74,"SideOfStreet":"left","StateId":"20248595","CountyId":"20336836","CityId":"20337337","DistrictId":"20337338","AddressId":"763560272","RoadLinkId":"83024126"}}},{"Relevance":1.0,"Distance":49.9,"MatchLevel":"houseNumber","MatchQuality":{"Country":1.0,"State":1.0,"County":1.0,"City":1.0,"District":1.0,"Street":[1.0],"HouseNumber":1.0,"PostalCode":1.0},"MatchType":"interpolated","Location":{"LocationId":"NT_JEHcxn0NVm2s.AbJK2-htA_xkD","LocationType":"point","DisplayPosition":{"Latitude":51.42555,"Longitude":0.10451},"MapView":{"TopLeft":{"Latitude":51.4266742,"Longitude":0.1027071},"BottomRight":{"Latitude":51.4244258,"Longitude":0.1063129}},"Address":{"Label":"19 Sidcup High Street, Sidcup, DA14 6EN, United Kingdom","Country":"GBR","State":"England","County":"Kent","City":"Sidcup","District":"Sidcup","Street":"Sidcup High Street","HouseNumber":"19","PostalCode":"DA14 6EN","AdditionalData":[{"value":"United Kingdom","key":"CountryName"},{"value":"England","key":"StateName"},{"value":"Kent","key":"CountyName"}]},"MapReference":{"ReferenceId":"25444094","Spot":0.76,"SideOfStreet":"right","StateId":"20248595","CountyId":"20336836","CityId":"20337337","DistrictId":"20337338","AddressId":"785192102","RoadLinkId":"82613279"}}},{"Relevance":1.0,"Distance":50.2,"MatchLevel":"postalCode","MatchQuality":{"PostalCode":1.0},"MatchType":"interpolated","Location":{"LocationId":"NT_JEHcxn0NVm2s.AbJK2-htA_xkD","LocationType":"point","DisplayPosition":{"Latitude":51.4254,"Longitude":0.10483},"MapView":{"TopLeft":{"Latitude":51.4343932,"Longitude":0.090407},"BottomRight":{"Latitude":51.4164068,"Longitude":0.119253}},"Address":{"Label":"DA14 6EN, Sidcup, England, United Kingdom","Country":"GBR","State":"England","County":"Kent","City":"Sidcup","PostalCode":"DA14 6EN","AdditionalData":[{"value":"United Kingdom","key":"CountryName"},{"value":"England","key":"StateName"},{"value":"Kent","key":"CountyName"}]},"MapReference":{"ReferenceId":"25444094","Spot":0.76,"SideOfStreet":"neither","StateId":"20248595","CountyId":"20336836","CityId":"20337337"}}},{"Relevance":1.0,"Distance":51.9,"MatchLevel":"houseNumber","MatchQuality":{"Country":1.0,"State":1.0,"County":1.0,"City":1.0,"District":1.0,"Street":[1.0],"HouseNumber":1.0,"PostalCode":1.0},"MatchType":"interpolated","Location":{"LocationId":"NT_f5yzNw.fVcCxz7c7vNw7mD_0A","LocationType":"point","DisplayPosition":{"Latitude":51.42477,"Longitude":0.10507},"MapView":{"TopLeft":{"Latitude":51.4258942,"Longitude":0.1032672},"BottomRight":{"Latitude":51.4236458,"Longitude":0.1068728}},"Address":{"Label":"4 Church Road, Sidcup, DA14 6BX, United Kingdom","Country":"GBR","State":"England","County":"Kent","City":"Sidcup","District":"Sidcup","Street":"Church Road","HouseNumber":"4","PostalCode":"DA14 6BX","AdditionalData":[{"value":"United Kingdom","key":"CountryName"},{"value":"England","key":"StateName"},{"value":"Kent","key":"CountyName"}]},"MapReference":{"ReferenceId":"1067622437","Spot":0.19,"SideOfStreet":"left","StateId":"20248595","CountyId":"20336836","CityId":"20337337","DistrictId":"20337338","AddressId":"748778183","RoadLinkId":"389920707"}}}]}]}}