{"Response":{"MetaInfo":{"Timestamp":"2020-03-28T10:57:20.607+0000","NextPageInformation":"2"},"View":[{"_type":"SearchResultsViewType","ViewId":0,"Result":[{"Relevance":1.0,"Distance":0.0,"Direction":0.0,"MatchLevel":"city","MatchQuality":{"Country":1.0,"State":1.0,"County":1.0,"City":1.0,"PostalCode":1.0},"Location":{"LocationId":"NT_GEZB6dHL2RWxhOm-LHbHjD","LocationType":"point","DisplayPosition":{"Latitude":51.4787012,"Longitude":7.7817845},"MapView":{"TopLeft":{"Latitude":51.52951,"Longitude":7.65571},"BottomRight":{"Latitude":51.46657,"Longitude":7.85067}},"Address":{"Label":"Fröndenberg/Ruhr, Nordrhein-Westfalen, Deutschland","Country":"DEU","State":"Nordrhein-Westfalen","County":"Unna","City":"Fröndenberg/Ruhr","PostalCode":"58730","AdditionalData":[{"value":"Deutschland","key":"CountryName"},{"value":"Nordrhein-Westfalen","key":"StateName"},{"value":"Unna","key":"CountyName"}]},"MapReference":{"ReferenceId":"51282389","SideOfStreet":"neither","CountryId":"20147700","StateId":"20157369","CountyId":"20160915","CityId":"20160926"}}},{"Relevance":1.0,"Distance":46.2,"MatchLevel":"houseNumber","MatchQuality":{"Country":1.0,"State":1.0,"County":1.0,"City":1.0,"Street":[1.0],"HouseNumber":1.0,"PostalCode":1.0},"MatchType":"interpolated","Location":{"LocationId":"NT_xepq5RFhIXMjs2JwVbyXDD_5A","LocationType":"point","DisplayPosition":{"Latitude":51.47909,"Longitude":7.78155},"MapView":{"TopLeft":{"Latitude":51.4802142,"Longitude":7.779745},"BottomRight":{"Latitude":51.4779658,"Longitude":7.783355}},"Address":{"Label":"Hirschberg 9, 58730 Fröndenberg/Ruhr, Deutschland","Country":"DEU","State":"Nordrhein-Westfalen","County":"Unna","City":"Fröndenberg/Ruhr","Street":"Hirschberg","HouseNumber":"9","PostalCode":"58730","AdditionalData":[{"value":"Deutschland","key":"CountryName"},{"value":"Nordrhein-Westfalen","key":"StateName"},{"value":"Unna","key":"CountyName"}]},"MapReference":{"ReferenceId":"761889372","Spot":0.69,"SideOfStreet":"right","CountryId":"20147700","StateId":"20157369","CountyId":"20160915","CityId":"20160926","AddressId":"196265244","RoadLinkId":"156100782"}}},{"Relevance":1.0,"Distance":51.8,"MatchLevel":"houseNumber","MatchQuality":{"Country":1.0,"State":1.0,"County":1.0,"City":1.0,"Street":[1.0],"HouseNumber":1.0,"PostalCode":1.0},"MatchType":"interpolated","Location":{"LocationId":"NT_xepq5RFhIXMjs2JwVbyXDD_xQD","LocationType":"point","DisplayPosition":{"Latitude":51.47879,"Longitude":7.78105},"MapView":{"TopLeft":{"Latitude":51.4799142,"Longitude":7.779245},"BottomRight":{"Latitude":51.4776658,"Longitude":7.782855}},"Address":{"Label":"Hirschberg 14, 58730 Fröndenberg/Ruhr, Deutschland","Country":"DEU","State":"Nordrhein-Westfalen","County":"Unna","City":"Fröndenberg/Ruhr","Street":"Hirschberg","HouseNumber":"14","PostalCode":"58730","AdditionalData":[{"value":"Deutschland","key":"CountryName"},{"value":"Nordrhein-Westfalen","key":"StateName"},{"value":"Unna","key":"CountyName"}]},"MapReference":{"ReferenceId":"761889371","Spot":0.96,"SideOfStreet":"left","CountryId":"20147700","StateId":"20157369","CountyId":"20160915","CityId":"20160926","AddressId":"192932514","RoadLinkId":"156100781"}}},{"Relevance":1.0,"Distance":57.7,"MatchLevel":"street","MatchQuality":{"Country":1.0,"State":1.0,"County":1.0,"City":1.0,"Street":[1.0],"PostalCode":1.0},"Location":{"LocationId":"NT_xepq5RFhIXMjs2JwVbyXDD_l_761889370_R","LocationType":"point","DisplayPosition":{"Latitude":51.47922,"Longitude":7.78176},"MapView":{"TopLeft":{"Latitude":51.47938,"Longitude":7.78176},"BottomRight":{"Latitude":51.47922,"Longitude":7.78202}},"Address":{"Label":"Hirschberg, 58730 Fröndenberg/Ruhr, Deutschland","Country":"DEU","State":"Nordrhein-Westfalen","County":"Unna","City":"Fröndenberg/Ruhr","Street":"Hirschberg","PostalCode":"58730","AdditionalData":[{"value":"Deutschland","key":"CountryName"},{"value":"Nordrhein-Westfalen","key":"StateName"},{"value":"Unna","key":"CountyName"}]},"MapReference":{"ReferenceId":"761889370","Spot":0.0,"SideOfStreet":"right","CountryId":"20147700","StateId":"20157369","CountyId":"20160915","CityId":"20160926"}}},{"Relevance":1.0,"Distance":72.6,"MatchLevel":"houseNumber","MatchQuality":{"Country":1.0,"State":1.0,"County":1.0,"City":1.0,"Street":[1.0],"HouseNumber":1.0,"PostalCode":1.0},"MatchType":"interpolated","Location":{"LocationId":"NT_efV.dVeCZ5Aewz6J3gs4OA_3A","LocationType":"point","DisplayPosition":{"Latitude":51.47951,"Longitude":7.78176},"MapView":{"TopLeft":{"Latitude":51.4806342,"Longitude":7.779955},"BottomRight":{"Latitude":51.4783858,"Longitude":7.783565}},"Address":{"Label":"Kolpingstraße 7, 58730 Fröndenberg/Ruhr, Deutschland","Country":"DEU","State":"Nordrhein-Westfalen","County":"Unna","City":"Fröndenberg/Ruhr","Street":"Kolpingstraße","HouseNumber":"7","PostalCode":"58730","AdditionalData":[{"value":"Deutschland","key":"CountryName"},{"value":"Nordrhein-Westfalen","key":"StateName"},{"value":"Unna","key":"CountyName"}]},"MapReference":{"ReferenceId":"76173547","Spot":0.46,"SideOfStreet":"left","CountryId":"20147700","StateId":"20157369","CountyId":"20160915","CityId":"20160926","AddressId":"193170013","RoadLinkId":"35211399"}}},{"Relevance":1.0,"Distance":81.0,"MatchLevel":"houseNumber","MatchQuality":{"Country":1.0,"State":1.0,"County":1.0,"City":1.0,"Street":[1.0],"HouseNumber":1.0,"PostalCode":1.0},"MatchType":"interpolated","Location":{"LocationId":"NT_.ivFwkBLSEmJv5-WiCHOwD_2A","LocationType":"point","DisplayPosition":{"Latitude":51.47779,"Longitude":7.78036},"MapView":{"TopLeft":{"Latitude":51.4789142,"Longitude":7.7785551},"BottomRight":{"Latitude":51.4766658,"Longitude":7.7821649}},"Address":{"Label":"Von-Nell-Breuning-Straße 6, 58730 Fröndenberg/Ruhr, Deutschland","Country":"DEU","State":"Nordrhein-Westfalen","County":"Unna","City":"Fröndenberg/Ruhr","Street":"Von-Nell-Breuning-Straße","HouseNumber":"6","PostalCode":"58730","AdditionalData":[{"value":"Deutschland","key":"CountryName"},{"value":"Nordrhein-Westfalen","key":"StateName"},{"value":"Unna","key":"CountyName"}]},"MapReference":{"ReferenceId":"76173533","Spot":1.0,"SideOfStreet":"right","CountryId":"20147700","StateId":"20157369","CountyId":"20160915","CityId":"20160926","AddressId":"768351917","RoadLinkId":"35476215"}}},{"Relevance":1.0,"Distance":84.6,"MatchLevel":"houseNumber","MatchQuality":{"Country":1.0,"State":1.0,"County":1.0,"City":1.0,"Street":[1.0],"HouseNumber":1.0,"PostalCode":1.0},"MatchType":"interpolated","Location":{"LocationId":"NT_xepq5RFhIXMjs2JwVbyXDD_3A","LocationType":"point","DisplayPosition":{"Latitude":51.47846,"Longitude":7.78049},"MapView":{"TopLeft":{"Latitude":51.4795842,"Longitude":7.778685},"BottomRight":{"Latitude":51.4773358,"Longitude":7.782295}},"Address":{"Label":"Hirschberg 7, 58730 Fröndenberg/Ruhr, Deutschland","Country":"DEU","State":"Nordrhein-Westfalen","County":"Unna","City":"Fröndenberg/Ruhr","Street":"Hirschberg","HouseNumber":"7","PostalCode":"58730","AdditionalData":[{"value":"Deutschland","key":"CountryName"},{"value":"Nordrhein-Westfalen","key":"StateName"},{"value":"Unna","key":"CountyName"}]},"MapReference":{"ReferenceId":"51282798","Spot":0.92,"SideOfStreet":"right","CountryId":"20147700","StateId":"20157369","CountyId":"20160915","CityId":"20160926","AddressId":"196129768","RoadLinkId":"35257580"}}},{"Relevance":1.0,"Distance":89.3,"MatchLevel":"street","MatchQuality":{"Country":1.0,"State":1.0,"County":1.0,"City":1.0,"PostalCode":1.0},"Location":{"LocationId":"NT_exkuCYQPSdf8PKcxvy9wxD_l_51494607_R","LocationType":"point","DisplayPosition":{"Latitude":51.47849,"Longitude":7.78054},"MapView":{"TopLeft":{"Latitude":51.4788,"Longitude":7.77991},"BottomRight":{"Latitude":51.47849,"Longitude":7.78054}},"Address":{"Label":"58730 Fröndenberg/Ruhr, Deutschland","Country":"DEU","State":"Nordrhein-Westfalen","County":"Unna","City":"Fröndenberg/Ruhr","PostalCode":"58730","AdditionalData":[{"value":"Deutschland","key":"CountryName"},{"value":"Nordrhein-Westfalen","key":"StateName"},{"value":"Unna","key":"CountyName"}]},"MapReference":{"ReferenceId":"51494607","Spot":0.0,"SideOfStreet":"right","CountryId":"20147700","StateId":"20157369","CountyId":"20160915","CityId":"20160926"}}},{"Relevance":1.0,"Distance":112.3,"MatchLevel":"houseNumber","MatchQuality":{"Country":1.0,"State":1.0,"County":1.0,"City":1.0,"Street":[1.0],"HouseNumber":1.0,"PostalCode":1.0},"MatchType":"interpolated","Location":{"LocationId":"NT_efV.dVeCZ5Aewz6J3gs4OA_yA","LocationType":"point","DisplayPosition":{"Latitude":51.47977,"Longitude":7.78186},"MapView":{"TopLeft":{"Latitude":51.4808942,"Longitude":7.780055},"BottomRight":{"Latitude":51.4786458,"Longitude":7.783665}},"Address":{"Label":"Kolpingstraße 2, 58730 Fröndenberg/Ruhr, Deutschland","Country":"DEU","State":"Nordrhein-Westfalen","County":"Unna","City":"Fröndenberg/Ruhr","Street":"Kolpingstraße","HouseNumber":"2","PostalCode":"58730","AdditionalData":[{"value":"Deutschland","key":"CountryName"},{"value":"Nordrhein-Westfalen","key":"StateName"},{"value":"Unna","key":"CountyName"}]},"MapReference":{"ReferenceId":"76173549","Spot":0.46,"SideOfStreet":"right","CountryId":"20147700","StateId":"20157369","CountyId":"20160915","CityId":"20160926","AddressId":"193599681","RoadLinkId":"35429773"}}},{"Relevance":1.0,"Distance":114.7,"MatchLevel":"houseNumber","MatchQuality":{"Country":1.0,"State":1.0,"County":1.0,"City":1.0,"Street":[1.0],"HouseNumber":1.0,"PostalCode":1.0},"MatchType":"interpolated","Location":{"LocationId":"NT_xepq5RFhIXMjs2JwVbyXDD_xED","LocationType":"point","DisplayPosition":{"Latitude":51.47964,"Longitude":7.78247},"MapView":{"TopLeft":{"Latitude":51.4807642,"Longitude":7.780665},"BottomRight":{"Latitude":51.4785158,"Longitude":7.784275}},"Address":{"Label":"Hirschberg 11, 58730 Fröndenberg/Ruhr, Deutschland","Country":"DEU","State":"Nordrhein-Westfalen","County":"Unna","City":"Fröndenberg/Ruhr","Street":"Hirschberg","HouseNumber":"11","PostalCode":"58730","AdditionalData":[{"value":"Deutschland","key":"CountryName"},{"value":"Nordrhein-Westfalen","key":"StateName"},{"value":"Unna","key":"CountyName"}]},"MapReference":{"ReferenceId":"761889381","Spot":0.31,"SideOfStreet":"right","CountryId":"20147700","StateId":"20157369","CountyId":"20160915","CityId":"20160926","AddressId":"193641992","RoadLinkId":"156100799"}}}]}]}}