{"Response":{"MetaInfo":{"Timestamp":"2020-03-28T11:43:01.037+0000","NextPageInformation":"2"},"View":[{"_type":"SearchResultsViewType","ViewId":0,"Result":[{"Relevance":1.0,"Distance":0.0,"Direction":0.0,"MatchLevel":"district","MatchQuality":{"Country":1.0,"State":1.0,"County":1.0,"City":1.0,"District":1.0,"PostalCode":1.0},"Location":{"LocationId":"NT_luSzzLoeHXLfKqK1zyWNNA","LocationType":"point","DisplayPosition":{"Latitude":51.5864867,"Longitude":13.2446923},"MapView":{"TopLeft":{"Latitude":51.59601,"Longitude":13.22334},"BottomRight":{"Latitude":51.57427,"Longitude":13.26658}},"Address":{"Label":"Falkenberg/Elster, Brandenburg, Deutschland","Country":"DEU","State":"Brandenburg","County":"Elbe-Elster","City":"Falkenberg/Elster","District":"Falkenberg/Elster","PostalCode":"04895","AdditionalData":[{"value":"Deutschland","key":"CountryName"},{"value":"Brandenburg","key":"StateName"},{"value":"Elbe-Elster","key":"CountyName"}]},"MapReference":{"ReferenceId":"840133428","SideOfStreet":"neither","CountryId":"20147700","StateId":"20187428","CountyId":"20187778","CityId":"20212627","DistrictId":"20212645"}}},{"Relevance":1.0,"Distance":16.2,"MatchLevel":"houseNumber","MatchQuality":{"Country":1.0,"State":1.0,"County":1.0,"City":1.0,"District":1.0,"Street":[1.0],"HouseNumber":1.0,"PostalCode":1.0},"MatchType":"interpolated","Location":{"LocationId":"NT_M0FkVspsZS0LHpf3MvNIZC_yMD","LocationType":"point","DisplayPosition":{"Latitude":51.58662,"Longitude":13.24501},"MapView":{"TopLeft":{"Latitude":51.5877442,"Longitude":13.2432007},"BottomRight":{"Latitude":51.5854958,"Longitude":13.2468193}},"Address":{"Label":"Bahnhofstraße 23, 04895 Falkenberg/Elster, Deutschland","Country":"DEU","State":"Brandenburg","County":"Elbe-Elster","City":"Falkenberg/Elster","District":"Falkenberg/Elster","Street":"Bahnhofstraße","HouseNumber":"23","PostalCode":"04895","AdditionalData":[{"value":"Deutschland","key":"CountryName"},{"value":"Brandenburg","key":"StateName"},{"value":"Elbe-Elster","key":"CountyName"}]},"MapReference":{"ReferenceId":"544459491","Spot":0.8,"SideOfStreet":"left","CountryId":"20147700","StateId":"20187428","CountyId":"20187778","CityId":"20212627","DistrictId":"20212645","AddressId":"183368245","RoadLinkId":"37439828"}}},{"Relevance":1.0,"Distance":39.2,"MatchLevel":"houseNumber","MatchQuality":{"Country":1.0,"State":1.0,"County":1.0,"City":1.0,"District":1.0,"Street":[1.0],"HouseNumber":1.0,"PostalCode":1.0},"MatchType":"interpolated","Location":{"LocationId":"NT_M0FkVspsZS0LHpf3MvNIZC_xAD","LocationType":"point","DisplayPosition":{"Latitude":51.58681,"Longitude":13.24492},"MapView":{"TopLeft":{"Latitude":51.5879342,"Longitude":13.2431107},"BottomRight":{"Latitude":51.5856858,"Longitude":13.2467293}},"Address":{"Label":"Bahnhofstraße 10, 04895 Falkenberg/Elster, Deutschland","Country":"DEU","State":"Brandenburg","County":"Elbe-Elster","City":"Falkenberg/Elster","District":"Falkenberg/Elster","Street":"Bahnhofstraße","HouseNumber":"10","PostalCode":"04895","AdditionalData":[{"value":"Deutschland","key":"CountryName"},{"value":"Brandenburg","key":"StateName"},{"value":"Elbe-Elster","key":"CountyName"}]},"MapReference":{"ReferenceId":"544459462","Spot":0.06,"SideOfStreet":"right","CountryId":"20147700","StateId":"20187428","CountyId":"20187778","CityId":"20212627","DistrictId":"20212645","AddressId":"183364397","RoadLinkId":"37885235"}}},{"Relevance":1.0,"Distance":53.7,"MatchLevel":"houseNumber","MatchQuality":{"Country":1.0,"State":1.0,"County":1.0,"City":1.0,"District":1.0,"Street":[1.0],"HouseNumber":1.0,"PostalCode":1.0},"MatchType":"interpolated","Location":{"LocationId":"NT_7oVFBJQFGwNBjBuPjmRbpC_zA","LocationType":"point","DisplayPosition":{"Latitude":51.58672,"Longitude":13.24397},"MapView":{"TopLeft":{"Latitude":51.5878442,"Longitude":13.2421607},"BottomRight":{"Latitude":51.5855958,"Longitude":13.2457793}},"Address":{"Label":"Karlstraße 3, 04895 Falkenberg/Elster, Deutschland","Country":"DEU","State":"Brandenburg","County":"Elbe-Elster","City":"Falkenberg/Elster","District":"Falkenberg/Elster","Street":"Karlstraße","HouseNumber":"3","PostalCode":"04895","AdditionalData":[{"value":"Deutschland","key":"CountryName"},{"value":"Brandenburg","key":"StateName"},{"value":"Elbe-Elster","key":"CountyName"}]},"MapReference":{"ReferenceId":"544459418","Spot":0.67,"SideOfStreet":"right","CountryId":"20147700","StateId":"20187428","CountyId":"20187778","CityId":"20212627","DistrictId":"20212645","AddressId":"181780504","RoadLinkId":"37705207"}}},{"Relevance":1.0,"Distance":57.6,"MatchLevel":"houseNumber","MatchQuality":{"Country":1.0,"State":1.0,"County":1.0,"City":1.0,"District":1.0,"Street":[1.0],"HouseNumber":1.0,"PostalCode":1.0},"MatchType":"interpolated","Location":{"LocationId":"NT_gLYTSpmJkbeN-3eDk4eUQA_yA","LocationType":"point","DisplayPosition":{"Latitude":51.58595,"Longitude":13.24431},"MapView":{"TopLeft":{"Latitude":51.5870742,"Longitude":13.2425008},"BottomRight":{"Latitude":51.5848258,"Longitude":13.2461192}},"Address":{"Label":"Walther-Rathenau-Straße 2, 04895 Falkenberg/Elster, Deutschland","Country":"DEU","State":"Brandenburg","County":"Elbe-Elster","City":"Falkenberg/Elster","District":"Falkenberg/Elster","Street":"Walther-Rathenau-Straße","HouseNumber":"2","PostalCode":"04895","AdditionalData":[{"value":"Deutschland","key":"CountryName"},{"value":"Brandenburg","key":"StateName"},{"value":"Elbe-Elster","key":"CountyName"}]},"MapReference":{"ReferenceId":"544459495","Spot":0.7,"SideOfStreet":"left","CountryId":"20147700","StateId":"20187428","CountyId":"20187778","CityId":"20212627","DistrictId":"20212645","AddressId":"621827228","RoadLinkId":"37619223"}}},{"Relevance":1.0,"Distance":96.9,"MatchLevel":"houseNumber","MatchQuality":{"Country":1.0,"State":1.0,"County":1.0,"City":1.0,"District":1.0,"Street":[1.0],"HouseNumber":1.0,"PostalCode":1.0},"MatchType":"interpolated","Location":{"LocationId":"NT_M0FkVspsZS0LHpf3MvNIZC_xcD","LocationType":"point","DisplayPosition":{"Latitude":51.58572,"Longitude":13.24542},"MapView":{"TopLeft":{"Latitude":51.5868442,"Longitude":13.2436108},"BottomRight":{"Latitude":51.5845958,"Longitude":13.2472292}},"Address":{"Label":"Bahnhofstraße 17, 04895 Falkenberg/Elster, Deutschland","Country":"DEU","State":"Brandenburg","County":"Elbe-Elster","City":"Falkenberg/Elster","District":"Falkenberg/Elster","Street":"Bahnhofstraße","HouseNumber":"17","PostalCode":"04895","AdditionalData":[{"value":"Deutschland","key":"CountryName"},{"value":"Brandenburg","key":"StateName"},{"value":"Elbe-Elster","key":"CountyName"}]},"MapReference":{"ReferenceId":"544459492","Spot":0.68,"SideOfStreet":"left","CountryId":"20147700","StateId":"20187428","CountyId":"20187778","CityId":"20212627","DistrictId":"20212645","AddressId":"182681353","RoadLinkId":"37583524"}}},{"Relevance":1.0,"Distance":109.8,"MatchLevel":"houseNumber","MatchQuality":{"Country":1.0,"State":1.0,"County":1.0,"City":1.0,"District":1.0,"Street":[1.0],"HouseNumber":1.0,"PostalCode":1.0},"MatchType":"interpolated","Location":{"LocationId":"NT_oj1QipvTP.5GcMUvYlOoFC_xA","LocationType":"point","DisplayPosition":{"Latitude":51.58752,"Longitude":13.24428},"MapView":{"TopLeft":{"Latitude":51.5886442,"Longitude":13.2424707},"BottomRight":{"Latitude":51.5863958,"Longitude":13.2460893}},"Address":{"Label":"Friedrich-List-Straße 1, 04895 Falkenberg/Elster, Deutschland","Country":"DEU","State":"Brandenburg","County":"Elbe-Elster","City":"Falkenberg/Elster","District":"Falkenberg/Elster","Street":"Friedrich-List-Straße","HouseNumber":"1","PostalCode":"04895","AdditionalData":[{"value":"Deutschland","key":"CountryName"},{"value":"Brandenburg","key":"StateName"},{"value":"Elbe-Elster","key":"CountyName"}]},"MapReference":{"ReferenceId":"544600741","Spot":0.21,"SideOfStreet":"left","CountryId":"20147700","StateId":"20187428","CountyId":"20187778","CityId":"20212627","DistrictId":"20212645","AddressId":"621842655","RoadLinkId":"37455959"}}},{"Relevance":1.0,"Distance":142.9,"MatchLevel":"street","MatchQuality":{"Country":1.0,"State":1.0,"County":1.0,"City":1.0,"District":1.0,"Street":[1.0],"PostalCode":1.0},"Location":{"LocationId":"NT_ChBXg-EqPUvACyPx70P-8C_l_1209784907_L","LocationType":"point","DisplayPosition":{"Latitude":51.58777,"Longitude":13.2448},"MapView":{"TopLeft":{"Latitude":51.58786,"Longitude":13.2441},"BottomRight":{"Latitude":51.58776,"Longitude":13.24521}},"Address":{"Label":"Uebigauer Straße, 04895 Falkenberg/Elster, Deutschland","Country":"DEU","State":"Brandenburg","County":"Elbe-Elster","City":"Falkenberg/Elster","District":"Falkenberg/Elster","Street":"Uebigauer Straße","PostalCode":"04895","AdditionalData":[{"value":"Deutschland","key":"CountryName"},{"value":"Brandenburg","key":"StateName"},{"value":"Elbe-Elster","key":"CountyName"}]},"MapReference":{"ReferenceId":"1209784907","Spot":0.37,"SideOfStreet":"left","CountryId":"20147700","StateId":"20187428","CountyId":"20187778","CityId":"20212627","DistrictId":"20212645"}}},{"Relevance":1.0,"Distance":144.2,"MatchLevel":"houseNumber","MatchQuality":{"Country":1.0,"State":1.0,"County":1.0,"City":1.0,"District":1.0,"Street":[1.0],"HouseNumber":1.0,"PostalCode":1.0},"MatchType":"interpolated","Location":{"LocationId":"NT_wHPKEbhllzyrN8RtBFjY6A_2A","LocationType":"point","DisplayPosition":{"Latitude":51.58512,"Longitude":13.24468},"MapView":{"TopLeft":{"Latitude":51.5862442,"Longitude":13.2428708},"BottomRight":{"Latitude":51.5839958,"Longitude":13.2464892}},"Address":{"Label":"Friedrichstraße 6, 04895 Falkenberg/Elster, Deutschland","Country":"DEU","State":"Brandenburg","County":"Elbe-Elster","City":"Falkenberg/Elster","District":"Falkenberg/Elster","Street":"Friedrichstraße","HouseNumber":"6","PostalCode":"04895","AdditionalData":[{"value":"Deutschland","key":"CountryName"},{"value":"Brandenburg","key":"StateName"},{"value":"Elbe-Elster","key":"CountyName"}]},"MapReference":{"ReferenceId":"544459494","Spot":0.72,"SideOfStreet":"left","CountryId":"20147700","StateId":"20187428","CountyId":"20187778","CityId":"20212627","DistrictId":"20212645","AddressId":"181729220","RoadLinkId":"37349524"}}},{"Relevance":1.0,"Distance":146.0,"MatchLevel":"street","MatchQuality":{"Country":1.0,"State":1.0,"County":1.0,"City":1.0,"District":1.0,"Street":[1.0],"PostalCode":1.0},"Location":{"LocationId":"NT_ChBXg-EqPUvACyPx70P-8C_l_1209784906_R","LocationType":"point","DisplayPosition":{"Latitude":51.58776,"Longitude":13.24521},"MapView":{"TopLeft":{"Latitude":51.58783,"Longitude":13.24521},"BottomRight":{"Latitude":51.58776,"Longitude":13.24642}},"Address":{"Label":"Uebigauer Straße, 04895 Falkenberg/Elster, Deutschland","Country":"DEU","State":"Brandenburg","County":"Elbe-Elster","City":"Falkenberg/Elster","District":"Falkenberg/Elster","Street":"Uebigauer Straße","PostalCode":"04895","AdditionalData":[{"value":"Deutschland","key":"CountryName"},{"value":"Brandenburg","key":"StateName"},{"value":"Elbe-Elster","key":"CountyName"}]},"MapReference":{"ReferenceId":"1209784906","Spot":0.0,"SideOfStreet":"right","CountryId":"20147700","StateId":"20187428","CountyId":"20187778","CityId":"20212627","DistrictId":"20212645"}}}]}]}}