{"Response":{"MetaInfo":{"Timestamp":"2020-03-28T11:28:37.469+0000","NextPageInformation":"2"},"View":[{"_type":"SearchResultsViewType","ViewId":0,"Result":[{"Relevance":1.0,"Distance":0.0,"Direction":0.0,"MatchLevel":"city","MatchQuality":{"Country":1.0,"State":1.0,"County":1.0,"City":1.0,"PostalCode":1.0},"Location":{"LocationId":"NT_XYX8SMH7OK303Q1lQkOIvC","LocationType":"point","DisplayPosition":{"Latitude":51.5753425,"Longitude":4.7640854},"MapView":{"TopLeft":{"Latitude":51.62939,"Longitude":4.71574},"BottomRight":{"Latitude":51.55755,"Longitude":4.84106}},"Address":{"Label":"Breda, Noord-Brabant, Nederland","Country":"NLD","State":"Noord-Brabant","County":"Breda","City":"Breda","PostalCode":"4811","AdditionalData":[{"value":"Nederland","key":"CountryName"},{"value":"Noord-Brabant","key":"StateName"},{"value":"Breda","key":"CountyName"}]},"MapReference":{"ReferenceId":"736414737","SideOfStreet":"neither","CountryId":"23055544","StateId":"23055529","CountyId":"23055941","CityId":"20202749"}}},{"Relevance":1.0,"Distance":2.5,"MatchLevel":"street","MatchQuality":{"Country":1.0,"State":1.0,"County":1.0,"City":1.0,"Street":[1.0],"PostalCode":1.0},"Location":{"LocationId":"NT_TkzZn.p5PK9WKtoYMmul0B_l_54574708_L","LocationType":"point","DisplayPosition":{"Latitude":51.5753649,"Longitude":4.7640884},"MapView":{"TopLeft":{"Latitude":51.57537,"Longitude":4.76405},"BottomRight":{"Latitude":51.5753,"Longitude":4.76458}},"Address":{"Label":"Langendijk, 4819 Breda, Nederland","Country":"NLD","State":"Noord-Brabant","County":"Breda","City":"Breda","Street":"Langendijk","PostalCode":"4819","AdditionalData":[{"value":"Nederland","key":"CountryName"},{"value":"Noord-Brabant","key":"StateName"},{"value":"Breda","key":"CountyName"}]},"MapReference":{"ReferenceId":"54574708","Spot":0.93,"SideOfStreet":"neither","CountryId":"23055544","StateId":"23055529","CountyId":"23055941","CityId":"20202749"}}},{"Relevance":1.0,"Distance":3.9,"MatchLevel":"street","MatchQuality":{"Country":1.0,"State":1.0,"County":1.0,"City":1.0,"Street":[1.0],"PostalCode":1.0},"Location":{"LocationId":"NT_wrrdK8Pb7C.pZmBbqkQq2D_l_54572012_R","LocationType":"point","DisplayPosition":{"Latitude":51.57537,"Longitude":4.76405},"MapView":{"TopLeft":{"Latitude":51.57562,"Longitude":4.76405},"BottomRight":{"Latitude":51.57537,"Longitude":4.76469}},"Address":{"Label":"Ruusbroecstraat, 4819 Breda, Nederland","Country":"NLD","State":"Noord-Brabant","County":"Breda","City":"Breda","Street":"Ruusbroecstraat","PostalCode":"4819","AdditionalData":[{"value":"Nederland","key":"CountryName"},{"value":"Noord-Brabant","key":"StateName"},{"value":"Breda","key":"CountyName"}]},"MapReference":{"ReferenceId":"54572012","Spot":0.0,"SideOfStreet":"right","CountryId":"23055544","StateId":"23055529","CountyId":"23055941","CityId":"20202749"}}},{"Relevance":1.0,"Distance":19.3,"MatchLevel":"houseNumber","MatchQuality":{"Country":1.0,"State":1.0,"County":1.0,"City":1.0,"Street":[1.0],"HouseNumber":1.0,"PostalCode":1.0},"MatchType":"interpolated","Location":{"LocationId":"NT_P52XP.QyQ39Tx-myEPzNrC_xMDM","LocationType":"point","DisplayPosition":{"Latitude":51.5754,"Longitude":4.76462},"MapView":{"TopLeft":{"Latitude":51.5765242,"Longitude":4.7628112},"BottomRight":{"Latitude":51.5742758,"Longitude":4.7664288}},"Address":{"Label":"Ruusbroecstraat 130, 4819 GG Breda, Nederland","Country":"NLD","State":"Noord-Brabant","County":"Breda","City":"Breda","Street":"Ruusbroecstraat","HouseNumber":"130","PostalCode":"4819 GG","AdditionalData":[{"value":"Nederland","key":"CountryName"},{"value":"Noord-Brabant","key":"StateName"},{"value":"Breda","key":"CountyName"}]},"MapReference":{"ReferenceId":"54572013","Spot":0.39,"SideOfStreet":"left","CountryId":"23055544","StateId":"23055529","CountyId":"23055941","CityId":"20202749","AddressId":"619208220","RoadLinkId":"32106215"}}},{"Relevance":1.0,"Distance":19.4,"MatchLevel":"houseNumber","MatchQuality":{"Country":1.0,"State":1.0,"County":1.0,"City":1.0,"Street":[1.0],"HouseNumber":1.0,"PostalCode":1.0},"MatchType":"interpolated","Location":{"LocationId":"NT_UGIivqAYwf7jiShVVNQ7FB_3ED","LocationType":"point","DisplayPosition":{"Latitude":51.5754,"Longitude":4.76382},"MapView":{"TopLeft":{"Latitude":51.5765242,"Longitude":4.7620112},"BottomRight":{"Latitude":51.5742758,"Longitude":4.7656288}},"Address":{"Label":"Langendijk 71, 4819 EV Breda, Nederland","Country":"NLD","State":"Noord-Brabant","County":"Breda","City":"Breda","Street":"Langendijk","HouseNumber":"71","PostalCode":"4819 EV","AdditionalData":[{"value":"Nederland","key":"CountryName"},{"value":"Noord-Brabant","key":"StateName"},{"value":"Breda","key":"CountyName"}]},"MapReference":{"ReferenceId":"883416231","Spot":0.48,"SideOfStreet":"left","CountryId":"23055544","StateId":"23055529","CountyId":"23055941","CityId":"20202749","AddressId":"619152508","RoadLinkId":"250572265"}}},{"Relevance":1.0,"Distance":34.7,"MatchLevel":"street","MatchQuality":{"Country":1.0,"State":1.0,"County":1.0,"City":1.0,"Street":[1.0],"PostalCode":1.0},"Location":{"LocationId":"NT_BbhTBYw3HEzKKg3UKseeiB_l_61473630_L","LocationType":"point","DisplayPosition":{"Latitude":51.57528,"Longitude":4.7645775},"MapView":{"TopLeft":{"Latitude":51.5753,"Longitude":4.7645},"BottomRight":{"Latitude":51.57454,"Longitude":4.76458}},"Address":{"Label":"Zaart, 4819 Breda, Nederland","Country":"NLD","State":"Noord-Brabant","County":"Breda","City":"Breda","Street":"Zaart","PostalCode":"4819","AdditionalData":[{"value":"Nederland","key":"CountryName"},{"value":"Noord-Brabant","key":"StateName"},{"value":"Breda","key":"CountyName"}]},"MapReference":{"ReferenceId":"61473630","Spot":0.97,"SideOfStreet":"left","CountryId":"23055544","StateId":"23055529","CountyId":"23055941","CityId":"20202749"}}},{"Relevance":1.0,"Distance":35.3,"MatchLevel":"houseNumber","MatchQuality":{"Country":1.0,"State":1.0,"County":1.0,"City":1.0,"Street":[1.0],"HouseNumber":1.0,"PostalCode":1.0},"MatchType":"interpolated","Location":{"LocationId":"NT_P52XP.QyQ39Tx-myEPzNrC_xIDN","LocationType":"point","DisplayPosition":{"Latitude":51.57556,"Longitude":4.76469},"MapView":{"TopLeft":{"Latitude":51.5766842,"Longitude":4.7628812},"BottomRight":{"Latitude":51.5744358,"Longitude":4.7664988}},"Address":{"Label":"Ruusbroecstraat 124, 4819 GG Breda, Nederland","Country":"NLD","State":"Noord-Brabant","County":"Breda","City":"Breda","Street":"Ruusbroecstraat","HouseNumber":"124","PostalCode":"4819 GG","AdditionalData":[{"value":"Nederland","key":"CountryName"},{"value":"Noord-Brabant","key":"StateName"},{"value":"Breda","key":"CountyName"}]},"MapReference":{"ReferenceId":"54572014","Spot":0.02,"SideOfStreet":"left","CountryId":"23055544","StateId":"23055529","CountyId":"23055941","CityId":"20202749","AddressId":"618731982","RoadLinkId":"31314652"}}},{"Relevance":1.0,"Distance":43.7,"MatchLevel":"houseNumber","MatchQuality":{"Country":1.0,"State":1.0,"County":1.0,"City":1.0,"Street":[1.0],"HouseNumber":1.0,"PostalCode":1.0},"MatchType":"interpolated","Location":{"LocationId":"NT_IIDMbOv2FiIrEZFkXGwaoA_5UTLCl0U","LocationType":"point","DisplayPosition":{"Latitude":51.57574,"Longitude":4.76388},"MapView":{"TopLeft":{"Latitude":51.5768642,"Longitude":4.7620712},"BottomRight":{"Latitude":51.5746158,"Longitude":4.7656888}},"Address":{"Label":"Jacob Catssingel 95-BIS, 4819 HB Breda, Nederland","Country":"NLD","State":"Noord-Brabant","County":"Breda","City":"Breda","Street":"Jacob Catssingel","HouseNumber":"95-BIS","PostalCode":"4819 HB","AdditionalData":[{"value":"Nederland","key":"CountryName"},{"value":"Noord-Brabant","key":"StateName"},{"value":"Breda","key":"CountyName"}]},"MapReference":{"ReferenceId":"54572008","Spot":0.0,"SideOfStreet":"right","CountryId":"23055544","StateId":"23055529","CountyId":"23055941","CityId":"20202749","AddressId":"797468032","RoadLinkId":"32129671"}}},{"Relevance":1.0,"Distance":45.5,"MatchLevel":"houseNumber","MatchQuality":{"Country":1.0,"State":1.0,"County":1.0,"City":1.0,"Street":[1.0],"HouseNumber":1.0,"PostalCode":1.0},"MatchType":"interpolated","Location":{"LocationId":"NT_Hi-IAKMAKg59BIELzCc55B_zgD","LocationType":"point","DisplayPosition":{"Latitude":51.57545,"Longitude":4.7635},"MapView":{"TopLeft":{"Latitude":51.5765742,"Longitude":4.7616912},"BottomRight":{"Latitude":51.5743258,"Longitude":4.7653088}},"Address":{"Label":"Langendijk 38, 4819 EW Breda, Nederland","Country":"NLD","State":"Noord-Brabant","County":"Breda","City":"Breda","Street":"Langendijk","HouseNumber":"38","PostalCode":"4819 EW","AdditionalData":[{"value":"Nederland","key":"CountryName"},{"value":"Noord-Brabant","key":"StateName"},{"value":"Breda","key":"CountyName"}]},"MapReference":{"ReferenceId":"883416232","Spot":0.27,"SideOfStreet":"right","CountryId":"23055544","StateId":"23055529","CountyId":"23055941","CityId":"20202749","AddressId":"619016959","RoadLinkId":"250572266"}}},{"Relevance":1.0,"Distance":48.9,"MatchLevel":"houseNumber","MatchQuality":{"Country":1.0,"State":1.0,"County":1.0,"City":1.0,"Street":[1.0],"HouseNumber":1.0,"PostalCode":1.0},"MatchType":"interpolated","Location":{"LocationId":"NT_IIDMbOv2FiIrEZFkXGwaoA_xEzM","LocationType":"point","DisplayPosition":{"Latitude":51.57565,"Longitude":4.76337},"MapView":{"TopLeft":{"Latitude":51.5767742,"Longitude":4.7615612},"BottomRight":{"Latitude":51.5745258,"Longitude":4.7651788}},"Address":{"Label":"Jacob Catssingel 113, 4819 HB Breda, Nederland","Country":"NLD","State":"Noord-Brabant","County":"Breda","City":"Breda","Street":"Jacob Catssingel","HouseNumber":"113","PostalCode":"4819 HB","AdditionalData":[{"value":"Nederland","key":"CountryName"},{"value":"Noord-Brabant","key":"StateName"},{"value":"Breda","key":"CountyName"}]},"MapReference":{"ReferenceId":"54572015","Spot":0.32,"SideOfStreet":"right","CountryId":"23055544","StateId":"23055529","CountyId":"23055941","CityId":"20202749","AddressId":"619091381","RoadLinkId":"31674717"}}}]}]}}