{"Response":{"MetaInfo":{"Timestamp":"2020-03-31T17:03:55.949+0000","NextPageInformation":"2"},"View":[{"_type":"SearchResultsViewType","ViewId":0,"Result":[{"Relevance":1.0,"Distance":0.0,"Direction":0.0,"MatchLevel":"district","MatchQuality":{"Country":1.0,"County":1.0,"City":1.0,"District":1.0,"PostalCode":1.0},"Location":{"LocationId":"NT_YP-Brs-esQ.fV2KajqlnhD","LocationType":"point","DisplayPosition":{"Latitude":51.55,"Longitude":-9.2667},"MapView":{"TopLeft":{"Latitude":51.56886,"Longitude":-9.28538},"BottomRight":{"Latitude":51.53411,"Longitude":-9.25068}},"Address":{"Label":"Skibbereen, Ireland","Country":"IRL","County":"County Cork","City":"Skibbereen","District":"Skibbereen","AdditionalData":[{"value":"Ireland","key":"CountryName"},{"value":"County Cork","key":"CountyName"}]},"MapReference":{"ReferenceId":"562714904","SideOfStreet":"neither","CountryId":"20403667","CountyId":"20411183","CityId":"20516701","DistrictId":"20517170"}}},{"Relevance":1.0,"Distance":30.2,"MatchLevel":"houseNumber","MatchQuality":{"Country":1.0,"County":1.0,"City":1.0,"District":1.0,"Street":[1.0],"PostalCode":1.0},"MatchType":"interpolated","Location":{"LocationId":"NT_p1DTf5LftjYrWRADHhxrYB","LocationType":"point","DisplayPosition":{"Latitude":51.54951,"Longitude":-9.26732},"MapView":{"TopLeft":{"Latitude":51.5506342,"Longitude":-9.2691278},"BottomRight":{"Latitude":51.5483858,"Longitude":-9.2655122}},"Address":{"Label":"\"The Quay\" Levis Quay, Skibbereen, County Cork, P81 C429, Ireland","Country":"IRL","County":"County Cork","City":"Skibbereen","District":"Skibbereen","Street":"Levis Quay","PostalCode":"P81 C429","AdditionalData":[{"value":"Ireland","key":"CountryName"},{"value":"County Cork","key":"CountyName"}],"Building":"The Quay"},"MapReference":{"ReferenceId":"850442534","Spot":1.0,"SideOfStreet":"left","CountryId":"20403667","CountyId":"20411183","CityId":"20516701","DistrictId":"20517170","AddressId":"358849543","RoadLinkId":"229887754"}}},{"Relevance":1.0,"Distance":30.2,"MatchLevel":"postalCode","MatchQuality":{"PostalCode":1.0},"MatchType":"interpolated","Location":{"LocationId":"NT_p1DTf5LftjYrWRADHhxrYB","LocationType":"point","DisplayPosition":{"Latitude":51.54983,"Longitude":-9.26704},"MapView":{"TopLeft":{"Latitude":51.5588232,"Longitude":-9.2815024},"BottomRight":{"Latitude":51.5408368,"Longitude":-9.2525776}},"Address":{"Label":"P81 CK77, Skibbereen, Ireland","Country":"IRL","County":"County Cork","City":"Skibbereen","PostalCode":"P81 CK77","AdditionalData":[{"value":"Ireland","key":"CountryName"},{"value":"County Cork","key":"CountyName"}]},"MapReference":{"ReferenceId":"850442534","Spot":1.0,"SideOfStreet":"neither","CountryId":"20403667","CountyId":"20411183","CityId":"20516701"}}},{"Relevance":1.0,"Distance":33.4,"MatchLevel":"landmark","MatchQuality":{"Country":1.0,"County":1.0,"City":1.0,"Name":1.0},"Location":{"LocationId":"NT_5fYnLhVSLpc8-J7faoVi0B","LocationType":"river","Name":"River Ilen","DisplayPosition":{"Latitude":51.57016,"Longitude":-9.27275},"MapView":{"TopLeft":{"Latitude":51.60635,"Longitude":-9.30667},"BottomRight":{"Latitude":51.54884,"Longitude":-9.2634}},"Address":{"Label":"Skibbereen, County Cork, Ireland","Country":"IRL","County":"County Cork","City":"Skibbereen","AdditionalData":[{"value":"Ireland","key":"CountryName"},{"value":"County Cork","key":"CountyName"}]},"MapReference":{"CountryId":"20403667","CountyId":"20411183","CityId":"20516701","PlaceId":"1238259575"}}},{"Relevance":1.0,"Distance":60.6,"MatchLevel":"houseNumber","MatchQuality":{"Country":1.0,"County":1.0,"City":1.0,"District":1.0,"Street":[1.0],"HouseNumber":1.0,"PostalCode":1.0},"MatchType":"interpolated","Location":{"LocationId":"NT_1fpTIi9UoguBmAMcRAJMFC_zID","LocationType":"point","DisplayPosition":{"Latitude":51.54965,"Longitude":-9.26582},"MapView":{"TopLeft":{"Latitude":51.5507742,"Longitude":-9.2676278},"BottomRight":{"Latitude":51.5485258,"Longitude":-9.2640122}},"Address":{"Label":"32 North Street, Skibbereen, County Cork, P81 HE08, Ireland","Country":"IRL","County":"County Cork","City":"Skibbereen","District":"Skibbereen","Street":"North Street","HouseNumber":"32","PostalCode":"P81 HE08","AdditionalData":[{"value":"Ireland","key":"CountryName"},{"value":"County Cork","key":"CountyName"}]},"MapReference":{"ReferenceId":"957634039","Spot":0.52,"SideOfStreet":"left","CountryId":"20403667","CountyId":"20411183","CityId":"20516701","DistrictId":"20517170","AddressId":"214345946","RoadLinkId":"300588877"}}},{"Relevance":1.0,"Distance":61.1,"MatchLevel":"postalCode","MatchQuality":{"PostalCode":1.0},"MatchType":"interpolated","Location":{"LocationId":"NT_1fpTIi9UoguBmAMcRAJMFC_zID","LocationType":"point","DisplayPosition":{"Latitude":51.54972,"Longitude":-9.26594},"MapView":{"TopLeft":{"Latitude":51.5587132,"Longitude":-9.2804024},"BottomRight":{"Latitude":51.5407268,"Longitude":-9.2514776}},"Address":{"Label":"P81 WF88, Skibbereen, Ireland","Country":"IRL","County":"County Cork","City":"Skibbereen","PostalCode":"P81 WF88","AdditionalData":[{"value":"Ireland","key":"CountryName"},{"value":"County Cork","key":"CountyName"}]},"MapReference":{"ReferenceId":"957634039","Spot":0.52,"SideOfStreet":"neither","CountryId":"20403667","CountyId":"20411183","CityId":"20516701"}}},{"Relevance":1.0,"Distance":63.8,"MatchLevel":"houseNumber","MatchQuality":{"Country":1.0,"County":1.0,"City":1.0,"District":1.0,"Street":[1.0],"HouseNumber":1.0,"PostalCode":1.0},"MatchType":"interpolated","Location":{"LocationId":"NT_1fpTIi9UoguBmAMcRAJMFC_yYD","LocationType":"point","DisplayPosition":{"Latitude":51.54992,"Longitude":-9.26563},"MapView":{"TopLeft":{"Latitude":51.5510442,"Longitude":-9.2674378},"BottomRight":{"Latitude":51.5487958,"Longitude":-9.2638222}},"Address":{"Label":"26 North Street, Skibbereen, County Cork, P81 FX43, Ireland","Country":"IRL","County":"County Cork","City":"Skibbereen","District":"Skibbereen","Street":"North Street","HouseNumber":"26","PostalCode":"P81 FX43","AdditionalData":[{"value":"Ireland","key":"CountryName"},{"value":"County Cork","key":"CountyName"}]},"MapReference":{"ReferenceId":"971573207","Spot":0.01,"SideOfStreet":"left","CountryId":"20403667","CountyId":"20411183","CityId":"20516701","DistrictId":"20517170","AddressId":"214220863","RoadLinkId":"307959608"}}},{"Relevance":1.0,"Distance":65.7,"MatchLevel":"postalCode","MatchQuality":{"PostalCode":1.0},"MatchType":"interpolated","Location":{"LocationId":"NT_1fpTIi9UoguBmAMcRAJMFC_yYD","LocationType":"point","DisplayPosition":{"Latitude":51.55,"Longitude":-9.26575},"MapView":{"TopLeft":{"Latitude":51.5589932,"Longitude":-9.2802125},"BottomRight":{"Latitude":51.5410068,"Longitude":-9.2512875}},"Address":{"Label":"P81 F583, Skibbereen, Ireland","Country":"IRL","County":"County Cork","City":"Skibbereen","PostalCode":"P81 F583","AdditionalData":[{"value":"Ireland","key":"CountryName"},{"value":"County Cork","key":"CountyName"}]},"MapReference":{"ReferenceId":"971573207","Spot":0.01,"SideOfStreet":"neither","CountryId":"20403667","CountyId":"20411183","CityId":"20516701"}}},{"Relevance":1.0,"Distance":78.3,"MatchLevel":"houseNumber","MatchQuality":{"Country":1.0,"County":1.0,"City":1.0,"District":1.0,"Street":[1.0],"HouseNumber":1.0,"PostalCode":1.0},"MatchType":"interpolated","Location":{"LocationId":"NT_Ya2kPCqJR5QkR-YrD0roCC_0gD","LocationType":"point","DisplayPosition":{"Latitude":51.54986,"Longitude":-9.26559},"MapView":{"TopLeft":{"Latitude":51.5509842,"Longitude":-9.2673978},"BottomRight":{"Latitude":51.5487358,"Longitude":-9.2637822}},"Address":{"Label":"48 Windmill Lane, Skibbereen, County Cork, P81, Ireland","Country":"IRL","County":"County Cork","City":"Skibbereen","District":"Skibbereen","Street":"Windmill Lane","HouseNumber":"48","PostalCode":"P81","AdditionalData":[{"value":"Ireland","key":"CountryName"},{"value":"County Cork","key":"CountyName"}]},"MapReference":{"ReferenceId":"850383226","Spot":0.87,"SideOfStreet":"right","CountryId":"20403667","CountyId":"20411183","CityId":"20516701","DistrictId":"20517170","AddressId":"214607860","RoadLinkId":"229842918"}}},{"Relevance":1.0,"Distance":81.5,"MatchLevel":"houseNumber","MatchQuality":{"Country":1.0,"County":1.0,"City":1.0,"District":1.0,"Street":[1.0],"PostalCode":1.0},"MatchType":"interpolated","Location":{"LocationId":"NT_BZhvGgQFsGE-8Y-HTVjPfA","LocationType":"point","DisplayPosition":{"Latitude":51.54917,"Longitude":-9.2666},"MapView":{"TopLeft":{"Latitude":51.5502942,"Longitude":-9.2684078},"BottomRight":{"Latitude":51.5480458,"Longitude":-9.2647922}},"Address":{"Label":"\"Credit Union House\" Main Street, Skibbereen, County Cork, P81 K076, Ireland","Country":"IRL","County":"County Cork","City":"Skibbereen","District":"Skibbereen","Street":"Main Street","PostalCode":"P81 K076","AdditionalData":[{"value":"Ireland","key":"CountryName"},{"value":"County Cork","key":"CountyName"}],"Building":"Credit Union House"},"MapReference":{"ReferenceId":"562715564","Spot":0.41,"SideOfStreet":"right","CountryId":"20403667","CountyId":"20411183","CityId":"20516701","DistrictId":"20517170","AddressId":"743647305","RoadLinkId":"86809236"}}}]}]}}