{"Response":{"MetaInfo":{"Timestamp":"2020-03-28T10:41:16.428+0000","NextPageInformation":"2"},"View":[{"_type":"SearchResultsViewType","ViewId":0,"Result":[{"Relevance":1.0,"Distance":0.0,"Direction":0.0,"MatchLevel":"district","MatchQuality":{"Country":1.0,"State":1.0,"County":1.0,"City":1.0,"District":1.0,"PostalCode":1.0},"Location":{"LocationId":"NT_hXIyp-2qk9zE5ujkrXzzfD","LocationType":"point","DisplayPosition":{"Latitude":51.5049751,"Longitude":-0.5925966},"MapView":{"TopLeft":{"Latitude":51.5414,"Longitude":-0.66037},"BottomRight":{"Latitude":51.48684,"Longitude":-0.52645}},"Address":{"Label":"Slough, England, United Kingdom","Country":"GBR","State":"England","County":"Berkshire","City":"Slough","District":"Slough","PostalCode":"SL1 2","AdditionalData":[{"value":"United Kingdom","key":"CountryName"},{"value":"England","key":"StateName"},{"value":"Berkshire","key":"CountyName"}]},"MapReference":{"ReferenceId":"792496222","SideOfStreet":"neither","StateId":"20248595","CountyId":"20334448","CityId":"20334662","DistrictId":"20334663"}}},{"Relevance":1.0,"Distance":3.4,"MatchLevel":"street","MatchQuality":{"Country":1.0,"State":1.0,"County":1.0,"City":1.0,"District":1.0,"PostalCode":1.0},"Location":{"LocationId":"NT_GVtOPVaZb9nERy0Hh1vklA_l_25313381_L","LocationType":"point","DisplayPosition":{"Latitude":51.5050053,"Longitude":-0.5925941},"MapView":{"TopLeft":{"Latitude":51.50555,"Longitude":-0.59314},"BottomRight":{"Latitude":51.505,"Longitude":-0.59213}},"Address":{"Label":"Slough, SL1 2, United Kingdom","Country":"GBR","State":"England","County":"Berkshire","City":"Slough","District":"Slough","PostalCode":"SL1 2","AdditionalData":[{"value":"United Kingdom","key":"CountryName"},{"value":"England","key":"StateName"},{"value":"Berkshire","key":"CountyName"}]},"MapReference":{"ReferenceId":"25313381","Spot":0.41,"SideOfStreet":"neither","StateId":"20248595","CountyId":"20334448","CityId":"20334662","DistrictId":"20334663"}}},{"Relevance":1.0,"Distance":26.2,"MatchLevel":"postalCode","MatchQuality":{"PostalCode":1.0},"MatchType":"interpolated","Location":{"LocationId":"NT_GCKuHZ.prOolUkfJg6vHJD_l_25902020_R_xED","LocationType":"point","DisplayPosition":{"Latitude":51.50507,"Longitude":-0.59225},"MapView":{"TopLeft":{"Latitude":51.5140632,"Longitude":-0.6066982},"BottomRight":{"Latitude":51.4960768,"Longitude":-0.5778018}},"Address":{"Label":"SL1 2BE, Slough, England, United Kingdom","Country":"GBR","State":"England","County":"Berkshire","City":"Slough","PostalCode":"SL1 2BE","AdditionalData":[{"value":"United Kingdom","key":"CountryName"},{"value":"England","key":"StateName"},{"value":"Berkshire","key":"CountyName"}]},"MapReference":{"ReferenceId":"25902020","Spot":0.62,"SideOfStreet":"neither","StateId":"20248595","CountyId":"20334448","CityId":"20334662"}}},{"Relevance":1.0,"Distance":39.1,"MatchLevel":"street","MatchQuality":{"Country":1.0,"State":1.0,"County":1.0,"City":1.0,"District":1.0,"PostalCode":1.0},"Location":{"LocationId":"NT_GVtOPVaZb9nERy0Hh1vklA_l_25313356_R","LocationType":"point","DisplayPosition":{"Latitude":51.50507,"Longitude":-0.59314},"MapView":{"TopLeft":{"Latitude":51.50579,"Longitude":-0.59343},"BottomRight":{"Latitude":51.50507,"Longitude":-0.59312}},"Address":{"Label":"Slough, SL1 2, United Kingdom","Country":"GBR","State":"England","County":"Berkshire","City":"Slough","District":"Slough","PostalCode":"SL1 2","AdditionalData":[{"value":"United Kingdom","key":"CountryName"},{"value":"England","key":"StateName"},{"value":"Berkshire","key":"CountyName"}]},"MapReference":{"ReferenceId":"25313356","Spot":0.0,"SideOfStreet":"right","StateId":"20248595","CountyId":"20334448","CityId":"20334662","DistrictId":"20334663"}}},{"Relevance":1.0,"Distance":39.1,"MatchLevel":"street","MatchQuality":{"Country":1.0,"State":1.0,"County":1.0,"City":1.0,"District":1.0,"PostalCode":1.0},"Location":{"LocationId":"NT_GVtOPVaZb9nERy0Hh1vklA_l_25313493_R","LocationType":"point","DisplayPosition":{"Latitude":51.50507,"Longitude":-0.59314},"MapView":{"TopLeft":{"Latitude":51.50507,"Longitude":-0.59336},"BottomRight":{"Latitude":51.50479,"Longitude":-0.59314}},"Address":{"Label":"Slough, SL1 2, United Kingdom","Country":"GBR","State":"England","County":"Berkshire","City":"Slough","District":"Slough","PostalCode":"SL1 2","AdditionalData":[{"value":"United Kingdom","key":"CountryName"},{"value":"England","key":"StateName"},{"value":"Berkshire","key":"CountyName"}]},"MapReference":{"ReferenceId":"25313493","Spot":1.0,"SideOfStreet":"right","StateId":"20248595","CountyId":"20334448","CityId":"20334662","DistrictId":"20334663"}}},{"Relevance":1.0,"Distance":44.9,"MatchLevel":"houseNumber","MatchQuality":{"Country":1.0,"State":1.0,"County":1.0,"City":1.0,"District":1.0,"Street":[1.0],"HouseNumber":1.0,"PostalCode":1.0},"MatchType":"interpolated","Location":{"LocationId":"NT_GCKuHZ.prOolUkfJg6vHJD_l_25902020_R_xED","LocationType":"point","DisplayPosition":{"Latitude":51.5045,"Longitude":-0.592272},"MapView":{"TopLeft":{"Latitude":51.5056242,"Longitude":-0.594078},"BottomRight":{"Latitude":51.5033759,"Longitude":-0.590466}},"Address":{"Label":"11 Albert Street, Slough, SL1 2BE, United Kingdom","Country":"GBR","State":"England","County":"Berkshire","City":"Slough","District":"Slough","Street":"Albert Street","HouseNumber":"11","PostalCode":"SL1 2BE","AdditionalData":[{"value":"United Kingdom","key":"CountryName"},{"value":"England","key":"StateName"},{"value":"Berkshire","key":"CountyName"}]},"MapReference":{"ReferenceId":"25902020","Spot":0.62,"SideOfStreet":"right","StateId":"20248595","CountyId":"20334448","CityId":"20334662","DistrictId":"20334663"}}},{"Relevance":1.0,"Distance":46.4,"MatchLevel":"houseNumber","MatchQuality":{"Country":1.0,"State":1.0,"County":1.0,"City":1.0,"District":1.0,"Street":[1.0],"HouseNumber":1.0,"PostalCode":1.0},"MatchType":"interpolated","Location":{"LocationId":"NT_0MUoQY.yLHQAdTi-Xmj.ID_l_25313596_L_1gD","LocationType":"point","DisplayPosition":{"Latitude":51.5046172,"Longitude":-0.5929415},"MapView":{"TopLeft":{"Latitude":51.5057413,"Longitude":-0.5947475},"BottomRight":{"Latitude":51.503493,"Longitude":-0.5911355}},"Address":{"Label":"58 Albert Street, Slough, SL1 2BU, United Kingdom","Country":"GBR","State":"England","County":"Berkshire","City":"Slough","District":"Slough","Street":"Albert Street","HouseNumber":"58","PostalCode":"SL1 2BU","AdditionalData":[{"value":"United Kingdom","key":"CountryName"},{"value":"England","key":"StateName"},{"value":"Berkshire","key":"CountyName"}]},"MapReference":{"ReferenceId":"25313596","Spot":0.39,"SideOfStreet":"left","StateId":"20248595","CountyId":"20334448","CityId":"20334662","DistrictId":"20334663"}}},{"Relevance":1.0,"Distance":49.0,"MatchLevel":"houseNumber","MatchQuality":{"Country":1.0,"State":1.0,"County":1.0,"City":1.0,"District":1.0,"Street":[1.0],"HouseNumber":1.0,"PostalCode":1.0},"MatchType":"interpolated","Location":{"LocationId":"NT_OqelHdxD61NseUIfV67D7D_l_25313607_L_5MD","LocationType":"point","DisplayPosition":{"Latitude":51.5048563,"Longitude":-0.5917006},"MapView":{"TopLeft":{"Latitude":51.5059805,"Longitude":-0.5935066},"BottomRight":{"Latitude":51.5037322,"Longitude":-0.5898946}},"Address":{"Label":"93 Park Street, Slough, SL1 1PX, United Kingdom","Country":"GBR","State":"England","County":"Berkshire","City":"Slough","District":"Slough","Street":"Park Street","HouseNumber":"93","PostalCode":"SL1 1PX","AdditionalData":[{"value":"United Kingdom","key":"CountryName"},{"value":"England","key":"StateName"},{"value":"Berkshire","key":"CountyName"}]},"MapReference":{"ReferenceId":"25313607","Spot":0.23,"SideOfStreet":"left","StateId":"20248595","CountyId":"20334448","CityId":"20334662","DistrictId":"20334663"}}},{"Relevance":1.0,"Distance":52.0,"MatchLevel":"street","MatchQuality":{"Country":1.0,"State":1.0,"County":1.0,"City":1.0,"District":1.0,"Street":[1.0],"PostalCode":1.0},"Location":{"LocationId":"NT_0MUoQY.yLHQAdTi-Xmj.ID_l_836038747_R","LocationType":"point","DisplayPosition":{"Latitude":51.50451,"Longitude":-0.59267},"MapView":{"TopLeft":{"Latitude":51.50451,"Longitude":-0.59267},"BottomRight":{"Latitude":51.50435,"Longitude":-0.59228}},"Address":{"Label":"Mere Road, Slough, SL1 2, United Kingdom","Country":"GBR","State":"England","County":"Berkshire","City":"Slough","District":"Slough","Street":"Mere Road","PostalCode":"SL1 2","AdditionalData":[{"value":"United Kingdom","key":"CountryName"},{"value":"England","key":"StateName"},{"value":"Berkshire","key":"CountyName"}]},"MapReference":{"ReferenceId":"836038747","Spot":1.0,"SideOfStreet":"right","StateId":"20248595","CountyId":"20334448","CityId":"20334662","DistrictId":"20334663"}}},{"Relevance":1.0,"Distance":66.5,"MatchLevel":"houseNumber","MatchQuality":{"Country":1.0,"State":1.0,"County":1.0,"City":1.0,"District":1.0,"Street":[1.0],"HouseNumber":1.0,"PostalCode":1.0},"MatchType":"interpolated","Location":{"LocationId":"NT_GCKuHZ.prOolUkfJg6vHJD_l_25313494_L_0gD","LocationType":"point","DisplayPosition":{"Latitude":51.5048601,"Longitude":-0.5935402},"MapView":{"TopLeft":{"Latitude":51.5059842,"Longitude":-0.5953462},"BottomRight":{"Latitude":51.5037359,"Longitude":-0.5917341}},"Address":{"Label":"48 Albert Street, Slough, SL1 2BU, United Kingdom","Country":"GBR","State":"England","County":"Berkshire","City":"Slough","District":"Slough","Street":"Albert Street","HouseNumber":"48","PostalCode":"SL1 2BU","AdditionalData":[{"value":"United Kingdom","key":"CountryName"},{"value":"England","key":"StateName"},{"value":"Berkshire","key":"CountyName"}]},"MapReference":{"ReferenceId":"25313494","Spot":0.11,"SideOfStreet":"left","StateId":"20248595","CountyId":"20334448","CityId":"20334662","DistrictId":"20334663"}}}]}]}}