{"Response":{"MetaInfo":{"Timestamp":"2020-03-28T10:57:29.305+0000","NextPageInformation":"2"},"View":[{"_type":"SearchResultsViewType","ViewId":0,"Result":[{"Relevance":1.0,"Distance":0.0,"Direction":0.0,"MatchLevel":"district","MatchQuality":{"Country":1.0,"State":1.0,"County":1.0,"City":1.0,"District":1.0,"PostalCode":1.0},"Location":{"LocationId":"NT_fVWcZJe6GN.iJmYNQE8xpC","LocationType":"point","DisplayPosition":{"Latitude":51.5370786,"Longitude":7.6859099},"MapView":{"TopLeft":{"Latitude":51.57122,"Longitude":7.66057},"BottomRight":{"Latitude":51.52157,"Longitude":7.73079}},"Address":{"Label":"Unna, Nordrhein-Westfalen, Deutschland","Country":"DEU","State":"Nordrhein-Westfalen","County":"Unna","City":"Unna","District":"Unna","PostalCode":"59423","AdditionalData":[{"value":"Deutschland","key":"CountryName"},{"value":"Nordrhein-Westfalen","key":"StateName"},{"value":"Unna","key":"CountyName"}]},"MapReference":{"ReferenceId":"51487233","SideOfStreet":"neither","CountryId":"20147700","StateId":"20157369","CountyId":"20160915","CityId":"20160978","DistrictId":"20160980"}}},{"Relevance":1.0,"Distance":21.5,"MatchLevel":"houseNumber","MatchQuality":{"Country":1.0,"State":1.0,"County":1.0,"City":1.0,"District":1.0,"Street":[1.0],"HouseNumber":1.0,"PostalCode":1.0},"MatchType":"interpolated","Location":{"LocationId":"NT_TYdq2YoXxYueLNLX2hagsB_yA","LocationType":"point","DisplayPosition":{"Latitude":51.53695,"Longitude":7.68613},"MapView":{"TopLeft":{"Latitude":51.5380742,"Longitude":7.6843227},"BottomRight":{"Latitude":51.5358258,"Longitude":7.6879373}},"Address":{"Label":"Obere Husemannstraße 2, 59423 Unna, Deutschland","Country":"DEU","State":"Nordrhein-Westfalen","County":"Unna","City":"Unna","District":"Unna","Street":"Obere Husemannstraße","HouseNumber":"2","PostalCode":"59423","AdditionalData":[{"value":"Deutschland","key":"CountryName"},{"value":"Nordrhein-Westfalen","key":"StateName"},{"value":"Unna","key":"CountyName"}]},"MapReference":{"ReferenceId":"51302599","Spot":0.28,"SideOfStreet":"left","CountryId":"20147700","StateId":"20157369","CountyId":"20160915","CityId":"20160978","DistrictId":"20160980","AddressId":"194461112","RoadLinkId":"35027058"}}},{"Relevance":1.0,"Distance":45.5,"MatchLevel":"houseNumber","MatchQuality":{"Country":1.0,"State":1.0,"County":1.0,"City":1.0,"District":1.0,"Street":[1.0],"HouseNumber":1.0,"PostalCode":1.0},"MatchType":"interpolated","Location":{"LocationId":"NT_Dpm2EpDDsHb.pZhZia1a5A_l_587017219_L_ykD","LocationType":"point","DisplayPosition":{"Latitude":51.5366109,"Longitude":7.6863494},"MapView":{"TopLeft":{"Latitude":51.537735,"Longitude":7.6845421},"BottomRight":{"Latitude":51.5354867,"Longitude":7.6881567}},"Address":{"Label":"Nordring 29, 59423 Unna, Deutschland","Country":"DEU","State":"Nordrhein-Westfalen","County":"Unna","City":"Unna","District":"Unna","Street":"Nordring","HouseNumber":"29","PostalCode":"59423","AdditionalData":[{"value":"Deutschland","key":"CountryName"},{"value":"Nordrhein-Westfalen","key":"StateName"},{"value":"Unna","key":"CountyName"}]},"MapReference":{"ReferenceId":"587017219","Spot":0.62,"SideOfStreet":"left","CountryId":"20147700","StateId":"20157369","CountyId":"20160915","CityId":"20160978","DistrictId":"20160980"}}},{"Relevance":1.0,"Distance":45.5,"MatchLevel":"street","MatchQuality":{"Country":1.0,"State":1.0,"County":1.0,"City":1.0,"District":1.0,"Street":[1.0],"PostalCode":1.0},"Location":{"LocationId":"NT_TYdq2YoXxYueLNLX2hagsB_l_587017218_R","LocationType":"point","DisplayPosition":{"Latitude":51.5366723,"Longitude":7.6858301},"MapView":{"TopLeft":{"Latitude":51.5368,"Longitude":7.68518},"BottomRight":{"Latitude":51.53658,"Longitude":7.6863}},"Address":{"Label":"Obere Husemannstraße, 59423 Unna, Deutschland","Country":"DEU","State":"Nordrhein-Westfalen","County":"Unna","City":"Unna","District":"Unna","Street":"Obere Husemannstraße","PostalCode":"59423","AdditionalData":[{"value":"Deutschland","key":"CountryName"},{"value":"Nordrhein-Westfalen","key":"StateName"},{"value":"Unna","key":"CountyName"}]},"MapReference":{"ReferenceId":"587017218","Spot":0.42,"SideOfStreet":"right","CountryId":"20147700","StateId":"20157369","CountyId":"20160915","CityId":"20160978","DistrictId":"20160980"}}},{"Relevance":1.0,"Distance":56.1,"MatchLevel":"houseNumber","MatchQuality":{"Country":1.0,"State":1.0,"County":1.0,"City":1.0,"District":1.0,"Street":[1.0],"HouseNumber":1.0,"PostalCode":1.0},"MatchType":"interpolated","Location":{"LocationId":"NT_duQbN8WwNaL.1quv9NrvbB_xYD","LocationType":"point","DisplayPosition":{"Latitude":51.5378,"Longitude":7.68597},"MapView":{"TopLeft":{"Latitude":51.5389242,"Longitude":7.6841627},"BottomRight":{"Latitude":51.5366758,"Longitude":7.6877773}},"Address":{"Label":"Mozartstraße 16, 59423 Unna, Deutschland","Country":"DEU","State":"Nordrhein-Westfalen","County":"Unna","City":"Unna","District":"Unna","Street":"Mozartstraße","HouseNumber":"16","PostalCode":"59423","AdditionalData":[{"value":"Deutschland","key":"CountryName"},{"value":"Nordrhein-Westfalen","key":"StateName"},{"value":"Unna","key":"CountyName"}]},"MapReference":{"ReferenceId":"51302284","Spot":0.23,"SideOfStreet":"right","CountryId":"20147700","StateId":"20157369","CountyId":"20160915","CityId":"20160978","DistrictId":"20160980","AddressId":"192868462","RoadLinkId":"35563677"}}},{"Relevance":1.0,"Distance":69.9,"MatchLevel":"houseNumber","MatchQuality":{"Country":1.0,"State":1.0,"County":1.0,"City":1.0,"District":1.0,"Street":[1.0],"HouseNumber":1.0,"PostalCode":1.0},"MatchType":"interpolated","Location":{"LocationId":"NT_Dpm2EpDDsHb.pZhZia1a5A_ycD","LocationType":"point","DisplayPosition":{"Latitude":51.53705,"Longitude":7.687},"MapView":{"TopLeft":{"Latitude":51.5381742,"Longitude":7.6851927},"BottomRight":{"Latitude":51.5359258,"Longitude":7.6888073}},"Address":{"Label":"Nordring 27, 59423 Unna, Deutschland","Country":"DEU","State":"Nordrhein-Westfalen","County":"Unna","City":"Unna","District":"Unna","Street":"Nordring","HouseNumber":"27","PostalCode":"59423","AdditionalData":[{"value":"Deutschland","key":"CountryName"},{"value":"Nordrhein-Westfalen","key":"StateName"},{"value":"Unna","key":"CountyName"}]},"MapReference":{"ReferenceId":"51302591","Spot":0.37,"SideOfStreet":"left","CountryId":"20147700","StateId":"20157369","CountyId":"20160915","CityId":"20160978","DistrictId":"20160980","AddressId":"192670694","RoadLinkId":"34955868"}}},{"Relevance":1.0,"Distance":77.7,"MatchLevel":"houseNumber","MatchQuality":{"Country":1.0,"State":1.0,"County":1.0,"City":1.0,"District":1.0,"Street":[1.0],"HouseNumber":1.0,"PostalCode":1.0},"MatchType":"interpolated","Location":{"LocationId":"NT_duQbN8WwNaL.1quv9NrvbB_xgD","LocationType":"point","DisplayPosition":{"Latitude":51.53775,"Longitude":7.68518},"MapView":{"TopLeft":{"Latitude":51.5388742,"Longitude":7.6833727},"BottomRight":{"Latitude":51.5366258,"Longitude":7.6869873}},"Address":{"Label":"Mozartstraße 18, 59423 Unna, Deutschland","Country":"DEU","State":"Nordrhein-Westfalen","County":"Unna","City":"Unna","District":"Unna","Street":"Mozartstraße","HouseNumber":"18","PostalCode":"59423","AdditionalData":[{"value":"Deutschland","key":"CountryName"},{"value":"Nordrhein-Westfalen","key":"StateName"},{"value":"Unna","key":"CountyName"}]},"MapReference":{"ReferenceId":"51486849","Spot":0.04,"SideOfStreet":"right","CountryId":"20147700","StateId":"20157369","CountyId":"20160915","CityId":"20160978","DistrictId":"20160980","AddressId":"196659336","RoadLinkId":"34983881"}}},{"Relevance":1.0,"Distance":86.9,"MatchLevel":"landmark","MatchQuality":{"Country":1.0,"State":1.0,"County":1.0,"City":1.0,"District":1.0,"PostalCode":1.0,"Name":1.0},"Location":{"LocationId":"NT_U1H6bRRsVO-MNz2pFTuttA","LocationType":"cemetery","Name":"Alter Westfriedhof","DisplayPosition":{"Latitude":51.53566,"Longitude":7.68295},"MapView":{"TopLeft":{"Latitude":51.53675,"Longitude":7.68135},"BottomRight":{"Latitude":51.53457,"Longitude":7.68482}},"Address":{"Label":"59423 Unna, Deutschland","Country":"DEU","State":"Nordrhein-Westfalen","County":"Unna","City":"Unna","District":"Unna","PostalCode":"59423","AdditionalData":[{"value":"Deutschland","key":"CountryName"},{"value":"Nordrhein-Westfalen","key":"StateName"},{"value":"Unna","key":"CountyName"}]},"MapReference":{"CountryId":"20147700","StateId":"20157369","CountyId":"20160915","CityId":"20160978","DistrictId":"20160980","PlaceId":"53298299"}}},{"Relevance":1.0,"Distance":87.0,"MatchLevel":"houseNumber","MatchQuality":{"Country":1.0,"State":1.0,"County":1.0,"City":1.0,"District":1.0,"Street":[1.0],"HouseNumber":1.0,"PostalCode":1.0},"MatchType":"interpolated","Location":{"LocationId":"NT_Dpm2EpDDsHb.pZhZia1a5A_zUD","LocationType":"point","DisplayPosition":{"Latitude":51.53627,"Longitude":7.68617},"MapView":{"TopLeft":{"Latitude":51.5373942,"Longitude":7.6843627},"BottomRight":{"Latitude":51.5351458,"Longitude":7.6879773}},"Address":{"Label":"Nordring 35, 59423 Unna, Deutschland","Country":"DEU","State":"Nordrhein-Westfalen","County":"Unna","City":"Unna","District":"Unna","Street":"Nordring","HouseNumber":"35","PostalCode":"59423","AdditionalData":[{"value":"Deutschland","key":"CountryName"},{"value":"Nordrhein-Westfalen","key":"StateName"},{"value":"Unna","key":"CountyName"}]},"MapReference":{"ReferenceId":"587017222","Spot":0.75,"SideOfStreet":"left","CountryId":"20147700","StateId":"20157369","CountyId":"20160915","CityId":"20160978","DistrictId":"20160980","AddressId":"194100367","RoadLinkId":"35202829"}}},{"Relevance":1.0,"Distance":95.5,"MatchLevel":"houseNumber","MatchQuality":{"Country":1.0,"State":1.0,"County":1.0,"City":1.0,"District":1.0,"Street":[1.0],"HouseNumber":1.0,"PostalCode":1.0},"MatchType":"interpolated","Location":{"LocationId":"NT_duQbN8WwNaL.1quv9NrvbB_yAD","LocationType":"point","DisplayPosition":{"Latitude":51.53773,"Longitude":7.68478},"MapView":{"TopLeft":{"Latitude":51.5388542,"Longitude":7.6829727},"BottomRight":{"Latitude":51.5366058,"Longitude":7.6865873}},"Address":{"Label":"Mozartstraße 20, 59423 Unna, Deutschland","Country":"DEU","State":"Nordrhein-Westfalen","County":"Unna","City":"Unna","District":"Unna","Street":"Mozartstraße","HouseNumber":"20","PostalCode":"59423","AdditionalData":[{"value":"Deutschland","key":"CountryName"},{"value":"Nordrhein-Westfalen","key":"StateName"},{"value":"Unna","key":"CountyName"}]},"MapReference":{"ReferenceId":"76158655","Spot":0.79,"SideOfStreet":"right","CountryId":"20147700","StateId":"20157369","CountyId":"20160915","CityId":"20160978","DistrictId":"20160980","AddressId":"195672530","RoadLinkId":"35101030"}}}]}]}}