{"Response":{"MetaInfo":{"Timestamp":"2020-03-28T10:36:48.660+0000","NextPageInformation":"2"},"View":[{"_type":"SearchResultsViewType","ViewId":0,"Result":[{"Relevance":1.0,"Distance":0.0,"Direction":0.0,"MatchLevel":"district","MatchQuality":{"Country":1.0,"State":1.0,"County":1.0,"City":1.0,"District":1.0,"PostalCode":1.0},"Location":{"LocationId":"NT_Y.CWx5hN9SXX2J-UR2pf4D","LocationType":"point","DisplayPosition":{"Latitude":51.5902572,"Longitude":-2.7214396},"MapView":{"TopLeft":{"Latitude":51.59347,"Longitude":-2.72788},"BottomRight":{"Latitude":51.58839,"Longitude":-2.71054}},"Address":{"Label":"Portskewett, Newport, Wales, United Kingdom","Country":"GBR","State":"Wales","County":"Gwent","City":"Newport","District":"Portskewett","PostalCode":"NP26 5","AdditionalData":[{"value":"United Kingdom","key":"CountryName"},{"value":"Wales","key":"StateName"},{"value":"Gwent","key":"CountyName"}]},"MapReference":{"ReferenceId":"759391194","SideOfStreet":"neither","StateId":"20287683","CountyId":"20341601","CityId":"20341766","DistrictId":"20341801"}}},{"Relevance":1.0,"Distance":22.2,"MatchLevel":"street","MatchQuality":{"Country":1.0,"State":1.0,"County":1.0,"City":1.0,"District":1.0,"Street":[1.0],"PostalCode":1.0},"Location":{"LocationId":"NT_WOD24hb4cpij7HdYUCPK3B_l_17393268_R","LocationType":"point","DisplayPosition":{"Latitude":51.5900597,"Longitude":-2.721489},"MapView":{"TopLeft":{"Latitude":51.59008,"Longitude":-2.72236},"BottomRight":{"Latitude":51.58989,"Longitude":-2.72097}},"Address":{"Label":"Wedgwood Drive, Newport, NP26 5, United Kingdom","Country":"GBR","State":"Wales","County":"Gwent","City":"Newport","District":"Portskewett","Street":"Wedgwood Drive","PostalCode":"NP26 5","AdditionalData":[{"value":"United Kingdom","key":"CountryName"},{"value":"Wales","key":"StateName"},{"value":"Gwent","key":"CountyName"}]},"MapReference":{"ReferenceId":"17393268","Spot":0.36,"SideOfStreet":"right","StateId":"20287683","CountyId":"20341601","CityId":"20341766","DistrictId":"20341801"}}},{"Relevance":1.0,"Distance":44.8,"MatchLevel":"street","MatchQuality":{"Country":1.0,"State":1.0,"County":1.0,"City":1.0,"District":1.0,"Street":[1.0],"PostalCode":1.0},"Location":{"LocationId":"NT_WOD24hb4cpij7HdYUCPK3B_l_17393188_L","LocationType":"point","DisplayPosition":{"Latitude":51.5905845,"Longitude":-2.7210607},"MapView":{"TopLeft":{"Latitude":51.59085,"Longitude":-2.72129},"BottomRight":{"Latitude":51.59009,"Longitude":-2.72059}},"Address":{"Label":"Wedgwood Drive, Newport, NP26 5, United Kingdom","Country":"GBR","State":"Wales","County":"Gwent","City":"Newport","District":"Portskewett","Street":"Wedgwood Drive","PostalCode":"NP26 5","AdditionalData":[{"value":"United Kingdom","key":"CountryName"},{"value":"Wales","key":"StateName"},{"value":"Gwent","key":"CountyName"}]},"MapReference":{"ReferenceId":"17393188","Spot":0.66,"SideOfStreet":"left","StateId":"20287683","CountyId":"20341601","CityId":"20341766","DistrictId":"20341801"}}},{"Relevance":1.0,"Distance":47.1,"MatchLevel":"houseNumber","MatchQuality":{"Country":1.0,"State":1.0,"County":1.0,"City":1.0,"District":1.0,"Street":[1.0],"HouseNumber":1.0,"PostalCode":1.0},"MatchType":"interpolated","Location":{"LocationId":"NT_0DWzILMwDAxy4noz.q-O2A_l_18940728_R_xgD","LocationType":"point","DisplayPosition":{"Latitude":51.5907693,"Longitude":-2.7217678},"MapView":{"TopLeft":{"Latitude":51.5918935,"Longitude":-2.7235773},"BottomRight":{"Latitude":51.5896452,"Longitude":-2.7199584}},"Address":{"Label":"18 Main Road, Newport, NP26 5SA, United Kingdom","Country":"GBR","State":"Wales","County":"Gwent","City":"Newport","District":"Portskewett","Street":"Main Road","HouseNumber":"18","PostalCode":"NP26 5SA","AdditionalData":[{"value":"United Kingdom","key":"CountryName"},{"value":"Wales","key":"StateName"},{"value":"Gwent","key":"CountyName"}]},"MapReference":{"ReferenceId":"18940728","Spot":0.83,"SideOfStreet":"right","StateId":"20287683","CountyId":"20341601","CityId":"20341766","DistrictId":"20341801"}}},{"Relevance":1.0,"Distance":48.7,"MatchLevel":"street","MatchQuality":{"Country":1.0,"State":1.0,"County":1.0,"City":1.0,"District":1.0,"Street":[1.0],"PostalCode":1.0},"Location":{"LocationId":"NT_WOD24hb4cpij7HdYUCPK3B_l_17393434_L","LocationType":"point","DisplayPosition":{"Latitude":51.58993,"Longitude":-2.72097},"MapView":{"TopLeft":{"Latitude":51.58993,"Longitude":-2.72175},"BottomRight":{"Latitude":51.58948,"Longitude":-2.72097}},"Address":{"Label":"Wedgwood Drive, Newport, NP26 5, United Kingdom","Country":"GBR","State":"Wales","County":"Gwent","City":"Newport","District":"Portskewett","Street":"Wedgwood Drive","PostalCode":"NP26 5","AdditionalData":[{"value":"United Kingdom","key":"CountryName"},{"value":"Wales","key":"StateName"},{"value":"Gwent","key":"CountyName"}]},"MapReference":{"ReferenceId":"17393434","Spot":1.0,"SideOfStreet":"left","StateId":"20287683","CountyId":"20341601","CityId":"20341766","DistrictId":"20341801"}}},{"Relevance":1.0,"Distance":48.7,"MatchLevel":"street","MatchQuality":{"Country":1.0,"State":1.0,"County":1.0,"City":1.0,"District":1.0,"Street":[1.0],"PostalCode":1.0},"Location":{"LocationId":"NT_WOD24hb4cpij7HdYUCPK3B_l_17393250_L","LocationType":"point","DisplayPosition":{"Latitude":51.58993,"Longitude":-2.72097},"MapView":{"TopLeft":{"Latitude":51.59009,"Longitude":-2.72097},"BottomRight":{"Latitude":51.58993,"Longitude":-2.72059}},"Address":{"Label":"Wedgwood Drive, Newport, NP26 5, United Kingdom","Country":"GBR","State":"Wales","County":"Gwent","City":"Newport","District":"Portskewett","Street":"Wedgwood Drive","PostalCode":"NP26 5","AdditionalData":[{"value":"United Kingdom","key":"CountryName"},{"value":"Wales","key":"StateName"},{"value":"Gwent","key":"CountyName"}]},"MapReference":{"ReferenceId":"17393250","Spot":0.0,"SideOfStreet":"left","StateId":"20287683","CountyId":"20341601","CityId":"20341766","DistrictId":"20341801"}}},{"Relevance":1.0,"Distance":60.6,"MatchLevel":"houseNumber","MatchQuality":{"Country":1.0,"State":1.0,"County":1.0,"City":1.0,"District":1.0,"Street":[1.0],"HouseNumber":1.0,"PostalCode":1.0},"MatchType":"interpolated","Location":{"LocationId":"NT_RWmBz9D01mS8sS7-iK5OqB_l_759391193_R_yAD","LocationType":"point","DisplayPosition":{"Latitude":51.59088,"Longitude":-2.7210799},"MapView":{"TopLeft":{"Latitude":51.5920042,"Longitude":-2.7228894},"BottomRight":{"Latitude":51.5897559,"Longitude":-2.7192705}},"Address":{"Label":"20 Main Road, Newport, NP26 5SA, United Kingdom","Country":"GBR","State":"Wales","County":"Gwent","City":"Newport","District":"Portskewett","Street":"Main Road","HouseNumber":"20","PostalCode":"NP26 5SA","AdditionalData":[{"value":"United Kingdom","key":"CountryName"},{"value":"Wales","key":"StateName"},{"value":"Gwent","key":"CountyName"}]},"MapReference":{"ReferenceId":"759391193","Spot":0.19,"SideOfStreet":"right","StateId":"20287683","CountyId":"20341601","CityId":"20341766","DistrictId":"20341801"}}},{"Relevance":1.0,"Distance":60.8,"MatchLevel":"postalCode","MatchQuality":{"PostalCode":1.0},"Location":{"LocationId":"NT_WOD24hb4cpij7HdYUCPK3B_l_17393434_L","LocationType":"point","DisplayPosition":{"Latitude":51.58978,"Longitude":-2.72101},"MapView":{"TopLeft":{"Latitude":51.5987732,"Longitude":-2.7354851},"BottomRight":{"Latitude":51.5807868,"Longitude":-2.7065349}},"Address":{"Label":"NP26 5TL, Newport, Wales, United Kingdom","Country":"GBR","State":"Wales","County":"Gwent","City":"Newport","PostalCode":"NP26 5TL","AdditionalData":[{"value":"United Kingdom","key":"CountryName"},{"value":"Wales","key":"StateName"},{"value":"Gwent","key":"CountyName"}]},"MapReference":{"ReferenceId":"17393434","Spot":1.0,"SideOfStreet":"neither","StateId":"20287683","CountyId":"20341601","CityId":"20341766"}}},{"Relevance":1.0,"Distance":61.6,"MatchLevel":"street","MatchQuality":{"Country":1.0,"State":1.0,"County":1.0,"City":1.0,"District":1.0,"Street":[1.0],"PostalCode":1.0},"Location":{"LocationId":"NT_WOD24hb4cpij7HdYUCPK3B_l_17393187_L","LocationType":"point","DisplayPosition":{"Latitude":51.59009,"Longitude":-2.72059},"MapView":{"TopLeft":{"Latitude":51.59032,"Longitude":-2.72059},"BottomRight":{"Latitude":51.59009,"Longitude":-2.71975}},"Address":{"Label":"Wedgwood Drive, Newport, NP26 5, United Kingdom","Country":"GBR","State":"Wales","County":"Gwent","City":"Newport","District":"Portskewett","Street":"Wedgwood Drive","PostalCode":"NP26 5","AdditionalData":[{"value":"United Kingdom","key":"CountryName"},{"value":"Wales","key":"StateName"},{"value":"Gwent","key":"CountyName"}]},"MapReference":{"ReferenceId":"17393187","Spot":0.0,"SideOfStreet":"left","StateId":"20287683","CountyId":"20341601","CityId":"20341766","DistrictId":"20341801"}}},{"Relevance":1.0,"Distance":104.6,"MatchLevel":"houseNumber","MatchQuality":{"Country":1.0,"State":1.0,"County":1.0,"City":1.0,"District":1.0,"Street":[1.0],"HouseNumber":1.0,"PostalCode":1.0},"MatchType":"interpolated","Location":{"LocationId":"NT_KumXHM0UcdPQfH9qC8MisA_l_1037880136_R_xkD","LocationType":"point","DisplayPosition":{"Latitude":51.589466,"Longitude":-2.7225522},"MapView":{"TopLeft":{"Latitude":51.5905901,"Longitude":-2.7243616},"BottomRight":{"Latitude":51.5883418,"Longitude":-2.7207429}},"Address":{"Label":"19 Monument Close, Newport, NP26 5, United Kingdom","Country":"GBR","State":"Wales","County":"Gwent","City":"Newport","District":"Portskewett","Street":"Monument Close","HouseNumber":"19","PostalCode":"NP26 5","AdditionalData":[{"value":"United Kingdom","key":"CountryName"},{"value":"Wales","key":"StateName"},{"value":"Gwent","key":"CountyName"}]},"MapReference":{"ReferenceId":"1037880136","Spot":0.47,"SideOfStreet":"right","StateId":"20287683","CountyId":"20341601","CityId":"20341766","DistrictId":"20341801"}}}]}]}}