{"Response":{"MetaInfo":{"Timestamp":"2020-03-28T10:39:24.126+0000","NextPageInformation":"2"},"View":[{"_type":"SearchResultsViewType","ViewId":0,"Result":[{"Relevance":1.0,"Distance":0.0,"Direction":0.0,"MatchLevel":"district","MatchQuality":{"Country":1.0,"State":1.0,"County":1.0,"City":1.0,"District":1.0,"PostalCode":1.0},"Location":{"LocationId":"NT_KRJmdrh79F4.jVORtAEz7C","LocationType":"point","DisplayPosition":{"Latitude":51.5172678,"Longitude":-3.1904247},"MapView":{"TopLeft":{"Latitude":51.54693,"Longitude":-3.2844},"BottomRight":{"Latitude":51.44737,"Longitude":-3.0783}},"Address":{"Label":"Cardiff, Wales, United Kingdom","Country":"GBR","State":"Wales","County":"South Glamorgan","City":"Cardiff","District":"Cardiff","PostalCode":"CF10 1","AdditionalData":[{"value":"United Kingdom","key":"CountryName"},{"value":"Wales","key":"StateName"},{"value":"South Glamorgan","key":"CountyName"}]},"MapReference":{"ReferenceId":"811292273","SideOfStreet":"neither","StateId":"20287683","CountyId":"20342883","CityId":"20342905","DistrictId":"20342906"}}},{"Relevance":1.0,"Distance":8.0,"MatchLevel":"postalCode","MatchQuality":{"PostalCode":1.0},"MatchType":"interpolated","Location":{"LocationId":"NT_CxrtK4-Yi.Jeq3vshZIbXA_l_17407275_L_ykD","LocationType":"point","DisplayPosition":{"Latitude":51.51727,"Longitude":-3.19054},"MapView":{"TopLeft":{"Latitude":51.5262632,"Longitude":-3.2049921},"BottomRight":{"Latitude":51.5082768,"Longitude":-3.1760879}},"Address":{"Label":"CF14 4UU, Cardiff, Wales, United Kingdom","Country":"GBR","State":"Wales","County":"South Glamorgan","City":"Cardiff","PostalCode":"CF14 4UU","AdditionalData":[{"value":"United Kingdom","key":"CountryName"},{"value":"Wales","key":"StateName"},{"value":"South Glamorgan","key":"CountyName"}]},"MapReference":{"ReferenceId":"17407275","Spot":0.17,"SideOfStreet":"neither","StateId":"20287683","CountyId":"20342883","CityId":"20342905"}}},{"Relevance":1.0,"Distance":9.2,"MatchLevel":"houseNumber","MatchQuality":{"Country":1.0,"State":1.0,"County":1.0,"City":1.0,"District":1.0,"Street":[1.0],"HouseNumber":1.0,"PostalCode":1.0},"MatchType":"interpolated","Location":{"LocationId":"NT_kFXTBhVOmCGK3fYTEy6nPA_l_17407274_L_0YD","LocationType":"point","DisplayPosition":{"Latitude":51.51719,"Longitude":-3.1902699},"MapView":{"TopLeft":{"Latitude":51.5183142,"Longitude":-3.1920764},"BottomRight":{"Latitude":51.5160659,"Longitude":-3.1884634}},"Address":{"Label":"46 St Isan Road, Cardiff, CF14 4UU, United Kingdom","Country":"GBR","State":"Wales","County":"South Glamorgan","City":"Cardiff","District":"Cardiff","Street":"St Isan Road","HouseNumber":"46","PostalCode":"CF14 4UU","AdditionalData":[{"value":"United Kingdom","key":"CountryName"},{"value":"Wales","key":"StateName"},{"value":"South Glamorgan","key":"CountyName"}]},"MapReference":{"ReferenceId":"17407274","Spot":0.19,"SideOfStreet":"left","StateId":"20287683","CountyId":"20342883","CityId":"20342905","DistrictId":"20342906"}}},{"Relevance":1.0,"Distance":10.9,"MatchLevel":"houseNumber","MatchQuality":{"Country":1.0,"State":1.0,"County":1.0,"City":1.0,"District":1.0,"Street":[1.0],"HouseNumber":1.0,"PostalCode":1.0},"MatchType":"interpolated","Location":{"LocationId":"NT_CxrtK4-Yi.Jeq3vshZIbXA_l_17407275_L_ykD","LocationType":"point","DisplayPosition":{"Latitude":51.51723,"Longitude":-3.19057},"MapView":{"TopLeft":{"Latitude":51.5183542,"Longitude":-3.1923765},"BottomRight":{"Latitude":51.5161059,"Longitude":-3.1887635}},"Address":{"Label":"29 St Gildas Road, Cardiff, CF14 4NB, United Kingdom","Country":"GBR","State":"Wales","County":"South Glamorgan","City":"Cardiff","District":"Cardiff","Street":"St Gildas Road","HouseNumber":"29","PostalCode":"CF14 4NB","AdditionalData":[{"value":"United Kingdom","key":"CountryName"},{"value":"Wales","key":"StateName"},{"value":"South Glamorgan","key":"CountyName"}]},"MapReference":{"ReferenceId":"17407275","Spot":0.17,"SideOfStreet":"left","StateId":"20287683","CountyId":"20342883","CityId":"20342905","DistrictId":"20342906"}}},{"Relevance":1.0,"Distance":31.8,"MatchLevel":"houseNumber","MatchQuality":{"Country":1.0,"State":1.0,"County":1.0,"City":1.0,"District":1.0,"Street":[1.0],"HouseNumber":1.0,"PostalCode":1.0},"MatchType":"interpolated","Location":{"LocationId":"NT_CxrtK4-Yi.Jeq3vshZIbXA_l_17407430_R_yQD","LocationType":"point","DisplayPosition":{"Latitude":51.516925,"Longitude":-3.1902667},"MapView":{"TopLeft":{"Latitude":51.5180492,"Longitude":-3.1920732},"BottomRight":{"Latitude":51.5158009,"Longitude":-3.1884602}},"Address":{"Label":"24 St Gildas Road, Cardiff, CF14 4NB, United Kingdom","Country":"GBR","State":"Wales","County":"South Glamorgan","City":"Cardiff","District":"Cardiff","Street":"St Gildas Road","HouseNumber":"24","PostalCode":"CF14 4NB","AdditionalData":[{"value":"United Kingdom","key":"CountryName"},{"value":"Wales","key":"StateName"},{"value":"South Glamorgan","key":"CountyName"}]},"MapReference":{"ReferenceId":"17407430","Spot":0.71,"SideOfStreet":"right","StateId":"20287683","CountyId":"20342883","CityId":"20342905","DistrictId":"20342906"}}},{"Relevance":1.0,"Distance":31.8,"MatchLevel":"houseNumber","MatchQuality":{"Country":1.0,"State":1.0,"County":1.0,"City":1.0,"District":1.0,"Street":[1.0],"HouseNumber":1.0,"PostalCode":1.0},"MatchType":"interpolated","Location":{"LocationId":"NT_kFXTBhVOmCGK3fYTEy6nPA_l_17407549_L_0gD","LocationType":"point","DisplayPosition":{"Latitude":51.5169906,"Longitude":-3.1907694},"MapView":{"TopLeft":{"Latitude":51.5181147,"Longitude":-3.1925759},"BottomRight":{"Latitude":51.5158664,"Longitude":-3.1889629}},"Address":{"Label":"48 St Isan Road, Cardiff, CF14 4LY, United Kingdom","Country":"GBR","State":"Wales","County":"South Glamorgan","City":"Cardiff","District":"Cardiff","Street":"St Isan Road","HouseNumber":"48","PostalCode":"CF14 4LY","AdditionalData":[{"value":"United Kingdom","key":"CountryName"},{"value":"Wales","key":"StateName"},{"value":"South Glamorgan","key":"CountyName"}]},"MapReference":{"ReferenceId":"17407549","Spot":0.91,"SideOfStreet":"left","StateId":"20287683","CountyId":"20342883","CityId":"20342905","DistrictId":"20342906"}}},{"Relevance":1.0,"Distance":57.0,"MatchLevel":"houseNumber","MatchQuality":{"Country":1.0,"State":1.0,"County":1.0,"City":1.0,"District":1.0,"Street":[1.0],"HouseNumber":1.0,"PostalCode":1.0},"MatchType":"interpolated","Location":{"LocationId":"NT_Hg98xl5khopIn5EHV20gLC_l_17407103_R_0YD","LocationType":"point","DisplayPosition":{"Latitude":51.5178301,"Longitude":-3.1909198},"MapView":{"TopLeft":{"Latitude":51.5189542,"Longitude":-3.1927263},"BottomRight":{"Latitude":51.5167059,"Longitude":-3.1891132}},"Address":{"Label":"46 St Ina Road, Cardiff, CF14 4LT, United Kingdom","Country":"GBR","State":"Wales","County":"South Glamorgan","City":"Cardiff","District":"Cardiff","Street":"St Ina Road","HouseNumber":"46","PostalCode":"CF14 4LT","AdditionalData":[{"value":"United Kingdom","key":"CountryName"},{"value":"Wales","key":"StateName"},{"value":"South Glamorgan","key":"CountyName"}]},"MapReference":{"ReferenceId":"17407103","Spot":0.07,"SideOfStreet":"right","StateId":"20287683","CountyId":"20342883","CityId":"20342905","DistrictId":"20342906"}}},{"Relevance":1.0,"Distance":69.6,"MatchLevel":"houseNumber","MatchQuality":{"Country":1.0,"State":1.0,"County":1.0,"City":1.0,"District":1.0,"Street":[1.0],"HouseNumber":1.0,"PostalCode":1.0},"MatchType":"interpolated","Location":{"LocationId":"NT_Hg98xl5khopIn5EHV20gLC_l_17407332_R_0QD","LocationType":"point","DisplayPosition":{"Latitude":51.517635,"Longitude":-3.1914064},"MapView":{"TopLeft":{"Latitude":51.5187592,"Longitude":-3.1932129},"BottomRight":{"Latitude":51.5165109,"Longitude":-3.1895999}},"Address":{"Label":"44 St Ina Road, Cardiff, CF14 4LT, United Kingdom","Country":"GBR","State":"Wales","County":"South Glamorgan","City":"Cardiff","District":"Cardiff","Street":"St Ina Road","HouseNumber":"44","PostalCode":"CF14 4LT","AdditionalData":[{"value":"United Kingdom","key":"CountryName"},{"value":"Wales","key":"StateName"},{"value":"South Glamorgan","key":"CountyName"}]},"MapReference":{"ReferenceId":"17407332","Spot":0.89,"SideOfStreet":"right","StateId":"20287683","CountyId":"20342883","CityId":"20342905","DistrictId":"20342906"}}},{"Relevance":1.0,"Distance":73.4,"MatchLevel":"houseNumber","MatchQuality":{"Country":1.0,"State":1.0,"County":1.0,"City":1.0,"District":1.0,"Street":[1.0],"HouseNumber":1.0,"PostalCode":1.0},"MatchType":"interpolated","Location":{"LocationId":"NT_nB0O6Fc29oPlIiNaynxASC_l_17407572_L_yMD","LocationType":"point","DisplayPosition":{"Latitude":51.5172883,"Longitude":-3.1892642},"MapView":{"TopLeft":{"Latitude":51.5184125,"Longitude":-3.1910707},"BottomRight":{"Latitude":51.5161642,"Longitude":-3.1874577}},"Address":{"Label":"23 St Denis Road, Cardiff, CF14 4NA, United Kingdom","Country":"GBR","State":"Wales","County":"South Glamorgan","City":"Cardiff","District":"Cardiff","Street":"St Denis Road","HouseNumber":"23","PostalCode":"CF14 4NA","AdditionalData":[{"value":"United Kingdom","key":"CountryName"},{"value":"Wales","key":"StateName"},{"value":"South Glamorgan","key":"CountyName"}]},"MapReference":{"ReferenceId":"17407572","Spot":0.85,"SideOfStreet":"left","StateId":"20287683","CountyId":"20342883","CityId":"20342905","DistrictId":"20342906"}}},{"Relevance":1.0,"Distance":81.2,"MatchLevel":"postalCode","MatchQuality":{"PostalCode":1.0},"MatchType":"interpolated","Location":{"LocationId":"NT_kFXTBhVOmCGK3fYTEy6nPA_l_17407177_L_ygD","LocationType":"point","DisplayPosition":{"Latitude":51.51736,"Longitude":-3.18926},"MapView":{"TopLeft":{"Latitude":51.5263532,"Longitude":-3.2037121},"BottomRight":{"Latitude":51.5083668,"Longitude":-3.1748079}},"Address":{"Label":"CF14 4LU, Cardiff, Wales, United Kingdom","Country":"GBR","State":"Wales","County":"South Glamorgan","City":"Cardiff","PostalCode":"CF14 4LU","AdditionalData":[{"value":"United Kingdom","key":"CountryName"},{"value":"Wales","key":"StateName"},{"value":"South Glamorgan","key":"CountyName"}]},"MapReference":{"ReferenceId":"17407177","Spot":0.2,"SideOfStreet":"neither","StateId":"20287683","CountyId":"20342883","CityId":"20342905"}}}]}]}}