{"Response":{"MetaInfo":{"Timestamp":"2020-03-28T11:55:26.009+0000","NextPageInformation":"2"},"View":[{"_type":"SearchResultsViewType","ViewId":0,"Result":[{"Relevance":1.0,"Distance":0.0,"Direction":0.0,"MatchLevel":"district","MatchQuality":{"Country":1.0,"State":1.0,"County":1.0,"City":1.0,"District":1.0,"PostalCode":1.0},"Location":{"LocationId":"NT_5v5RLfwf5uD4JBJ5.XXZHA","LocationType":"point","DisplayPosition":{"Latitude":51.5244129,"Longitude":-0.1243407},"MapView":{"TopLeft":{"Latitude":51.53165,"Longitude":-0.13012},"BottomRight":{"Latitude":51.52138,"Longitude":-0.10966}},"Address":{"Label":"St Pancras, London, England, United Kingdom","Country":"GBR","State":"England","County":"London","City":"London","District":"St Pancras","PostalCode":"WC1H 9","AdditionalData":[{"value":"United Kingdom","key":"CountryName"},{"value":"England","key":"StateName"},{"value":"London","key":"CountyName"}]},"MapReference":{"ReferenceId":"1155738777","SideOfStreet":"neither","StateId":"20248595","CountyId":"20337453","CityId":"20337454"}}},{"Relevance":1.0,"Distance":20.4,"MatchLevel":"houseNumber","MatchQuality":{"Country":1.0,"State":1.0,"County":1.0,"City":1.0,"District":1.0,"Street":[1.0],"HouseNumber":1.0,"PostalCode":1.0},"MatchType":"interpolated","Location":{"LocationId":"NT_0P.297d4hqiONTWVIU-o0C_l_1162180114_R_yEjM","LocationType":"point","DisplayPosition":{"Latitude":51.5243502,"Longitude":-0.1247802},"MapView":{"TopLeft":{"Latitude":51.5254744,"Longitude":-0.1265869},"BottomRight":{"Latitude":51.5232261,"Longitude":-0.1229734}},"Address":{"Label":"212 Marchmont Street, London, WC1N 1, United Kingdom","Country":"GBR","State":"England","County":"London","City":"London","District":"St Pancras","Street":"Marchmont Street","HouseNumber":"212","PostalCode":"WC1N 1","AdditionalData":[{"value":"United Kingdom","key":"CountryName"},{"value":"England","key":"StateName"},{"value":"London","key":"CountyName"}]},"MapReference":{"ReferenceId":"1162180114","Spot":0.0,"SideOfStreet":"right","StateId":"20248595","CountyId":"20337453","CityId":"20337454"}}},{"Relevance":1.0,"Distance":31.9,"MatchLevel":"street","MatchQuality":{"Country":1.0,"State":1.0,"County":1.0,"City":1.0,"District":1.0,"Street":[1.0],"PostalCode":1.0},"Location":{"LocationId":"NT_7Zss.dwInSATOtF.gI0pcB_l_726151396_R","LocationType":"point","DisplayPosition":{"Latitude":51.5242,"Longitude":-0.12465},"MapView":{"TopLeft":{"Latitude":51.52435,"Longitude":-0.12478},"BottomRight":{"Latitude":51.5242,"Longitude":-0.12465}},"Address":{"Label":"Marchmont Street, London, WC1N 1, United Kingdom","Country":"GBR","State":"England","County":"London","City":"London","District":"St Pancras","Street":"Marchmont Street","PostalCode":"WC1N 1","AdditionalData":[{"value":"United Kingdom","key":"CountryName"},{"value":"England","key":"StateName"},{"value":"London","key":"CountyName"}]},"MapReference":{"ReferenceId":"726151396","Spot":0.0,"SideOfStreet":"right","StateId":"20248595","CountyId":"20337453","CityId":"20337454"}}},{"Relevance":1.0,"Distance":31.9,"MatchLevel":"street","MatchQuality":{"Country":1.0,"State":1.0,"County":1.0,"City":1.0,"District":1.0,"Street":[1.0],"PostalCode":1.0},"Location":{"LocationId":"NT_7Zss.dwInSATOtF.gI0pcB_l_812955778_R","LocationType":"point","DisplayPosition":{"Latitude":51.5242,"Longitude":-0.12465},"MapView":{"TopLeft":{"Latitude":51.5242,"Longitude":-0.12465},"BottomRight":{"Latitude":51.52417,"Longitude":-0.12463}},"Address":{"Label":"Marchmont Street, London, WC1N 1, United Kingdom","Country":"GBR","State":"England","County":"London","City":"London","District":"St Pancras","Street":"Marchmont Street","PostalCode":"WC1N 1","AdditionalData":[{"value":"United Kingdom","key":"CountryName"},{"value":"England","key":"StateName"},{"value":"London","key":"CountyName"}]},"MapReference":{"ReferenceId":"812955778","Spot":1.0,"SideOfStreet":"right","StateId":"20248595","CountyId":"20337453","CityId":"20337454"}}},{"Relevance":1.0,"Distance":33.6,"MatchLevel":"street","MatchQuality":{"Country":1.0,"State":1.0,"County":1.0,"City":1.0,"District":1.0,"Street":[1.0],"PostalCode":1.0},"Location":{"LocationId":"NT_7Zss.dwInSATOtF.gI0pcB_l_812955777_R","LocationType":"point","DisplayPosition":{"Latitude":51.52417,"Longitude":-0.12463},"MapView":{"TopLeft":{"Latitude":51.52417,"Longitude":-0.12463},"BottomRight":{"Latitude":51.52327,"Longitude":-0.12412}},"Address":{"Label":"Marchmont Street, London, WC1N 1, United Kingdom","Country":"GBR","State":"England","County":"London","City":"London","District":"St Pancras","Street":"Marchmont Street","PostalCode":"WC1N 1","AdditionalData":[{"value":"United Kingdom","key":"CountryName"},{"value":"England","key":"StateName"},{"value":"London","key":"CountyName"}]},"MapReference":{"ReferenceId":"812955777","Spot":1.0,"SideOfStreet":"right","StateId":"20248595","CountyId":"20337453","CityId":"20337454"}}},{"Relevance":1.0,"Distance":33.6,"MatchLevel":"street","MatchQuality":{"Country":1.0,"State":1.0,"County":1.0,"City":1.0,"District":1.0,"PostalCode":1.0},"Location":{"LocationId":"NT_kNP2KjoOLBqGHvVzTBTVzD_l_1267772429_L","LocationType":"point","DisplayPosition":{"Latitude":51.52417,"Longitude":-0.12463},"MapView":{"TopLeft":{"Latitude":51.52417,"Longitude":-0.12543},"BottomRight":{"Latitude":51.52399,"Longitude":-0.12463}},"Address":{"Label":"London, WC1N 1, United Kingdom","Country":"GBR","State":"England","County":"London","City":"London","District":"St Pancras","PostalCode":"WC1N 1","AdditionalData":[{"value":"United Kingdom","key":"CountryName"},{"value":"England","key":"StateName"},{"value":"London","key":"CountyName"}]},"MapReference":{"ReferenceId":"1267772429","Spot":1.0,"SideOfStreet":"left","StateId":"20248595","CountyId":"20337453","CityId":"20337454"}}},{"Relevance":1.0,"Distance":33.9,"MatchLevel":"houseNumber","MatchQuality":{"Country":1.0,"State":1.0,"County":1.0,"City":1.0,"District":1.0,"Street":[1.0],"HouseNumber":1.0,"PostalCode":1.0},"MatchType":"interpolated","Location":{"LocationId":"NT_0P.297d4hqiONTWVIU-o0C_l_1248769803_R_xgzM","LocationType":"point","DisplayPosition":{"Latitude":51.5245202,"Longitude":-0.1248901},"MapView":{"TopLeft":{"Latitude":51.5256443,"Longitude":-0.1266969},"BottomRight":{"Latitude":51.523396,"Longitude":-0.1230833}},"Address":{"Label":"183 Marchmont Street, London, WC1N 1, United Kingdom","Country":"GBR","State":"England","County":"London","City":"London","District":"St Pancras","Street":"Marchmont Street","HouseNumber":"183","PostalCode":"WC1N 1","AdditionalData":[{"value":"United Kingdom","key":"CountryName"},{"value":"England","key":"StateName"},{"value":"London","key":"CountyName"}]},"MapReference":{"ReferenceId":"1248769803","Spot":0.0,"SideOfStreet":"right","StateId":"20248595","CountyId":"20337453","CityId":"20337454"}}},{"Relevance":1.0,"Distance":37.6,"MatchLevel":"street","MatchQuality":{"Country":1.0,"State":1.0,"County":1.0,"City":1.0,"District":1.0,"Street":[1.0],"PostalCode":1.0},"Location":{"LocationId":"NT_tZo7fHGB5JNWOQUFKxMx1D_l_974921838_L","LocationType":"point","DisplayPosition":{"Latitude":51.52451,"Longitude":-0.12382},"MapView":{"TopLeft":{"Latitude":51.52451,"Longitude":-0.12382},"BottomRight":{"Latitude":51.52394,"Longitude":-0.12348}},"Address":{"Label":"The Brunswick, London, WC1N 1, United Kingdom","Country":"GBR","State":"England","County":"London","City":"London","District":"St Pancras","Street":"The Brunswick","PostalCode":"WC1N 1","AdditionalData":[{"value":"United Kingdom","key":"CountryName"},{"value":"England","key":"StateName"},{"value":"London","key":"CountyName"}]},"MapReference":{"ReferenceId":"974921838","Spot":1.0,"SideOfStreet":"left","StateId":"20248595","CountyId":"20337453","CityId":"20337454"}}},{"Relevance":1.0,"Distance":40.2,"MatchLevel":"houseNumber","MatchQuality":{"Country":1.0,"State":1.0,"County":1.0,"City":1.0,"District":1.0,"Street":[1.0],"HouseNumber":1.0,"PostalCode":1.0},"MatchType":"interpolated","Location":{"LocationId":"NT_VT4LsBY2vKIGkuEsfd6Q3C_l_1162180101_L_0gD","LocationType":"point","DisplayPosition":{"Latitude":51.5243269,"Longitude":-0.1249047},"MapView":{"TopLeft":{"Latitude":51.5254511,"Longitude":-0.1267115},"BottomRight":{"Latitude":51.5232028,"Longitude":-0.1230979}},"Address":{"Label":"48 Coram Street, London, WC1N 1HE, United Kingdom","Country":"GBR","State":"England","County":"London","City":"London","District":"St Pancras","Street":"Coram Street","HouseNumber":"48","PostalCode":"WC1N 1HE","AdditionalData":[{"value":"United Kingdom","key":"CountryName"},{"value":"England","key":"StateName"},{"value":"London","key":"CountyName"}]},"MapReference":{"ReferenceId":"1162180101","Spot":0.54,"SideOfStreet":"left","StateId":"20248595","CountyId":"20337453","CityId":"20337454"}}},{"Relevance":1.0,"Distance":41.0,"MatchLevel":"street","MatchQuality":{"Country":1.0,"State":1.0,"County":1.0,"City":1.0,"District":1.0,"Street":[1.0],"PostalCode":1.0},"Location":{"LocationId":"NT_tZo7fHGB5JNWOQUFKxMx1D_l_974921836_L","LocationType":"point","DisplayPosition":{"Latitude":51.524671,"Longitude":-0.1239184},"MapView":{"TopLeft":{"Latitude":51.52469,"Longitude":-0.12393},"BottomRight":{"Latitude":51.52451,"Longitude":-0.12382}},"Address":{"Label":"The Brunswick, London, WC1N 1, United Kingdom","Country":"GBR","State":"England","County":"London","City":"London","District":"St Pancras","Street":"The Brunswick","PostalCode":"WC1N 1","AdditionalData":[{"value":"United Kingdom","key":"CountryName"},{"value":"England","key":"StateName"},{"value":"London","key":"CountyName"}]},"MapReference":{"ReferenceId":"974921836","Spot":0.89,"SideOfStreet":"left","StateId":"20248595","CountyId":"20337453","CityId":"20337454"}}}]}]}}