{"Response":{"MetaInfo":{"Timestamp":"2020-03-28T11:58:17.429+0000","NextPageInformation":"2"},"View":[{"_type":"SearchResultsViewType","ViewId":0,"Result":[{"Relevance":1.0,"Distance":0.0,"Direction":0.0,"MatchLevel":"district","MatchQuality":{"Country":1.0,"State":1.0,"County":1.0,"City":1.0,"District":1.0,"PostalCode":1.0},"Location":{"LocationId":"NT_ukHtentSzW1O8PKXJPV2lA","LocationType":"point","DisplayPosition":{"Latitude":51.5416051,"Longitude":-0.0760158},"MapView":{"TopLeft":{"Latitude":51.55473,"Longitude":-0.07765},"BottomRight":{"Latitude":51.53419,"Longitude":-0.05178}},"Address":{"Label":"E8, London, England, United Kingdom","Country":"GBR","State":"England","County":"London","City":"London","District":"E8","PostalCode":"E8 1","AdditionalData":[{"value":"United Kingdom","key":"CountryName"},{"value":"England","key":"StateName"},{"value":"London","key":"CountyName"}]},"MapReference":{"ReferenceId":"25297293","SideOfStreet":"neither","StateId":"20248595","CountyId":"20337453","CityId":"20337454","DistrictId":"20337477"}}},{"Relevance":1.0,"Distance":1.7,"MatchLevel":"houseNumber","MatchQuality":{"Country":1.0,"State":1.0,"County":1.0,"City":1.0,"District":1.0,"Street":[1.0],"HouseNumber":1.0,"PostalCode":1.0},"MatchType":"interpolated","Location":{"LocationId":"NT_mzMaCPnLqb9iK6YQ9Mll3A_0ADO","LocationType":"point","DisplayPosition":{"Latitude":51.54163,"Longitude":-0.0762},"MapView":{"TopLeft":{"Latitude":51.5427542,"Longitude":-0.0780075},"BottomRight":{"Latitude":51.5405058,"Longitude":-0.0743925}},"Address":{"Label":"408 Kingsland Road, London, E8 4AA, United Kingdom","Country":"GBR","State":"England","County":"London","City":"London","District":"Hackney","Street":"Kingsland Road","HouseNumber":"408","PostalCode":"E8 4AA","AdditionalData":[{"value":"United Kingdom","key":"CountryName"},{"value":"England","key":"StateName"},{"value":"London","key":"CountyName"}]},"MapReference":{"ReferenceId":"25397862","Spot":0.5,"SideOfStreet":"right","StateId":"20248595","CountyId":"20337453","CityId":"20337454","AddressId":"748473158","RoadLinkId":"83018873"}}},{"Relevance":1.0,"Distance":11.8,"MatchLevel":"postalCode","MatchQuality":{"PostalCode":1.0},"MatchType":"interpolated","Location":{"LocationId":"NT_mzMaCPnLqb9iK6YQ9Mll3A_0ADO","LocationType":"point","DisplayPosition":{"Latitude":51.54154,"Longitude":-0.07615},"MapView":{"TopLeft":{"Latitude":51.5505332,"Longitude":-0.0906098},"BottomRight":{"Latitude":51.5325468,"Longitude":-0.0616902}},"Address":{"Label":"E8 4AA, London, England, United Kingdom","Country":"GBR","State":"England","County":"London","City":"London","PostalCode":"E8 4AA","AdditionalData":[{"value":"United Kingdom","key":"CountryName"},{"value":"England","key":"StateName"},{"value":"London","key":"CountyName"}]},"MapReference":{"ReferenceId":"25397862","Spot":0.5,"SideOfStreet":"neither","StateId":"20248595","CountyId":"20337453","CityId":"20337454"}}},{"Relevance":1.0,"Distance":25.0,"MatchLevel":"houseNumber","MatchQuality":{"Country":1.0,"State":1.0,"County":1.0,"City":1.0,"District":1.0,"Street":[1.0],"PostalCode":1.0},"MatchType":"interpolated","Location":{"LocationId":"NT_efrOFCtw8rfM5rUIx4iGQC","LocationType":"point","DisplayPosition":{"Latitude":51.54165,"Longitude":-0.07637},"MapView":{"TopLeft":{"Latitude":51.5427742,"Longitude":-0.0781775},"BottomRight":{"Latitude":51.5405258,"Longitude":-0.0745625}},"Address":{"Label":"Kingsland Road, London, E8 4, United Kingdom","Country":"GBR","State":"England","County":"London","City":"London","District":"Hoxton","Street":"Kingsland Road","PostalCode":"E8 4","AdditionalData":[{"value":"United Kingdom","key":"CountryName"},{"value":"England","key":"StateName"},{"value":"London","key":"CountyName"}],"Building":"Strattov Court"},"MapReference":{"ReferenceId":"1218376301","Spot":0.47,"SideOfStreet":"left","StateId":"20248595","CountyId":"20337453","CityId":"20337454","AddressId":"763515734","RoadLinkId":"535010628"}}},{"Relevance":1.0,"Distance":26.1,"MatchLevel":"houseNumber","MatchQuality":{"Country":1.0,"State":1.0,"County":1.0,"City":1.0,"District":1.0,"Street":[1.0],"HouseNumber":1.0,"PostalCode":1.0},"MatchType":"interpolated","Location":{"LocationId":"NT_QEkFw9k8v41MUY6lyooK1A_1A","LocationType":"point","DisplayPosition":{"Latitude":51.5415,"Longitude":-0.07548},"MapView":{"TopLeft":{"Latitude":51.5426242,"Longitude":-0.0772875},"BottomRight":{"Latitude":51.5403758,"Longitude":-0.0736725}},"Address":{"Label":"5 Glebe Road, London, E8 4, United Kingdom","Country":"GBR","State":"England","County":"London","City":"London","District":"Hackney","Street":"Glebe Road","HouseNumber":"5","PostalCode":"E8 4","AdditionalData":[{"value":"United Kingdom","key":"CountryName"},{"value":"England","key":"StateName"},{"value":"London","key":"CountyName"}]},"MapReference":{"ReferenceId":"566003334","Spot":0.39,"SideOfStreet":"left","StateId":"20248595","CountyId":"20337453","CityId":"20337454","AddressId":"785152543","RoadLinkId":"82970320"}}},{"Relevance":1.0,"Distance":38.3,"MatchLevel":"postalCode","MatchQuality":{"PostalCode":1.0},"MatchType":"interpolated","Location":{"LocationId":"NT_QEkFw9k8v41MUY6lyooK1A_1A","LocationType":"point","DisplayPosition":{"Latitude":51.54144,"Longitude":-0.07553},"MapView":{"TopLeft":{"Latitude":51.5504332,"Longitude":-0.0899897},"BottomRight":{"Latitude":51.5324468,"Longitude":-0.0610703}},"Address":{"Label":"E8 4BD, London, England, United Kingdom","Country":"GBR","State":"England","County":"London","City":"London","PostalCode":"E8 4BD","AdditionalData":[{"value":"United Kingdom","key":"CountryName"},{"value":"England","key":"StateName"},{"value":"London","key":"CountyName"}]},"MapReference":{"ReferenceId":"566003334","Spot":0.39,"SideOfStreet":"neither","StateId":"20248595","CountyId":"20337453","CityId":"20337454"}}},{"Relevance":1.0,"Distance":56.5,"MatchLevel":"houseNumber","MatchQuality":{"Country":1.0,"State":1.0,"County":1.0,"City":1.0,"District":1.0,"Street":[1.0],"HouseNumber":1.0,"PostalCode":1.0},"MatchType":"interpolated","Location":{"LocationId":"NT_efrOFCtw8rfM5rUIx4iGQC_l_1218376300_L_yID","LocationType":"point","DisplayPosition":{"Latitude":51.541175,"Longitude":-0.0764507},"MapView":{"TopLeft":{"Latitude":51.5422992,"Longitude":-0.0782582},"BottomRight":{"Latitude":51.5400509,"Longitude":-0.0746433}},"Address":{"Label":"22 Kingsland Road, London, E8 4, United Kingdom","Country":"GBR","State":"England","County":"London","City":"London","District":"Hoxton","Street":"Kingsland Road","HouseNumber":"22","PostalCode":"E8 4","AdditionalData":[{"value":"United Kingdom","key":"CountryName"},{"value":"England","key":"StateName"},{"value":"London","key":"CountyName"}]},"MapReference":{"ReferenceId":"1218376300","Spot":0.58,"SideOfStreet":"left","StateId":"20248595","CountyId":"20337453","CityId":"20337454"}}},{"Relevance":1.0,"Distance":60.9,"MatchLevel":"houseNumber","MatchQuality":{"Country":1.0,"State":1.0,"County":1.0,"City":1.0,"District":1.0,"Street":[1.0],"HouseNumber":1.0,"PostalCode":1.0},"MatchType":"interpolated","Location":{"LocationId":"NT_QEkFw9k8v41MUY6lyooK1A_xA","LocationType":"point","DisplayPosition":{"Latitude":51.54107,"Longitude":-0.07583},"MapView":{"TopLeft":{"Latitude":51.5421942,"Longitude":-0.0776375},"BottomRight":{"Latitude":51.5399458,"Longitude":-0.0740225}},"Address":{"Label":"1 Glebe Road, London, E8 4BD, United Kingdom","Country":"GBR","State":"England","County":"London","City":"London","District":"Hackney","Street":"Glebe Road","HouseNumber":"1","PostalCode":"E8 4BD","AdditionalData":[{"value":"United Kingdom","key":"CountryName"},{"value":"England","key":"StateName"},{"value":"London","key":"CountyName"}]},"MapReference":{"ReferenceId":"25397856","Spot":0.8,"SideOfStreet":"right","StateId":"20248595","CountyId":"20337453","CityId":"20337454","AddressId":"785174531","RoadLinkId":"82639521"}}},{"Relevance":1.0,"Distance":68.8,"MatchLevel":"houseNumber","MatchQuality":{"Country":1.0,"State":1.0,"County":1.0,"City":1.0,"District":1.0,"Street":[1.0],"PostalCode":1.0},"MatchType":"interpolated","Location":{"LocationId":"NT_efrOFCtw8rfM5rUIx4iGQC","LocationType":"point","DisplayPosition":{"Latitude":51.5422,"Longitude":-0.07629},"MapView":{"TopLeft":{"Latitude":51.5433242,"Longitude":-0.0780975},"BottomRight":{"Latitude":51.5410758,"Longitude":-0.0744825}},"Address":{"Label":"Kingsland Road, London, E8 4, United Kingdom","Country":"GBR","State":"England","County":"London","City":"London","District":"Hoxton","Street":"Kingsland Road","PostalCode":"E8 4","AdditionalData":[{"value":"United Kingdom","key":"CountryName"},{"value":"England","key":"StateName"},{"value":"London","key":"CountyName"}],"Building":"Dormester Court"},"MapReference":{"ReferenceId":"1217914107","Spot":0.69,"SideOfStreet":"left","StateId":"20248595","CountyId":"20337453","CityId":"20337454","AddressId":"763563165","RoadLinkId":"534451779"}}},{"Relevance":1.0,"Distance":77.2,"MatchLevel":"street","MatchQuality":{"Country":1.0,"State":1.0,"County":1.0,"City":1.0,"District":1.0,"Street":[1.0],"PostalCode":1.0},"Location":{"LocationId":"NT_nJwBOj9.Jadg64-SlDygqA_l_25297878_R","LocationType":"point","DisplayPosition":{"Latitude":51.54228,"Longitude":-0.07628},"MapView":{"TopLeft":{"Latitude":51.54236,"Longitude":-0.07628},"BottomRight":{"Latitude":51.54228,"Longitude":-0.07627}},"Address":{"Label":"Kingsland Road, London, N1 4, United Kingdom","Country":"GBR","State":"England","County":"London","City":"London","District":"Hackney","Street":"Kingsland Road","PostalCode":"N1 4","AdditionalData":[{"value":"United Kingdom","key":"CountryName"},{"value":"England","key":"StateName"},{"value":"London","key":"CountyName"}]},"MapReference":{"ReferenceId":"25297878","Spot":0.0,"SideOfStreet":"right","StateId":"20248595","CountyId":"20337453","CityId":"20337454"}}}]}]}}