{"Response":{"MetaInfo":{"Timestamp":"2020-03-28T10:38:55.471+0000","NextPageInformation":"2"},"View":[{"_type":"SearchResultsViewType","ViewId":0,"Result":[{"Relevance":1.0,"Distance":0.0,"Direction":0.0,"MatchLevel":"district","MatchQuality":{"Country":1.0,"State":1.0,"County":1.0,"City":1.0,"District":1.0,"PostalCode":1.0},"Location":{"LocationId":"NT_H0xt12hu0SOrpwcw-JWcJD","LocationType":"point","DisplayPosition":{"Latitude":51.5710424,"Longitude":0.6687649},"MapView":{"TopLeft":{"Latitude":51.57679,"Longitude":0.62406},"BottomRight":{"Latitude":51.51429,"Longitude":0.81249}},"Address":{"Label":"Southend-on-Sea, England, United Kingdom","Country":"GBR","State":"England","County":"Essex","City":"Southend-on-Sea","District":"Southend-on-Sea","PostalCode":"SS1 1","AdditionalData":[{"value":"United Kingdom","key":"CountryName"},{"value":"England","key":"StateName"},{"value":"Essex","key":"CountyName"}]},"MapReference":{"ReferenceId":"25891942","SideOfStreet":"neither","StateId":"20248595","CountyId":"20335385","CityId":"20335806","DistrictId":"20335807"}}},{"Relevance":1.0,"Distance":3.0,"MatchLevel":"houseNumber","MatchQuality":{"Country":1.0,"State":1.0,"County":1.0,"City":1.0,"District":1.0,"Street":[1.0],"HouseNumber":1.0,"PostalCode":1.0},"MatchType":"interpolated","Location":{"LocationId":"NT_u9CMmaulHN27ve.oRMPZ9C_l_25887368_L_yIjM","LocationType":"point","DisplayPosition":{"Latitude":51.5710698,"Longitude":0.668763},"MapView":{"TopLeft":{"Latitude":51.5721939,"Longitude":0.6669544},"BottomRight":{"Latitude":51.5699456,"Longitude":0.6705717}},"Address":{"Label":"222 Western Approaches, Southend-on-Sea, SS2 6XY, United Kingdom","Country":"GBR","State":"England","County":"Essex","City":"Southend-on-Sea","District":"Southend-on-Sea","Street":"Western Approaches","HouseNumber":"222","PostalCode":"SS2 6XY","AdditionalData":[{"value":"United Kingdom","key":"CountryName"},{"value":"England","key":"StateName"},{"value":"Essex","key":"CountyName"}]},"MapReference":{"ReferenceId":"25887368","Spot":0.24,"SideOfStreet":"left","StateId":"20248595","CountyId":"20335385","CityId":"20335806","DistrictId":"20335807"}}},{"Relevance":1.0,"Distance":15.9,"MatchLevel":"houseNumber","MatchQuality":{"Country":1.0,"State":1.0,"County":1.0,"City":1.0,"District":1.0,"Street":[1.0],"HouseNumber":1.0,"PostalCode":1.0},"MatchType":"interpolated","Location":{"LocationId":"NT_JtVSuIlerzGFxiR8rScFmB_l_25887369_R_yA","LocationType":"point","DisplayPosition":{"Latitude":51.5711801,"Longitude":0.66841},"MapView":{"TopLeft":{"Latitude":51.5723043,"Longitude":0.6666014},"BottomRight":{"Latitude":51.570056,"Longitude":0.6702187}},"Address":{"Label":"2 The Bentleys, Southend-on-Sea, SS2 6, United Kingdom","Country":"GBR","State":"England","County":"Essex","City":"Southend-on-Sea","District":"Southend-on-Sea","Street":"The Bentleys","HouseNumber":"2","PostalCode":"SS2 6","AdditionalData":[{"value":"United Kingdom","key":"CountryName"},{"value":"England","key":"StateName"},{"value":"Essex","key":"CountyName"}]},"MapReference":{"ReferenceId":"25887369","Spot":0.21,"SideOfStreet":"right","StateId":"20248595","CountyId":"20335385","CityId":"20335806","DistrictId":"20335807"}}},{"Relevance":1.0,"Distance":39.7,"MatchLevel":"houseNumber","MatchQuality":{"Country":1.0,"State":1.0,"County":1.0,"City":1.0,"District":1.0,"Street":[1.0],"HouseNumber":1.0,"PostalCode":1.0},"MatchType":"interpolated","Location":{"LocationId":"NT_dx.sjDdnfj9kDzMn0HIAXD_l_842424224_L_yUDN","LocationType":"point","DisplayPosition":{"Latitude":51.57104,"Longitude":0.66819},"MapView":{"TopLeft":{"Latitude":51.5721642,"Longitude":0.6663813},"BottomRight":{"Latitude":51.5699158,"Longitude":0.6699986}},"Address":{"Label":"254 Green Lane, Southend-on-Sea, SS2 6, United Kingdom","Country":"GBR","State":"England","County":"Essex","City":"Southend-on-Sea","District":"Southend-on-Sea","Street":"Green Lane","HouseNumber":"254","PostalCode":"SS2 6","AdditionalData":[{"value":"United Kingdom","key":"CountryName"},{"value":"England","key":"StateName"},{"value":"Essex","key":"CountyName"}]},"MapReference":{"ReferenceId":"842424224","Spot":0.2,"SideOfStreet":"left","StateId":"20248595","CountyId":"20335385","CityId":"20335806","DistrictId":"20335807"}}},{"Relevance":1.0,"Distance":57.9,"MatchLevel":"postalCode","MatchQuality":{"PostalCode":1.0},"MatchType":"interpolated","Location":{"LocationId":"NT_-devHXM3wTmwHHnA2wUJ3B_l_25887401_R_xcTM","LocationType":"point","DisplayPosition":{"Latitude":51.57086,"Longitude":0.66955},"MapView":{"TopLeft":{"Latitude":51.5798532,"Longitude":0.6550809},"BottomRight":{"Latitude":51.5618668,"Longitude":0.6840191}},"Address":{"Label":"SS9 5YT, Southend-on-Sea, England, United Kingdom","Country":"GBR","State":"England","County":"Essex","City":"Southend-on-Sea","PostalCode":"SS9 5YT","AdditionalData":[{"value":"United Kingdom","key":"CountryName"},{"value":"England","key":"StateName"},{"value":"Essex","key":"CountyName"}]},"MapReference":{"ReferenceId":"25887401","Spot":0.15,"SideOfStreet":"neither","StateId":"20248595","CountyId":"20335385","CityId":"20335806"}}},{"Relevance":1.0,"Distance":60.9,"MatchLevel":"houseNumber","MatchQuality":{"Country":1.0,"State":1.0,"County":1.0,"City":1.0,"District":1.0,"Street":[1.0],"HouseNumber":1.0,"PostalCode":1.0},"MatchType":"interpolated","Location":{"LocationId":"NT_-devHXM3wTmwHHnA2wUJ3B_l_25887401_R_xcTM","LocationType":"point","DisplayPosition":{"Latitude":51.5708698,"Longitude":0.6696102},"MapView":{"TopLeft":{"Latitude":51.571994,"Longitude":0.6678016},"BottomRight":{"Latitude":51.5697457,"Longitude":0.6714189}},"Address":{"Label":"171 Neil Armstrong Way, Southend-on-Sea, SS9 5YZ, United Kingdom","Country":"GBR","State":"England","County":"Essex","City":"Southend-on-Sea","District":"Southend-on-Sea","Street":"Neil Armstrong Way","HouseNumber":"171","PostalCode":"SS9 5YZ","AdditionalData":[{"value":"United Kingdom","key":"CountryName"},{"value":"England","key":"StateName"},{"value":"Essex","key":"CountyName"}]},"MapReference":{"ReferenceId":"25887401","Spot":0.15,"SideOfStreet":"right","StateId":"20248595","CountyId":"20335385","CityId":"20335806","DistrictId":"20335807"}}},{"Relevance":1.0,"Distance":62.4,"MatchLevel":"houseNumber","MatchQuality":{"Country":1.0,"State":1.0,"County":1.0,"City":1.0,"District":1.0,"Street":[1.0],"HouseNumber":1.0,"PostalCode":1.0},"MatchType":"interpolated","Location":{"LocationId":"NT_JtVSuIlerzGFxiR8rScFmB_l_25900295_L_xkD","LocationType":"point","DisplayPosition":{"Latitude":51.57162,"Longitude":0.6682699},"MapView":{"TopLeft":{"Latitude":51.5727442,"Longitude":0.6664612},"BottomRight":{"Latitude":51.5704959,"Longitude":0.6700786}},"Address":{"Label":"19 The Bentleys, Southend-on-Sea, SS2 6, United Kingdom","Country":"GBR","State":"England","County":"Essex","City":"Southend-on-Sea","District":"Southend-on-Sea","Street":"The Bentleys","HouseNumber":"19","PostalCode":"SS2 6","AdditionalData":[{"value":"United Kingdom","key":"CountryName"},{"value":"England","key":"StateName"},{"value":"Essex","key":"CountyName"}]},"MapReference":{"ReferenceId":"25900295","Spot":0.0,"SideOfStreet":"left","StateId":"20248595","CountyId":"20335385","CityId":"20335806","DistrictId":"20335807"}}},{"Relevance":1.0,"Distance":63.9,"MatchLevel":"postalCode","MatchQuality":{"PostalCode":1.0},"MatchType":"interpolated","Location":{"LocationId":"NT_u9CMmaulHN27ve.oRMPZ9C_l_25887368_L_yIjM","LocationType":"point","DisplayPosition":{"Latitude":51.57116,"Longitude":0.66967},"MapView":{"TopLeft":{"Latitude":51.5801532,"Longitude":0.6552008},"BottomRight":{"Latitude":51.5621668,"Longitude":0.6841392}},"Address":{"Label":"SS2 6XY, Southend-on-Sea, England, United Kingdom","Country":"GBR","State":"England","County":"Essex","City":"Southend-on-Sea","PostalCode":"SS2 6XY","AdditionalData":[{"value":"United Kingdom","key":"CountryName"},{"value":"England","key":"StateName"},{"value":"Essex","key":"CountyName"}]},"MapReference":{"ReferenceId":"25887368","Spot":0.24,"SideOfStreet":"neither","StateId":"20248595","CountyId":"20335385","CityId":"20335806"}}},{"Relevance":1.0,"Distance":64.3,"MatchLevel":"houseNumber","MatchQuality":{"Country":1.0,"State":1.0,"County":1.0,"City":1.0,"District":1.0,"Street":[1.0],"HouseNumber":1.0,"PostalCode":1.0},"MatchType":"interpolated","Location":{"LocationId":"NT_JtVSuIlerzGFxiR8rScFmB_l_25887304_R_zAD","LocationType":"point","DisplayPosition":{"Latitude":51.5717201,"Longitude":0.6684101},"MapView":{"TopLeft":{"Latitude":51.5728443,"Longitude":0.6666015},"BottomRight":{"Latitude":51.5705959,"Longitude":0.6702188}},"Address":{"Label":"30 The Bentleys, Southend-on-Sea, SS2 6UJ, United Kingdom","Country":"GBR","State":"England","County":"Essex","City":"Southend-on-Sea","District":"Southend-on-Sea","Street":"The Bentleys","HouseNumber":"30","PostalCode":"SS2 6UJ","AdditionalData":[{"value":"United Kingdom","key":"CountryName"},{"value":"England","key":"StateName"},{"value":"Essex","key":"CountyName"}]},"MapReference":{"ReferenceId":"25887304","Spot":0.39,"SideOfStreet":"right","StateId":"20248595","CountyId":"20335385","CityId":"20335806","DistrictId":"20335807"}}},{"Relevance":1.0,"Distance":83.3,"MatchLevel":"postalCode","MatchQuality":{"PostalCode":1.0},"MatchType":"interpolated","Location":{"LocationId":"NT_JtVSuIlerzGFxiR8rScFmB_l_25900295_L_xkD","LocationType":"point","DisplayPosition":{"Latitude":51.57175,"Longitude":0.66837},"MapView":{"TopLeft":{"Latitude":51.5807432,"Longitude":0.6539006},"BottomRight":{"Latitude":51.5627568,"Longitude":0.6828394}},"Address":{"Label":"SS2 6UJ, Southend-on-Sea, England, United Kingdom","Country":"GBR","State":"England","County":"Essex","City":"Southend-on-Sea","PostalCode":"SS2 6UJ","AdditionalData":[{"value":"United Kingdom","key":"CountryName"},{"value":"England","key":"StateName"},{"value":"Essex","key":"CountyName"}]},"MapReference":{"ReferenceId":"25900295","Spot":0.0,"SideOfStreet":"neither","StateId":"20248595","CountyId":"20335385","CityId":"20335806"}}}]}]}}