{"Response":{"MetaInfo":{"Timestamp":"2020-03-28T12:00:31.008+0000","NextPageInformation":"2"},"View":[{"_type":"SearchResultsViewType","ViewId":0,"Result":[{"Relevance":1.0,"Distance":0.0,"Direction":0.0,"MatchLevel":"district","MatchQuality":{"Country":1.0,"State":1.0,"County":1.0,"City":1.0,"District":1.0,"PostalCode":1.0},"Location":{"LocationId":"NT_n-YpnI3xmhXR5IYCaiIgzA","LocationType":"point","DisplayPosition":{"Latitude":51.5186506,"Longitude":-0.1405252},"MapView":{"TopLeft":{"Latitude":51.52478,"Longitude":-0.14613},"BottomRight":{"Latitude":51.5153,"Longitude":-0.13014}},"Address":{"Label":"Fitzrovia, London, England, United Kingdom","Country":"GBR","State":"England","County":"London","City":"London","District":"Fitzrovia","PostalCode":"W1T 3","AdditionalData":[{"value":"United Kingdom","key":"CountryName"},{"value":"England","key":"StateName"},{"value":"London","key":"CountyName"}]},"MapReference":{"ReferenceId":"1201744091","SideOfStreet":"neither","StateId":"20248595","CountyId":"20337453","CityId":"20337454"}}},{"Relevance":1.0,"Distance":2.7,"MatchLevel":"houseNumber","MatchQuality":{"Country":1.0,"State":1.0,"County":1.0,"City":1.0,"District":1.0,"Street":[1.0],"HouseNumber":1.0,"PostalCode":1.0},"MatchType":"interpolated","Location":{"LocationId":"NT_2sRrJufvlvZ8oEhbvD-DkB_3AD","LocationType":"point","DisplayPosition":{"Latitude":51.51863,"Longitude":-0.14066},"MapView":{"TopLeft":{"Latitude":51.5197542,"Longitude":-0.1424666},"BottomRight":{"Latitude":51.5175058,"Longitude":-0.1388534}},"Address":{"Label":"70 Great Titchfield Street, London, W1W 7QN, United Kingdom","Country":"GBR","State":"England","County":"London","City":"London","District":"Fitzrovia","Street":"Great Titchfield Street","HouseNumber":"70","PostalCode":"W1W 7QN","AdditionalData":[{"value":"United Kingdom","key":"CountryName"},{"value":"England","key":"StateName"},{"value":"London","key":"CountyName"}]},"MapReference":{"ReferenceId":"25304255","Spot":0.16,"SideOfStreet":"right","StateId":"20248595","CountyId":"20337453","CityId":"20337454","AddressId":"748249192","RoadLinkId":"82996242"}}},{"Relevance":1.0,"Distance":6.9,"MatchLevel":"houseNumber","MatchQuality":{"Country":1.0,"State":1.0,"County":1.0,"City":1.0,"District":1.0,"Street":[1.0],"HouseNumber":1.0,"PostalCode":1.0},"MatchType":"interpolated","Location":{"LocationId":"NT_PaNO8RDoViBOw7lU.DYABB_l_25304257_L_zUD","LocationType":"point","DisplayPosition":{"Latitude":51.5185756,"Longitude":-0.1404339},"MapView":{"TopLeft":{"Latitude":51.5196998,"Longitude":-0.1422404},"BottomRight":{"Latitude":51.5174515,"Longitude":-0.1386273}},"Address":{"Label":"35 Riding House Street, London, W1W 7EA, United Kingdom","Country":"GBR","State":"England","County":"London","City":"London","District":"Fitzrovia","Street":"Riding House Street","HouseNumber":"35","PostalCode":"W1W 7EA","AdditionalData":[{"value":"United Kingdom","key":"CountryName"},{"value":"England","key":"StateName"},{"value":"London","key":"CountyName"}]},"MapReference":{"ReferenceId":"25304257","Spot":0.51,"SideOfStreet":"left","StateId":"20248595","CountyId":"20337453","CityId":"20337454"}}},{"Relevance":1.0,"Distance":8.1,"MatchLevel":"postalCode","MatchQuality":{"PostalCode":1.0},"MatchType":"interpolated","Location":{"LocationId":"NT_2sRrJufvlvZ8oEhbvD-DkB_3AD","LocationType":"point","DisplayPosition":{"Latitude":51.51864,"Longitude":-0.14041},"MapView":{"TopLeft":{"Latitude":51.5276332,"Longitude":-0.1548625},"BottomRight":{"Latitude":51.5096468,"Longitude":-0.1259575}},"Address":{"Label":"W1W 7QN, London, England, United Kingdom","Country":"GBR","State":"England","County":"London","City":"London","PostalCode":"W1W 7QN","AdditionalData":[{"value":"United Kingdom","key":"CountryName"},{"value":"England","key":"StateName"},{"value":"London","key":"CountyName"}]},"MapReference":{"ReferenceId":"25304255","Spot":0.16,"SideOfStreet":"neither","StateId":"20248595","CountyId":"20337453","CityId":"20337454"}}},{"Relevance":1.0,"Distance":15.9,"MatchLevel":"postalCode","MatchQuality":{"PostalCode":1.0},"MatchType":"interpolated","Location":{"LocationId":"NT_PaNO8RDoViBOw7lU.DYABB_l_25304257_L_zUD","LocationType":"point","DisplayPosition":{"Latitude":51.51868,"Longitude":-0.1403},"MapView":{"TopLeft":{"Latitude":51.5276732,"Longitude":-0.1547525},"BottomRight":{"Latitude":51.5096868,"Longitude":-0.1258475}},"Address":{"Label":"W1W 7EA, London, England, United Kingdom","Country":"GBR","State":"England","County":"London","City":"London","PostalCode":"W1W 7EA","AdditionalData":[{"value":"United Kingdom","key":"CountryName"},{"value":"England","key":"StateName"},{"value":"London","key":"CountyName"}]},"MapReference":{"ReferenceId":"25304257","Spot":0.51,"SideOfStreet":"neither","StateId":"20248595","CountyId":"20337453","CityId":"20337454"}}},{"Relevance":1.0,"Distance":16.2,"MatchLevel":"postalCode","MatchQuality":{"PostalCode":1.0},"MatchType":"interpolated","Location":{"LocationId":"NT_2sRrJufvlvZ8oEhbvD-DkB_2YTY","LocationType":"point","DisplayPosition":{"Latitude":51.51852,"Longitude":-0.14042},"MapView":{"TopLeft":{"Latitude":51.5275132,"Longitude":-0.1548725},"BottomRight":{"Latitude":51.5095268,"Longitude":-0.1259675}},"Address":{"Label":"W1W 7QJ, London, England, United Kingdom","Country":"GBR","State":"England","County":"London","City":"London","PostalCode":"W1W 7QJ","AdditionalData":[{"value":"United Kingdom","key":"CountryName"},{"value":"England","key":"StateName"},{"value":"London","key":"CountyName"}]},"MapReference":{"ReferenceId":"25304385","Spot":0.73,"SideOfStreet":"neither","StateId":"20248595","CountyId":"20337453","CityId":"20337454"}}},{"Relevance":1.0,"Distance":21.4,"MatchLevel":"houseNumber","MatchQuality":{"Country":1.0,"State":1.0,"County":1.0,"City":1.0,"District":1.0,"Street":[1.0],"HouseNumber":1.0,"PostalCode":1.0},"MatchType":"interpolated","Location":{"LocationId":"NT_2sRrJufvlvZ8oEhbvD-DkB_2YTY","LocationType":"point","DisplayPosition":{"Latitude":51.51844,"Longitude":-0.14057},"MapView":{"TopLeft":{"Latitude":51.5195642,"Longitude":-0.1423766},"BottomRight":{"Latitude":51.5173158,"Longitude":-0.1387634}},"Address":{"Label":"66a Great Titchfield Street, London, W1W 7, United Kingdom","Country":"GBR","State":"England","County":"London","City":"London","District":"Fitzrovia","Street":"Great Titchfield Street","HouseNumber":"66a","PostalCode":"W1W 7","AdditionalData":[{"value":"United Kingdom","key":"CountryName"},{"value":"England","key":"StateName"},{"value":"London","key":"CountyName"}]},"MapReference":{"ReferenceId":"25304385","Spot":0.73,"SideOfStreet":"right","StateId":"20248595","CountyId":"20337453","CityId":"20337454","AddressId":"769372846","RoadLinkId":"82663134"}}},{"Relevance":1.0,"Distance":21.5,"MatchLevel":"postalCode","MatchQuality":{"PostalCode":1.0},"MatchType":"interpolated","Location":{"LocationId":"NT_PaNO8RDoViBOw7lU.DYABB_zcD","LocationType":"point","DisplayPosition":{"Latitude":51.51871,"Longitude":-0.14023},"MapView":{"TopLeft":{"Latitude":51.5277032,"Longitude":-0.1546825},"BottomRight":{"Latitude":51.5097168,"Longitude":-0.1257775}},"Address":{"Label":"W1W 7AN, London, England, United Kingdom","Country":"GBR","State":"England","County":"London","City":"London","PostalCode":"W1W 7AN","AdditionalData":[{"value":"United Kingdom","key":"CountryName"},{"value":"England","key":"StateName"},{"value":"London","key":"CountyName"}]},"MapReference":{"ReferenceId":"25304200","Spot":0.32,"SideOfStreet":"neither","StateId":"20248595","CountyId":"20337453","CityId":"20337454"}}},{"Relevance":1.0,"Distance":22.1,"MatchLevel":"postalCode","MatchQuality":{"PostalCode":1.0},"MatchType":"interpolated","Location":{"LocationId":"NT_PaNO8RDoViBOw7lU.DYABB_zMD","LocationType":"point","DisplayPosition":{"Latitude":51.51854,"Longitude":-0.14079},"MapView":{"TopLeft":{"Latitude":51.5275332,"Longitude":-0.1552425},"BottomRight":{"Latitude":51.5095468,"Longitude":-0.1263375}},"Address":{"Label":"W1W 7DZ, London, England, United Kingdom","Country":"GBR","State":"England","County":"London","City":"London","PostalCode":"W1W 7DZ","AdditionalData":[{"value":"United Kingdom","key":"CountryName"},{"value":"England","key":"StateName"},{"value":"London","key":"CountyName"}]},"MapReference":{"ReferenceId":"25304294","Spot":0.68,"SideOfStreet":"neither","StateId":"20248595","CountyId":"20337453","CityId":"20337454"}}},{"Relevance":1.0,"Distance":24.6,"MatchLevel":"houseNumber","MatchQuality":{"Country":1.0,"State":1.0,"County":1.0,"City":1.0,"District":1.0,"Street":[1.0],"HouseNumber":1.0,"PostalCode":1.0},"MatchType":"interpolated","Location":{"LocationId":"NT_PaNO8RDoViBOw7lU.DYABB_zMD","LocationType":"point","DisplayPosition":{"Latitude":51.51849,"Longitude":-0.14077},"MapView":{"TopLeft":{"Latitude":51.5196142,"Longitude":-0.1425766},"BottomRight":{"Latitude":51.5173658,"Longitude":-0.1389634}},"Address":{"Label":"33 Riding House Street, London, W1W 7DZ, United Kingdom","Country":"GBR","State":"England","County":"London","City":"London","District":"Fitzrovia","Street":"Riding House Street","HouseNumber":"33","PostalCode":"W1W 7DZ","AdditionalData":[{"value":"United Kingdom","key":"CountryName"},{"value":"England","key":"StateName"},{"value":"London","key":"CountyName"}]},"MapReference":{"ReferenceId":"25304294","Spot":0.68,"SideOfStreet":"left","StateId":"20248595","CountyId":"20337453","CityId":"20337454","AddressId":"748026469","RoadLinkId":"82968082"}}}]}]}}