{"Response":{"MetaInfo":{"Timestamp":"2020-03-28T11:19:16.765+0000","NextPageInformation":"2"},"View":[{"_type":"SearchResultsViewType","ViewId":0,"Result":[{"Relevance":1.0,"Distance":-3.2,"MatchLevel":"landmark","MatchQuality":{"Country":1.0,"State":1.0,"County":1.0,"City":1.0,"District":1.0,"PostalCode":1.0,"Name":1.0},"Location":{"LocationId":"NT_OW0FCJUWnxQD8zAanJ66SA","LocationType":"hospital","Name":"St Bartholomews Hospital","DisplayPosition":{"Latitude":51.51756,"Longitude":-0.09967},"MapView":{"TopLeft":{"Latitude":51.51852,"Longitude":-0.10166},"BottomRight":{"Latitude":51.5166,"Longitude":-0.09778}},"Address":{"Label":"London, EC1V 7, United Kingdom","Country":"GBR","State":"England","County":"London","City":"London","District":"EC1","PostalCode":"EC1V 7","AdditionalData":[{"value":"United Kingdom","key":"CountryName"},{"value":"England","key":"StateName"},{"value":"London","key":"CountyName"}]},"MapReference":{"StateId":"20248595","CountyId":"20337453","CityId":"20337454","DistrictId":"20337457","PlaceId":"546509078"}}},{"Relevance":1.0,"Distance":0.0,"Direction":0.0,"MatchLevel":"district","MatchQuality":{"Country":1.0,"State":1.0,"County":1.0,"City":1.0,"District":1.0,"PostalCode":1.0},"Location":{"LocationId":"NT_zRYORSCM2CiXFF3BuSq0ZD","LocationType":"point","DisplayPosition":{"Latitude":51.5178927,"Longitude":-0.1010907},"MapView":{"TopLeft":{"Latitude":51.5326,"Longitude":-0.11328},"BottomRight":{"Latitude":51.51412,"Longitude":-0.07807}},"Address":{"Label":"EC1, London, England, United Kingdom","Country":"GBR","State":"England","County":"London","City":"London","District":"EC1","PostalCode":"EC1V 7","AdditionalData":[{"value":"United Kingdom","key":"CountryName"},{"value":"England","key":"StateName"},{"value":"London","key":"CountyName"}]},"MapReference":{"ReferenceId":"25302573","SideOfStreet":"neither","StateId":"20248595","CountyId":"20337453","CityId":"20337454","DistrictId":"20337457"}}},{"Relevance":1.0,"Distance":3.3,"MatchLevel":"street","MatchQuality":{"Country":1.0,"State":1.0,"County":1.0,"City":1.0,"District":1.0,"Street":[1.0],"PostalCode":1.0},"Location":{"LocationId":"NT_gJs9uFx4C2rrTrdUPJQYFC_l_30485960_L","LocationType":"point","DisplayPosition":{"Latitude":51.5179185,"Longitude":-0.1011139},"MapView":{"TopLeft":{"Latitude":51.51794,"Longitude":-0.10127},"BottomRight":{"Latitude":51.51767,"Longitude":-0.10109}},"Address":{"Label":"Giltspur Street, London, EC1A 9, United Kingdom","Country":"GBR","State":"England","County":"London","City":"London","District":"City of London","Street":"Giltspur Street","PostalCode":"EC1A 9","AdditionalData":[{"value":"United Kingdom","key":"CountryName"},{"value":"England","key":"StateName"},{"value":"London","key":"CountyName"}]},"MapReference":{"ReferenceId":"30485960","Spot":0.9,"SideOfStreet":"neither","StateId":"20248595","CountyId":"20337453","CityId":"20337454"}}},{"Relevance":1.0,"Distance":5.3,"MatchLevel":"street","MatchQuality":{"Country":1.0,"State":1.0,"County":1.0,"City":1.0,"District":1.0,"Street":[1.0],"PostalCode":1.0},"Location":{"LocationId":"NT_gJs9uFx4C2rrTrdUPJQYFC_l_30485961_R","LocationType":"point","DisplayPosition":{"Latitude":51.51794,"Longitude":-0.10109},"MapView":{"TopLeft":{"Latitude":51.51811,"Longitude":-0.10109},"BottomRight":{"Latitude":51.51794,"Longitude":-0.10088}},"Address":{"Label":"West Smithfield, London, EC1A 9, United Kingdom","Country":"GBR","State":"England","County":"London","City":"London","District":"City of London","Street":"West Smithfield","PostalCode":"EC1A 9","AdditionalData":[{"value":"United Kingdom","key":"CountryName"},{"value":"England","key":"StateName"},{"value":"London","key":"CountyName"}]},"MapReference":{"ReferenceId":"30485961","Spot":0.0,"SideOfStreet":"right","StateId":"20248595","CountyId":"20337453","CityId":"20337454"}}},{"Relevance":1.0,"Distance":5.3,"MatchLevel":"street","MatchQuality":{"Country":1.0,"State":1.0,"County":1.0,"City":1.0,"District":1.0,"Street":[1.0],"PostalCode":1.0},"Location":{"LocationId":"NT_gJs9uFx4C2rrTrdUPJQYFC_l_30485962_L","LocationType":"point","DisplayPosition":{"Latitude":51.51794,"Longitude":-0.10109},"MapView":{"TopLeft":{"Latitude":51.518,"Longitude":-0.10163},"BottomRight":{"Latitude":51.51794,"Longitude":-0.10109}},"Address":{"Label":"West Smithfield, London, EC1A 9, United Kingdom","Country":"GBR","State":"England","County":"London","City":"London","District":"City of London","Street":"West Smithfield","PostalCode":"EC1A 9","AdditionalData":[{"value":"United Kingdom","key":"CountryName"},{"value":"England","key":"StateName"},{"value":"London","key":"CountyName"}]},"MapReference":{"ReferenceId":"30485962","Spot":0.0,"SideOfStreet":"left","StateId":"20248595","CountyId":"20337453","CityId":"20337454"}}},{"Relevance":1.0,"Distance":15.0,"MatchLevel":"postalCode","MatchQuality":{"PostalCode":1.0},"Location":{"LocationId":"NT_gJs9uFx4C2rrTrdUPJQYFC_l_30485961_R","LocationType":"point","DisplayPosition":{"Latitude":51.51799,"Longitude":-0.10094},"MapView":{"TopLeft":{"Latitude":51.5269832,"Longitude":-0.1153923},"BottomRight":{"Latitude":51.5089968,"Longitude":-0.0864877}},"Address":{"Label":"EC1A 7BE, London, England, United Kingdom","Country":"GBR","State":"England","County":"London","City":"London","PostalCode":"EC1A 7BE","AdditionalData":[{"value":"United Kingdom","key":"CountryName"},{"value":"England","key":"StateName"},{"value":"London","key":"CountyName"}]},"MapReference":{"ReferenceId":"30485961","Spot":0.0,"SideOfStreet":"neither","StateId":"20248595","CountyId":"20337453","CityId":"20337454"}}},{"Relevance":1.0,"Distance":23.2,"MatchLevel":"street","MatchQuality":{"Country":1.0,"State":1.0,"County":1.0,"City":1.0,"District":1.0,"Street":[1.0],"PostalCode":1.0},"Location":{"LocationId":"NT_gJs9uFx4C2rrTrdUPJQYFC_l_25304209_L","LocationType":"point","DisplayPosition":{"Latitude":51.5181012,"Longitude":-0.101099},"MapView":{"TopLeft":{"Latitude":51.51837,"Longitude":-0.10174},"BottomRight":{"Latitude":51.5181,"Longitude":-0.10088}},"Address":{"Label":"West Smithfield, London, EC1A 9, United Kingdom","Country":"GBR","State":"England","County":"London","City":"London","District":"City of London","Street":"West Smithfield","PostalCode":"EC1A 9","AdditionalData":[{"value":"United Kingdom","key":"CountryName"},{"value":"England","key":"StateName"},{"value":"London","key":"CountyName"}]},"MapReference":{"ReferenceId":"25304209","Spot":0.23,"SideOfStreet":"left","StateId":"20248595","CountyId":"20337453","CityId":"20337454"}}},{"Relevance":1.0,"Distance":27.7,"MatchLevel":"street","MatchQuality":{"Country":1.0,"State":1.0,"County":1.0,"City":1.0,"District":1.0,"Street":[1.0],"PostalCode":1.0},"Location":{"LocationId":"NT_dOaXsWh5dvL7RZM-Rw4ZKA_l_25304359_L","LocationType":"point","DisplayPosition":{"Latitude":51.51767,"Longitude":-0.10127},"MapView":{"TopLeft":{"Latitude":51.51767,"Longitude":-0.10151},"BottomRight":{"Latitude":51.51767,"Longitude":-0.10127}},"Address":{"Label":"Hosier Lane, London, EC1A 9, United Kingdom","Country":"GBR","State":"England","County":"London","City":"London","District":"City of London","Street":"Hosier Lane","PostalCode":"EC1A 9","AdditionalData":[{"value":"United Kingdom","key":"CountryName"},{"value":"England","key":"StateName"},{"value":"London","key":"CountyName"}]},"MapReference":{"ReferenceId":"25304359","Spot":1.0,"SideOfStreet":"left","StateId":"20248595","CountyId":"20337453","CityId":"20337454"}}},{"Relevance":1.0,"Distance":28.2,"MatchLevel":"street","MatchQuality":{"Country":1.0,"State":1.0,"County":1.0,"City":1.0,"District":1.0,"Street":[1.0],"PostalCode":1.0},"Location":{"LocationId":"NT_gJs9uFx4C2rrTrdUPJQYFC_l_25304208_R","LocationType":"point","DisplayPosition":{"Latitude":51.51811,"Longitude":-0.10088},"MapView":{"TopLeft":{"Latitude":51.5182,"Longitude":-0.10088},"BottomRight":{"Latitude":51.51811,"Longitude":-0.10071}},"Address":{"Label":"West Smithfield, London, EC1A 9, United Kingdom","Country":"GBR","State":"England","County":"London","City":"London","District":"City of London","Street":"West Smithfield","PostalCode":"EC1A 9","AdditionalData":[{"value":"United Kingdom","key":"CountryName"},{"value":"England","key":"StateName"},{"value":"London","key":"CountyName"}]},"MapReference":{"ReferenceId":"25304208","Spot":0.0,"SideOfStreet":"right","StateId":"20248595","CountyId":"20337453","CityId":"20337454"}}},{"Relevance":1.0,"Distance":34.8,"MatchLevel":"houseNumber","MatchQuality":{"Country":1.0,"State":1.0,"County":1.0,"City":1.0,"District":1.0,"Street":[1.0],"HouseNumber":1.0,"PostalCode":1.0},"MatchType":"interpolated","Location":{"LocationId":"NT_gJs9uFx4C2rrTrdUPJQYFC_yQD","LocationType":"point","DisplayPosition":{"Latitude":51.51782,"Longitude":-0.10158},"MapView":{"TopLeft":{"Latitude":51.5189442,"Longitude":-0.1033865},"BottomRight":{"Latitude":51.5166958,"Longitude":-0.0997735}},"Address":{"Label":"24 West Smithfield, London, EC1A 9, United Kingdom","Country":"GBR","State":"England","County":"London","City":"London","District":"City of London","Street":"West Smithfield","HouseNumber":"24","PostalCode":"EC1A 9","AdditionalData":[{"value":"United Kingdom","key":"CountryName"},{"value":"England","key":"StateName"},{"value":"London","key":"CountyName"}]},"MapReference":{"ReferenceId":"30485958","Spot":0.53,"SideOfStreet":"left","StateId":"20248595","CountyId":"20337453","CityId":"20337454","AddressId":"748158382","RoadLinkId":"82940159"}}}]}]}}