{"Response":{"MetaInfo":{"Timestamp":"2020-03-28T11:43:10.755+0000","NextPageInformation":"2"},"View":[{"_type":"SearchResultsViewType","ViewId":0,"Result":[{"Relevance":1.0,"Distance":0.0,"Direction":0.0,"MatchLevel":"district","MatchQuality":{"Country":1.0,"State":1.0,"County":1.0,"City":1.0,"District":1.0,"PostalCode":1.0},"Location":{"LocationId":"NT_c8fMRCwak3uwcPZlxoqYqA","LocationType":"point","DisplayPosition":{"Latitude":51.5739988,"Longitude":7.1853511},"MapView":{"TopLeft":{"Latitude":51.63296,"Longitude":7.16321},"BottomRight":{"Latitude":51.55659,"Longitude":7.25772}},"Address":{"Label":"Recklinghausen, Nordrhein-Westfalen, Deutschland","Country":"DEU","State":"Nordrhein-Westfalen","County":"Recklinghausen","City":"Recklinghausen","District":"Recklinghausen","PostalCode":"45657","AdditionalData":[{"value":"Deutschland","key":"CountryName"},{"value":"Nordrhein-Westfalen","key":"StateName"},{"value":"Recklinghausen","key":"CountyName"}]},"MapReference":{"ReferenceId":"1201262405","SideOfStreet":"neither","CountryId":"20147700","StateId":"20157369","CountyId":"20159272","CityId":"20159336","DistrictId":"20159343"}}},{"Relevance":1.0,"Distance":4.6,"MatchLevel":"houseNumber","MatchQuality":{"Country":1.0,"State":1.0,"County":1.0,"City":1.0,"District":1.0,"Street":[1.0],"HouseNumber":1.0,"PostalCode":1.0},"MatchType":"interpolated","Location":{"LocationId":"NT_tZjqcnt8qlj7DB5v-tEd3B_2kD","LocationType":"point","DisplayPosition":{"Latitude":51.57402,"Longitude":7.18514},"MapView":{"TopLeft":{"Latitude":51.5751442,"Longitude":7.1833312},"BottomRight":{"Latitude":51.5728958,"Longitude":7.1869488}},"Address":{"Label":"Westfalenstraße 69, 45661 Recklinghausen, Deutschland","Country":"DEU","State":"Nordrhein-Westfalen","County":"Recklinghausen","City":"Recklinghausen","District":"Recklinghausen","Street":"Westfalenstraße","HouseNumber":"69","PostalCode":"45661","AdditionalData":[{"value":"Deutschland","key":"CountryName"},{"value":"Nordrhein-Westfalen","key":"StateName"},{"value":"Recklinghausen","key":"CountyName"}]},"MapReference":{"ReferenceId":"1199161202","Spot":0.39,"SideOfStreet":"right","CountryId":"20147700","StateId":"20157369","CountyId":"20159272","CityId":"20159336","DistrictId":"20159343","AddressId":"194592800","RoadLinkId":"510880843"}}},{"Relevance":1.0,"Distance":19.2,"MatchLevel":"houseNumber","MatchQuality":{"Country":1.0,"State":1.0,"County":1.0,"City":1.0,"District":1.0,"Street":[1.0],"HouseNumber":1.0,"PostalCode":1.0},"MatchType":"interpolated","Location":{"LocationId":"NT_YD0jM.kv8iI1P12x9de.PC_xA","LocationType":"point","DisplayPosition":{"Latitude":51.57432,"Longitude":7.1854},"MapView":{"TopLeft":{"Latitude":51.5754442,"Longitude":7.1835912},"BottomRight":{"Latitude":51.5731958,"Longitude":7.1872088}},"Address":{"Label":"Franzstraße 1, 45661 Recklinghausen, Deutschland","Country":"DEU","State":"Nordrhein-Westfalen","County":"Recklinghausen","City":"Recklinghausen","District":"Recklinghausen","Street":"Franzstraße","HouseNumber":"1","PostalCode":"45661","AdditionalData":[{"value":"Deutschland","key":"CountryName"},{"value":"Nordrhein-Westfalen","key":"StateName"},{"value":"Recklinghausen","key":"CountyName"}]},"MapReference":{"ReferenceId":"51349977","Spot":0.19,"SideOfStreet":"right","CountryId":"20147700","StateId":"20157369","CountyId":"20159272","CityId":"20159336","DistrictId":"20159343","AddressId":"195019647","RoadLinkId":"35716059"}}},{"Relevance":1.0,"Distance":27.8,"MatchLevel":"houseNumber","MatchQuality":{"Country":1.0,"State":1.0,"County":1.0,"City":1.0,"District":1.0,"Street":[1.0],"HouseNumber":1.0,"PostalCode":1.0},"MatchType":"interpolated","Location":{"LocationId":"NT_tZjqcnt8qlj7DB5v-tEd3B_3MD","LocationType":"point","DisplayPosition":{"Latitude":51.57373,"Longitude":7.18521},"MapView":{"TopLeft":{"Latitude":51.5748542,"Longitude":7.1834012},"BottomRight":{"Latitude":51.5726058,"Longitude":7.1870188}},"Address":{"Label":"Westfalenstraße 73, 45661 Recklinghausen, Deutschland","Country":"DEU","State":"Nordrhein-Westfalen","County":"Recklinghausen","City":"Recklinghausen","District":"Recklinghausen","Street":"Westfalenstraße","HouseNumber":"73","PostalCode":"45661","AdditionalData":[{"value":"Deutschland","key":"CountryName"},{"value":"Nordrhein-Westfalen","key":"StateName"},{"value":"Recklinghausen","key":"CountyName"}]},"MapReference":{"ReferenceId":"1199161201","Spot":0.57,"SideOfStreet":"right","CountryId":"20147700","StateId":"20157369","CountyId":"20159272","CityId":"20159336","DistrictId":"20159343","AddressId":"194077555","RoadLinkId":"510880842"}}},{"Relevance":1.0,"Distance":37.4,"MatchLevel":"street","MatchQuality":{"Country":1.0,"State":1.0,"County":1.0,"City":1.0,"District":1.0,"Street":[1.0],"PostalCode":1.0},"Location":{"LocationId":"NT_gD0auSDkEp-WkFJlbKAszA_l_51488521_R","LocationType":"point","DisplayPosition":{"Latitude":51.57429,"Longitude":7.18508},"MapView":{"TopLeft":{"Latitude":51.57429,"Longitude":7.18482},"BottomRight":{"Latitude":51.57429,"Longitude":7.18508}},"Address":{"Label":"Professor-Knipping-Straße, 45661 Recklinghausen, Deutschland","Country":"DEU","State":"Nordrhein-Westfalen","County":"Recklinghausen","City":"Recklinghausen","District":"Recklinghausen","Street":"Professor-Knipping-Straße","PostalCode":"45661","AdditionalData":[{"value":"Deutschland","key":"CountryName"},{"value":"Nordrhein-Westfalen","key":"StateName"},{"value":"Recklinghausen","key":"CountyName"}]},"MapReference":{"ReferenceId":"51488521","Spot":1.0,"SideOfStreet":"right","CountryId":"20147700","StateId":"20157369","CountyId":"20159272","CityId":"20159336","DistrictId":"20159343"}}},{"Relevance":1.0,"Distance":47.2,"MatchLevel":"houseNumber","MatchQuality":{"Country":1.0,"State":1.0,"County":1.0,"City":1.0,"District":1.0,"Street":[1.0],"HouseNumber":1.0,"PostalCode":1.0},"MatchType":"interpolated","Location":{"LocationId":"NT_tZjqcnt8qlj7DB5v-tEd3B_2UD","LocationType":"point","DisplayPosition":{"Latitude":51.57439,"Longitude":7.18505},"MapView":{"TopLeft":{"Latitude":51.5755142,"Longitude":7.1832412},"BottomRight":{"Latitude":51.5732658,"Longitude":7.1868588}},"Address":{"Label":"Westfalenstraße 65, 45661 Recklinghausen, Deutschland","Country":"DEU","State":"Nordrhein-Westfalen","County":"Recklinghausen","City":"Recklinghausen","District":"Recklinghausen","Street":"Westfalenstraße","HouseNumber":"65","PostalCode":"45661","AdditionalData":[{"value":"Deutschland","key":"CountryName"},{"value":"Nordrhein-Westfalen","key":"StateName"},{"value":"Recklinghausen","key":"CountyName"}]},"MapReference":{"ReferenceId":"1207935160","Spot":0.4,"SideOfStreet":"right","CountryId":"20147700","StateId":"20157369","CountyId":"20159272","CityId":"20159336","DistrictId":"20159343","AddressId":"194754609","RoadLinkId":"522189132"}}},{"Relevance":1.0,"Distance":60.2,"MatchLevel":"houseNumber","MatchQuality":{"Country":1.0,"State":1.0,"County":1.0,"City":1.0,"District":1.0,"Street":[1.0],"HouseNumber":1.0,"PostalCode":1.0},"MatchType":"interpolated","Location":{"LocationId":"NT_tZjqcnt8qlj7DB5v-tEd3B_3cD","LocationType":"point","DisplayPosition":{"Latitude":51.57346,"Longitude":7.18527},"MapView":{"TopLeft":{"Latitude":51.5745842,"Longitude":7.1834613},"BottomRight":{"Latitude":51.5723358,"Longitude":7.1870787}},"Address":{"Label":"Westfalenstraße 77, 45661 Recklinghausen, Deutschland","Country":"DEU","State":"Nordrhein-Westfalen","County":"Recklinghausen","City":"Recklinghausen","District":"Recklinghausen","Street":"Westfalenstraße","HouseNumber":"77","PostalCode":"45661","AdditionalData":[{"value":"Deutschland","key":"CountryName"},{"value":"Nordrhein-Westfalen","key":"StateName"},{"value":"Recklinghausen","key":"CountyName"}]},"MapReference":{"ReferenceId":"1199153937","Spot":0.42,"SideOfStreet":"right","CountryId":"20147700","StateId":"20157369","CountyId":"20159272","CityId":"20159336","DistrictId":"20159343","AddressId":"194784867","RoadLinkId":"510864426"}}},{"Relevance":1.0,"Distance":71.3,"MatchLevel":"houseNumber","MatchQuality":{"Country":1.0,"State":1.0,"County":1.0,"City":1.0,"District":1.0,"Street":[1.0],"HouseNumber":1.0,"PostalCode":1.0},"MatchType":"interpolated","Location":{"LocationId":"NT_tZjqcnt8qlj7DB5v-tEd3B_2MD","LocationType":"point","DisplayPosition":{"Latitude":51.5746,"Longitude":7.18499},"MapView":{"TopLeft":{"Latitude":51.5757242,"Longitude":7.1831812},"BottomRight":{"Latitude":51.5734758,"Longitude":7.1867988}},"Address":{"Label":"Westfalenstraße 63, 45661 Recklinghausen, Deutschland","Country":"DEU","State":"Nordrhein-Westfalen","County":"Recklinghausen","City":"Recklinghausen","District":"Recklinghausen","Street":"Westfalenstraße","HouseNumber":"63","PostalCode":"45661","AdditionalData":[{"value":"Deutschland","key":"CountryName"},{"value":"Nordrhein-Westfalen","key":"StateName"},{"value":"Recklinghausen","key":"CountyName"}]},"MapReference":{"ReferenceId":"1207935161","Spot":0.1,"SideOfStreet":"right","CountryId":"20147700","StateId":"20157369","CountyId":"20159272","CityId":"20159336","DistrictId":"20159343","AddressId":"194049806","RoadLinkId":"522189133"}}},{"Relevance":1.0,"Distance":78.9,"MatchLevel":"houseNumber","MatchQuality":{"Country":1.0,"State":1.0,"County":1.0,"City":1.0,"District":1.0,"Street":[1.0],"HouseNumber":1.0,"PostalCode":1.0},"MatchType":"interpolated","Location":{"LocationId":"NT_tZjqcnt8qlj7DB5v-tEd3B_3kD","LocationType":"point","DisplayPosition":{"Latitude":51.57329,"Longitude":7.1854},"MapView":{"TopLeft":{"Latitude":51.5744142,"Longitude":7.1835913},"BottomRight":{"Latitude":51.5721658,"Longitude":7.1872087}},"Address":{"Label":"Westfalenstraße 79, 45661 Recklinghausen, Deutschland","Country":"DEU","State":"Nordrhein-Westfalen","County":"Recklinghausen","City":"Recklinghausen","District":"Recklinghausen","Street":"Westfalenstraße","HouseNumber":"79","PostalCode":"45661","AdditionalData":[{"value":"Deutschland","key":"CountryName"},{"value":"Nordrhein-Westfalen","key":"StateName"},{"value":"Recklinghausen","key":"CountyName"}]},"MapReference":{"ReferenceId":"51487285","Spot":0.79,"SideOfStreet":"right","CountryId":"20147700","StateId":"20157369","CountyId":"20159272","CityId":"20159336","DistrictId":"20159343","AddressId":"193610071","RoadLinkId":"35100945"}}},{"Relevance":1.0,"Distance":79.3,"MatchLevel":"houseNumber","MatchQuality":{"Country":1.0,"State":1.0,"County":1.0,"City":1.0,"District":1.0,"Street":[1.0],"HouseNumber":1.0,"PostalCode":1.0},"MatchType":"interpolated","Location":{"LocationId":"NT_tZjqcnt8qlj7DB5v-tEd3B_4AD","LocationType":"point","DisplayPosition":{"Latitude":51.57329,"Longitude":7.18523},"MapView":{"TopLeft":{"Latitude":51.5744142,"Longitude":7.1834213},"BottomRight":{"Latitude":51.5721658,"Longitude":7.1870387}},"Address":{"Label":"Westfalenstraße 80, 45661 Recklinghausen, Deutschland","Country":"DEU","State":"Nordrhein-Westfalen","County":"Recklinghausen","City":"Recklinghausen","District":"Recklinghausen","Street":"Westfalenstraße","HouseNumber":"80","PostalCode":"45661","AdditionalData":[{"value":"Deutschland","key":"CountryName"},{"value":"Nordrhein-Westfalen","key":"StateName"},{"value":"Recklinghausen","key":"CountyName"}]},"MapReference":{"ReferenceId":"1199154241","Spot":0.76,"SideOfStreet":"left","CountryId":"20147700","StateId":"20157369","CountyId":"20159272","CityId":"20159336","DistrictId":"20159343","AddressId":"194581187","RoadLinkId":"510865522"}}}]}]}}