{"Response":{"MetaInfo":{"Timestamp":"2020-03-28T12:01:05.196+0000","NextPageInformation":"2"},"View":[{"_type":"SearchResultsViewType","ViewId":0,"Result":[{"Relevance":1.0,"Distance":-2.8,"MatchLevel":"landmark","MatchQuality":{"Country":1.0,"State":1.0,"County":1.0,"City":1.0,"District":1.0,"PostalCode":1.0,"Name":1.0},"Location":{"LocationId":"NT_fn8i.R37E42FrGwOXoQxrB_p_TkGdsUzMvJsYpS66UbqD2B","LocationType":"shoppingCentre","Name":"Ffald Road Shopping Centre","DisplayPosition":{"Latitude":51.52743,"Longitude":-3.69184},"MapView":{"TopLeft":{"Latitude":51.52862,"Longitude":-3.6929},"BottomRight":{"Latitude":51.52649,"Longitude":-3.69}},"Address":{"Label":"Bridgend, CF33 6, United Kingdom","Country":"GBR","State":"Wales","County":"Mid Glamorgan","City":"Bridgend","District":"Pyle","PostalCode":"CF33 6","AdditionalData":[{"value":"United Kingdom","key":"CountryName"},{"value":"Wales","key":"StateName"},{"value":"Mid Glamorgan","key":"CountyName"}]},"MapReference":{"StateId":"20287683","CountyId":"20342290","CityId":"20342317","DistrictId":"20342361","PlaceId":"1001003210"}}},{"Relevance":1.0,"Distance":0.0,"Direction":0.0,"MatchLevel":"district","MatchQuality":{"Country":1.0,"State":1.0,"County":1.0,"City":1.0,"District":1.0,"PostalCode":1.0},"Location":{"LocationId":"NT_V8hNbRi59nCZObYStcOULC","LocationType":"point","DisplayPosition":{"Latitude":51.5285067,"Longitude":-3.6908044},"MapView":{"TopLeft":{"Latitude":51.53909,"Longitude":-3.72312},"BottomRight":{"Latitude":51.51681,"Longitude":-3.66783}},"Address":{"Label":"Pyle, Bridgend, Wales, United Kingdom","Country":"GBR","State":"Wales","County":"Mid Glamorgan","City":"Bridgend","District":"Pyle","PostalCode":"CF33 6","AdditionalData":[{"value":"United Kingdom","key":"CountryName"},{"value":"Wales","key":"StateName"},{"value":"Mid Glamorgan","key":"CountyName"}]},"MapReference":{"ReferenceId":"905952367","SideOfStreet":"neither","StateId":"20287683","CountyId":"20342290","CityId":"20342317","DistrictId":"20342361"}}},{"Relevance":1.0,"Distance":10.7,"MatchLevel":"street","MatchQuality":{"Country":1.0,"State":1.0,"County":1.0,"City":1.0,"District":1.0,"PostalCode":1.0},"Location":{"LocationId":"NT_OLK8j79VCSDnNhW0c1WKzC_l_802976391_L","LocationType":"point","DisplayPosition":{"Latitude":51.52845,"Longitude":-3.69093},"MapView":{"TopLeft":{"Latitude":51.52845,"Longitude":-3.69188},"BottomRight":{"Latitude":51.52836,"Longitude":-3.69093}},"Address":{"Label":"Bridgend, CF33 6, United Kingdom","Country":"GBR","State":"Wales","County":"Mid Glamorgan","City":"Bridgend","District":"Pyle","PostalCode":"CF33 6","AdditionalData":[{"value":"United Kingdom","key":"CountryName"},{"value":"Wales","key":"StateName"},{"value":"Mid Glamorgan","key":"CountyName"}]},"MapReference":{"ReferenceId":"802976391","Spot":1.0,"SideOfStreet":"left","StateId":"20287683","CountyId":"20342290","CityId":"20342317","DistrictId":"20342361"}}},{"Relevance":1.0,"Distance":31.9,"MatchLevel":"postalCode","MatchQuality":{"PostalCode":1.0},"Location":{"LocationId":"NT_OLK8j79VCSDnNhW0c1WKzC_l_802976391_L","LocationType":"point","DisplayPosition":{"Latitude":51.52836,"Longitude":-3.6912},"MapView":{"TopLeft":{"Latitude":51.5373532,"Longitude":-3.7056556},"BottomRight":{"Latitude":51.5193668,"Longitude":-3.6767444}},"Address":{"Label":"CF33 6PE, Bridgend, Wales, United Kingdom","Country":"GBR","State":"Wales","County":"Mid Glamorgan","City":"Bridgend","PostalCode":"CF33 6PE","AdditionalData":[{"value":"United Kingdom","key":"CountryName"},{"value":"Wales","key":"StateName"},{"value":"Mid Glamorgan","key":"CountyName"}]},"MapReference":{"ReferenceId":"802976391","Spot":1.0,"SideOfStreet":"neither","StateId":"20287683","CountyId":"20342290","CityId":"20342317"}}},{"Relevance":1.0,"Distance":73.8,"MatchLevel":"street","MatchQuality":{"Country":1.0,"State":1.0,"County":1.0,"City":1.0,"District":1.0,"PostalCode":1.0},"Location":{"LocationId":"NT_OLK8j79VCSDnNhW0c1WKzC_l_774014922_R","LocationType":"point","DisplayPosition":{"Latitude":51.52848,"Longitude":-3.69187},"MapView":{"TopLeft":{"Latitude":51.52916,"Longitude":-3.69214},"BottomRight":{"Latitude":51.52848,"Longitude":-3.69187}},"Address":{"Label":"Bridgend, CF33 6, United Kingdom","Country":"GBR","State":"Wales","County":"Mid Glamorgan","City":"Bridgend","District":"Pyle","PostalCode":"CF33 6","AdditionalData":[{"value":"United Kingdom","key":"CountryName"},{"value":"Wales","key":"StateName"},{"value":"Mid Glamorgan","key":"CountyName"}]},"MapReference":{"ReferenceId":"774014922","Spot":0.0,"SideOfStreet":"right","StateId":"20287683","CountyId":"20342290","CityId":"20342317","DistrictId":"20342361"}}},{"Relevance":1.0,"Distance":73.8,"MatchLevel":"street","MatchQuality":{"Country":1.0,"State":1.0,"County":1.0,"City":1.0,"District":1.0,"PostalCode":1.0},"Location":{"LocationId":"NT_OLK8j79VCSDnNhW0c1WKzC_l_802944655_R","LocationType":"point","DisplayPosition":{"Latitude":51.52848,"Longitude":-3.69187},"MapView":{"TopLeft":{"Latitude":51.52848,"Longitude":-3.69188},"BottomRight":{"Latitude":51.52839,"Longitude":-3.69187}},"Address":{"Label":"Bridgend, CF33 6, United Kingdom","Country":"GBR","State":"Wales","County":"Mid Glamorgan","City":"Bridgend","District":"Pyle","PostalCode":"CF33 6","AdditionalData":[{"value":"United Kingdom","key":"CountryName"},{"value":"Wales","key":"StateName"},{"value":"Mid Glamorgan","key":"CountyName"}]},"MapReference":{"ReferenceId":"802944655","Spot":1.0,"SideOfStreet":"right","StateId":"20287683","CountyId":"20342290","CityId":"20342317","DistrictId":"20342361"}}},{"Relevance":1.0,"Distance":75.5,"MatchLevel":"street","MatchQuality":{"Country":1.0,"State":1.0,"County":1.0,"City":1.0,"District":1.0,"PostalCode":1.0},"Location":{"LocationId":"NT_OLK8j79VCSDnNhW0c1WKzC_l_802944654_R","LocationType":"point","DisplayPosition":{"Latitude":51.52839,"Longitude":-3.69188},"MapView":{"TopLeft":{"Latitude":51.52839,"Longitude":-3.69191},"BottomRight":{"Latitude":51.52818,"Longitude":-3.69188}},"Address":{"Label":"Bridgend, CF33 6, United Kingdom","Country":"GBR","State":"Wales","County":"Mid Glamorgan","City":"Bridgend","District":"Pyle","PostalCode":"CF33 6","AdditionalData":[{"value":"United Kingdom","key":"CountryName"},{"value":"Wales","key":"StateName"},{"value":"Mid Glamorgan","key":"CountyName"}]},"MapReference":{"ReferenceId":"802944654","Spot":1.0,"SideOfStreet":"right","StateId":"20287683","CountyId":"20342290","CityId":"20342317","DistrictId":"20342361"}}},{"Relevance":1.0,"Distance":81.3,"MatchLevel":"houseNumber","MatchQuality":{"Country":1.0,"State":1.0,"County":1.0,"City":1.0,"District":1.0,"Street":[1.0],"HouseNumber":1.0,"PostalCode":1.0},"MatchType":"interpolated","Location":{"LocationId":"NT_cC2oWi.msVwvJu2-S3EdpD_l_758227599_R_ygD","LocationType":"point","DisplayPosition":{"Latitude":51.5293048,"Longitude":-3.6913152},"MapView":{"TopLeft":{"Latitude":51.530429,"Longitude":-3.6931222},"BottomRight":{"Latitude":51.5281807,"Longitude":-3.6895082}},"Address":{"Label":"28 Ffald Road, Bridgend, CF33 6AD, United Kingdom","Country":"GBR","State":"Wales","County":"Mid Glamorgan","City":"Bridgend","District":"Pyle","Street":"Ffald Road","HouseNumber":"28","PostalCode":"CF33 6AD","AdditionalData":[{"value":"United Kingdom","key":"CountryName"},{"value":"Wales","key":"StateName"},{"value":"Mid Glamorgan","key":"CountyName"}]},"MapReference":{"ReferenceId":"758227599","Spot":0.67,"SideOfStreet":"right","StateId":"20287683","CountyId":"20342290","CityId":"20342317","DistrictId":"20342361"}}},{"Relevance":1.0,"Distance":82.3,"MatchLevel":"houseNumber","MatchQuality":{"Country":1.0,"State":1.0,"County":1.0,"City":1.0,"District":1.0,"Street":[1.0],"HouseNumber":1.0,"PostalCode":1.0},"MatchType":"interpolated","Location":{"LocationId":"NT_mUbaj43aEK.Rd5Kc2bZF4D_l_758227600_R_ykD","LocationType":"point","DisplayPosition":{"Latitude":51.52938,"Longitude":-3.69077},"MapView":{"TopLeft":{"Latitude":51.5305042,"Longitude":-3.6925769},"BottomRight":{"Latitude":51.5282559,"Longitude":-3.688963}},"Address":{"Label":"29 Ffald Road, Bridgend, CF33 6, United Kingdom","Country":"GBR","State":"Wales","County":"Mid Glamorgan","City":"Bridgend","District":"Pyle","Street":"Ffald Road","HouseNumber":"29","PostalCode":"CF33 6","AdditionalData":[{"value":"United Kingdom","key":"CountryName"},{"value":"Wales","key":"StateName"},{"value":"Mid Glamorgan","key":"CountyName"}]},"MapReference":{"ReferenceId":"758227600","Spot":0.19,"SideOfStreet":"right","StateId":"20287683","CountyId":"20342290","CityId":"20342317","DistrictId":"20342361"}}},{"Relevance":1.0,"Distance":84.7,"MatchLevel":"street","MatchQuality":{"Country":1.0,"State":1.0,"County":1.0,"City":1.0,"District":1.0,"PostalCode":1.0},"Location":{"LocationId":"NT_OLK8j79VCSDnNhW0c1WKzC_l_774014917_R","LocationType":"point","DisplayPosition":{"Latitude":51.52818,"Longitude":-3.69191},"MapView":{"TopLeft":{"Latitude":51.52818,"Longitude":-3.69192},"BottomRight":{"Latitude":51.52801,"Longitude":-3.69191}},"Address":{"Label":"Bridgend, CF33 6, United Kingdom","Country":"GBR","State":"Wales","County":"Mid Glamorgan","City":"Bridgend","District":"Pyle","PostalCode":"CF33 6","AdditionalData":[{"value":"United Kingdom","key":"CountryName"},{"value":"Wales","key":"StateName"},{"value":"Mid Glamorgan","key":"CountyName"}]},"MapReference":{"ReferenceId":"774014917","Spot":1.0,"SideOfStreet":"right","StateId":"20287683","CountyId":"20342290","CityId":"20342317","DistrictId":"20342361"}}}]}]}}