{"Response":{"MetaInfo":{"Timestamp":"2020-03-28T10:34:25.943+0000","NextPageInformation":"2"},"View":[{"_type":"SearchResultsViewType","ViewId":0,"Result":[{"Relevance":1.0,"Distance":0.0,"Direction":0.0,"MatchLevel":"district","MatchQuality":{"Country":1.0,"State":1.0,"County":1.0,"City":1.0,"District":1.0,"PostalCode":1.0},"Location":{"LocationId":"NT_hwjz7FiKdXvkAEuqgGUrSC","LocationType":"point","DisplayPosition":{"Latitude":51.5253205,"Longitude":-0.3420363},"MapView":{"TopLeft":{"Latitude":51.52807,"Longitude":-0.35461},"BottomRight":{"Latitude":51.49266,"Longitude":-0.31992}},"Address":{"Label":"W7, London, England, United Kingdom","Country":"GBR","State":"England","County":"London","City":"London","District":"W7","PostalCode":"W7 3","AdditionalData":[{"value":"United Kingdom","key":"CountryName"},{"value":"England","key":"StateName"},{"value":"London","key":"CountyName"}]},"MapReference":{"ReferenceId":"835517024","SideOfStreet":"neither","StateId":"20248595","CountyId":"20337453","CityId":"20337454","DistrictId":"20337576"}}},{"Relevance":1.0,"Distance":13.6,"MatchLevel":"houseNumber","MatchQuality":{"Country":1.0,"State":1.0,"County":1.0,"City":1.0,"District":1.0,"Street":[1.0],"HouseNumber":1.0,"PostalCode":1.0},"MatchType":"interpolated","Location":{"LocationId":"NT_2KvoqN0ZGNzGBUraFVGnQA_0MDO","LocationType":"point","DisplayPosition":{"Latitude":51.52538,"Longitude":-0.34155},"MapView":{"TopLeft":{"Latitude":51.5265042,"Longitude":-0.3433568},"BottomRight":{"Latitude":51.5242558,"Longitude":-0.3397432}},"Address":{"Label":"438 Greenford Avenue, London, W7 3DD, United Kingdom","Country":"GBR","State":"England","County":"London","City":"London","District":"Hanwell","Street":"Greenford Avenue","HouseNumber":"438","PostalCode":"W7 3DD","AdditionalData":[{"value":"United Kingdom","key":"CountryName"},{"value":"England","key":"StateName"},{"value":"London","key":"CountyName"}]},"MapReference":{"ReferenceId":"25353613","Spot":0.06,"SideOfStreet":"left","StateId":"20248595","CountyId":"20337453","CityId":"20337454","AddressId":"747651889","RoadLinkId":"82464831"}}},{"Relevance":1.0,"Distance":16.3,"MatchLevel":"houseNumber","MatchQuality":{"Country":1.0,"State":1.0,"County":1.0,"City":1.0,"District":1.0,"Street":[1.0],"HouseNumber":1.0,"PostalCode":1.0},"MatchType":"interpolated","Location":{"LocationId":"NT_2KvoqN0ZGNzGBUraFVGnQA_0MjN","LocationType":"point","DisplayPosition":{"Latitude":51.52533,"Longitude":-0.34153},"MapView":{"TopLeft":{"Latitude":51.5264542,"Longitude":-0.3433368},"BottomRight":{"Latitude":51.5242058,"Longitude":-0.3397232}},"Address":{"Label":"436 Greenford Avenue, London, W7 3DD, United Kingdom","Country":"GBR","State":"England","County":"London","City":"London","District":"Hanwell","Street":"Greenford Avenue","HouseNumber":"436","PostalCode":"W7 3DD","AdditionalData":[{"value":"United Kingdom","key":"CountryName"},{"value":"England","key":"StateName"},{"value":"London","key":"CountyName"}]},"MapReference":{"ReferenceId":"25353635","Spot":0.92,"SideOfStreet":"left","StateId":"20248595","CountyId":"20337453","CityId":"20337454","AddressId":"747792549","RoadLinkId":"82563323"}}},{"Relevance":1.0,"Distance":27.3,"MatchLevel":"houseNumber","MatchQuality":{"Country":1.0,"State":1.0,"County":1.0,"City":1.0,"District":1.0,"Street":[1.0],"HouseNumber":1.0,"PostalCode":1.0},"MatchType":"interpolated","Location":{"LocationId":"NT_zOeqW8U1nRU7tEyqQl2u4D_xA","LocationType":"point","DisplayPosition":{"Latitude":51.52559,"Longitude":-0.3424},"MapView":{"TopLeft":{"Latitude":51.5267142,"Longitude":-0.3442068},"BottomRight":{"Latitude":51.5244658,"Longitude":-0.3405932}},"Address":{"Label":"1 Brookbank Avenue, London, W7 3, United Kingdom","Country":"GBR","State":"England","County":"London","City":"London","District":"Hanwell","Street":"Brookbank Avenue","HouseNumber":"1","PostalCode":"W7 3","AdditionalData":[{"value":"United Kingdom","key":"CountryName"},{"value":"England","key":"StateName"},{"value":"London","key":"CountyName"}]},"MapReference":{"ReferenceId":"25484074","Spot":0.66,"SideOfStreet":"right","StateId":"20248595","CountyId":"20337453","CityId":"20337454","AddressId":"748412230","RoadLinkId":"82264145"}}},{"Relevance":1.0,"Distance":32.4,"MatchLevel":"postalCode","MatchQuality":{"PostalCode":1.0},"MatchType":"interpolated","Location":{"LocationId":"NT_2KvoqN0ZGNzGBUraFVGnQA_l_25353560_L_0QDO","LocationType":"point","DisplayPosition":{"Latitude":51.52561,"Longitude":-0.34198},"MapView":{"TopLeft":{"Latitude":51.5346032,"Longitude":-0.3564347},"BottomRight":{"Latitude":51.5166168,"Longitude":-0.3275253}},"Address":{"Label":"W7 3DD, London, England, United Kingdom","Country":"GBR","State":"England","County":"London","City":"London","PostalCode":"W7 3DD","AdditionalData":[{"value":"United Kingdom","key":"CountryName"},{"value":"England","key":"StateName"},{"value":"London","key":"CountyName"}]},"MapReference":{"ReferenceId":"25353560","Spot":0.28,"SideOfStreet":"neither","StateId":"20248595","CountyId":"20337453","CityId":"20337454"}}},{"Relevance":1.0,"Distance":34.6,"MatchLevel":"street","MatchQuality":{"Country":1.0,"State":1.0,"County":1.0,"City":1.0,"District":1.0,"Street":[1.0],"PostalCode":1.0},"Location":{"LocationId":"NT_uFx3xB0qD8fUVIwbfFSt3A_l_586306327_L","LocationType":"point","DisplayPosition":{"Latitude":51.52536,"Longitude":-0.34154},"MapView":{"TopLeft":{"Latitude":51.52539,"Longitude":-0.34154},"BottomRight":{"Latitude":51.52536,"Longitude":-0.34138}},"Address":{"Label":"Old Twelve Close, London, W7 1, United Kingdom","Country":"GBR","State":"England","County":"London","City":"London","District":"Hanwell","Street":"Old Twelve Close","PostalCode":"W7 1","AdditionalData":[{"value":"United Kingdom","key":"CountryName"},{"value":"England","key":"StateName"},{"value":"London","key":"CountyName"}]},"MapReference":{"ReferenceId":"586306327","Spot":0.0,"SideOfStreet":"left","StateId":"20248595","CountyId":"20337453","CityId":"20337454"}}},{"Relevance":1.0,"Distance":37.4,"MatchLevel":"houseNumber","MatchQuality":{"Country":1.0,"State":1.0,"County":1.0,"City":1.0,"District":1.0,"Street":[1.0],"HouseNumber":1.0,"PostalCode":1.0},"MatchType":"interpolated","Location":{"LocationId":"NT_4M-Um9JRNbuMAmpArkll.B_yA","LocationType":"point","DisplayPosition":{"Latitude":51.52485,"Longitude":-0.34208},"MapView":{"TopLeft":{"Latitude":51.5259742,"Longitude":-0.3438868},"BottomRight":{"Latitude":51.5237258,"Longitude":-0.3402732}},"Address":{"Label":"2 Elmbank Way, London, W7 3DG, United Kingdom","Country":"GBR","State":"England","County":"London","City":"London","District":"Hanwell","Street":"Elmbank Way","HouseNumber":"2","PostalCode":"W7 3DG","AdditionalData":[{"value":"United Kingdom","key":"CountryName"},{"value":"England","key":"StateName"},{"value":"London","key":"CountyName"}]},"MapReference":{"ReferenceId":"25484076","Spot":0.7,"SideOfStreet":"left","StateId":"20248595","CountyId":"20337453","CityId":"20337454","AddressId":"748486430","RoadLinkId":"82666410"}}},{"Relevance":1.0,"Distance":49.2,"MatchLevel":"houseNumber","MatchQuality":{"Country":1.0,"State":1.0,"County":1.0,"City":1.0,"District":1.0,"Street":[1.0],"HouseNumber":1.0,"PostalCode":1.0},"MatchType":"interpolated","Location":{"LocationId":"NT_2KvoqN0ZGNzGBUraFVGnQA_l_25353560_L_0QDO","LocationType":"point","DisplayPosition":{"Latitude":51.52584,"Longitude":-0.34176},"MapView":{"TopLeft":{"Latitude":51.5269642,"Longitude":-0.3435669},"BottomRight":{"Latitude":51.5247159,"Longitude":-0.3399532}},"Address":{"Label":"448 Greenford Avenue, London, W7 3DD, United Kingdom","Country":"GBR","State":"England","County":"London","City":"London","District":"Hanwell","Street":"Greenford Avenue","HouseNumber":"448","PostalCode":"W7 3DD","AdditionalData":[{"value":"United Kingdom","key":"CountryName"},{"value":"England","key":"StateName"},{"value":"London","key":"CountyName"}]},"MapReference":{"ReferenceId":"25353560","Spot":0.28,"SideOfStreet":"left","StateId":"20248595","CountyId":"20337453","CityId":"20337454"}}},{"Relevance":1.0,"Distance":62.7,"MatchLevel":"houseNumber","MatchQuality":{"Country":1.0,"State":1.0,"County":1.0,"City":1.0,"District":1.0,"Street":[1.0],"HouseNumber":1.0,"PostalCode":1.0},"MatchType":"interpolated","Location":{"LocationId":"NT_cFNMtn6vwNJVinnSRrXW-C_0IjN","LocationType":"point","DisplayPosition":{"Latitude":51.52489,"Longitude":-0.34132},"MapView":{"TopLeft":{"Latitude":51.5260142,"Longitude":-0.3431268},"BottomRight":{"Latitude":51.5237658,"Longitude":-0.3395132}},"Address":{"Label":"426 Greenford Avenue, London, W7 1, United Kingdom","Country":"GBR","State":"England","County":"London","City":"London","District":"Hanwell","Street":"Greenford Avenue","HouseNumber":"426","PostalCode":"W7 1","AdditionalData":[{"value":"United Kingdom","key":"CountryName"},{"value":"England","key":"StateName"},{"value":"London","key":"CountyName"}]},"MapReference":{"ReferenceId":"25353647","Spot":0.46,"SideOfStreet":"left","StateId":"20248595","CountyId":"20337453","CityId":"20337454","AddressId":"748390845","RoadLinkId":"82666039"}}},{"Relevance":1.0,"Distance":67.2,"MatchLevel":"houseNumber","MatchQuality":{"Country":1.0,"State":1.0,"County":1.0,"City":1.0,"District":1.0,"Street":[1.0],"HouseNumber":1.0,"PostalCode":1.0},"MatchType":"interpolated","Location":{"LocationId":"NT_uFx3xB0qD8fUVIwbfFSt3A_xA","LocationType":"point","DisplayPosition":{"Latitude":51.52548,"Longitude":-0.3411},"MapView":{"TopLeft":{"Latitude":51.5266042,"Longitude":-0.3429068},"BottomRight":{"Latitude":51.5243558,"Longitude":-0.3392932}},"Address":{"Label":"1 Old Twelve Close, London, W7 1, United Kingdom","Country":"GBR","State":"England","County":"London","City":"London","District":"Hanwell","Street":"Old Twelve Close","HouseNumber":"1","PostalCode":"W7 1","AdditionalData":[{"value":"United Kingdom","key":"CountryName"},{"value":"England","key":"StateName"},{"value":"London","key":"CountyName"}]},"MapReference":{"ReferenceId":"586306328","Spot":0.93,"SideOfStreet":"left","StateId":"20248595","CountyId":"20337453","CityId":"20337454","AddressId":"769032194","RoadLinkId":"82650142"}}}]}]}}