{"Response":{"MetaInfo":{"Timestamp":"2020-03-28T10:31:48.091+0000","NextPageInformation":"2"},"View":[{"_type":"SearchResultsViewType","ViewId":0,"Result":[{"Relevance":1.0,"Distance":0.0,"Direction":0.0,"MatchLevel":"district","MatchQuality":{"Country":1.0,"State":1.0,"County":1.0,"City":1.0,"District":1.0,"PostalCode":1.0},"Location":{"LocationId":"NT_KIwpr7pFENT5yawkjRiM3C","LocationType":"point","DisplayPosition":{"Latitude":51.5625286,"Longitude":-0.1261447},"MapView":{"TopLeft":{"Latitude":51.57419,"Longitude":-0.14671},"BottomRight":{"Latitude":51.55274,"Longitude":-0.11664}},"Address":{"Label":"N19, London, England, United Kingdom","Country":"GBR","State":"England","County":"London","City":"London","District":"N19","PostalCode":"N19 3","AdditionalData":[{"value":"United Kingdom","key":"CountryName"},{"value":"England","key":"StateName"},{"value":"London","key":"CountyName"}]},"MapReference":{"ReferenceId":"25347334","SideOfStreet":"neither","StateId":"20248595","CountyId":"20337453","CityId":"20337454","DistrictId":"20337502"}}},{"Relevance":1.0,"Distance":2.6,"MatchLevel":"houseNumber","MatchQuality":{"Country":1.0,"State":1.0,"County":1.0,"City":1.0,"District":1.0,"Street":[1.0],"HouseNumber":1.0,"PostalCode":1.0},"MatchType":"interpolated","Location":{"LocationId":"NT_p4YVwH-kZznRPasWaOO8VA_2UjM","LocationType":"point","DisplayPosition":{"Latitude":51.56241,"Longitude":-0.12626},"MapView":{"TopLeft":{"Latitude":51.5635342,"Longitude":-0.1280683},"BottomRight":{"Latitude":51.5612858,"Longitude":-0.1244517}},"Address":{"Label":"652 Holloway Road, London, N19 3NU, United Kingdom","Country":"GBR","State":"England","County":"London","City":"London","District":"Holloway","Street":"Holloway Road","HouseNumber":"652","PostalCode":"N19 3NU","AdditionalData":[{"value":"United Kingdom","key":"CountryName"},{"value":"England","key":"StateName"},{"value":"London","key":"CountyName"}]},"MapReference":{"ReferenceId":"25347655","Spot":0.32,"SideOfStreet":"right","StateId":"20248595","CountyId":"20337453","CityId":"20337454","AddressId":"748294056","RoadLinkId":"82963058"}}},{"Relevance":1.0,"Distance":9.6,"MatchLevel":"postalCode","MatchQuality":{"PostalCode":1.0},"MatchType":"interpolated","Location":{"LocationId":"NT_p4YVwH-kZznRPasWaOO8VA_2UjM","LocationType":"point","DisplayPosition":{"Latitude":51.56246,"Longitude":-0.12623},"MapView":{"TopLeft":{"Latitude":51.5714532,"Longitude":-0.1406964},"BottomRight":{"Latitude":51.5534668,"Longitude":-0.1117636}},"Address":{"Label":"N19 3NU, London, England, United Kingdom","Country":"GBR","State":"England","County":"London","City":"London","PostalCode":"N19 3NU","AdditionalData":[{"value":"United Kingdom","key":"CountryName"},{"value":"England","key":"StateName"},{"value":"London","key":"CountyName"}]},"MapReference":{"ReferenceId":"25347655","Spot":0.32,"SideOfStreet":"neither","StateId":"20248595","CountyId":"20337453","CityId":"20337454"}}},{"Relevance":1.0,"Distance":31.1,"MatchLevel":"houseNumber","MatchQuality":{"Country":1.0,"State":1.0,"County":1.0,"City":1.0,"District":1.0,"Street":[1.0],"HouseNumber":1.0,"PostalCode":1.0},"MatchType":"interpolated","Location":{"LocationId":"NT_p4YVwH-kZznRPasWaOO8VA_2QDM","LocationType":"point","DisplayPosition":{"Latitude":51.56229,"Longitude":-0.12591},"MapView":{"TopLeft":{"Latitude":51.5634142,"Longitude":-0.1277183},"BottomRight":{"Latitude":51.5611658,"Longitude":-0.1241017}},"Address":{"Label":"640 Holloway Road, London, N19 3, United Kingdom","Country":"GBR","State":"England","County":"London","City":"London","District":"Holloway","Street":"Holloway Road","HouseNumber":"640","PostalCode":"N19 3","AdditionalData":[{"value":"United Kingdom","key":"CountryName"},{"value":"England","key":"StateName"},{"value":"London","key":"CountyName"}]},"MapReference":{"ReferenceId":"25347663","Spot":0.78,"SideOfStreet":"right","StateId":"20248595","CountyId":"20337453","CityId":"20337454","AddressId":"748473504","RoadLinkId":"82570894"}}},{"Relevance":1.0,"Distance":39.8,"MatchLevel":"houseNumber","MatchQuality":{"Country":1.0,"State":1.0,"County":1.0,"City":1.0,"District":1.0,"Street":[1.0],"HouseNumber":1.0,"PostalCode":1.0},"MatchType":"interpolated","Location":{"LocationId":"NT_4I2yPAWNCv2svIG7OM.N.B_xEG","LocationType":"point","DisplayPosition":{"Latitude":51.56293,"Longitude":-0.12661},"MapView":{"TopLeft":{"Latitude":51.5640542,"Longitude":-0.1284183},"BottomRight":{"Latitude":51.5618058,"Longitude":-0.1248017}},"Address":{"Label":"1a Fortnam Road, London, N19 3NT, United Kingdom","Country":"GBR","State":"England","County":"London","City":"London","District":"Holloway","Street":"Fortnam Road","HouseNumber":"1a","PostalCode":"N19 3NT","AdditionalData":[{"value":"United Kingdom","key":"CountryName"},{"value":"England","key":"StateName"},{"value":"London","key":"CountyName"}]},"MapReference":{"ReferenceId":"1249297650","Spot":0.13,"SideOfStreet":"right","StateId":"20248595","CountyId":"20337453","CityId":"20337454","AddressId":"763616546","RoadLinkId":"571981614"}}},{"Relevance":1.0,"Distance":50.3,"MatchLevel":"houseNumber","MatchQuality":{"Country":1.0,"State":1.0,"County":1.0,"City":1.0,"District":1.0,"Street":[1.0],"HouseNumber":1.0,"PostalCode":1.0},"MatchType":"interpolated","Location":{"LocationId":"NT_.VUan7WmVcljEA7DupZXpA_2UD","LocationType":"point","DisplayPosition":{"Latitude":51.56289,"Longitude":-0.12531},"MapView":{"TopLeft":{"Latitude":51.5640142,"Longitude":-0.1271183},"BottomRight":{"Latitude":51.5617658,"Longitude":-0.1235017}},"Address":{"Label":"65 Kiver Road, London, N19 4PE, United Kingdom","Country":"GBR","State":"England","County":"London","City":"London","District":"Holloway","Street":"Kiver Road","HouseNumber":"65","PostalCode":"N19 4PE","AdditionalData":[{"value":"United Kingdom","key":"CountryName"},{"value":"England","key":"StateName"},{"value":"London","key":"CountyName"}]},"MapReference":{"ReferenceId":"25347546","Spot":1.0,"SideOfStreet":"left","StateId":"20248595","CountyId":"20337453","CityId":"20337454","AddressId":"748025258","RoadLinkId":"82637578"}}},{"Relevance":1.0,"Distance":51.7,"MatchLevel":"postalCode","MatchQuality":{"PostalCode":1.0},"MatchType":"interpolated","Location":{"LocationId":"NT_1utX4Avyea6uaFD9Ynj.tC_xEG","LocationType":"point","DisplayPosition":{"Latitude":51.56207,"Longitude":-0.12602},"MapView":{"TopLeft":{"Latitude":51.5710632,"Longitude":-0.1404863},"BottomRight":{"Latitude":51.5530768,"Longitude":-0.1115537}},"Address":{"Label":"N19 4BT, London, England, United Kingdom","Country":"GBR","State":"England","County":"London","City":"London","PostalCode":"N19 4BT","AdditionalData":[{"value":"United Kingdom","key":"CountryName"},{"value":"England","key":"StateName"},{"value":"London","key":"CountyName"}]},"MapReference":{"ReferenceId":"77749888","Spot":0.18,"SideOfStreet":"neither","StateId":"20248595","CountyId":"20337453","CityId":"20337454"}}},{"Relevance":1.0,"Distance":51.8,"MatchLevel":"houseNumber","MatchQuality":{"Country":1.0,"State":1.0,"County":1.0,"City":1.0,"District":1.0,"Street":[1.0],"HouseNumber":1.0,"PostalCode":1.0},"MatchType":"interpolated","Location":{"LocationId":"NT_eJ2I3Cb2MnSEQQ4xfLazxA_2MDO","LocationType":"point","DisplayPosition":{"Latitude":51.56219,"Longitude":-0.12563},"MapView":{"TopLeft":{"Latitude":51.5633142,"Longitude":-0.1274383},"BottomRight":{"Latitude":51.5610658,"Longitude":-0.1238217}},"Address":{"Label":"638 Holloway Road, London, N19 4, United Kingdom","Country":"GBR","State":"England","County":"London","City":"London","District":"Holloway","Street":"Holloway Road","HouseNumber":"638","PostalCode":"N19 4","AdditionalData":[{"value":"United Kingdom","key":"CountryName"},{"value":"England","key":"StateName"},{"value":"London","key":"CountyName"}]},"MapReference":{"ReferenceId":"835648419","Spot":0.66,"SideOfStreet":"right","StateId":"20248595","CountyId":"20337453","CityId":"20337454","AddressId":"747587886","RoadLinkId":"218902929"}}},{"Relevance":1.0,"Distance":53.5,"MatchLevel":"street","MatchQuality":{"Country":1.0,"State":1.0,"County":1.0,"City":1.0,"District":1.0,"Street":[1.0],"PostalCode":1.0},"Location":{"LocationId":"NT_4I2yPAWNCv2svIG7OM.N.B_l_1249297649_R","LocationType":"point","DisplayPosition":{"Latitude":51.56285,"Longitude":-0.12672},"MapView":{"TopLeft":{"Latitude":51.56285,"Longitude":-0.12689},"BottomRight":{"Latitude":51.56271,"Longitude":-0.12672}},"Address":{"Label":"Fortnam Road, London, N19 3, United Kingdom","Country":"GBR","State":"England","County":"London","City":"London","District":"Holloway","Street":"Fortnam Road","PostalCode":"N19 3","AdditionalData":[{"value":"United Kingdom","key":"CountryName"},{"value":"England","key":"StateName"},{"value":"London","key":"CountyName"}]},"MapReference":{"ReferenceId":"1249297649","Spot":1.0,"SideOfStreet":"right","StateId":"20248595","CountyId":"20337453","CityId":"20337454"}}},{"Relevance":1.0,"Distance":55.3,"MatchLevel":"landmark","MatchQuality":{"Country":1.0,"State":1.0,"County":1.0,"City":1.0,"District":1.0,"Street":[1.0],"PostalCode":1.0,"Name":1.0},"Location":{"LocationId":"NT_an.y0uJkQbdtF7lmaLoqMD_p_p6a8JeNBuyLUK4LiA.I6xD","LocationType":"park","Name":"Whittington Park","DisplayPosition":{"Latitude":51.56305,"Longitude":-0.12748},"MapView":{"TopLeft":{"Latitude":51.5633,"Longitude":-0.13074},"BottomRight":{"Latitude":51.56036,"Longitude":-0.12689}},"Address":{"Label":"Holloway Road, London, N19 3, United Kingdom","Country":"GBR","State":"England","County":"London","City":"London","District":"Holloway","Street":"Holloway Road","PostalCode":"N19 3","AdditionalData":[{"value":"United Kingdom","key":"CountryName"},{"value":"England","key":"StateName"},{"value":"London","key":"CountyName"}]},"MapReference":{"StateId":"20248595","CountyId":"20337453","CityId":"20337454","PlaceId":"18026267"}}}]}]}}