{"Response":{"MetaInfo":{"Timestamp":"2020-03-28T09:51:14.805+0000","NextPageInformation":"2"},"View":[{"_type":"SearchResultsViewType","ViewId":0,"Result":[{"Relevance":1.0,"Distance":0.0,"Direction":0.0,"MatchLevel":"district","MatchQuality":{"Country":1.0,"State":1.0,"County":1.0,"City":1.0,"District":1.0,"PostalCode":1.0},"Location":{"LocationId":"NT_c5qBSzVddUANGcGxuCTt7D","LocationType":"point","DisplayPosition":{"Latitude":51.559616,"Longitude":0.0134016},"MapView":{"TopLeft":{"Latitude":51.5862,"Longitude":-0.00692},"BottomRight":{"Latitude":51.55257,"Longitude":0.05045}},"Address":{"Label":"Wanstead, London, England, United Kingdom","Country":"GBR","State":"England","County":"London","City":"London","District":"Wanstead","PostalCode":"E11 2","AdditionalData":[{"value":"United Kingdom","key":"CountryName"},{"value":"England","key":"StateName"},{"value":"London","key":"CountyName"}]},"MapReference":{"ReferenceId":"1165356872","SideOfStreet":"neither","StateId":"20248595","CountyId":"20337453","CityId":"20337454"}}},{"Relevance":1.0,"Distance":8.2,"MatchLevel":"street","MatchQuality":{"Country":1.0,"State":1.0,"County":1.0,"City":1.0,"District":1.0,"Street":[1.0],"PostalCode":1.0},"Location":{"LocationId":"NT_0T51xSW3PYpcu6v3QQ23.A_l_1075559091_L","LocationType":"point","DisplayPosition":{"Latitude":51.559616,"Longitude":0.01352},"MapView":{"TopLeft":{"Latitude":51.55972,"Longitude":0.01352},"BottomRight":{"Latitude":51.55939,"Longitude":0.01352}},"Address":{"Label":"Montague Road, London, E11 3, United Kingdom","Country":"GBR","State":"England","County":"London","City":"London","District":"Wanstead","Street":"Montague Road","PostalCode":"E11 3","AdditionalData":[{"value":"United Kingdom","key":"CountryName"},{"value":"England","key":"StateName"},{"value":"London","key":"CountyName"}]},"MapReference":{"ReferenceId":"1075559091","Spot":0.68,"SideOfStreet":"left","StateId":"20248595","CountyId":"20337453","CityId":"20337454"}}},{"Relevance":1.0,"Distance":14.2,"MatchLevel":"street","MatchQuality":{"Country":1.0,"State":1.0,"County":1.0,"City":1.0,"District":1.0,"Street":[1.0],"PostalCode":1.0},"Location":{"LocationId":"NT_0T51xSW3PYpcu6v3QQ23.A_l_1075559092_L","LocationType":"point","DisplayPosition":{"Latitude":51.55972,"Longitude":0.01352},"MapView":{"TopLeft":{"Latitude":51.56014,"Longitude":0.01352},"BottomRight":{"Latitude":51.55972,"Longitude":0.01354}},"Address":{"Label":"Montague Road, London, E11 3, United Kingdom","Country":"GBR","State":"England","County":"London","City":"London","District":"Wanstead","Street":"Montague Road","PostalCode":"E11 3","AdditionalData":[{"value":"United Kingdom","key":"CountryName"},{"value":"England","key":"StateName"},{"value":"London","key":"CountyName"}]},"MapReference":{"ReferenceId":"1075559092","Spot":0.0,"SideOfStreet":"left","StateId":"20248595","CountyId":"20337453","CityId":"20337454"}}},{"Relevance":1.0,"Distance":14.9,"MatchLevel":"postalCode","MatchQuality":{"PostalCode":1.0},"Location":{"LocationId":"NT_0T51xSW3PYpcu6v3QQ23.A_l_1075559091_L","LocationType":"point","DisplayPosition":{"Latitude":51.5597,"Longitude":0.01357},"MapView":{"TopLeft":{"Latitude":51.5686932,"Longitude":-8.956E-4},"BottomRight":{"Latitude":51.5507068,"Longitude":0.0280356}},"Address":{"Label":"E11 3EU, London, England, United Kingdom","Country":"GBR","State":"England","County":"London","City":"London","PostalCode":"E11 3EU","AdditionalData":[{"value":"United Kingdom","key":"CountryName"},{"value":"England","key":"StateName"},{"value":"London","key":"CountyName"}]},"MapReference":{"ReferenceId":"1075559091","Spot":0.68,"SideOfStreet":"neither","StateId":"20248595","CountyId":"20337453","CityId":"20337454"}}},{"Relevance":1.0,"Distance":17.5,"MatchLevel":"houseNumber","MatchQuality":{"Country":1.0,"State":1.0,"County":1.0,"City":1.0,"District":1.0,"Street":[1.0],"HouseNumber":1.0,"PostalCode":1.0},"MatchType":"interpolated","Location":{"LocationId":"NT_GiX4T8UfUT5u.j2dBkKIRB_xAjM","LocationType":"point","DisplayPosition":{"Latitude":51.5594,"Longitude":0.01314},"MapView":{"TopLeft":{"Latitude":51.5605242,"Longitude":0.0113318},"BottomRight":{"Latitude":51.5582758,"Longitude":0.0149482}},"Address":{"Label":"102 Harrow Road, London, E11 3, United Kingdom","Country":"GBR","State":"England","County":"London","City":"London","District":"Wanstead","Street":"Harrow Road","HouseNumber":"102","PostalCode":"E11 3","AdditionalData":[{"value":"United Kingdom","key":"CountryName"},{"value":"England","key":"StateName"},{"value":"London","key":"CountyName"}]},"MapReference":{"ReferenceId":"25395067","Spot":0.64,"SideOfStreet":"right","StateId":"20248595","CountyId":"20337453","CityId":"20337454","AddressId":"748085901","RoadLinkId":"82743036"}}},{"Relevance":1.0,"Distance":28.3,"MatchLevel":"houseNumber","MatchQuality":{"Country":1.0,"State":1.0,"County":1.0,"City":1.0,"District":1.0,"Street":[1.0],"HouseNumber":1.0,"PostalCode":1.0},"MatchType":"interpolated","Location":{"LocationId":"NT_GiX4T8UfUT5u.j2dBkKIRB_xczN","LocationType":"point","DisplayPosition":{"Latitude":51.55939,"Longitude":0.01359},"MapView":{"TopLeft":{"Latitude":51.5605142,"Longitude":0.0117818},"BottomRight":{"Latitude":51.5582658,"Longitude":0.0153982}},"Address":{"Label":"177 Harrow Road, London, E11 3PX, United Kingdom","Country":"GBR","State":"England","County":"London","City":"London","District":"Wanstead","Street":"Harrow Road","HouseNumber":"177","PostalCode":"E11 3PX","AdditionalData":[{"value":"United Kingdom","key":"CountryName"},{"value":"England","key":"StateName"},{"value":"London","key":"CountyName"}]},"MapReference":{"ReferenceId":"1075569598","Spot":0.17,"SideOfStreet":"right","StateId":"20248595","CountyId":"20337453","CityId":"20337454","AddressId":"748328711","RoadLinkId":"395743211"}}},{"Relevance":1.0,"Distance":36.0,"MatchLevel":"houseNumber","MatchQuality":{"Country":1.0,"State":1.0,"County":1.0,"City":1.0,"District":1.0,"Street":[1.0],"HouseNumber":1.0,"PostalCode":1.0},"MatchType":"interpolated","Location":{"LocationId":"NT_GiX4T8UfUT5u.j2dBkKIRB_xADM","LocationType":"point","DisplayPosition":{"Latitude":51.5594,"Longitude":0.0129},"MapView":{"TopLeft":{"Latitude":51.5605242,"Longitude":0.0110918},"BottomRight":{"Latitude":51.5582758,"Longitude":0.0147082}},"Address":{"Label":"100 Harrow Road, London, E11 3QE, United Kingdom","Country":"GBR","State":"England","County":"London","City":"London","District":"Wanstead","Street":"Harrow Road","HouseNumber":"100","PostalCode":"E11 3QE","AdditionalData":[{"value":"United Kingdom","key":"CountryName"},{"value":"England","key":"StateName"},{"value":"London","key":"CountyName"}]},"MapReference":{"ReferenceId":"25395074","Spot":0.99,"SideOfStreet":"left","StateId":"20248595","CountyId":"20337453","CityId":"20337454","AddressId":"747730590","RoadLinkId":"82387168"}}},{"Relevance":1.0,"Distance":43.0,"MatchLevel":"postalCode","MatchQuality":{"PostalCode":1.0},"MatchType":"interpolated","Location":{"LocationId":"NT_GiX4T8UfUT5u.j2dBkKIRB_xADM","LocationType":"point","DisplayPosition":{"Latitude":51.55945,"Longitude":0.01284},"MapView":{"TopLeft":{"Latitude":51.5684432,"Longitude":-0.0016255},"BottomRight":{"Latitude":51.5504568,"Longitude":0.0273055}},"Address":{"Label":"E11 3QE, London, England, United Kingdom","Country":"GBR","State":"England","County":"London","City":"London","PostalCode":"E11 3QE","AdditionalData":[{"value":"United Kingdom","key":"CountryName"},{"value":"England","key":"StateName"},{"value":"London","key":"CountyName"}]},"MapReference":{"ReferenceId":"25395074","Spot":0.99,"SideOfStreet":"neither","StateId":"20248595","CountyId":"20337453","CityId":"20337454"}}},{"Relevance":1.0,"Distance":44.0,"MatchLevel":"houseNumber","MatchQuality":{"Country":1.0,"State":1.0,"County":1.0,"City":1.0,"District":1.0,"Street":[1.0],"HouseNumber":1.0,"PostalCode":1.0},"MatchType":"interpolated","Location":{"LocationId":"NT_LNJNVyn.kC0ksZgj8Ev8-B_zgD","LocationType":"point","DisplayPosition":{"Latitude":51.56013,"Longitude":0.01367},"MapView":{"TopLeft":{"Latitude":51.5612542,"Longitude":0.0118618},"BottomRight":{"Latitude":51.5590058,"Longitude":0.0154782}},"Address":{"Label":"38 Acacia Road, London, E11 3QQ, United Kingdom","Country":"GBR","State":"England","County":"London","City":"London","District":"Wanstead","Street":"Acacia Road","HouseNumber":"38","PostalCode":"E11 3QQ","AdditionalData":[{"value":"United Kingdom","key":"CountryName"},{"value":"England","key":"StateName"},{"value":"London","key":"CountyName"}]},"MapReference":{"ReferenceId":"25474482","Spot":0.89,"SideOfStreet":"left","StateId":"20248595","CountyId":"20337453","CityId":"20337454","AddressId":"748258018","RoadLinkId":"82753457"}}},{"Relevance":1.0,"Distance":44.9,"MatchLevel":"street","MatchQuality":{"Country":1.0,"State":1.0,"County":1.0,"City":1.0,"District":1.0,"Street":[1.0],"PostalCode":1.0},"Location":{"LocationId":"NT_W6CY13e9bgGO7RHAm4tMkB_l_1075569599_L","LocationType":"point","DisplayPosition":{"Latitude":51.55939,"Longitude":0.01394},"MapView":{"TopLeft":{"Latitude":51.5594,"Longitude":0.01394},"BottomRight":{"Latitude":51.55939,"Longitude":0.01422}},"Address":{"Label":"Harrow Road, London, E11 3, United Kingdom","Country":"GBR","State":"England","County":"London","City":"London","District":"Wanstead","Street":"Harrow Road","PostalCode":"E11 3","AdditionalData":[{"value":"United Kingdom","key":"CountryName"},{"value":"England","key":"StateName"},{"value":"London","key":"CountyName"}]},"MapReference":{"ReferenceId":"1075569599","Spot":0.0,"SideOfStreet":"left","StateId":"20248595","CountyId":"20337453","CityId":"20337454"}}}]}]}}