{"Response":{"MetaInfo":{"Timestamp":"2020-03-28T09:51:28.639+0000","NextPageInformation":"2"},"View":[{"_type":"SearchResultsViewType","ViewId":0,"Result":[{"Relevance":1.0,"Distance":0.0,"Direction":0.0,"MatchLevel":"district","MatchQuality":{"Country":1.0,"State":1.0,"County":1.0,"City":1.0,"District":1.0,"PostalCode":1.0},"Location":{"LocationId":"NT_LokqeqMpk86kcwvYw.ck-A","LocationType":"point","DisplayPosition":{"Latitude":51.5474872,"Longitude":-0.0375266},"MapView":{"TopLeft":{"Latitude":51.56126,"Longitude":-0.05719},"BottomRight":{"Latitude":51.53163,"Longitude":-0.02045}},"Address":{"Label":"E9, London, England, United Kingdom","Country":"GBR","State":"England","County":"London","City":"London","District":"E9","PostalCode":"E9 7","AdditionalData":[{"value":"United Kingdom","key":"CountryName"},{"value":"England","key":"StateName"},{"value":"London","key":"CountyName"}]},"MapReference":{"ReferenceId":"25360362","SideOfStreet":"neither","StateId":"20248595","CountyId":"20337453","CityId":"20337454","DistrictId":"20337478"}}},{"Relevance":1.0,"Distance":11.5,"MatchLevel":"houseNumber","MatchQuality":{"Country":1.0,"State":1.0,"County":1.0,"City":1.0,"District":1.0,"Street":[1.0],"HouseNumber":1.0,"PostalCode":1.0},"MatchType":"interpolated","Location":{"LocationId":"NT_nhe8rRfrHyurUPzme9eIfC_xAD","LocationType":"point","DisplayPosition":{"Latitude":51.54743,"Longitude":-0.03723},"MapView":{"TopLeft":{"Latitude":51.5485542,"Longitude":-0.0390377},"BottomRight":{"Latitude":51.5463058,"Longitude":-0.0354223}},"Address":{"Label":"10 Kenworthy Road, London, E9 5, United Kingdom","Country":"GBR","State":"England","County":"London","City":"London","District":"Hackney","Street":"Kenworthy Road","HouseNumber":"10","PostalCode":"E9 5","AdditionalData":[{"value":"United Kingdom","key":"CountryName"},{"value":"England","key":"StateName"},{"value":"London","key":"CountyName"}]},"MapReference":{"ReferenceId":"836003790","Spot":0.97,"SideOfStreet":"left","StateId":"20248595","CountyId":"20337453","CityId":"20337454","AddressId":"785148940","RoadLinkId":"219175079"}}},{"Relevance":1.0,"Distance":19.6,"MatchLevel":"street","MatchQuality":{"Country":1.0,"State":1.0,"County":1.0,"City":1.0,"District":1.0,"Street":[1.0],"PostalCode":1.0},"Location":{"LocationId":"NT_wHvb18THNCCg2DI012WhlB_l_1001311125_L","LocationType":"point","DisplayPosition":{"Latitude":51.5475887,"Longitude":-0.0372953},"MapView":{"TopLeft":{"Latitude":51.54785,"Longitude":-0.03741},"BottomRight":{"Latitude":51.54744,"Longitude":-0.03723}},"Address":{"Label":"Kenworthy Road, London, E9 5, United Kingdom","Country":"GBR","State":"England","County":"London","City":"London","District":"Hackney","Street":"Kenworthy Road","PostalCode":"E9 5","AdditionalData":[{"value":"United Kingdom","key":"CountryName"},{"value":"England","key":"StateName"},{"value":"London","key":"CountyName"}]},"MapReference":{"ReferenceId":"1001311125","Spot":0.36,"SideOfStreet":"left","StateId":"20248595","CountyId":"20337453","CityId":"20337454"}}},{"Relevance":1.0,"Distance":20.5,"MatchLevel":"houseNumber","MatchQuality":{"Country":1.0,"State":1.0,"County":1.0,"City":1.0,"District":1.0,"Street":[1.0],"HouseNumber":1.0,"PostalCode":1.0},"MatchType":"interpolated","Location":{"LocationId":"NT_3ZjVTQkv.Fb3ZG1JbJH52A_4A","LocationType":"point","DisplayPosition":{"Latitude":51.54782,"Longitude":-0.03762},"MapView":{"TopLeft":{"Latitude":51.5489442,"Longitude":-0.0394277},"BottomRight":{"Latitude":51.5466958,"Longitude":-0.0358123}},"Address":{"Label":"8 Sadler Place, London, E9 5QW, United Kingdom","Country":"GBR","State":"England","County":"London","City":"London","District":"Hackney","Street":"Sadler Place","HouseNumber":"8","PostalCode":"E9 5QW","AdditionalData":[{"value":"United Kingdom","key":"CountryName"},{"value":"England","key":"StateName"},{"value":"London","key":"CountyName"}],"Building":"Tan House"},"MapReference":{"ReferenceId":"1001311127","Spot":0.64,"SideOfStreet":"right","StateId":"20248595","CountyId":"20337453","CityId":"20337454","AddressId":"785129009","RoadLinkId":"327649253"}}},{"Relevance":1.0,"Distance":22.1,"MatchLevel":"postalCode","MatchQuality":{"PostalCode":1.0},"MatchType":"interpolated","Location":{"LocationId":"NT_3ZjVTQkv.Fb3ZG1JbJH52A_4A","LocationType":"point","DisplayPosition":{"Latitude":51.54766,"Longitude":-0.03737},"MapView":{"TopLeft":{"Latitude":51.5566532,"Longitude":-0.0518317},"BottomRight":{"Latitude":51.5386668,"Longitude":-0.0229083}},"Address":{"Label":"E9 5QW, London, England, United Kingdom","Country":"GBR","State":"England","County":"London","City":"London","PostalCode":"E9 5QW","AdditionalData":[{"value":"United Kingdom","key":"CountryName"},{"value":"England","key":"StateName"},{"value":"London","key":"CountyName"}]},"MapReference":{"ReferenceId":"1001311127","Spot":0.64,"SideOfStreet":"neither","StateId":"20248595","CountyId":"20337453","CityId":"20337454"}}},{"Relevance":1.0,"Distance":37.5,"MatchLevel":"houseNumber","MatchQuality":{"Country":1.0,"State":1.0,"County":1.0,"City":1.0,"District":1.0,"Street":[1.0],"HouseNumber":1.0,"PostalCode":1.0},"MatchType":"interpolated","Location":{"LocationId":"NT_a2QvJtXe.n3GgMUu0PxIpD_xID","LocationType":"point","DisplayPosition":{"Latitude":51.54769,"Longitude":-0.03796},"MapView":{"TopLeft":{"Latitude":51.5488142,"Longitude":-0.0397677},"BottomRight":{"Latitude":51.5465658,"Longitude":-0.0361523}},"Address":{"Label":"12 Ward Lane, London, E9 5, United Kingdom","Country":"GBR","State":"England","County":"London","City":"London","District":"Hackney","Street":"Ward Lane","HouseNumber":"12","PostalCode":"E9 5","AdditionalData":[{"value":"United Kingdom","key":"CountryName"},{"value":"England","key":"StateName"},{"value":"London","key":"CountyName"}]},"MapReference":{"ReferenceId":"1001311123","Spot":0.0,"SideOfStreet":"left","StateId":"20248595","CountyId":"20337453","CityId":"20337454","AddressId":"785169878","RoadLinkId":"327649247"}}},{"Relevance":1.0,"Distance":47.7,"MatchLevel":"houseNumber","MatchQuality":{"Country":1.0,"State":1.0,"County":1.0,"City":1.0,"District":1.0,"Street":[1.0],"HouseNumber":1.0,"PostalCode":1.0},"MatchType":"interpolated","Location":{"LocationId":"NT_nhe8rRfrHyurUPzme9eIfC_2AD","LocationType":"point","DisplayPosition":{"Latitude":51.54712,"Longitude":-0.0371},"MapView":{"TopLeft":{"Latitude":51.5482442,"Longitude":-0.0389077},"BottomRight":{"Latitude":51.5459958,"Longitude":-0.0352923}},"Address":{"Label":"60 Kenworthy Road, London, E9 5RA, United Kingdom","Country":"GBR","State":"England","County":"London","City":"London","District":"Hackney","Street":"Kenworthy Road","HouseNumber":"60","PostalCode":"E9 5RA","AdditionalData":[{"value":"United Kingdom","key":"CountryName"},{"value":"England","key":"StateName"},{"value":"London","key":"CountyName"}]},"MapReference":{"ReferenceId":"836003789","Spot":1.0,"SideOfStreet":"left","StateId":"20248595","CountyId":"20337453","CityId":"20337454","AddressId":"747651418","RoadLinkId":"219175078"}}},{"Relevance":1.0,"Distance":55.6,"MatchLevel":"postalCode","MatchQuality":{"PostalCode":1.0},"MatchType":"interpolated","Location":{"LocationId":"NT_a2QvJtXe.n3GgMUu0PxIpD_xA","LocationType":"point","DisplayPosition":{"Latitude":51.54785,"Longitude":-0.03808},"MapView":{"TopLeft":{"Latitude":51.5568432,"Longitude":-0.0525418},"BottomRight":{"Latitude":51.5388568,"Longitude":-0.0236182}},"Address":{"Label":"E9 5QZ, London, England, United Kingdom","Country":"GBR","State":"England","County":"London","City":"London","PostalCode":"E9 5QZ","AdditionalData":[{"value":"United Kingdom","key":"CountryName"},{"value":"England","key":"StateName"},{"value":"London","key":"CountyName"}]},"MapReference":{"ReferenceId":"1001311124","Spot":0.8,"SideOfStreet":"neither","StateId":"20248595","CountyId":"20337453","CityId":"20337454"}}},{"Relevance":1.0,"Distance":62.6,"MatchLevel":"postalCode","MatchQuality":{"PostalCode":1.0},"MatchType":"interpolated","Location":{"LocationId":"NT_nhe8rRfrHyurUPzme9eIfC_xQzY","LocationType":"point","DisplayPosition":{"Latitude":51.54805,"Longitude":-0.03754},"MapView":{"TopLeft":{"Latitude":51.5570432,"Longitude":-0.0520018},"BottomRight":{"Latitude":51.5390568,"Longitude":-0.0230782}},"Address":{"Label":"E9 5TD, London, England, United Kingdom","Country":"GBR","State":"England","County":"London","City":"London","PostalCode":"E9 5TD","AdditionalData":[{"value":"United Kingdom","key":"CountryName"},{"value":"England","key":"StateName"},{"value":"London","key":"CountyName"}]},"MapReference":{"ReferenceId":"762853578","Spot":0.14,"SideOfStreet":"neither","StateId":"20248595","CountyId":"20337453","CityId":"20337454"}}},{"Relevance":1.0,"Distance":62.6,"MatchLevel":"houseNumber","MatchQuality":{"Country":1.0,"State":1.0,"County":1.0,"City":1.0,"District":1.0,"Street":[1.0],"HouseNumber":1.0,"PostalCode":1.0},"MatchType":"interpolated","Location":{"LocationId":"NT_nhe8rRfrHyurUPzme9eIfC_xQDZ","LocationType":"point","DisplayPosition":{"Latitude":51.54805,"Longitude":-0.0375},"MapView":{"TopLeft":{"Latitude":51.5491742,"Longitude":-0.0393077},"BottomRight":{"Latitude":51.5469258,"Longitude":-0.0356923}},"Address":{"Label":"14d Kenworthy Road, London, E9 5, United Kingdom","Country":"GBR","State":"England","County":"London","City":"London","District":"Hackney","Street":"Kenworthy Road","HouseNumber":"14d","PostalCode":"E9 5","AdditionalData":[{"value":"United Kingdom","key":"CountryName"},{"value":"England","key":"StateName"},{"value":"London","key":"CountyName"}]},"MapReference":{"ReferenceId":"1001311126","Spot":0.96,"SideOfStreet":"left","StateId":"20248595","CountyId":"20337453","CityId":"20337454","AddressId":"785170096","RoadLinkId":"327649250"}}}]}]}}