{"Response":{"MetaInfo":{"Timestamp":"2020-03-28T10:11:04.234+0000","NextPageInformation":"2"},"View":[{"_type":"SearchResultsViewType","ViewId":0,"Result":[{"Relevance":1.0,"Distance":0.0,"Direction":0.0,"MatchLevel":"district","MatchQuality":{"Country":1.0,"State":1.0,"County":1.0,"City":1.0,"District":1.0,"PostalCode":1.0},"Location":{"LocationId":"NT_Omdmq.zw3zm8MpPjpQxrPD","LocationType":"point","DisplayPosition":{"Latitude":51.586724,"Longitude":-1.4259623},"MapView":{"TopLeft":{"Latitude":51.5996,"Longitude":-1.44408},"BottomRight":{"Latitude":51.57821,"Longitude":-1.40535}},"Address":{"Label":"Wantage, England, United Kingdom","Country":"GBR","State":"England","County":"Oxfordshire","City":"Wantage","District":"Wantage","PostalCode":"OX12 7","AdditionalData":[{"value":"United Kingdom","key":"CountryName"},{"value":"England","key":"StateName"},{"value":"Oxfordshire","key":"CountyName"}]},"MapReference":{"ReferenceId":"868432918","SideOfStreet":"neither","StateId":"20248595","CountyId":"20337811","CityId":"20338239","DistrictId":"20338240"}}},{"Relevance":1.0,"Distance":11.0,"MatchLevel":"houseNumber","MatchQuality":{"Country":1.0,"State":1.0,"County":1.0,"City":1.0,"District":1.0,"Street":[1.0],"HouseNumber":1.0,"PostalCode":1.0},"MatchType":"interpolated","Location":{"LocationId":"NT_S3rnv-NTa.Q5kb5QJgmheC_l_835998444_L_zID","LocationType":"point","DisplayPosition":{"Latitude":51.586698,"Longitude":-1.426116},"MapView":{"TopLeft":{"Latitude":51.5878222,"Longitude":-1.4279253},"BottomRight":{"Latitude":51.5855739,"Longitude":-1.4243067}},"Address":{"Label":"32 Newbury Street, Wantage, OX12 8, United Kingdom","Country":"GBR","State":"England","County":"Oxfordshire","City":"Wantage","District":"Wantage","Street":"Newbury Street","HouseNumber":"32","PostalCode":"OX12 8","AdditionalData":[{"value":"United Kingdom","key":"CountryName"},{"value":"England","key":"StateName"},{"value":"Oxfordshire","key":"CountyName"}]},"MapReference":{"ReferenceId":"835998444","Spot":0.6,"SideOfStreet":"left","StateId":"20248595","CountyId":"20337811","CityId":"20338239","DistrictId":"20338240"}}},{"Relevance":1.0,"Distance":19.9,"MatchLevel":"street","MatchQuality":{"Country":1.0,"State":1.0,"County":1.0,"City":1.0,"District":1.0,"Street":[1.0],"PostalCode":1.0},"Location":{"LocationId":"NT_kgbxjPuEQGLiy74Q-Ke0lA_l_835998446_R","LocationType":"point","DisplayPosition":{"Latitude":51.58687,"Longitude":-1.42613},"MapView":{"TopLeft":{"Latitude":51.58687,"Longitude":-1.42671},"BottomRight":{"Latitude":51.58687,"Longitude":-1.42613}},"Address":{"Label":"St Anne's Mews, Wantage, OX12 8, United Kingdom","Country":"GBR","State":"England","County":"Oxfordshire","City":"Wantage","District":"Wantage","Street":"St Anne's Mews","PostalCode":"OX12 8","AdditionalData":[{"value":"United Kingdom","key":"CountryName"},{"value":"England","key":"StateName"},{"value":"Oxfordshire","key":"CountyName"}]},"MapReference":{"ReferenceId":"835998446","Spot":1.0,"SideOfStreet":"right","StateId":"20248595","CountyId":"20337811","CityId":"20338239","DistrictId":"20338240"}}},{"Relevance":1.0,"Distance":23.8,"MatchLevel":"street","MatchQuality":{"Country":1.0,"State":1.0,"County":1.0,"City":1.0,"District":1.0,"Street":[1.0],"PostalCode":1.0},"Location":{"LocationId":"NT_CjxYr1.gy2mjhSoqwbCyCB_l_943448240_L","LocationType":"point","DisplayPosition":{"Latitude":51.58656,"Longitude":-1.42574},"MapView":{"TopLeft":{"Latitude":51.58697,"Longitude":-1.42574},"BottomRight":{"Latitude":51.58656,"Longitude":-1.42542}},"Address":{"Label":"St Mary's, Wantage, OX12 8, United Kingdom","Country":"GBR","State":"England","County":"Oxfordshire","City":"Wantage","District":"Wantage","Street":"St Mary's","PostalCode":"OX12 8","AdditionalData":[{"value":"United Kingdom","key":"CountryName"},{"value":"England","key":"StateName"},{"value":"Oxfordshire","key":"CountyName"}]},"MapReference":{"ReferenceId":"943448240","Spot":0.0,"SideOfStreet":"left","StateId":"20248595","CountyId":"20337811","CityId":"20338239","DistrictId":"20338240"}}},{"Relevance":1.0,"Distance":30.6,"MatchLevel":"street","MatchQuality":{"Country":1.0,"State":1.0,"County":1.0,"City":1.0,"District":1.0,"Street":[1.0],"PostalCode":1.0},"Location":{"LocationId":"NT_msbs29e3nBBeSRO73gd3VA_l_943448238_L","LocationType":"point","DisplayPosition":{"Latitude":51.58645,"Longitude":-1.42592},"MapView":{"TopLeft":{"Latitude":51.58649,"Longitude":-1.42592},"BottomRight":{"Latitude":51.58645,"Longitude":-1.42512}},"Address":{"Label":"Ormond Road, Wantage, OX12 8, United Kingdom","Country":"GBR","State":"England","County":"Oxfordshire","City":"Wantage","District":"Wantage","Street":"Ormond Road","PostalCode":"OX12 8","AdditionalData":[{"value":"United Kingdom","key":"CountryName"},{"value":"England","key":"StateName"},{"value":"Oxfordshire","key":"CountyName"}]},"MapReference":{"ReferenceId":"943448238","Spot":0.0,"SideOfStreet":"left","StateId":"20248595","CountyId":"20337811","CityId":"20338239","DistrictId":"20338240"}}},{"Relevance":1.0,"Distance":30.7,"MatchLevel":"street","MatchQuality":{"Country":1.0,"State":1.0,"County":1.0,"City":1.0,"District":1.0,"Street":[1.0],"PostalCode":1.0},"Location":{"LocationId":"NT_msbs29e3nBBeSRO73gd3VA_l_762758204_L","LocationType":"point","DisplayPosition":{"Latitude":51.5864485,"Longitude":-1.4259461},"MapView":{"TopLeft":{"Latitude":51.58645,"Longitude":-1.42609},"BottomRight":{"Latitude":51.58644,"Longitude":-1.42592}},"Address":{"Label":"Ormond Road, Wantage, OX12 8, United Kingdom","Country":"GBR","State":"England","County":"Oxfordshire","City":"Wantage","District":"Wantage","Street":"Ormond Road","PostalCode":"OX12 8","AdditionalData":[{"value":"United Kingdom","key":"CountryName"},{"value":"England","key":"StateName"},{"value":"Oxfordshire","key":"CountyName"}]},"MapReference":{"ReferenceId":"762758204","Spot":0.85,"SideOfStreet":"left","StateId":"20248595","CountyId":"20337811","CityId":"20338239","DistrictId":"20338240"}}},{"Relevance":1.0,"Distance":37.3,"MatchLevel":"houseNumber","MatchQuality":{"Country":1.0,"State":1.0,"County":1.0,"City":1.0,"District":1.0,"Street":[1.0],"HouseNumber":1.0,"PostalCode":1.0},"MatchType":"interpolated","Location":{"LocationId":"NT_msbs29e3nBBeSRO73gd3VA_l_25876535_R_zED","LocationType":"point","DisplayPosition":{"Latitude":51.5863771,"Longitude":-1.4260852},"MapView":{"TopLeft":{"Latitude":51.5875013,"Longitude":-1.4278944},"BottomRight":{"Latitude":51.585253,"Longitude":-1.4242759}},"Address":{"Label":"31 Newbury Street, Wantage, OX12 8, United Kingdom","Country":"GBR","State":"England","County":"Oxfordshire","City":"Wantage","District":"Wantage","Street":"Newbury Street","HouseNumber":"31","PostalCode":"OX12 8","AdditionalData":[{"value":"United Kingdom","key":"CountryName"},{"value":"England","key":"StateName"},{"value":"Oxfordshire","key":"CountyName"}]},"MapReference":{"ReferenceId":"25876535","Spot":0.52,"SideOfStreet":"right","StateId":"20248595","CountyId":"20337811","CityId":"20338239","DistrictId":"20338240"}}},{"Relevance":1.0,"Distance":40.6,"MatchLevel":"postalCode","MatchQuality":{"PostalCode":1.0},"Location":{"LocationId":"NT_kgbxjPuEQGLiy74Q-Ke0lA_l_835998446_R","LocationType":"point","DisplayPosition":{"Latitude":51.58682,"Longitude":-1.42653},"MapView":{"TopLeft":{"Latitude":51.5958132,"Longitude":-1.4410042},"BottomRight":{"Latitude":51.5778268,"Longitude":-1.4120558}},"Address":{"Label":"OX12 8DB, Wantage, England, United Kingdom","Country":"GBR","State":"England","County":"Oxfordshire","City":"Wantage","PostalCode":"OX12 8DB","AdditionalData":[{"value":"United Kingdom","key":"CountryName"},{"value":"England","key":"StateName"},{"value":"Oxfordshire","key":"CountyName"}]},"MapReference":{"ReferenceId":"835998446","Spot":1.0,"SideOfStreet":"neither","StateId":"20248595","CountyId":"20337811","CityId":"20338239"}}},{"Relevance":1.0,"Distance":46.1,"MatchLevel":"houseNumber","MatchQuality":{"Country":1.0,"State":1.0,"County":1.0,"City":1.0,"District":1.0,"Street":[1.0],"HouseNumber":1.0,"PostalCode":1.0},"MatchType":"interpolated","Location":{"LocationId":"NT_tGdqXYLCZQcgoJQPYx6X3B_l_743552734_R_0A","LocationType":"point","DisplayPosition":{"Latitude":51.58631,"Longitude":-1.4264553},"MapView":{"TopLeft":{"Latitude":51.5874342,"Longitude":-1.4282645},"BottomRight":{"Latitude":51.5851858,"Longitude":-1.424646}},"Address":{"Label":"4 Portway, Wantage, OX12 9, United Kingdom","Country":"GBR","State":"England","County":"Oxfordshire","City":"Wantage","District":"Wantage","Street":"Portway","HouseNumber":"4","PostalCode":"OX12 9","AdditionalData":[{"value":"United Kingdom","key":"CountryName"},{"value":"England","key":"StateName"},{"value":"Oxfordshire","key":"CountyName"}]},"MapReference":{"ReferenceId":"743552734","Spot":0.51,"SideOfStreet":"right","StateId":"20248595","CountyId":"20337811","CityId":"20338239","DistrictId":"20338240"}}},{"Relevance":1.0,"Distance":46.4,"MatchLevel":"street","MatchQuality":{"Country":1.0,"State":1.0,"County":1.0,"City":1.0,"District":1.0,"Street":[1.0],"PostalCode":1.0},"Location":{"LocationId":"NT_CjxYr1.gy2mjhSoqwbCyCB_l_943448241_R","LocationType":"point","DisplayPosition":{"Latitude":51.58697,"Longitude":-1.42542},"MapView":{"TopLeft":{"Latitude":51.58698,"Longitude":-1.42542},"BottomRight":{"Latitude":51.58697,"Longitude":-1.42518}},"Address":{"Label":"St Mary's, Wantage, OX12 8, United Kingdom","Country":"GBR","State":"England","County":"Oxfordshire","City":"Wantage","District":"Wantage","Street":"St Mary's","PostalCode":"OX12 8","AdditionalData":[{"value":"United Kingdom","key":"CountryName"},{"value":"England","key":"StateName"},{"value":"Oxfordshire","key":"CountyName"}]},"MapReference":{"ReferenceId":"943448241","Spot":0.0,"SideOfStreet":"right","StateId":"20248595","CountyId":"20337811","CityId":"20338239","DistrictId":"20338240"}}}]}]}}