{"Response":{"MetaInfo":{"Timestamp":"2020-03-28T10:37:00.797+0000","NextPageInformation":"2"},"View":[{"_type":"SearchResultsViewType","ViewId":0,"Result":[{"Relevance":1.0,"Distance":0.0,"Direction":0.0,"MatchLevel":"district","MatchQuality":{"Country":1.0,"State":1.0,"County":1.0,"City":1.0,"District":1.0,"PostalCode":1.0},"Location":{"LocationId":"NT_-RLB6tj2IGnfB9ze8WfsVA","LocationType":"point","DisplayPosition":{"Latitude":51.5450171,"Longitude":-0.0878079},"MapView":{"TopLeft":{"Latitude":51.55119,"Longitude":-0.10626},"BottomRight":{"Latitude":51.52587,"Longitude":-0.0756}},"Address":{"Label":"Hoxton, London, England, United Kingdom","Country":"GBR","State":"England","County":"London","City":"London","District":"Hoxton","PostalCode":"N1 6","AdditionalData":[{"value":"United Kingdom","key":"CountryName"},{"value":"England","key":"StateName"},{"value":"London","key":"CountyName"}]},"MapReference":{"ReferenceId":"1217991604","SideOfStreet":"neither","StateId":"20248595","CountyId":"20337453","CityId":"20337454"}}},{"Relevance":1.0,"Distance":3.8,"MatchLevel":"houseNumber","MatchQuality":{"Country":1.0,"State":1.0,"County":1.0,"City":1.0,"District":1.0,"Street":[1.0],"HouseNumber":1.0,"PostalCode":1.0},"MatchType":"interpolated","Location":{"LocationId":"NT_7z2OkY2IdD1aCnZnFIyqiA_0EG","LocationType":"point","DisplayPosition":{"Latitude":51.54497,"Longitude":-0.08786},"MapView":{"TopLeft":{"Latitude":51.5460942,"Longitude":-0.0896676},"BottomRight":{"Latitude":51.5438458,"Longitude":-0.0860524}},"Address":{"Label":"4a Mitchison Road, London, N1 3, United Kingdom","Country":"GBR","State":"England","County":"London","City":"London","District":"Hoxton","Street":"Mitchison Road","HouseNumber":"4a","PostalCode":"N1 3","AdditionalData":[{"value":"United Kingdom","key":"CountryName"},{"value":"England","key":"StateName"},{"value":"London","key":"CountyName"}]},"MapReference":{"ReferenceId":"25397871","Spot":0.7,"SideOfStreet":"right","StateId":"20248595","CountyId":"20337453","CityId":"20337454","AddressId":"747490510","RoadLinkId":"82354916"}}},{"Relevance":1.0,"Distance":21.7,"MatchLevel":"postalCode","MatchQuality":{"PostalCode":1.0},"MatchType":"interpolated","Location":{"LocationId":"NT_opL0Ak01tiZXykvDo5GN0C_zgjM","LocationType":"point","DisplayPosition":{"Latitude":51.54507,"Longitude":-0.08811},"MapView":{"TopLeft":{"Latitude":51.5540632,"Longitude":-0.1025709},"BottomRight":{"Latitude":51.5360768,"Longitude":-0.0736491}},"Address":{"Label":"N1 3PF, London, England, United Kingdom","Country":"GBR","State":"England","County":"London","City":"London","PostalCode":"N1 3PF","AdditionalData":[{"value":"United Kingdom","key":"CountryName"},{"value":"England","key":"StateName"},{"value":"London","key":"CountyName"}]},"MapReference":{"ReferenceId":"25297418","Spot":0.92,"SideOfStreet":"neither","StateId":"20248595","CountyId":"20337453","CityId":"20337454"}}},{"Relevance":1.0,"Distance":23.8,"MatchLevel":"houseNumber","MatchQuality":{"Country":1.0,"State":1.0,"County":1.0,"City":1.0,"District":1.0,"Street":[1.0],"HouseNumber":1.0,"PostalCode":1.0},"MatchType":"interpolated","Location":{"LocationId":"NT_opL0Ak01tiZXykvDo5GN0C_l_1218017200_R_zgjN","LocationType":"point","DisplayPosition":{"Latitude":51.5452994,"Longitude":-0.0881295},"MapView":{"TopLeft":{"Latitude":51.5464235,"Longitude":-0.0899371},"BottomRight":{"Latitude":51.5441752,"Longitude":-0.0863219}},"Address":{"Label":"386 Essex Road, London, N1 3PF, United Kingdom","Country":"GBR","State":"England","County":"London","City":"London","District":"Hoxton","Street":"Essex Road","HouseNumber":"386","PostalCode":"N1 3PF","AdditionalData":[{"value":"United Kingdom","key":"CountryName"},{"value":"England","key":"StateName"},{"value":"London","key":"CountyName"}]},"MapReference":{"ReferenceId":"1218017200","Spot":0.53,"SideOfStreet":"right","StateId":"20248595","CountyId":"20337453","CityId":"20337454"}}},{"Relevance":1.0,"Distance":30.1,"MatchLevel":"postalCode","MatchQuality":{"PostalCode":1.0},"MatchType":"interpolated","Location":{"LocationId":"NT_7z2OkY2IdD1aCnZnFIyqiA_0EG","LocationType":"point","DisplayPosition":{"Latitude":51.54494,"Longitude":-0.08739},"MapView":{"TopLeft":{"Latitude":51.5539332,"Longitude":-0.1018509},"BottomRight":{"Latitude":51.5359468,"Longitude":-0.0729291}},"Address":{"Label":"N1 3NG, London, England, United Kingdom","Country":"GBR","State":"England","County":"London","City":"London","PostalCode":"N1 3NG","AdditionalData":[{"value":"United Kingdom","key":"CountryName"},{"value":"England","key":"StateName"},{"value":"London","key":"CountyName"}]},"MapReference":{"ReferenceId":"25397871","Spot":0.7,"SideOfStreet":"neither","StateId":"20248595","CountyId":"20337453","CityId":"20337454"}}},{"Relevance":1.0,"Distance":30.3,"MatchLevel":"houseNumber","MatchQuality":{"Country":1.0,"State":1.0,"County":1.0,"City":1.0,"District":1.0,"Street":[1.0],"HouseNumber":1.0,"PostalCode":1.0},"MatchType":"interpolated","Location":{"LocationId":"NT_tA0WeQVNwNX1q4PPpXz8nA_l_762873247_R_zgDN","LocationType":"point","DisplayPosition":{"Latitude":51.5451454,"Longitude":-0.0883345},"MapView":{"TopLeft":{"Latitude":51.5462695,"Longitude":-0.0901421},"BottomRight":{"Latitude":51.5440212,"Longitude":-0.0865268}},"Address":{"Label":"384 Essex Road, London, N1 3PF, United Kingdom","Country":"GBR","State":"England","County":"London","City":"London","District":"Hoxton","Street":"Essex Road","HouseNumber":"384","PostalCode":"N1 3PF","AdditionalData":[{"value":"United Kingdom","key":"CountryName"},{"value":"England","key":"StateName"},{"value":"London","key":"CountyName"}]},"MapReference":{"ReferenceId":"762873247","Spot":0.5,"SideOfStreet":"right","StateId":"20248595","CountyId":"20337453","CityId":"20337454"}}},{"Relevance":1.0,"Distance":34.7,"MatchLevel":"houseNumber","MatchQuality":{"Country":1.0,"State":1.0,"County":1.0,"City":1.0,"District":1.0,"Street":[1.0],"HouseNumber":1.0,"PostalCode":1.0},"MatchType":"interpolated","Location":{"LocationId":"NT_opL0Ak01tiZXykvDo5GN0C_l_1218017201_R_zgDO","LocationType":"point","DisplayPosition":{"Latitude":51.5454494,"Longitude":-0.0879395},"MapView":{"TopLeft":{"Latitude":51.5465735,"Longitude":-0.0897471},"BottomRight":{"Latitude":51.5443252,"Longitude":-0.0861319}},"Address":{"Label":"388 Essex Road, London, N1 3PF, United Kingdom","Country":"GBR","State":"England","County":"London","City":"London","District":"Hoxton","Street":"Essex Road","HouseNumber":"388","PostalCode":"N1 3PF","AdditionalData":[{"value":"United Kingdom","key":"CountryName"},{"value":"England","key":"StateName"},{"value":"London","key":"CountyName"}]},"MapReference":{"ReferenceId":"1218017201","Spot":0.53,"SideOfStreet":"right","StateId":"20248595","CountyId":"20337453","CityId":"20337454"}}},{"Relevance":1.0,"Distance":36.9,"MatchLevel":"houseNumber","MatchQuality":{"Country":1.0,"State":1.0,"County":1.0,"City":1.0,"District":1.0,"Street":[1.0],"HouseNumber":1.0,"PostalCode":1.0},"MatchType":"interpolated","Location":{"LocationId":"NT_opL0Ak01tiZXykvDo5GN0C_zgjM","LocationType":"point","DisplayPosition":{"Latitude":51.54504,"Longitude":-0.08849},"MapView":{"TopLeft":{"Latitude":51.5461642,"Longitude":-0.0902976},"BottomRight":{"Latitude":51.5439158,"Longitude":-0.0866824}},"Address":{"Label":"382 Essex Road, London, N1 3PF, United Kingdom","Country":"GBR","State":"England","County":"London","City":"London","District":"Hoxton","Street":"Essex Road","HouseNumber":"382","PostalCode":"N1 3PF","AdditionalData":[{"value":"United Kingdom","key":"CountryName"},{"value":"England","key":"StateName"},{"value":"London","key":"CountyName"}]},"MapReference":{"ReferenceId":"25297418","Spot":0.92,"SideOfStreet":"right","StateId":"20248595","CountyId":"20337453","CityId":"20337454","AddressId":"747737184","RoadLinkId":"82788428"}}},{"Relevance":1.0,"Distance":37.1,"MatchLevel":"houseNumber","MatchQuality":{"Country":1.0,"State":1.0,"County":1.0,"City":1.0,"District":1.0,"Street":[1.0],"HouseNumber":1.0,"PostalCode":1.0},"MatchType":"interpolated","Location":{"LocationId":"NT_thlwDh4u6Pr9f3LbTnwpxA_xA","LocationType":"point","DisplayPosition":{"Latitude":51.54537,"Longitude":-0.08748},"MapView":{"TopLeft":{"Latitude":51.5464942,"Longitude":-0.0892876},"BottomRight":{"Latitude":51.5442458,"Longitude":-0.0856724}},"Address":{"Label":"1 Tilney Gardens, London, N1 3NJ, United Kingdom","Country":"GBR","State":"England","County":"London","City":"London","District":"Hoxton","Street":"Tilney Gardens","HouseNumber":"1","PostalCode":"N1 3NJ","AdditionalData":[{"value":"United Kingdom","key":"CountryName"},{"value":"England","key":"StateName"},{"value":"London","key":"CountyName"}]},"MapReference":{"ReferenceId":"25397870","Spot":0.75,"SideOfStreet":"left","StateId":"20248595","CountyId":"20337453","CityId":"20337454","AddressId":"757231855","RoadLinkId":"82420594"}}},{"Relevance":1.0,"Distance":40.9,"MatchLevel":"landmark","MatchQuality":{"Country":1.0,"State":1.0,"County":1.0,"City":1.0,"District":1.0,"PostalCode":1.0,"Name":1.0},"Location":{"LocationId":"NT_9u8D-DwOsSPj4CVY4KABJB","LocationType":"park","Name":"St Paul's Park","DisplayPosition":{"Latitude":51.54599,"Longitude":-0.08838},"MapView":{"TopLeft":{"Latitude":51.5469,"Longitude":-0.08939},"BottomRight":{"Latitude":51.54507,"Longitude":-0.08726}},"Address":{"Label":"London, N1 6, United Kingdom","Country":"GBR","State":"England","County":"London","City":"London","District":"N1","PostalCode":"N1 6","AdditionalData":[{"value":"United Kingdom","key":"CountryName"},{"value":"England","key":"StateName"},{"value":"London","key":"CountyName"}]},"MapReference":{"StateId":"20248595","CountyId":"20337453","CityId":"20337454","DistrictId":"20337492","PlaceId":"1458506031"}}}]}]}}