{"Response":{"MetaInfo":{"Timestamp":"2020-03-28T11:54:34.709+0000","NextPageInformation":"2"},"View":[{"_type":"SearchResultsViewType","ViewId":0,"Result":[{"Relevance":1.0,"Distance":0.0,"Direction":0.0,"MatchLevel":"district","MatchQuality":{"Country":1.0,"State":1.0,"County":1.0,"City":1.0,"District":1.0,"PostalCode":1.0},"Location":{"LocationId":"NT_L8aEEsHPJBXqAvvxWh1WaA","LocationType":"point","DisplayPosition":{"Latitude":51.5154432,"Longitude":0.4267636},"MapView":{"TopLeft":{"Latitude":51.53657,"Longitude":0.41078},"BottomRight":{"Latitude":51.50712,"Longitude":0.46295}},"Address":{"Label":"Stanford le Hope, England, United Kingdom","Country":"GBR","State":"England","County":"Essex","City":"Stanford le Hope","District":"Stanford le Hope","PostalCode":"SS17 0","AdditionalData":[{"value":"United Kingdom","key":"CountryName"},{"value":"England","key":"StateName"},{"value":"Essex","key":"CountyName"}]},"MapReference":{"ReferenceId":"1004222225","SideOfStreet":"neither","StateId":"20248595","CountyId":"20335385","CityId":"20335820","DistrictId":"20335821"}}},{"Relevance":1.0,"Distance":3.2,"MatchLevel":"houseNumber","MatchQuality":{"Country":1.0,"State":1.0,"County":1.0,"City":1.0,"District":1.0,"Street":[1.0],"HouseNumber":1.0,"PostalCode":1.0},"MatchType":"interpolated","Location":{"LocationId":"NT_pKH8N8qYJE0DvNwBzCafoA_l_755536017_L_yMD","LocationType":"point","DisplayPosition":{"Latitude":51.5154534,"Longitude":0.4269333},"MapView":{"TopLeft":{"Latitude":51.5165775,"Longitude":0.4251269},"BottomRight":{"Latitude":51.5143292,"Longitude":0.4287398}},"Address":{"Label":"23 High Street, Stanford le Hope, SS17 0HD, United Kingdom","Country":"GBR","State":"England","County":"Essex","City":"Stanford le Hope","District":"Stanford le Hope","Street":"High Street","HouseNumber":"23","PostalCode":"SS17 0HD","AdditionalData":[{"value":"United Kingdom","key":"CountryName"},{"value":"England","key":"StateName"},{"value":"Essex","key":"CountyName"}]},"MapReference":{"ReferenceId":"755536017","Spot":0.83,"SideOfStreet":"left","StateId":"20248595","CountyId":"20335385","CityId":"20335820","DistrictId":"20335821"}}},{"Relevance":1.0,"Distance":4.6,"MatchLevel":"houseNumber","MatchQuality":{"Country":1.0,"State":1.0,"County":1.0,"City":1.0,"District":1.0,"Street":[1.0],"HouseNumber":1.0,"PostalCode":1.0},"MatchType":"interpolated","Location":{"LocationId":"NT_pKH8N8qYJE0DvNwBzCafoA_l_755536018_L_xkD","LocationType":"point","DisplayPosition":{"Latitude":51.5155001,"Longitude":0.42693},"MapView":{"TopLeft":{"Latitude":51.5166242,"Longitude":0.4251236},"BottomRight":{"Latitude":51.5143759,"Longitude":0.4287364}},"Address":{"Label":"19 High Street, Stanford le Hope, SS17 0, United Kingdom","Country":"GBR","State":"England","County":"Essex","City":"Stanford le Hope","District":"Stanford le Hope","Street":"High Street","HouseNumber":"19","PostalCode":"SS17 0","AdditionalData":[{"value":"United Kingdom","key":"CountryName"},{"value":"England","key":"StateName"},{"value":"Essex","key":"CountyName"}]},"MapReference":{"ReferenceId":"755536018","Spot":0.0,"SideOfStreet":"left","StateId":"20248595","CountyId":"20335385","CityId":"20335820","DistrictId":"20335821"}}},{"Relevance":1.0,"Distance":13.1,"MatchLevel":"street","MatchQuality":{"Country":1.0,"State":1.0,"County":1.0,"City":1.0,"District":1.0,"Street":[1.0],"PostalCode":1.0},"Location":{"LocationId":"NT_JDpy3n-UQfOKcaIilwY3bA_l_755536019_R","LocationType":"point","DisplayPosition":{"Latitude":51.5155,"Longitude":0.42693},"MapView":{"TopLeft":{"Latitude":51.51554,"Longitude":0.42693},"BottomRight":{"Latitude":51.5155,"Longitude":0.42736}},"Address":{"Label":"The Precinct, Stanford le Hope, SS17 0, United Kingdom","Country":"GBR","State":"England","County":"Essex","City":"Stanford le Hope","District":"Stanford le Hope","Street":"The Precinct","PostalCode":"SS17 0","AdditionalData":[{"value":"United Kingdom","key":"CountryName"},{"value":"England","key":"StateName"},{"value":"Essex","key":"CountyName"}]},"MapReference":{"ReferenceId":"755536019","Spot":0.0,"SideOfStreet":"right","StateId":"20248595","CountyId":"20335385","CityId":"20335820","DistrictId":"20335821"}}},{"Relevance":1.0,"Distance":14.4,"MatchLevel":"postalCode","MatchQuality":{"PostalCode":1.0},"MatchType":"interpolated","Location":{"LocationId":"NT_pKH8N8qYJE0DvNwBzCafoA_l_755536017_L_yMD","LocationType":"point","DisplayPosition":{"Latitude":51.51534,"Longitude":0.42689},"MapView":{"TopLeft":{"Latitude":51.5243332,"Longitude":0.4124385},"BottomRight":{"Latitude":51.5063468,"Longitude":0.4413415}},"Address":{"Label":"SS17 0HD, Stanford le Hope, England, United Kingdom","Country":"GBR","State":"England","County":"Essex","City":"Stanford le Hope","PostalCode":"SS17 0HD","AdditionalData":[{"value":"United Kingdom","key":"CountryName"},{"value":"England","key":"StateName"},{"value":"Essex","key":"CountyName"}]},"MapReference":{"ReferenceId":"755536017","Spot":0.83,"SideOfStreet":"neither","StateId":"20248595","CountyId":"20335385","CityId":"20335820"}}},{"Relevance":1.0,"Distance":28.0,"MatchLevel":"street","MatchQuality":{"Country":1.0,"State":1.0,"County":1.0,"City":1.0,"District":1.0,"PostalCode":1.0},"Location":{"LocationId":"NT_14JnnzuAZ3FvEFVginWScC_l_25775503_L","LocationType":"point","DisplayPosition":{"Latitude":51.51522,"Longitude":0.42695},"MapView":{"TopLeft":{"Latitude":51.51546,"Longitude":0.42695},"BottomRight":{"Latitude":51.51522,"Longitude":0.42794}},"Address":{"Label":"Stanford le Hope, SS17 0, United Kingdom","Country":"GBR","State":"England","County":"Essex","City":"Stanford le Hope","District":"Stanford le Hope","PostalCode":"SS17 0","AdditionalData":[{"value":"United Kingdom","key":"CountryName"},{"value":"England","key":"StateName"},{"value":"Essex","key":"CountyName"}]},"MapReference":{"ReferenceId":"25775503","Spot":0.0,"SideOfStreet":"left","StateId":"20248595","CountyId":"20335385","CityId":"20335820","DistrictId":"20335821"}}},{"Relevance":1.0,"Distance":36.2,"MatchLevel":"postalCode","MatchQuality":{"PostalCode":1.0},"MatchType":"interpolated","Location":{"LocationId":"NT_pKH8N8qYJE0DvNwBzCafoA_l_25775488_R_ygD","LocationType":"point","DisplayPosition":{"Latitude":51.51574,"Longitude":0.42698},"MapView":{"TopLeft":{"Latitude":51.5247332,"Longitude":0.4125284},"BottomRight":{"Latitude":51.5067468,"Longitude":0.4414316}},"Address":{"Label":"SS17 0HG, Stanford le Hope, England, United Kingdom","Country":"GBR","State":"England","County":"Essex","City":"Stanford le Hope","PostalCode":"SS17 0HG","AdditionalData":[{"value":"United Kingdom","key":"CountryName"},{"value":"England","key":"StateName"},{"value":"Essex","key":"CountyName"}]},"MapReference":{"ReferenceId":"25775488","Spot":0.19,"SideOfStreet":"neither","StateId":"20248595","CountyId":"20335385","CityId":"20335820"}}},{"Relevance":1.0,"Distance":37.6,"MatchLevel":"houseNumber","MatchQuality":{"Country":1.0,"State":1.0,"County":1.0,"City":1.0,"District":1.0,"Street":[1.0],"HouseNumber":1.0,"PostalCode":1.0},"MatchType":"interpolated","Location":{"LocationId":"NT_pKH8N8qYJE0DvNwBzCafoA_l_25775489_R_zQD","LocationType":"point","DisplayPosition":{"Latitude":51.51578,"Longitude":0.42672},"MapView":{"TopLeft":{"Latitude":51.5169042,"Longitude":0.4249135},"BottomRight":{"Latitude":51.5146559,"Longitude":0.4285264}},"Address":{"Label":"34 High Street, Stanford le Hope, SS17 0, United Kingdom","Country":"GBR","State":"England","County":"Essex","City":"Stanford le Hope","District":"Stanford le Hope","Street":"High Street","HouseNumber":"34","PostalCode":"SS17 0","AdditionalData":[{"value":"United Kingdom","key":"CountryName"},{"value":"England","key":"StateName"},{"value":"Essex","key":"CountyName"}]},"MapReference":{"ReferenceId":"25775489","Spot":0.32,"SideOfStreet":"right","StateId":"20248595","CountyId":"20335385","CityId":"20335820","DistrictId":"20335821"}}},{"Relevance":1.0,"Distance":40.0,"MatchLevel":"postalCode","MatchQuality":{"PostalCode":1.0},"MatchType":"interpolated","Location":{"LocationId":"NT_pKH8N8qYJE0DvNwBzCafoA_l_25775524_L_0cD","LocationType":"point","DisplayPosition":{"Latitude":51.51531,"Longitude":0.4273},"MapView":{"TopLeft":{"Latitude":51.5243032,"Longitude":0.4128486},"BottomRight":{"Latitude":51.5063168,"Longitude":0.4417514}},"Address":{"Label":"SS17 0HF, Stanford le Hope, England, United Kingdom","Country":"GBR","State":"England","County":"Essex","City":"Stanford le Hope","PostalCode":"SS17 0HF","AdditionalData":[{"value":"United Kingdom","key":"CountryName"},{"value":"England","key":"StateName"},{"value":"Essex","key":"CountyName"}]},"MapReference":{"ReferenceId":"25775524","Spot":0.76,"SideOfStreet":"neither","StateId":"20248595","CountyId":"20335385","CityId":"20335820"}}},{"Relevance":1.0,"Distance":41.9,"MatchLevel":"houseNumber","MatchQuality":{"Country":1.0,"State":1.0,"County":1.0,"City":1.0,"District":1.0,"Street":[1.0],"HouseNumber":1.0,"PostalCode":1.0},"MatchType":"interpolated","Location":{"LocationId":"NT_pKH8N8qYJE0DvNwBzCafoA_l_25775488_R_ygD","LocationType":"point","DisplayPosition":{"Latitude":51.5158,"Longitude":0.42696},"MapView":{"TopLeft":{"Latitude":51.5169242,"Longitude":0.4251536},"BottomRight":{"Latitude":51.5146759,"Longitude":0.4287665}},"Address":{"Label":"28 High Street, Stanford le Hope, SS17 0, United Kingdom","Country":"GBR","State":"England","County":"Essex","City":"Stanford le Hope","District":"Stanford le Hope","Street":"High Street","HouseNumber":"28","PostalCode":"SS17 0","AdditionalData":[{"value":"United Kingdom","key":"CountryName"},{"value":"England","key":"StateName"},{"value":"Essex","key":"CountyName"}]},"MapReference":{"ReferenceId":"25775488","Spot":0.19,"SideOfStreet":"right","StateId":"20248595","CountyId":"20335385","CityId":"20335820","DistrictId":"20335821"}}}]}]}}