{"Response":{"MetaInfo":{"Timestamp":"2020-03-28T10:10:58.423+0000","NextPageInformation":"2"},"View":[{"_type":"SearchResultsViewType","ViewId":0,"Result":[{"Relevance":1.0,"Distance":0.0,"Direction":0.0,"MatchLevel":"district","MatchQuality":{"Country":1.0,"State":1.0,"County":1.0,"City":1.0,"District":1.0,"PostalCode":1.0},"Location":{"LocationId":"NT_AyWh2SCocHAG2AjBT10IOD","LocationType":"point","DisplayPosition":{"Latitude":51.5560253,"Longitude":-0.3359201},"MapView":{"TopLeft":{"Latitude":51.5573,"Longitude":-0.37159},"BottomRight":{"Latitude":51.51758,"Longitude":-0.30577}},"Address":{"Label":"Greenford, England, United Kingdom","Country":"GBR","State":"England","County":"Middlesex","City":"Greenford","District":"Greenford","PostalCode":"UB6 0","AdditionalData":[{"value":"United Kingdom","key":"CountryName"},{"value":"England","key":"StateName"},{"value":"Middlesex","key":"CountyName"}]},"MapReference":{"ReferenceId":"25351095","SideOfStreet":"neither","StateId":"20248595","CountyId":"20337579","CityId":"20337593","DistrictId":"20337594"}}},{"Relevance":1.0,"Distance":2.9,"MatchLevel":"houseNumber","MatchQuality":{"Country":1.0,"State":1.0,"County":1.0,"City":1.0,"District":1.0,"Street":[1.0],"HouseNumber":1.0,"PostalCode":1.0},"MatchType":"interpolated","Location":{"LocationId":"NT_KskomPws9WvA23eVOWdLAA_xUTNyA","LocationType":"point","DisplayPosition":{"Latitude":51.55607,"Longitude":-0.33624},"MapView":{"TopLeft":{"Latitude":51.5571942,"Longitude":-0.338048},"BottomRight":{"Latitude":51.5549458,"Longitude":-0.334432}},"Address":{"Label":"1552 Greenford Road, Greenford, UB6 0HR, United Kingdom","Country":"GBR","State":"England","County":"Middlesex","City":"Greenford","District":"Greenford","Street":"Greenford Road","HouseNumber":"1552","PostalCode":"UB6 0HR","AdditionalData":[{"value":"United Kingdom","key":"CountryName"},{"value":"England","key":"StateName"},{"value":"Middlesex","key":"CountyName"}]},"MapReference":{"ReferenceId":"25482226","Spot":0.89,"SideOfStreet":"right","StateId":"20248595","CountyId":"20337579","CityId":"20337593","DistrictId":"20337594","AddressId":"749724183","RoadLinkId":"83019588"}}},{"Relevance":1.0,"Distance":14.9,"MatchLevel":"houseNumber","MatchQuality":{"Country":1.0,"State":1.0,"County":1.0,"City":1.0,"District":1.0,"Street":[1.0],"HouseNumber":1.0,"PostalCode":1.0},"MatchType":"interpolated","Location":{"LocationId":"NT_KskomPws9WvA23eVOWdLAA_xUTN0A","LocationType":"point","DisplayPosition":{"Latitude":51.55621,"Longitude":-0.33617},"MapView":{"TopLeft":{"Latitude":51.5573342,"Longitude":-0.3379781},"BottomRight":{"Latitude":51.5550858,"Longitude":-0.3343619}},"Address":{"Label":"1554 Greenford Road, Greenford, UB6 0HS, United Kingdom","Country":"GBR","State":"England","County":"Middlesex","City":"Greenford","District":"Greenford","Street":"Greenford Road","HouseNumber":"1554","PostalCode":"UB6 0HS","AdditionalData":[{"value":"United Kingdom","key":"CountryName"},{"value":"England","key":"StateName"},{"value":"Middlesex","key":"CountyName"}]},"MapReference":{"ReferenceId":"30490128","Spot":0.24,"SideOfStreet":"right","StateId":"20248595","CountyId":"20337579","CityId":"20337593","DistrictId":"20337594","AddressId":"749579422","RoadLinkId":"83034685"}}},{"Relevance":1.0,"Distance":29.0,"MatchLevel":"houseNumber","MatchQuality":{"Country":1.0,"State":1.0,"County":1.0,"City":1.0,"District":1.0,"Street":[1.0],"HouseNumber":1.0,"PostalCode":1.0},"MatchType":"interpolated","Location":{"LocationId":"NT_dkr5GJrZeLdufj.YeNtn0D_xA","LocationType":"point","DisplayPosition":{"Latitude":51.55597,"Longitude":-0.33551},"MapView":{"TopLeft":{"Latitude":51.5570942,"Longitude":-0.337318},"BottomRight":{"Latitude":51.5548458,"Longitude":-0.333702}},"Address":{"Label":"1 Horsenden Avenue, Greenford, UB6 0JB, United Kingdom","Country":"GBR","State":"England","County":"Middlesex","City":"Greenford","District":"Greenford","Street":"Horsenden Avenue","HouseNumber":"1","PostalCode":"UB6 0JB","AdditionalData":[{"value":"United Kingdom","key":"CountryName"},{"value":"England","key":"StateName"},{"value":"Middlesex","key":"CountyName"}]},"MapReference":{"ReferenceId":"25328345","Spot":0.45,"SideOfStreet":"right","StateId":"20248595","CountyId":"20337579","CityId":"20337593","DistrictId":"20337594","AddressId":"749402789","RoadLinkId":"83000139"}}},{"Relevance":1.0,"Distance":33.1,"MatchLevel":"postalCode","MatchQuality":{"PostalCode":1.0},"MatchType":"interpolated","Location":{"LocationId":"NT_KskomPws9WvA23eVOWdLAA_xUTN0A","LocationType":"point","DisplayPosition":{"Latitude":51.55631,"Longitude":-0.33606},"MapView":{"TopLeft":{"Latitude":51.5653032,"Longitude":-0.3505245},"BottomRight":{"Latitude":51.5473168,"Longitude":-0.3215955}},"Address":{"Label":"UB6 0HS, Greenford, England, United Kingdom","Country":"GBR","State":"England","County":"Middlesex","City":"Greenford","PostalCode":"UB6 0HS","AdditionalData":[{"value":"United Kingdom","key":"CountryName"},{"value":"England","key":"StateName"},{"value":"Middlesex","key":"CountyName"}]},"MapReference":{"ReferenceId":"30490128","Spot":0.24,"SideOfStreet":"neither","StateId":"20248595","CountyId":"20337579","CityId":"20337593"}}},{"Relevance":1.0,"Distance":40.9,"MatchLevel":"houseNumber","MatchQuality":{"Country":1.0,"State":1.0,"County":1.0,"City":1.0,"District":1.0,"Street":[1.0],"HouseNumber":1.0,"PostalCode":1.0},"MatchType":"interpolated","Location":{"LocationId":"NT_KskomPws9WvA23eVOWdLAA_xIzN5A","LocationType":"point","DisplayPosition":{"Latitude":51.55629,"Longitude":-0.33633},"MapView":{"TopLeft":{"Latitude":51.5574142,"Longitude":-0.3381381},"BottomRight":{"Latitude":51.5551658,"Longitude":-0.3345219}},"Address":{"Label":"1279 Greenford Road, Greenford, UB6 0HY, United Kingdom","Country":"GBR","State":"England","County":"Middlesex","City":"Greenford","District":"Greenford","Street":"Greenford Road","HouseNumber":"1279","PostalCode":"UB6 0HY","AdditionalData":[{"value":"United Kingdom","key":"CountryName"},{"value":"England","key":"StateName"},{"value":"Middlesex","key":"CountyName"}]},"MapReference":{"ReferenceId":"30490129","Spot":0.76,"SideOfStreet":"left","StateId":"20248595","CountyId":"20337579","CityId":"20337593","DistrictId":"20337594","AddressId":"749628998","RoadLinkId":"82349301"}}},{"Relevance":1.0,"Distance":47.6,"MatchLevel":"houseNumber","MatchQuality":{"Country":1.0,"State":1.0,"County":1.0,"City":1.0,"District":1.0,"Street":[1.0],"HouseNumber":1.0,"PostalCode":1.0},"MatchType":"interpolated","Location":{"LocationId":"NT_KskomPws9WvA23eVOWdLAA_xUjN0A","LocationType":"point","DisplayPosition":{"Latitude":51.5565,"Longitude":-0.33604},"MapView":{"TopLeft":{"Latitude":51.5576242,"Longitude":-0.3378481},"BottomRight":{"Latitude":51.5553758,"Longitude":-0.3342319}},"Address":{"Label":"1564 Greenford Road, Greenford, UB6 0, United Kingdom","Country":"GBR","State":"England","County":"Middlesex","City":"Greenford","District":"Greenford","Street":"Greenford Road","HouseNumber":"1564","PostalCode":"UB6 0","AdditionalData":[{"value":"United Kingdom","key":"CountryName"},{"value":"England","key":"StateName"},{"value":"Middlesex","key":"CountyName"}]},"MapReference":{"ReferenceId":"25328314","Spot":0.1,"SideOfStreet":"right","StateId":"20248595","CountyId":"20337579","CityId":"20337593","DistrictId":"20337594","AddressId":"749571770","RoadLinkId":"82393807"}}},{"Relevance":1.0,"Distance":50.1,"MatchLevel":"postalCode","MatchQuality":{"PostalCode":1.0},"MatchType":"interpolated","Location":{"LocationId":"NT_KskomPws9WvA23eVOWdLAA_xIzN5A","LocationType":"point","DisplayPosition":{"Latitude":51.55587,"Longitude":-0.3366},"MapView":{"TopLeft":{"Latitude":51.5648632,"Longitude":-0.3510643},"BottomRight":{"Latitude":51.5468768,"Longitude":-0.3221357}},"Address":{"Label":"UB6 0HY, Greenford, England, United Kingdom","Country":"GBR","State":"England","County":"Middlesex","City":"Greenford","PostalCode":"UB6 0HY","AdditionalData":[{"value":"United Kingdom","key":"CountryName"},{"value":"England","key":"StateName"},{"value":"Middlesex","key":"CountyName"}]},"MapReference":{"ReferenceId":"30490129","Spot":0.76,"SideOfStreet":"neither","StateId":"20248595","CountyId":"20337579","CityId":"20337593"}}},{"Relevance":1.0,"Distance":52.3,"MatchLevel":"street","MatchQuality":{"Country":1.0,"State":1.0,"County":1.0,"City":1.0,"District":1.0,"PostalCode":1.0},"Location":{"LocationId":"NT_DYmkV7qlAyI83DeCYphwcC_l_30490127_R","LocationType":"point","DisplayPosition":{"Latitude":51.55649,"Longitude":-0.33604},"MapView":{"TopLeft":{"Latitude":51.55649,"Longitude":-0.33626},"BottomRight":{"Latitude":51.55648,"Longitude":-0.33604}},"Address":{"Label":"Greenford, UB6 0, United Kingdom","Country":"GBR","State":"England","County":"Middlesex","City":"Greenford","District":"Greenford","PostalCode":"UB6 0","AdditionalData":[{"value":"United Kingdom","key":"CountryName"},{"value":"England","key":"StateName"},{"value":"Middlesex","key":"CountyName"}]},"MapReference":{"ReferenceId":"30490127","Spot":1.0,"SideOfStreet":"right","StateId":"20248595","CountyId":"20337579","CityId":"20337593","DistrictId":"20337594"}}},{"Relevance":1.0,"Distance":53.7,"MatchLevel":"street","MatchQuality":{"Country":1.0,"State":1.0,"County":1.0,"City":1.0,"District":1.0,"PostalCode":1.0},"Location":{"LocationId":"NT_DYmkV7qlAyI83DeCYphwcC_l_25482227_R","LocationType":"point","DisplayPosition":{"Latitude":51.55569,"Longitude":-0.33648},"MapView":{"TopLeft":{"Latitude":51.55573,"Longitude":-0.33664},"BottomRight":{"Latitude":51.55569,"Longitude":-0.33648}},"Address":{"Label":"Greenford, UB6 0, United Kingdom","Country":"GBR","State":"England","County":"Middlesex","City":"Greenford","District":"Greenford","PostalCode":"UB6 0","AdditionalData":[{"value":"United Kingdom","key":"CountryName"},{"value":"England","key":"StateName"},{"value":"Middlesex","key":"CountyName"}]},"MapReference":{"ReferenceId":"25482227","Spot":0.0,"SideOfStreet":"right","StateId":"20248595","CountyId":"20337579","CityId":"20337593","DistrictId":"20337594"}}}]}]}}