{"Response":{"MetaInfo":{"Timestamp":"2020-03-28T10:08:25.634+0000","NextPageInformation":"2"},"View":[{"_type":"SearchResultsViewType","ViewId":0,"Result":[{"Relevance":1.0,"Distance":0.0,"Direction":0.0,"MatchLevel":"district","MatchQuality":{"Country":1.0,"State":1.0,"County":1.0,"City":1.0,"District":1.0,"PostalCode":1.0},"Location":{"LocationId":"NT_errZZRT.nAFMvGjbpFGuJC","LocationType":"point","DisplayPosition":{"Latitude":51.5555861,"Longitude":-2.5720379},"MapView":{"TopLeft":{"Latitude":51.56151,"Longitude":-2.59843},"BottomRight":{"Latitude":51.54318,"Longitude":-2.55952}},"Address":{"Label":"Almondsbury, Bristol, England, United Kingdom","Country":"GBR","State":"England","County":"Avon","City":"Bristol","District":"Almondsbury","PostalCode":"BS32 4","AdditionalData":[{"value":"United Kingdom","key":"CountryName"},{"value":"England","key":"StateName"},{"value":"Avon","key":"CountyName"}]},"MapReference":{"ReferenceId":"1211976371","SideOfStreet":"neither","StateId":"20248595","CountyId":"20352323","CityId":"20352420","DistrictId":"20352423"}}},{"Relevance":1.0,"Distance":1.6,"MatchLevel":"houseNumber","MatchQuality":{"Country":1.0,"State":1.0,"County":1.0,"City":1.0,"District":1.0,"Street":[1.0],"HouseNumber":1.0,"PostalCode":1.0},"MatchType":"interpolated","Location":{"LocationId":"NT_7OnA57gZw3hWTBU5B9xZpC_l_26748590_R_zcD","LocationType":"point","DisplayPosition":{"Latitude":51.5554706,"Longitude":-2.5721557},"MapView":{"TopLeft":{"Latitude":51.5565947,"Longitude":-2.5739638},"BottomRight":{"Latitude":51.5543464,"Longitude":-2.5703477}},"Address":{"Label":"37 Lower Court Road, Bristol, BS32 4DX, United Kingdom","Country":"GBR","State":"England","County":"Avon","City":"Bristol","District":"Almondsbury","Street":"Lower Court Road","HouseNumber":"37","PostalCode":"BS32 4DX","AdditionalData":[{"value":"United Kingdom","key":"CountryName"},{"value":"England","key":"StateName"},{"value":"Avon","key":"CountyName"}]},"MapReference":{"ReferenceId":"26748590","Spot":0.49,"SideOfStreet":"right","StateId":"20248595","CountyId":"20352323","CityId":"20352420","DistrictId":"20352423"}}},{"Relevance":1.0,"Distance":9.1,"MatchLevel":"houseNumber","MatchQuality":{"Country":1.0,"State":1.0,"County":1.0,"City":1.0,"District":1.0,"Street":[1.0],"HouseNumber":1.0,"PostalCode":1.0},"MatchType":"interpolated","Location":{"LocationId":"NT_WuB0UK.zX42Q7lKKwWoy8D_l_26748576_R_5A","LocationType":"point","DisplayPosition":{"Latitude":51.555774,"Longitude":-2.5721954},"MapView":{"TopLeft":{"Latitude":51.5568982,"Longitude":-2.5740034},"BottomRight":{"Latitude":51.5546499,"Longitude":-2.5703873}},"Address":{"Label":"9 Court View Close, Bristol, BS32 4DW, United Kingdom","Country":"GBR","State":"England","County":"Avon","City":"Bristol","District":"Almondsbury","Street":"Court View Close","HouseNumber":"9","PostalCode":"BS32 4DW","AdditionalData":[{"value":"United Kingdom","key":"CountryName"},{"value":"England","key":"StateName"},{"value":"Avon","key":"CountyName"}]},"MapReference":{"ReferenceId":"26748576","Spot":0.38,"SideOfStreet":"right","StateId":"20248595","CountyId":"20352323","CityId":"20352420","DistrictId":"20352423"}}},{"Relevance":1.0,"Distance":32.5,"MatchLevel":"street","MatchQuality":{"Country":1.0,"State":1.0,"County":1.0,"City":1.0,"District":1.0,"PostalCode":1.0},"Location":{"LocationId":"NT_cjpB7GVkaBCAtWMOm280nC_l_1156496958_L","LocationType":"point","DisplayPosition":{"Latitude":51.55544,"Longitude":-2.57163},"MapView":{"TopLeft":{"Latitude":51.55571,"Longitude":-2.57163},"BottomRight":{"Latitude":51.55544,"Longitude":-2.56814}},"Address":{"Label":"Bristol, BS32 4, United Kingdom","Country":"GBR","State":"England","County":"Avon","City":"Bristol","District":"Almondsbury","PostalCode":"BS32 4","AdditionalData":[{"value":"United Kingdom","key":"CountryName"},{"value":"England","key":"StateName"},{"value":"Avon","key":"CountyName"}]},"MapReference":{"ReferenceId":"1156496958","Spot":0.0,"SideOfStreet":"left","StateId":"20248595","CountyId":"20352323","CityId":"20352420","DistrictId":"20352423"}}},{"Relevance":1.0,"Distance":33.2,"MatchLevel":"postalCode","MatchQuality":{"PostalCode":1.0},"MatchType":"interpolated","Location":{"LocationId":"NT_WuB0UK.zX42Q7lKKwWoy8D_l_26748576_R_5A","LocationType":"point","DisplayPosition":{"Latitude":51.55588,"Longitude":-2.57195},"MapView":{"TopLeft":{"Latitude":51.5648732,"Longitude":-2.5864143},"BottomRight":{"Latitude":51.5468868,"Longitude":-2.5574857}},"Address":{"Label":"BS32 4DW, Bristol, England, United Kingdom","Country":"GBR","State":"England","County":"Avon","City":"Bristol","PostalCode":"BS32 4DW","AdditionalData":[{"value":"United Kingdom","key":"CountryName"},{"value":"England","key":"StateName"},{"value":"Avon","key":"CountyName"}]},"MapReference":{"ReferenceId":"26748576","Spot":0.38,"SideOfStreet":"neither","StateId":"20248595","CountyId":"20352323","CityId":"20352420"}}},{"Relevance":1.0,"Distance":34.5,"MatchLevel":"street","MatchQuality":{"Country":1.0,"State":1.0,"County":1.0,"City":1.0,"District":1.0,"PostalCode":1.0},"Location":{"LocationId":"NT_cjpB7GVkaBCAtWMOm280nC_l_26748589_L","LocationType":"point","DisplayPosition":{"Latitude":51.5552976,"Longitude":-2.5718562},"MapView":{"TopLeft":{"Latitude":51.55544,"Longitude":-2.5719},"BottomRight":{"Latitude":51.55527,"Longitude":-2.57163}},"Address":{"Label":"Bristol, BS32 4, United Kingdom","Country":"GBR","State":"England","County":"Avon","City":"Bristol","District":"Almondsbury","PostalCode":"BS32 4","AdditionalData":[{"value":"United Kingdom","key":"CountryName"},{"value":"England","key":"StateName"},{"value":"Avon","key":"CountyName"}]},"MapReference":{"ReferenceId":"26748589","Spot":0.16,"SideOfStreet":"left","StateId":"20248595","CountyId":"20352323","CityId":"20352420","DistrictId":"20352423"}}},{"Relevance":1.0,"Distance":42.3,"MatchLevel":"houseNumber","MatchQuality":{"Country":1.0,"State":1.0,"County":1.0,"City":1.0,"District":1.0,"Street":[1.0],"HouseNumber":1.0,"PostalCode":1.0},"MatchType":"interpolated","Location":{"LocationId":"NT_7OnA57gZw3hWTBU5B9xZpC_l_26748577_R_zUD","LocationType":"point","DisplayPosition":{"Latitude":51.55575,"Longitude":-2.57259},"MapView":{"TopLeft":{"Latitude":51.5568742,"Longitude":-2.5743981},"BottomRight":{"Latitude":51.5546259,"Longitude":-2.570782}},"Address":{"Label":"35 Lower Court Road, Bristol, BS32 4DX, United Kingdom","Country":"GBR","State":"England","County":"Avon","City":"Bristol","District":"Almondsbury","Street":"Lower Court Road","HouseNumber":"35","PostalCode":"BS32 4DX","AdditionalData":[{"value":"United Kingdom","key":"CountryName"},{"value":"England","key":"StateName"},{"value":"Avon","key":"CountyName"}]},"MapReference":{"ReferenceId":"26748577","Spot":0.24,"SideOfStreet":"right","StateId":"20248595","CountyId":"20352323","CityId":"20352420","DistrictId":"20352423"}}},{"Relevance":1.0,"Distance":48.9,"MatchLevel":"houseNumber","MatchQuality":{"Country":1.0,"State":1.0,"County":1.0,"City":1.0,"District":1.0,"Street":[1.0],"HouseNumber":1.0,"PostalCode":1.0},"MatchType":"interpolated","Location":{"LocationId":"NT_jd3VgCmYV.mRXpz5I3tAwB_l_26748598_R_xA","LocationType":"point","DisplayPosition":{"Latitude":51.5551233,"Longitude":-2.5716733},"MapView":{"TopLeft":{"Latitude":51.5562475,"Longitude":-2.5734814},"BottomRight":{"Latitude":51.5539992,"Longitude":-2.5698653}},"Address":{"Label":"1 The Scop, Bristol, BS32 4, United Kingdom","Country":"GBR","State":"England","County":"Avon","City":"Bristol","District":"Almondsbury","Street":"The Scop","HouseNumber":"1","PostalCode":"BS32 4","AdditionalData":[{"value":"United Kingdom","key":"CountryName"},{"value":"England","key":"StateName"},{"value":"Avon","key":"CountyName"}]},"MapReference":{"ReferenceId":"26748598","Spot":0.56,"SideOfStreet":"right","StateId":"20248595","CountyId":"20352323","CityId":"20352420","DistrictId":"20352423"}}},{"Relevance":1.0,"Distance":54.2,"MatchLevel":"houseNumber","MatchQuality":{"Country":1.0,"State":1.0,"County":1.0,"City":1.0,"District":1.0,"Street":[1.0],"HouseNumber":1.0,"PostalCode":1.0},"MatchType":"interpolated","Location":{"LocationId":"NT_LM5nhk7FjM2DNF-FXecdlB_l_26748607_L_ycD","LocationType":"point","DisplayPosition":{"Latitude":51.5550131,"Longitude":-2.5722643},"MapView":{"TopLeft":{"Latitude":51.5561372,"Longitude":-2.5740723},"BottomRight":{"Latitude":51.5538889,"Longitude":-2.5704563}},"Address":{"Label":"27 Church Road, Bristol, BS32 4, United Kingdom","Country":"GBR","State":"England","County":"Avon","City":"Bristol","District":"Almondsbury","Street":"Church Road","HouseNumber":"27","PostalCode":"BS32 4","AdditionalData":[{"value":"United Kingdom","key":"CountryName"},{"value":"England","key":"StateName"},{"value":"Avon","key":"CountyName"}]},"MapReference":{"ReferenceId":"26748607","Spot":0.79,"SideOfStreet":"left","StateId":"20248595","CountyId":"20352323","CityId":"20352420","DistrictId":"20352423"}}},{"Relevance":1.0,"Distance":81.7,"MatchLevel":"houseNumber","MatchQuality":{"Country":1.0,"State":1.0,"County":1.0,"City":1.0,"District":1.0,"Street":[1.0],"HouseNumber":1.0,"PostalCode":1.0},"MatchType":"interpolated","Location":{"LocationId":"NT_Wte35vkRYt0fkHZIWlKy0B_l_26748581_R_xA","LocationType":"point","DisplayPosition":{"Latitude":51.5557712,"Longitude":-2.5733123},"MapView":{"TopLeft":{"Latitude":51.5568954,"Longitude":-2.5751204},"BottomRight":{"Latitude":51.5546471,"Longitude":-2.5715043}},"Address":{"Label":"1 Chestermaster Close, Bristol, BS32 4EH, United Kingdom","Country":"GBR","State":"England","County":"Avon","City":"Bristol","District":"Almondsbury","Street":"Chestermaster Close","HouseNumber":"1","PostalCode":"BS32 4EH","AdditionalData":[{"value":"United Kingdom","key":"CountryName"},{"value":"England","key":"StateName"},{"value":"Avon","key":"CountyName"}]},"MapReference":{"ReferenceId":"26748581","Spot":0.61,"SideOfStreet":"right","StateId":"20248595","CountyId":"20352323","CityId":"20352420","DistrictId":"20352423"}}}]}]}}