{"Response":{"MetaInfo":{"Timestamp":"2020-03-28T09:53:04.008+0000","NextPageInformation":"2"},"View":[{"_type":"SearchResultsViewType","ViewId":0,"Result":[{"Relevance":1.0,"Distance":0.0,"Direction":0.0,"MatchLevel":"district","MatchQuality":{"Country":1.0,"State":1.0,"County":1.0,"City":1.0,"District":1.0,"PostalCode":1.0},"Location":{"LocationId":"NT_-RLB6tj2IGnfB9ze8WfsVA","LocationType":"point","DisplayPosition":{"Latitude":51.5469702,"Longitude":-0.0918867},"MapView":{"TopLeft":{"Latitude":51.55119,"Longitude":-0.10626},"BottomRight":{"Latitude":51.52587,"Longitude":-0.0756}},"Address":{"Label":"Hoxton, London, England, United Kingdom","Country":"GBR","State":"England","County":"London","City":"London","District":"Hoxton","PostalCode":"N1 6","AdditionalData":[{"value":"United Kingdom","key":"CountryName"},{"value":"England","key":"StateName"},{"value":"London","key":"CountyName"}]},"MapReference":{"ReferenceId":"1217991604","SideOfStreet":"neither","StateId":"20248595","CountyId":"20337453","CityId":"20337454"}}},{"Relevance":1.0,"Distance":2.6,"MatchLevel":"postalCode","MatchQuality":{"PostalCode":1.0},"MatchType":"interpolated","Location":{"LocationId":"NT_XTjv-5ldi1OEv7Nn8hcGUA_l_25478781_R_xMD","LocationType":"point","DisplayPosition":{"Latitude":51.54696,"Longitude":-0.09192},"MapView":{"TopLeft":{"Latitude":51.5559532,"Longitude":-0.1063815},"BottomRight":{"Latitude":51.5379668,"Longitude":-0.0774585}},"Address":{"Label":"N1 2SY, London, England, United Kingdom","Country":"GBR","State":"England","County":"London","City":"London","PostalCode":"N1 2SY","AdditionalData":[{"value":"United Kingdom","key":"CountryName"},{"value":"England","key":"StateName"},{"value":"London","key":"CountyName"}]},"MapReference":{"ReferenceId":"25478781","Spot":0.49,"SideOfStreet":"neither","StateId":"20248595","CountyId":"20337453","CityId":"20337454"}}},{"Relevance":1.0,"Distance":16.7,"MatchLevel":"street","MatchQuality":{"Country":1.0,"State":1.0,"County":1.0,"City":1.0,"District":1.0,"Street":[1.0],"PostalCode":1.0},"Location":{"LocationId":"NT_jJeLefMRbDIkFcdZngQKYD_l_835606318_L","LocationType":"point","DisplayPosition":{"Latitude":51.54712,"Longitude":-0.09188},"MapView":{"TopLeft":{"Latitude":51.54714,"Longitude":-0.09211},"BottomRight":{"Latitude":51.54712,"Longitude":-0.09188}},"Address":{"Label":"St Paul's Road, London, N1 2, United Kingdom","Country":"GBR","State":"England","County":"London","City":"London","District":"Hoxton","Street":"St Paul's Road","PostalCode":"N1 2","AdditionalData":[{"value":"United Kingdom","key":"CountryName"},{"value":"England","key":"StateName"},{"value":"London","key":"CountyName"}]},"MapReference":{"ReferenceId":"835606318","Spot":0.0,"SideOfStreet":"left","StateId":"20248595","CountyId":"20337453","CityId":"20337454"}}},{"Relevance":1.0,"Distance":19.6,"MatchLevel":"houseNumber","MatchQuality":{"Country":1.0,"State":1.0,"County":1.0,"City":1.0,"District":1.0,"Street":[1.0],"HouseNumber":1.0,"PostalCode":1.0},"MatchType":"interpolated","Location":{"LocationId":"NT_XTjv-5ldi1OEv7Nn8hcGUA_l_25478781_R_xMD","LocationType":"point","DisplayPosition":{"Latitude":51.5468276,"Longitude":-0.0920534},"MapView":{"TopLeft":{"Latitude":51.5479517,"Longitude":-0.093861},"BottomRight":{"Latitude":51.5457034,"Longitude":-0.0902457}},"Address":{"Label":"13 Douglas Road North, London, N1 2SY, United Kingdom","Country":"GBR","State":"England","County":"London","City":"London","District":"Hoxton","Street":"Douglas Road North","HouseNumber":"13","PostalCode":"N1 2SY","AdditionalData":[{"value":"United Kingdom","key":"CountryName"},{"value":"England","key":"StateName"},{"value":"London","key":"CountyName"}]},"MapReference":{"ReferenceId":"25478781","Spot":0.49,"SideOfStreet":"right","StateId":"20248595","CountyId":"20337453","CityId":"20337454"}}},{"Relevance":1.0,"Distance":24.4,"MatchLevel":"street","MatchQuality":{"Country":1.0,"State":1.0,"County":1.0,"City":1.0,"District":1.0,"Street":[1.0],"PostalCode":1.0},"Location":{"LocationId":"NT_jJeLefMRbDIkFcdZngQKYD_l_835606319_L","LocationType":"point","DisplayPosition":{"Latitude":51.54714,"Longitude":-0.09211},"MapView":{"TopLeft":{"Latitude":51.54717,"Longitude":-0.09239},"BottomRight":{"Latitude":51.54714,"Longitude":-0.09211}},"Address":{"Label":"St Paul's Road, London, N1 2, United Kingdom","Country":"GBR","State":"England","County":"London","City":"London","District":"Hoxton","Street":"St Paul's Road","PostalCode":"N1 2","AdditionalData":[{"value":"United Kingdom","key":"CountryName"},{"value":"England","key":"StateName"},{"value":"London","key":"CountyName"}]},"MapReference":{"ReferenceId":"835606319","Spot":0.0,"SideOfStreet":"left","StateId":"20248595","CountyId":"20337453","CityId":"20337454"}}},{"Relevance":1.0,"Distance":33.5,"MatchLevel":"houseNumber","MatchQuality":{"Country":1.0,"State":1.0,"County":1.0,"City":1.0,"District":1.0,"Street":[1.0],"PostalCode":1.0},"MatchType":"interpolated","Location":{"LocationId":"NT_LXQfpSasaqUHE55YzWXZHA","LocationType":"point","DisplayPosition":{"Latitude":51.54708,"Longitude":-0.0914},"MapView":{"TopLeft":{"Latitude":51.5482042,"Longitude":-0.0932077},"BottomRight":{"Latitude":51.5459558,"Longitude":-0.0895923}},"Address":{"Label":"St Paul's Road, London, N1 2, United Kingdom","Country":"GBR","State":"England","County":"London","City":"London","District":"Hoxton","Street":"St Paul's Road","PostalCode":"N1 2","AdditionalData":[{"value":"United Kingdom","key":"CountryName"},{"value":"England","key":"StateName"},{"value":"London","key":"CountyName"}],"Building":"Crowline Walk"},"MapReference":{"ReferenceId":"25398652","Spot":0.34,"SideOfStreet":"left","StateId":"20248595","CountyId":"20337453","CityId":"20337454","AddressId":"763421460","RoadLinkId":"82881498"}}},{"Relevance":1.0,"Distance":35.4,"MatchLevel":"houseNumber","MatchQuality":{"Country":1.0,"State":1.0,"County":1.0,"City":1.0,"District":1.0,"Street":[1.0],"HouseNumber":1.0,"PostalCode":1.0},"MatchType":"interpolated","Location":{"LocationId":"NT_qDJAr7vo9.nCs3hR89HFCD_xMD","LocationType":"point","DisplayPosition":{"Latitude":51.5468,"Longitude":-0.09104},"MapView":{"TopLeft":{"Latitude":51.5479242,"Longitude":-0.0928477},"BottomRight":{"Latitude":51.5456758,"Longitude":-0.0892323}},"Address":{"Label":"13 Clephane Road, London, N1 2QA, United Kingdom","Country":"GBR","State":"England","County":"London","City":"London","District":"Hoxton","Street":"Clephane Road","HouseNumber":"13","PostalCode":"N1 2QA","AdditionalData":[{"value":"United Kingdom","key":"CountryName"},{"value":"England","key":"StateName"},{"value":"London","key":"CountyName"}]},"MapReference":{"ReferenceId":"566004329","Spot":0.52,"SideOfStreet":"left","StateId":"20248595","CountyId":"20337453","CityId":"20337454","AddressId":"769370173","RoadLinkId":"82777499"}}},{"Relevance":1.0,"Distance":41.3,"MatchLevel":"street","MatchQuality":{"Country":1.0,"State":1.0,"County":1.0,"City":1.0,"District":1.0,"Street":[1.0],"PostalCode":1.0},"Location":{"LocationId":"NT_LXQfpSasaqUHE55YzWXZHA_l_25388157_L","LocationType":"point","DisplayPosition":{"Latitude":51.54717,"Longitude":-0.09239},"MapView":{"TopLeft":{"Latitude":51.5472,"Longitude":-0.09273},"BottomRight":{"Latitude":51.54717,"Longitude":-0.09239}},"Address":{"Label":"St Paul's Road, London, N1 2, United Kingdom","Country":"GBR","State":"England","County":"London","City":"London","District":"Hoxton","Street":"St Paul's Road","PostalCode":"N1 2","AdditionalData":[{"value":"United Kingdom","key":"CountryName"},{"value":"England","key":"StateName"},{"value":"London","key":"CountyName"}]},"MapReference":{"ReferenceId":"25388157","Spot":0.0,"SideOfStreet":"left","StateId":"20248595","CountyId":"20337453","CityId":"20337454"}}},{"Relevance":1.0,"Distance":47.3,"MatchLevel":"houseNumber","MatchQuality":{"Country":1.0,"State":1.0,"County":1.0,"City":1.0,"District":1.0,"Street":[1.0],"HouseNumber":1.0,"PostalCode":1.0},"MatchType":"interpolated","Location":{"LocationId":"NT_7w2u-plbaFveWUiW0KezQD_zITY","LocationType":"point","DisplayPosition":{"Latitude":51.54739,"Longitude":-0.09178},"MapView":{"TopLeft":{"Latitude":51.5485142,"Longitude":-0.0935877},"BottomRight":{"Latitude":51.5462658,"Longitude":-0.0899723}},"Address":{"Label":"32a Northampton Park, London, N1 2, United Kingdom","Country":"GBR","State":"England","County":"London","City":"London","District":"Hoxton","Street":"Northampton Park","HouseNumber":"32a","PostalCode":"N1 2","AdditionalData":[{"value":"United Kingdom","key":"CountryName"},{"value":"England","key":"StateName"},{"value":"London","key":"CountyName"}]},"MapReference":{"ReferenceId":"25379355","Spot":0.28,"SideOfStreet":"left","StateId":"20248595","CountyId":"20337453","CityId":"20337454","AddressId":"747565838","RoadLinkId":"82756942"}}},{"Relevance":1.0,"Distance":50.1,"MatchLevel":"houseNumber","MatchQuality":{"Country":1.0,"State":1.0,"County":1.0,"City":1.0,"District":1.0,"Street":[1.0],"HouseNumber":1.0,"PostalCode":1.0},"MatchType":"interpolated","Location":{"LocationId":"NT_PfjCgHcQmcaouWiW92Us6C_3AD","LocationType":"point","DisplayPosition":{"Latitude":51.54701,"Longitude":-0.09285},"MapView":{"TopLeft":{"Latitude":51.5481342,"Longitude":-0.0946577},"BottomRight":{"Latitude":51.5458858,"Longitude":-0.0910423}},"Address":{"Label":"70 Canonbury Park South, London, N1 2, United Kingdom","Country":"GBR","State":"England","County":"London","City":"London","District":"Hoxton","Street":"Canonbury Park South","HouseNumber":"70","PostalCode":"N1 2","AdditionalData":[{"value":"United Kingdom","key":"CountryName"},{"value":"England","key":"StateName"},{"value":"London","key":"CountyName"}]},"MapReference":{"ReferenceId":"25297431","Spot":0.99,"SideOfStreet":"right","StateId":"20248595","CountyId":"20337453","CityId":"20337454","AddressId":"763379632","RoadLinkId":"82527363"}}}]}]}}