{"Response":{"MetaInfo":{"Timestamp":"2020-03-28T10:04:50.789+0000","NextPageInformation":"2"},"View":[{"_type":"SearchResultsViewType","ViewId":0,"Result":[{"Relevance":1.0,"Distance":0.0,"Direction":0.0,"MatchLevel":"district","MatchQuality":{"Country":1.0,"State":1.0,"County":1.0,"City":1.0,"District":1.0,"PostalCode":1.0},"Location":{"LocationId":"NT_MILLV1llfyHbdBqYnr8wjC","LocationType":"point","DisplayPosition":{"Latitude":51.5362756,"Longitude":9.9419798},"MapView":{"TopLeft":{"Latitude":51.57571,"Longitude":9.8786},"BottomRight":{"Latitude":51.50574,"Longitude":9.97961}},"Address":{"Label":"Göttingen, Niedersachsen, Deutschland","Country":"DEU","State":"Niedersachsen","County":"Göttingen","City":"Göttingen","District":"Göttingen","PostalCode":"37073","AdditionalData":[{"value":"Deutschland","key":"CountryName"},{"value":"Niedersachsen","key":"StateName"},{"value":"Göttingen","key":"CountyName"}]},"MapReference":{"ReferenceId":"51830105","SideOfStreet":"neither","CountryId":"20147700","StateId":"20151542","CountyId":"20151840","CityId":"20151920","DistrictId":"20151929"}}},{"Relevance":1.0,"Distance":4.5,"MatchLevel":"houseNumber","MatchQuality":{"Country":1.0,"State":1.0,"County":1.0,"City":1.0,"District":1.0,"Street":[1.0],"HouseNumber":1.0,"PostalCode":1.0},"MatchType":"interpolated","Location":{"LocationId":"NT_sPxbKFhL-uciXRxVeB4U9A_xQD","LocationType":"point","DisplayPosition":{"Latitude":51.53621,"Longitude":9.94186},"MapView":{"TopLeft":{"Latitude":51.5373342,"Longitude":9.9400527},"BottomRight":{"Latitude":51.5350858,"Longitude":9.9436673}},"Address":{"Label":"Bühlstraße 14, 37073 Göttingen, Deutschland","Country":"DEU","State":"Niedersachsen","County":"Göttingen","City":"Göttingen","District":"Göttingen","Street":"Bühlstraße","HouseNumber":"14","PostalCode":"37073","AdditionalData":[{"value":"Deutschland","key":"CountryName"},{"value":"Niedersachsen","key":"StateName"},{"value":"Göttingen","key":"CountyName"}]},"MapReference":{"ReferenceId":"51830144","Spot":0.65,"SideOfStreet":"right","CountryId":"20147700","StateId":"20151542","CountyId":"20151840","CityId":"20151920","DistrictId":"20151929","AddressId":"177784472","RoadLinkId":"36852072"}}},{"Relevance":1.0,"Distance":14.5,"MatchLevel":"street","MatchQuality":{"Country":1.0,"State":1.0,"County":1.0,"City":1.0,"District":1.0,"PostalCode":1.0},"Location":{"LocationId":"NT_CfbH-bjKV9q8mJwi9j8BOC_l_586519814_R","LocationType":"point","DisplayPosition":{"Latitude":51.53636,"Longitude":9.94182},"MapView":{"TopLeft":{"Latitude":51.53651,"Longitude":9.94178},"BottomRight":{"Latitude":51.53636,"Longitude":9.94182}},"Address":{"Label":"37073 Göttingen, Deutschland","Country":"DEU","State":"Niedersachsen","County":"Göttingen","City":"Göttingen","District":"Göttingen","PostalCode":"37073","AdditionalData":[{"value":"Deutschland","key":"CountryName"},{"value":"Niedersachsen","key":"StateName"},{"value":"Göttingen","key":"CountyName"}]},"MapReference":{"ReferenceId":"586519814","Spot":0.0,"SideOfStreet":"right","CountryId":"20147700","StateId":"20151542","CountyId":"20151840","CityId":"20151920","DistrictId":"20151929"}}},{"Relevance":1.0,"Distance":32.6,"MatchLevel":"houseNumber","MatchQuality":{"Country":1.0,"State":1.0,"County":1.0,"City":1.0,"District":1.0,"Street":[1.0],"HouseNumber":1.0,"PostalCode":1.0},"MatchType":"interpolated","Location":{"LocationId":"NT_1Wrl2zBB9GIdY-FjTrF6gB_5EE","LocationType":"point","DisplayPosition":{"Latitude":51.53634,"Longitude":9.94148},"MapView":{"TopLeft":{"Latitude":51.5374642,"Longitude":9.9396727},"BottomRight":{"Latitude":51.5352158,"Longitude":9.9432873}},"Address":{"Label":"Theaterplatz 9A, 37073 Göttingen, Deutschland","Country":"DEU","State":"Niedersachsen","County":"Göttingen","City":"Göttingen","District":"Göttingen","Street":"Theaterplatz","HouseNumber":"9A","PostalCode":"37073","AdditionalData":[{"value":"Deutschland","key":"CountryName"},{"value":"Niedersachsen","key":"StateName"},{"value":"Göttingen","key":"CountyName"}]},"MapReference":{"ReferenceId":"906509015","Spot":0.44,"SideOfStreet":"right","CountryId":"20147700","StateId":"20151542","CountyId":"20151840","CityId":"20151920","DistrictId":"20151929","AddressId":"177143617","RoadLinkId":"267103014"}}},{"Relevance":1.0,"Distance":36.5,"MatchLevel":"houseNumber","MatchQuality":{"Country":1.0,"State":1.0,"County":1.0,"City":1.0,"District":1.0,"Street":[1.0],"HouseNumber":1.0,"PostalCode":1.0},"MatchType":"interpolated","Location":{"LocationId":"NT_C873UMATsPikHmAi.IaT6C_yA","LocationType":"point","DisplayPosition":{"Latitude":51.53649,"Longitude":9.94238},"MapView":{"TopLeft":{"Latitude":51.5376142,"Longitude":9.9405727},"BottomRight":{"Latitude":51.5353658,"Longitude":9.9441873}},"Address":{"Label":"Planckstraße 2, 37073 Göttingen, Deutschland","Country":"DEU","State":"Niedersachsen","County":"Göttingen","City":"Göttingen","District":"Göttingen","Street":"Planckstraße","HouseNumber":"2","PostalCode":"37073","AdditionalData":[{"value":"Deutschland","key":"CountryName"},{"value":"Niedersachsen","key":"StateName"},{"value":"Göttingen","key":"CountyName"}]},"MapReference":{"ReferenceId":"51833147","Spot":0.15,"SideOfStreet":"right","CountryId":"20147700","StateId":"20151542","CountyId":"20151840","CityId":"20151920","DistrictId":"20151929","AddressId":"181568244","RoadLinkId":"36656150"}}},{"Relevance":1.0,"Distance":40.4,"MatchLevel":"houseNumber","MatchQuality":{"Country":1.0,"State":1.0,"County":1.0,"City":1.0,"District":1.0,"Street":[1.0],"HouseNumber":1.0,"PostalCode":1.0},"MatchType":"interpolated","Location":{"LocationId":"NT_sPxbKFhL-uciXRxVeB4U9A_xYD","LocationType":"point","DisplayPosition":{"Latitude":51.53664,"Longitude":9.94179},"MapView":{"TopLeft":{"Latitude":51.5377642,"Longitude":9.9399827},"BottomRight":{"Latitude":51.5355158,"Longitude":9.9435973}},"Address":{"Label":"Bühlstraße 16, 37073 Göttingen, Deutschland","Country":"DEU","State":"Niedersachsen","County":"Göttingen","City":"Göttingen","District":"Göttingen","Street":"Bühlstraße","HouseNumber":"16","PostalCode":"37073","AdditionalData":[{"value":"Deutschland","key":"CountryName"},{"value":"Niedersachsen","key":"StateName"},{"value":"Göttingen","key":"CountyName"}]},"MapReference":{"ReferenceId":"906794712","Spot":0.29,"SideOfStreet":"right","CountryId":"20147700","StateId":"20151542","CountyId":"20151840","CityId":"20151920","DistrictId":"20151929","AddressId":"180882256","RoadLinkId":"267437538"}}},{"Relevance":1.0,"Distance":52.6,"MatchLevel":"houseNumber","MatchQuality":{"Country":1.0,"State":1.0,"County":1.0,"City":1.0,"District":1.0,"Street":[1.0],"HouseNumber":1.0,"PostalCode":1.0},"MatchType":"interpolated","Location":{"LocationId":"NT_Cq7BwDhcfYtO6CKte3Nj8A_zA","LocationType":"point","DisplayPosition":{"Latitude":51.53593,"Longitude":9.94264},"MapView":{"TopLeft":{"Latitude":51.5370542,"Longitude":9.9408328},"BottomRight":{"Latitude":51.5348058,"Longitude":9.9444472}},"Address":{"Label":"Baurat-Gerber-Straße 3, 37073 Göttingen, Deutschland","Country":"DEU","State":"Niedersachsen","County":"Göttingen","City":"Göttingen","District":"Göttingen","Street":"Baurat-Gerber-Straße","HouseNumber":"3","PostalCode":"37073","AdditionalData":[{"value":"Deutschland","key":"CountryName"},{"value":"Niedersachsen","key":"StateName"},{"value":"Göttingen","key":"CountyName"}]},"MapReference":{"ReferenceId":"51962476","Spot":0.18,"SideOfStreet":"left","CountryId":"20147700","StateId":"20151542","CountyId":"20151840","CityId":"20151920","DistrictId":"20151929","AddressId":"180678616","RoadLinkId":"36323231"}}},{"Relevance":1.0,"Distance":54.0,"MatchLevel":"street","MatchQuality":{"Country":1.0,"State":1.0,"County":1.0,"City":1.0,"District":1.0,"Street":[1.0],"PostalCode":1.0},"Location":{"LocationId":"NT_1Wrl2zBB9GIdY-FjTrF6gB_l_906509014_R","LocationType":"point","DisplayPosition":{"Latitude":51.53629,"Longitude":9.9412},"MapView":{"TopLeft":{"Latitude":51.53629,"Longitude":9.94082},"BottomRight":{"Latitude":51.53614,"Longitude":9.9412}},"Address":{"Label":"Theaterplatz, 37073 Göttingen, Deutschland","Country":"DEU","State":"Niedersachsen","County":"Göttingen","City":"Göttingen","District":"Göttingen","Street":"Theaterplatz","PostalCode":"37073","AdditionalData":[{"value":"Deutschland","key":"CountryName"},{"value":"Niedersachsen","key":"StateName"},{"value":"Göttingen","key":"CountyName"}]},"MapReference":{"ReferenceId":"906509014","Spot":1.0,"SideOfStreet":"right","CountryId":"20147700","StateId":"20151542","CountyId":"20151840","CityId":"20151920","DistrictId":"20151929"}}},{"Relevance":1.0,"Distance":55.2,"MatchLevel":"houseNumber","MatchQuality":{"Country":1.0,"State":1.0,"County":1.0,"City":1.0,"District":1.0,"Street":[1.0],"HouseNumber":1.0,"PostalCode":1.0},"MatchType":"interpolated","Location":{"LocationId":"NT_sPxbKFhL-uciXRxVeB4U9A_xAD","LocationType":"point","DisplayPosition":{"Latitude":51.53578,"Longitude":9.94194},"MapView":{"TopLeft":{"Latitude":51.5369042,"Longitude":9.9401328},"BottomRight":{"Latitude":51.5346558,"Longitude":9.9437472}},"Address":{"Label":"Bühlstraße 10, 37073 Göttingen, Deutschland","Country":"DEU","State":"Niedersachsen","County":"Göttingen","City":"Göttingen","District":"Göttingen","Street":"Bühlstraße","HouseNumber":"10","PostalCode":"37073","AdditionalData":[{"value":"Deutschland","key":"CountryName"},{"value":"Niedersachsen","key":"StateName"},{"value":"Göttingen","key":"CountyName"}]},"MapReference":{"ReferenceId":"51830145","Spot":0.85,"SideOfStreet":"right","CountryId":"20147700","StateId":"20151542","CountyId":"20151840","CityId":"20151920","DistrictId":"20151929","AddressId":"179349041","RoadLinkId":"36807828"}}},{"Relevance":1.0,"Distance":66.7,"MatchLevel":"houseNumber","MatchQuality":{"Country":1.0,"State":1.0,"County":1.0,"City":1.0,"District":1.0,"Street":[1.0],"HouseNumber":1.0,"PostalCode":1.0},"MatchType":"interpolated","Location":{"LocationId":"NT_1Wrl2zBB9GIdY-FjTrF6gB_4A","LocationType":"point","DisplayPosition":{"Latitude":51.53579,"Longitude":9.94093},"MapView":{"TopLeft":{"Latitude":51.5369142,"Longitude":9.9391228},"BottomRight":{"Latitude":51.5346658,"Longitude":9.9427372}},"Address":{"Label":"Theaterplatz 8, 37073 Göttingen, Deutschland","Country":"DEU","State":"Niedersachsen","County":"Göttingen","City":"Göttingen","District":"Göttingen","Street":"Theaterplatz","HouseNumber":"8","PostalCode":"37073","AdditionalData":[{"value":"Deutschland","key":"CountryName"},{"value":"Niedersachsen","key":"StateName"},{"value":"Göttingen","key":"CountyName"}]},"MapReference":{"ReferenceId":"51831122","Spot":0.39,"SideOfStreet":"right","CountryId":"20147700","StateId":"20151542","CountyId":"20151840","CityId":"20151920","DistrictId":"20151929","AddressId":"181487743","RoadLinkId":"36362896"}}}]}]}}