{"Response":{"MetaInfo":{"Timestamp":"2020-03-28T09:50:04.928+0000","NextPageInformation":"2"},"View":[{"_type":"SearchResultsViewType","ViewId":0,"Result":[{"Relevance":1.0,"Distance":0.0,"Direction":0.0,"MatchLevel":"district","MatchQuality":{"Country":1.0,"State":1.0,"County":1.0,"City":1.0,"District":1.0,"PostalCode":1.0},"Location":{"LocationId":"NT_KIwpr7pFENT5yawkjRiM3C","LocationType":"point","DisplayPosition":{"Latitude":51.5643973,"Longitude":-0.1299047},"MapView":{"TopLeft":{"Latitude":51.57419,"Longitude":-0.14671},"BottomRight":{"Latitude":51.55274,"Longitude":-0.11664}},"Address":{"Label":"N19, London, England, United Kingdom","Country":"GBR","State":"England","County":"London","City":"London","District":"N19","PostalCode":"N19 3","AdditionalData":[{"value":"United Kingdom","key":"CountryName"},{"value":"England","key":"StateName"},{"value":"London","key":"CountyName"}]},"MapReference":{"ReferenceId":"25347334","SideOfStreet":"neither","StateId":"20248595","CountyId":"20337453","CityId":"20337454","DistrictId":"20337502"}}},{"Relevance":1.0,"Distance":8.2,"MatchLevel":"houseNumber","MatchQuality":{"Country":1.0,"State":1.0,"County":1.0,"City":1.0,"District":1.0,"Street":[1.0],"HouseNumber":1.0,"PostalCode":1.0},"MatchType":"interpolated","Location":{"LocationId":"NT_hFrsvOiXEri3.Q2QmE.ojD_xEG","LocationType":"point","DisplayPosition":{"Latitude":51.56434,"Longitude":-0.12983},"MapView":{"TopLeft":{"Latitude":51.5654642,"Longitude":-0.1316384},"BottomRight":{"Latitude":51.5632158,"Longitude":-0.1280216}},"Address":{"Label":"1a Fairbridge Road, London, N19 3, United Kingdom","Country":"GBR","State":"England","County":"London","City":"London","District":"Holloway","Street":"Fairbridge Road","HouseNumber":"1a","PostalCode":"N19 3","AdditionalData":[{"value":"United Kingdom","key":"CountryName"},{"value":"England","key":"StateName"},{"value":"London","key":"CountyName"}]},"MapReference":{"ReferenceId":"1249285755","Spot":0.08,"SideOfStreet":"left","StateId":"20248595","CountyId":"20337453","CityId":"20337454","AddressId":"747549765","RoadLinkId":"571967479"}}},{"Relevance":1.0,"Distance":9.1,"MatchLevel":"street","MatchQuality":{"Country":1.0,"State":1.0,"County":1.0,"City":1.0,"District":1.0,"Street":[1.0],"PostalCode":1.0},"Location":{"LocationId":"NT_hFrsvOiXEri3.Q2QmE.ojD_l_25347291_L","LocationType":"point","DisplayPosition":{"Latitude":51.56432,"Longitude":-0.12986},"MapView":{"TopLeft":{"Latitude":51.56432,"Longitude":-0.13014},"BottomRight":{"Latitude":51.56413,"Longitude":-0.12986}},"Address":{"Label":"Fairbridge Road, London, N19 3, United Kingdom","Country":"GBR","State":"England","County":"London","City":"London","District":"Holloway","Street":"Fairbridge Road","PostalCode":"N19 3","AdditionalData":[{"value":"United Kingdom","key":"CountryName"},{"value":"England","key":"StateName"},{"value":"London","key":"CountyName"}]},"MapReference":{"ReferenceId":"25347291","Spot":1.0,"SideOfStreet":"left","StateId":"20248595","CountyId":"20337453","CityId":"20337454"}}},{"Relevance":1.0,"Distance":11.1,"MatchLevel":"houseNumber","MatchQuality":{"Country":1.0,"State":1.0,"County":1.0,"City":1.0,"District":1.0,"Street":[1.0],"HouseNumber":1.0,"PostalCode":1.0},"MatchType":"interpolated","Location":{"LocationId":"NT_qfEYN.C8k6ptTajn4q022B_zA","LocationType":"point","DisplayPosition":{"Latitude":51.56444,"Longitude":-0.13005},"MapView":{"TopLeft":{"Latitude":51.5655642,"Longitude":-0.1318584},"BottomRight":{"Latitude":51.5633158,"Longitude":-0.1282416}},"Address":{"Label":"3 Criterion Mews, London, N19 3EN, United Kingdom","Country":"GBR","State":"England","County":"London","City":"London","District":"Holloway","Street":"Criterion Mews","HouseNumber":"3","PostalCode":"N19 3EN","AdditionalData":[{"value":"United Kingdom","key":"CountryName"},{"value":"England","key":"StateName"},{"value":"London","key":"CountyName"}]},"MapReference":{"ReferenceId":"25347260","Spot":0.18,"SideOfStreet":"left","StateId":"20248595","CountyId":"20337453","CityId":"20337454","AddressId":"747789657","RoadLinkId":"82489091"}}},{"Relevance":1.0,"Distance":17.9,"MatchLevel":"houseNumber","MatchQuality":{"Country":1.0,"State":1.0,"County":1.0,"City":1.0,"District":1.0,"Street":[1.0],"HouseNumber":1.0,"PostalCode":1.0},"MatchType":"interpolated","Location":{"LocationId":"NT_p4YVwH-kZznRPasWaOO8VA_3MjM","LocationType":"point","DisplayPosition":{"Latitude":51.56407,"Longitude":-0.12994},"MapView":{"TopLeft":{"Latitude":51.5651942,"Longitude":-0.1317484},"BottomRight":{"Latitude":51.5629458,"Longitude":-0.1281316}},"Address":{"Label":"732 Holloway Road, London, N19 3JD, United Kingdom","Country":"GBR","State":"England","County":"London","City":"London","District":"Holloway","Street":"Holloway Road","HouseNumber":"732","PostalCode":"N19 3JD","AdditionalData":[{"value":"United Kingdom","key":"CountryName"},{"value":"England","key":"StateName"},{"value":"London","key":"CountyName"}]},"MapReference":{"ReferenceId":"25347334","Spot":0.78,"SideOfStreet":"right","StateId":"20248595","CountyId":"20337453","CityId":"20337454","AddressId":"748213791","RoadLinkId":"82518965"}}},{"Relevance":1.0,"Distance":23.6,"MatchLevel":"houseNumber","MatchQuality":{"Country":1.0,"State":1.0,"County":1.0,"City":1.0,"District":1.0,"Street":[1.0],"HouseNumber":1.0,"PostalCode":1.0},"MatchType":"interpolated","Location":{"LocationId":"NT_p4YVwH-kZznRPasWaOO8VA_3MDN","LocationType":"point","DisplayPosition":{"Latitude":51.56417,"Longitude":-0.13028},"MapView":{"TopLeft":{"Latitude":51.5652942,"Longitude":-0.1320884},"BottomRight":{"Latitude":51.5630458,"Longitude":-0.1284716}},"Address":{"Label":"734 Holloway Road, London, N19 3, United Kingdom","Country":"GBR","State":"England","County":"London","City":"London","District":"Holloway","Street":"Holloway Road","HouseNumber":"734","PostalCode":"N19 3","AdditionalData":[{"value":"United Kingdom","key":"CountryName"},{"value":"England","key":"StateName"},{"value":"London","key":"CountyName"}]},"MapReference":{"ReferenceId":"835648426","Spot":0.74,"SideOfStreet":"right","StateId":"20248595","CountyId":"20337453","CityId":"20337454","AddressId":"748112902","RoadLinkId":"218902948"}}},{"Relevance":1.0,"Distance":32.0,"MatchLevel":"houseNumber","MatchQuality":{"Country":1.0,"State":1.0,"County":1.0,"City":1.0,"District":1.0,"Street":[1.0],"HouseNumber":1.0,"PostalCode":1.0},"MatchType":"interpolated","Location":{"LocationId":"NT_p4YVwH-kZznRPasWaOO8VA_3MDO","LocationType":"point","DisplayPosition":{"Latitude":51.5642,"Longitude":-0.13042},"MapView":{"TopLeft":{"Latitude":51.5653242,"Longitude":-0.1322284},"BottomRight":{"Latitude":51.5630758,"Longitude":-0.1286116}},"Address":{"Label":"738 Holloway Road, London, N19 3JF, United Kingdom","Country":"GBR","State":"England","County":"London","City":"London","District":"Holloway","Street":"Holloway Road","HouseNumber":"738","PostalCode":"N19 3JF","AdditionalData":[{"value":"United Kingdom","key":"CountryName"},{"value":"England","key":"StateName"},{"value":"London","key":"CountyName"}]},"MapReference":{"ReferenceId":"835648427","Spot":0.3,"SideOfStreet":"right","StateId":"20248595","CountyId":"20337453","CityId":"20337454","AddressId":"747685024","RoadLinkId":"218902949"}}},{"Relevance":1.0,"Distance":41.6,"MatchLevel":"houseNumber","MatchQuality":{"Country":1.0,"State":1.0,"County":1.0,"City":1.0,"District":1.0,"Street":[1.0],"HouseNumber":1.0,"PostalCode":1.0},"MatchType":"interpolated","Location":{"LocationId":"NT_hFrsvOiXEri3.Q2QmE.ojD_xMD","LocationType":"point","DisplayPosition":{"Latitude":51.56461,"Longitude":-0.12941},"MapView":{"TopLeft":{"Latitude":51.5657342,"Longitude":-0.1312184},"BottomRight":{"Latitude":51.5634858,"Longitude":-0.1276016}},"Address":{"Label":"13 Fairbridge Road, London, N19 3EW, United Kingdom","Country":"GBR","State":"England","County":"London","City":"London","District":"Holloway","Street":"Fairbridge Road","HouseNumber":"13","PostalCode":"N19 3EW","AdditionalData":[{"value":"United Kingdom","key":"CountryName"},{"value":"England","key":"StateName"},{"value":"London","key":"CountyName"}]},"MapReference":{"ReferenceId":"1249285756","Spot":0.07,"SideOfStreet":"left","StateId":"20248595","CountyId":"20337453","CityId":"20337454","AddressId":"747794581","RoadLinkId":"571967480"}}},{"Relevance":1.0,"Distance":43.5,"MatchLevel":"postalCode","MatchQuality":{"PostalCode":1.0},"MatchType":"interpolated","Location":{"LocationId":"NT_p4YVwH-kZznRPasWaOO8VA_3MjM","LocationType":"point","DisplayPosition":{"Latitude":51.56404,"Longitude":-0.12965},"MapView":{"TopLeft":{"Latitude":51.5730332,"Longitude":-0.1441169},"BottomRight":{"Latitude":51.5550468,"Longitude":-0.1151831}},"Address":{"Label":"N19 3JD, London, England, United Kingdom","Country":"GBR","State":"England","County":"London","City":"London","PostalCode":"N19 3JD","AdditionalData":[{"value":"United Kingdom","key":"CountryName"},{"value":"England","key":"StateName"},{"value":"London","key":"CountyName"}]},"MapReference":{"ReferenceId":"25347334","Spot":0.78,"SideOfStreet":"neither","StateId":"20248595","CountyId":"20337453","CityId":"20337454"}}},{"Relevance":1.0,"Distance":45.3,"MatchLevel":"postalCode","MatchQuality":{"PostalCode":1.0},"MatchType":"interpolated","Location":{"LocationId":"NT_qfEYN.C8k6ptTajn4q022B_zA","LocationType":"point","DisplayPosition":{"Latitude":51.56452,"Longitude":-0.13053},"MapView":{"TopLeft":{"Latitude":51.5735132,"Longitude":-0.1449971},"BottomRight":{"Latitude":51.5555268,"Longitude":-0.1160629}},"Address":{"Label":"N19 3EN, London, England, United Kingdom","Country":"GBR","State":"England","County":"London","City":"London","PostalCode":"N19 3EN","AdditionalData":[{"value":"United Kingdom","key":"CountryName"},{"value":"England","key":"StateName"},{"value":"London","key":"CountyName"}]},"MapReference":{"ReferenceId":"25347260","Spot":0.18,"SideOfStreet":"neither","StateId":"20248595","CountyId":"20337453","CityId":"20337454"}}}]}]}}