{"Response":{"MetaInfo":{"Timestamp":"2020-03-28T11:02:07.738+0000","NextPageInformation":"2"},"View":[{"_type":"SearchResultsViewType","ViewId":0,"Result":[{"Relevance":1.0,"Distance":0.0,"Direction":0.0,"MatchLevel":"district","MatchQuality":{"Country":1.0,"State":1.0,"County":1.0,"City":1.0,"District":1.0,"PostalCode":1.0},"Location":{"LocationId":"NT_Bk.93cSPj9pRw8Wn-T-JvC","LocationType":"point","DisplayPosition":{"Latitude":51.5086843,"Longitude":7.4582461},"MapView":{"TopLeft":{"Latitude":51.54671,"Longitude":7.42309},"BottomRight":{"Latitude":51.4864,"Longitude":7.52611}},"Address":{"Label":"Mitte, Dortmund, Nordrhein-Westfalen, Deutschland","Country":"DEU","State":"Nordrhein-Westfalen","County":"Dortmund","City":"Dortmund","District":"Mitte","PostalCode":"44137","AdditionalData":[{"value":"Deutschland","key":"CountryName"},{"value":"Nordrhein-Westfalen","key":"StateName"},{"value":"Dortmund","key":"CountyName"}]},"MapReference":{"ReferenceId":"61374070","SideOfStreet":"neither","CountryId":"20147700","StateId":"20157369","CountyId":"20160172","CityId":"20160173","DistrictId":"20248492"}}},{"Relevance":1.0,"Distance":11.6,"MatchLevel":"landmark","MatchQuality":{"Country":1.0,"State":1.0,"County":1.0,"City":1.0,"District":1.0,"Street":[1.0],"HouseNumber":1.0,"PostalCode":1.0,"Name":1.0},"Location":{"LocationId":"NT_jnauK28BaA5hYQRTx2AyMA_p_14MIxrqkoWQXVHc.XxPO-D","LocationType":"hospital","Name":"Klinikzentrum Dortmund-Mitte","DisplayPosition":{"Latitude":51.50904,"Longitude":7.45734},"MapView":{"TopLeft":{"Latitude":51.5101642,"Longitude":7.4555338},"BottomRight":{"Latitude":51.5079158,"Longitude":7.4591462}},"Address":{"Label":"Beurhausstraße 40, 44137 Dortmund, Deutschland","Country":"DEU","State":"Nordrhein-Westfalen","County":"Dortmund","City":"Dortmund","District":"Mitte","Street":"Beurhausstraße","HouseNumber":"40","PostalCode":"44137","AdditionalData":[{"value":"Deutschland","key":"CountryName"},{"value":"Nordrhein-Westfalen","key":"StateName"},{"value":"Dortmund","key":"CountyName"}]},"MapReference":{"CountryId":"20147700","StateId":"20157369","CountyId":"20160172","CityId":"20160173","DistrictId":"20248492","PlaceId":"50543503"}}},{"Relevance":1.0,"Distance":11.6,"MatchLevel":"street","MatchQuality":{"Country":1.0,"State":1.0,"County":1.0,"City":1.0,"District":1.0,"PostalCode":1.0},"Location":{"LocationId":"NT_6DURDXs0Qy6Xf9iAUPU5ND_l_51163723_R","LocationType":"point","DisplayPosition":{"Latitude":51.5085831,"Longitude":7.4582027},"MapView":{"TopLeft":{"Latitude":51.50867,"Longitude":7.45811},"BottomRight":{"Latitude":51.50828,"Longitude":7.45912}},"Address":{"Label":"44137 Dortmund, Deutschland","Country":"DEU","State":"Nordrhein-Westfalen","County":"Dortmund","City":"Dortmund","District":"Mitte","PostalCode":"44137","AdditionalData":[{"value":"Deutschland","key":"CountryName"},{"value":"Nordrhein-Westfalen","key":"StateName"},{"value":"Dortmund","key":"CountyName"}]},"MapReference":{"ReferenceId":"51163723","Spot":0.88,"SideOfStreet":"right","CountryId":"20147700","StateId":"20157369","CountyId":"20160172","CityId":"20160173","DistrictId":"20248492"}}},{"Relevance":1.0,"Distance":24.4,"MatchLevel":"houseNumber","MatchQuality":{"Country":1.0,"State":1.0,"County":1.0,"City":1.0,"District":1.0,"Street":[1.0],"HouseNumber":1.0,"PostalCode":1.0},"MatchType":"interpolated","Location":{"LocationId":"NT_6r8L0GgUnAwDajrmy3bEIC_ygD","LocationType":"point","DisplayPosition":{"Latitude":51.50888,"Longitude":7.45809},"MapView":{"TopLeft":{"Latitude":51.5100042,"Longitude":7.4562838},"BottomRight":{"Latitude":51.5077558,"Longitude":7.4598962}},"Address":{"Label":"Beurhausstraße 28, 44137 Dortmund, Deutschland","Country":"DEU","State":"Nordrhein-Westfalen","County":"Dortmund","City":"Dortmund","District":"Mitte","Street":"Beurhausstraße","HouseNumber":"28","PostalCode":"44137","AdditionalData":[{"value":"Deutschland","key":"CountryName"},{"value":"Nordrhein-Westfalen","key":"StateName"},{"value":"Dortmund","key":"CountyName"}]},"MapReference":{"ReferenceId":"51161641","Spot":0.54,"SideOfStreet":"right","CountryId":"20147700","StateId":"20157369","CountyId":"20160172","CityId":"20160173","DistrictId":"20248492","AddressId":"167830681","RoadLinkId":"35317672"}}},{"Relevance":1.0,"Distance":41.2,"MatchLevel":"houseNumber","MatchQuality":{"Country":1.0,"State":1.0,"County":1.0,"City":1.0,"District":1.0,"Street":[1.0],"HouseNumber":1.0,"PostalCode":1.0},"MatchType":"interpolated","Location":{"LocationId":"NT_6r8L0GgUnAwDajrmy3bEIC_yYD","LocationType":"point","DisplayPosition":{"Latitude":51.50908,"Longitude":7.45872},"MapView":{"TopLeft":{"Latitude":51.5102042,"Longitude":7.4569138},"BottomRight":{"Latitude":51.5079558,"Longitude":7.4605262}},"Address":{"Label":"Beurhausstraße 26, 44137 Dortmund, Deutschland","Country":"DEU","State":"Nordrhein-Westfalen","County":"Dortmund","City":"Dortmund","District":"Mitte","Street":"Beurhausstraße","HouseNumber":"26","PostalCode":"44137","AdditionalData":[{"value":"Deutschland","key":"CountryName"},{"value":"Nordrhein-Westfalen","key":"StateName"},{"value":"Dortmund","key":"CountyName"}]},"MapReference":{"ReferenceId":"51161643","Spot":0.64,"SideOfStreet":"right","CountryId":"20147700","StateId":"20157369","CountyId":"20160172","CityId":"20160173","DistrictId":"20248492","AddressId":"169869953","RoadLinkId":"35614499"}}},{"Relevance":1.0,"Distance":52.2,"MatchLevel":"houseNumber","MatchQuality":{"Country":1.0,"State":1.0,"County":1.0,"City":1.0,"District":1.0,"Street":[1.0],"HouseNumber":1.0,"PostalCode":1.0},"MatchType":"interpolated","Location":{"LocationId":"NT_6r8L0GgUnAwDajrmy3bEIC_0AD","LocationType":"point","DisplayPosition":{"Latitude":51.50904,"Longitude":7.45746},"MapView":{"TopLeft":{"Latitude":51.5101642,"Longitude":7.4556538},"BottomRight":{"Latitude":51.5079158,"Longitude":7.4592662}},"Address":{"Label":"Beurhausstraße 40, 44137 Dortmund, Deutschland","Country":"DEU","State":"Nordrhein-Westfalen","County":"Dortmund","City":"Dortmund","District":"Mitte","Street":"Beurhausstraße","HouseNumber":"40","PostalCode":"44137","AdditionalData":[{"value":"Deutschland","key":"CountryName"},{"value":"Nordrhein-Westfalen","key":"StateName"},{"value":"Dortmund","key":"CountyName"}]},"MapReference":{"ReferenceId":"51161646","Spot":1.0,"SideOfStreet":"right","CountryId":"20147700","StateId":"20157369","CountyId":"20160172","CityId":"20160173","DistrictId":"20248492","AddressId":"168033831","RoadLinkId":"35403827"}}},{"Relevance":1.0,"Distance":54.2,"MatchLevel":"houseNumber","MatchQuality":{"Country":1.0,"State":1.0,"County":1.0,"City":1.0,"District":1.0,"Street":[1.0],"HouseNumber":1.0,"PostalCode":1.0},"MatchType":"interpolated","Location":{"LocationId":"NT_N5kghoQGbLGX2SRqdgJ19B_ycD","LocationType":"point","DisplayPosition":{"Latitude":51.50876,"Longitude":7.45911},"MapView":{"TopLeft":{"Latitude":51.5098842,"Longitude":7.4573038},"BottomRight":{"Latitude":51.5076358,"Longitude":7.4609162}},"Address":{"Label":"Luisenstraße 27, 44137 Dortmund, Deutschland","Country":"DEU","State":"Nordrhein-Westfalen","County":"Dortmund","City":"Dortmund","District":"Mitte","Street":"Luisenstraße","HouseNumber":"27","PostalCode":"44137","AdditionalData":[{"value":"Deutschland","key":"CountryName"},{"value":"Nordrhein-Westfalen","key":"StateName"},{"value":"Dortmund","key":"CountyName"}]},"MapReference":{"ReferenceId":"51161996","Spot":0.59,"SideOfStreet":"left","CountryId":"20147700","StateId":"20157369","CountyId":"20160172","CityId":"20160173","DistrictId":"20248492","AddressId":"167989264","RoadLinkId":"35040036"}}},{"Relevance":1.0,"Distance":61.9,"MatchLevel":"houseNumber","MatchQuality":{"Country":1.0,"State":1.0,"County":1.0,"City":1.0,"District":1.0,"Street":[1.0],"HouseNumber":1.0,"PostalCode":1.0},"MatchType":"interpolated","Location":{"LocationId":"NT_6r8L0GgUnAwDajrmy3bEIC_zID","LocationType":"point","DisplayPosition":{"Latitude":51.50904,"Longitude":7.45752},"MapView":{"TopLeft":{"Latitude":51.5101642,"Longitude":7.4557138},"BottomRight":{"Latitude":51.5079158,"Longitude":7.4593262}},"Address":{"Label":"Beurhausstraße 32, 44137 Dortmund, Deutschland","Country":"DEU","State":"Nordrhein-Westfalen","County":"Dortmund","City":"Dortmund","District":"Mitte","Street":"Beurhausstraße","HouseNumber":"32","PostalCode":"44137","AdditionalData":[{"value":"Deutschland","key":"CountryName"},{"value":"Nordrhein-Westfalen","key":"StateName"},{"value":"Dortmund","key":"CountyName"}]},"MapReference":{"ReferenceId":"51161644","Spot":0.1,"SideOfStreet":"right","CountryId":"20147700","StateId":"20157369","CountyId":"20160172","CityId":"20160173","DistrictId":"20248492","AddressId":"622019231","RoadLinkId":"35735754"}}},{"Relevance":1.0,"Distance":81.9,"MatchLevel":"street","MatchQuality":{"Country":1.0,"State":1.0,"County":1.0,"City":1.0,"District":1.0,"Street":[1.0],"PostalCode":1.0},"Location":{"LocationId":"NT_DMUI1ZTbzq5SK0TwESJ71D_l_61382155_R","LocationType":"point","DisplayPosition":{"Latitude":51.50904,"Longitude":7.45721},"MapView":{"TopLeft":{"Latitude":51.50904,"Longitude":7.45694},"BottomRight":{"Latitude":51.50903,"Longitude":7.45721}},"Address":{"Label":"Beurhausstraße, 44137 Dortmund, Deutschland","Country":"DEU","State":"Nordrhein-Westfalen","County":"Dortmund","City":"Dortmund","District":"Mitte","Street":"Beurhausstraße","PostalCode":"44137","AdditionalData":[{"value":"Deutschland","key":"CountryName"},{"value":"Nordrhein-Westfalen","key":"StateName"},{"value":"Dortmund","key":"CountyName"}]},"MapReference":{"ReferenceId":"61382155","Spot":1.0,"SideOfStreet":"right","CountryId":"20147700","StateId":"20157369","CountyId":"20160172","CityId":"20160173","DistrictId":"20248492"}}},{"Relevance":1.0,"Distance":82.8,"MatchLevel":"houseNumber","MatchQuality":{"Country":1.0,"State":1.0,"County":1.0,"City":1.0,"District":1.0,"Street":[1.0],"HouseNumber":1.0,"PostalCode":1.0},"MatchType":"interpolated","Location":{"LocationId":"NT_6r8L0GgUnAwDajrmy3bEIC_yAD","LocationType":"point","DisplayPosition":{"Latitude":51.50909,"Longitude":7.45933},"MapView":{"TopLeft":{"Latitude":51.5102142,"Longitude":7.4575238},"BottomRight":{"Latitude":51.5079658,"Longitude":7.4611362}},"Address":{"Label":"Beurhausstraße 20, 44137 Dortmund, Deutschland","Country":"DEU","State":"Nordrhein-Westfalen","County":"Dortmund","City":"Dortmund","District":"Mitte","Street":"Beurhausstraße","HouseNumber":"20","PostalCode":"44137","AdditionalData":[{"value":"Deutschland","key":"CountryName"},{"value":"Nordrhein-Westfalen","key":"StateName"},{"value":"Dortmund","key":"CountyName"}]},"MapReference":{"ReferenceId":"1083440011","Spot":0.3,"SideOfStreet":"right","CountryId":"20147700","StateId":"20157369","CountyId":"20160172","CityId":"20160173","DistrictId":"20248492","AddressId":"622019229","RoadLinkId":"399893234"}}}]}]}}