{"Response":{"MetaInfo":{"Timestamp":"2020-03-28T10:33:13.329+0000","NextPageInformation":"2"},"View":[{"_type":"SearchResultsViewType","ViewId":0,"Result":[{"Relevance":1.0,"Distance":0.0,"Direction":0.0,"MatchLevel":"district","MatchQuality":{"Country":1.0,"State":1.0,"County":1.0,"City":1.0,"District":1.0,"PostalCode":1.0},"Location":{"LocationId":"NT_W4yr47.yTk7-hECkBUCRxD","LocationType":"point","DisplayPosition":{"Latitude":51.5469999,"Longitude":-0.2296365},"MapView":{"TopLeft":{"Latitude":51.56062,"Longitude":-0.25691},"BottomRight":{"Latitude":51.53549,"Longitude":-0.21831}},"Address":{"Label":"Willesden, London, England, United Kingdom","Country":"GBR","State":"England","County":"London","City":"London","District":"Willesden","PostalCode":"NW2 4","AdditionalData":[{"value":"United Kingdom","key":"CountryName"},{"value":"England","key":"StateName"},{"value":"London","key":"CountyName"}]},"MapReference":{"ReferenceId":"1249851245","SideOfStreet":"neither","StateId":"20248595","CountyId":"20337453","CityId":"20337454"}}},{"Relevance":1.0,"Distance":3.3,"MatchLevel":"houseNumber","MatchQuality":{"Country":1.0,"State":1.0,"County":1.0,"City":1.0,"District":1.0,"Street":[1.0],"HouseNumber":1.0,"PostalCode":1.0},"MatchType":"interpolated","Location":{"LocationId":"NT_bDlRHNjixnA-EKtwcu32QD_xATM","LocationType":"point","DisplayPosition":{"Latitude":51.54709,"Longitude":-0.22968},"MapView":{"TopLeft":{"Latitude":51.5482142,"Longitude":-0.2314877},"BottomRight":{"Latitude":51.5459658,"Longitude":-0.2278723}},"Address":{"Label":"101 High Road, London, NW10 2SL, United Kingdom","Country":"GBR","State":"England","County":"London","City":"London","District":"Willesden","Street":"High Road","HouseNumber":"101","PostalCode":"NW10 2SL","AdditionalData":[{"value":"United Kingdom","key":"CountryName"},{"value":"England","key":"StateName"},{"value":"London","key":"CountyName"}]},"MapReference":{"ReferenceId":"950452571","Spot":0.22,"SideOfStreet":"right","StateId":"20248595","CountyId":"20337453","CityId":"20337454","AddressId":"748348371","RoadLinkId":"297338560"}}},{"Relevance":1.0,"Distance":17.1,"MatchLevel":"houseNumber","MatchQuality":{"Country":1.0,"State":1.0,"County":1.0,"City":1.0,"District":1.0,"Street":[1.0],"HouseNumber":1.0,"PostalCode":1.0},"MatchType":"interpolated","Location":{"LocationId":"NT_bDlRHNjixnA-EKtwcu32QD_xAzN","LocationType":"point","DisplayPosition":{"Latitude":51.54706,"Longitude":-0.2299},"MapView":{"TopLeft":{"Latitude":51.5481842,"Longitude":-0.2317077},"BottomRight":{"Latitude":51.5459358,"Longitude":-0.2280923}},"Address":{"Label":"107 High Road, London, NW10 2SL, United Kingdom","Country":"GBR","State":"England","County":"London","City":"London","District":"Willesden","Street":"High Road","HouseNumber":"107","PostalCode":"NW10 2SL","AdditionalData":[{"value":"United Kingdom","key":"CountryName"},{"value":"England","key":"StateName"},{"value":"London","key":"CountyName"}]},"MapReference":{"ReferenceId":"1249849365","Spot":0.89,"SideOfStreet":"right","StateId":"20248595","CountyId":"20337453","CityId":"20337454","AddressId":"748344706","RoadLinkId":"572618976"}}},{"Relevance":1.0,"Distance":17.9,"MatchLevel":"postalCode","MatchQuality":{"PostalCode":1.0},"MatchType":"interpolated","Location":{"LocationId":"NT_bDlRHNjixnA-EKtwcu32QD_xATM","LocationType":"point","DisplayPosition":{"Latitude":51.54713,"Longitude":-0.22979},"MapView":{"TopLeft":{"Latitude":51.5561232,"Longitude":-0.2442516},"BottomRight":{"Latitude":51.5381368,"Longitude":-0.2153284}},"Address":{"Label":"NW10 2PR, London, England, United Kingdom","Country":"GBR","State":"England","County":"London","City":"London","PostalCode":"NW10 2PR","AdditionalData":[{"value":"United Kingdom","key":"CountryName"},{"value":"England","key":"StateName"},{"value":"London","key":"CountyName"}]},"MapReference":{"ReferenceId":"950452571","Spot":0.22,"SideOfStreet":"neither","StateId":"20248595","CountyId":"20337453","CityId":"20337454"}}},{"Relevance":1.0,"Distance":45.0,"MatchLevel":"houseNumber","MatchQuality":{"Country":1.0,"State":1.0,"County":1.0,"City":1.0,"District":1.0,"Street":[1.0],"HouseNumber":1.0,"PostalCode":1.0},"MatchType":"interpolated","Location":{"LocationId":"NT_.aFMOk7-lEPNj3JqUaMd6D_l_25351194_L_xID","LocationType":"point","DisplayPosition":{"Latitude":51.5466101,"Longitude":-0.2293353},"MapView":{"TopLeft":{"Latitude":51.5477343,"Longitude":-0.2311429},"BottomRight":{"Latitude":51.545486,"Longitude":-0.2275276}},"Address":{"Label":"12 Grange Road, London, NW10 2RG, United Kingdom","Country":"GBR","State":"England","County":"London","City":"London","District":"Willesden","Street":"Grange Road","HouseNumber":"12","PostalCode":"NW10 2RG","AdditionalData":[{"value":"United Kingdom","key":"CountryName"},{"value":"England","key":"StateName"},{"value":"London","key":"CountyName"}]},"MapReference":{"ReferenceId":"25351194","Spot":0.5,"SideOfStreet":"left","StateId":"20248595","CountyId":"20337453","CityId":"20337454"}}},{"Relevance":1.0,"Distance":45.7,"MatchLevel":"houseNumber","MatchQuality":{"Country":1.0,"State":1.0,"County":1.0,"City":1.0,"District":1.0,"Street":[1.0],"HouseNumber":1.0,"PostalCode":1.0},"MatchType":"interpolated","Location":{"LocationId":"NT_HTrXGU2Hpp0N5Gx8LnO8iB_xA","LocationType":"point","DisplayPosition":{"Latitude":51.54724,"Longitude":-0.23051},"MapView":{"TopLeft":{"Latitude":51.5483642,"Longitude":-0.2323177},"BottomRight":{"Latitude":51.5461158,"Longitude":-0.2287023}},"Address":{"Label":"1 Huddlestone Road, London, NW2 5, United Kingdom","Country":"GBR","State":"England","County":"London","City":"London","District":"Willesden","Street":"Huddlestone Road","HouseNumber":"1","PostalCode":"NW2 5","AdditionalData":[{"value":"United Kingdom","key":"CountryName"},{"value":"England","key":"StateName"},{"value":"London","key":"CountyName"}]},"MapReference":{"ReferenceId":"25351124","Spot":0.13,"SideOfStreet":"right","StateId":"20248595","CountyId":"20337453","CityId":"20337454","AddressId":"763436665","RoadLinkId":"82305260"}}},{"Relevance":1.0,"Distance":47.0,"MatchLevel":"houseNumber","MatchQuality":{"Country":1.0,"State":1.0,"County":1.0,"City":1.0,"District":1.0,"Street":[1.0],"PostalCode":1.0},"MatchType":"interpolated","Location":{"LocationId":"NT_pDfEHwMbMwyNswezN9x7uB","LocationType":"point","DisplayPosition":{"Latitude":51.54638,"Longitude":-0.22955},"MapView":{"TopLeft":{"Latitude":51.5475042,"Longitude":-0.2313577},"BottomRight":{"Latitude":51.5452558,"Longitude":-0.2277423}},"Address":{"Label":"Cornwall Gardens, London, NW10 2, United Kingdom","Country":"GBR","State":"England","County":"London","City":"London","District":"Willesden","Street":"Cornwall Gardens","PostalCode":"NW10 2","AdditionalData":[{"value":"United Kingdom","key":"CountryName"},{"value":"England","key":"StateName"},{"value":"London","key":"CountyName"}],"Building":"George Furness House"},"MapReference":{"ReferenceId":"25351197","Spot":0.85,"SideOfStreet":"left","StateId":"20248595","CountyId":"20337453","CityId":"20337454","AddressId":"763604379","RoadLinkId":"82859587"}}},{"Relevance":1.0,"Distance":47.0,"MatchLevel":"postalCode","MatchQuality":{"PostalCode":1.0},"MatchType":"interpolated","Location":{"LocationId":"NT_bDlRHNjixnA-EKtwcu32QD_5MD","LocationType":"point","DisplayPosition":{"Latitude":51.54664,"Longitude":-0.22928},"MapView":{"TopLeft":{"Latitude":51.5556332,"Longitude":-0.2437414},"BottomRight":{"Latitude":51.5376468,"Longitude":-0.2148186}},"Address":{"Label":"NW10 2SF, London, England, United Kingdom","Country":"GBR","State":"England","County":"London","City":"London","PostalCode":"NW10 2SF","AdditionalData":[{"value":"United Kingdom","key":"CountryName"},{"value":"England","key":"StateName"},{"value":"London","key":"CountyName"}]},"MapReference":{"ReferenceId":"25351107","Spot":0.26,"SideOfStreet":"neither","StateId":"20248595","CountyId":"20337453","CityId":"20337454"}}},{"Relevance":1.0,"Distance":50.2,"MatchLevel":"houseNumber","MatchQuality":{"Country":1.0,"State":1.0,"County":1.0,"City":1.0,"District":1.0,"Street":[1.0],"HouseNumber":1.0,"PostalCode":1.0},"MatchType":"interpolated","Location":{"LocationId":"NT_bDlRHNjixnA-EKtwcu32QD_xETO","LocationType":"point","DisplayPosition":{"Latitude":51.54702,"Longitude":-0.23037},"MapView":{"TopLeft":{"Latitude":51.5481442,"Longitude":-0.2321777},"BottomRight":{"Latitude":51.5458958,"Longitude":-0.2285623}},"Address":{"Label":"119 High Road, London, NW10 2, United Kingdom","Country":"GBR","State":"England","County":"London","City":"London","District":"Willesden","Street":"High Road","HouseNumber":"119","PostalCode":"NW10 2","AdditionalData":[{"value":"United Kingdom","key":"CountryName"},{"value":"England","key":"StateName"},{"value":"London","key":"CountyName"}]},"MapReference":{"ReferenceId":"1249849364","Spot":0.45,"SideOfStreet":"right","StateId":"20248595","CountyId":"20337453","CityId":"20337454","AddressId":"748512054","RoadLinkId":"572618975"}}},{"Relevance":1.0,"Distance":57.9,"MatchLevel":"houseNumber","MatchQuality":{"Country":1.0,"State":1.0,"County":1.0,"City":1.0,"District":1.0,"Street":[1.0],"HouseNumber":1.0,"PostalCode":1.0},"MatchType":"interpolated","Location":{"LocationId":"NT_0DqJ0QwEO.Ub0l5ieIiZaD_0A","LocationType":"point","DisplayPosition":{"Latitude":51.54756,"Longitude":-0.22947},"MapView":{"TopLeft":{"Latitude":51.5486842,"Longitude":-0.2312777},"BottomRight":{"Latitude":51.5464358,"Longitude":-0.2276623}},"Address":{"Label":"4 Lechmere Road, London, NW2 5, United Kingdom","Country":"GBR","State":"England","County":"London","City":"London","District":"Willesden","Street":"Lechmere Road","HouseNumber":"4","PostalCode":"NW2 5","AdditionalData":[{"value":"United Kingdom","key":"CountryName"},{"value":"England","key":"StateName"},{"value":"London","key":"CountyName"}]},"MapReference":{"ReferenceId":"25351110","Spot":0.14,"SideOfStreet":"left","StateId":"20248595","CountyId":"20337453","CityId":"20337454","AddressId":"748171757","RoadLinkId":"82619121"}}}]}]}}