{"Response":{"MetaInfo":{"Timestamp":"2020-03-28T09:51:49.320+0000","NextPageInformation":"2"},"View":[{"_type":"SearchResultsViewType","ViewId":0,"Result":[{"Relevance":1.0,"Distance":0.0,"Direction":0.0,"MatchLevel":"district","MatchQuality":{"Country":1.0,"State":1.0,"County":1.0,"City":1.0,"District":1.0,"PostalCode":1.0},"Location":{"LocationId":"NT_R983XS22LROPN2Xn4Y634C","LocationType":"point","DisplayPosition":{"Latitude":51.5225666,"Longitude":-0.1356775},"MapView":{"TopLeft":{"Latitude":51.52776,"Longitude":-0.13811},"BottomRight":{"Latitude":51.51613,"Longitude":-0.11654}},"Address":{"Label":"Bloomsbury, London, England, United Kingdom","Country":"GBR","State":"England","County":"London","City":"London","District":"Bloomsbury","PostalCode":"WC1A 2","AdditionalData":[{"value":"United Kingdom","key":"CountryName"},{"value":"England","key":"StateName"},{"value":"London","key":"CountyName"}]},"MapReference":{"ReferenceId":"1217998505","SideOfStreet":"neither","StateId":"20248595","CountyId":"20337453","CityId":"20337454"}}},{"Relevance":1.0,"Distance":4.4,"MatchLevel":"postalCode","MatchQuality":{"PostalCode":1.0},"Location":{"LocationId":"NT_cE.JMO9Bc4ZnDypoIGcM.C_l_1259627005_L","LocationType":"point","DisplayPosition":{"Latitude":51.52255,"Longitude":-0.13562},"MapView":{"TopLeft":{"Latitude":51.5315432,"Longitude":-0.1500737},"BottomRight":{"Latitude":51.5135568,"Longitude":-0.1211663}},"Address":{"Label":"W1T 7NT, London, England, United Kingdom","Country":"GBR","State":"England","County":"London","City":"London","PostalCode":"W1T 7NT","AdditionalData":[{"value":"United Kingdom","key":"CountryName"},{"value":"England","key":"StateName"},{"value":"London","key":"CountyName"}]},"MapReference":{"ReferenceId":"1259627005","Spot":1.0,"SideOfStreet":"neither","StateId":"20248595","CountyId":"20337453","CityId":"20337454"}}},{"Relevance":1.0,"Distance":5.6,"MatchLevel":"houseNumber","MatchQuality":{"Country":1.0,"State":1.0,"County":1.0,"City":1.0,"District":1.0,"Street":[1.0],"HouseNumber":1.0,"PostalCode":1.0},"MatchType":"interpolated","Location":{"LocationId":"NT_xc.RlK8QJ4d2wgqN7fZ6nC_l_1159104251_L_1A","LocationType":"point","DisplayPosition":{"Latitude":51.5226416,"Longitude":-0.1356131},"MapView":{"TopLeft":{"Latitude":51.5237657,"Longitude":-0.1374198},"BottomRight":{"Latitude":51.5215174,"Longitude":-0.1338064}},"Address":{"Label":"5 Mortimer Market, London, WC1E 6JB, United Kingdom","Country":"GBR","State":"England","County":"London","City":"London","District":"Bloomsbury","Street":"Mortimer Market","HouseNumber":"5","PostalCode":"WC1E 6JB","AdditionalData":[{"value":"United Kingdom","key":"CountryName"},{"value":"England","key":"StateName"},{"value":"London","key":"CountyName"}]},"MapReference":{"ReferenceId":"1159104251","Spot":0.54,"SideOfStreet":"left","StateId":"20248595","CountyId":"20337453","CityId":"20337454"}}},{"Relevance":1.0,"Distance":9.0,"MatchLevel":"houseNumber","MatchQuality":{"Country":1.0,"State":1.0,"County":1.0,"City":1.0,"District":1.0,"Street":[1.0],"HouseNumber":1.0,"PostalCode":1.0},"MatchType":"interpolated","Location":{"LocationId":"NT_cE.JMO9Bc4ZnDypoIGcM.C_l_1259627006_R_2A","LocationType":"point","DisplayPosition":{"Latitude":51.5224967,"Longitude":-0.1356133},"MapView":{"TopLeft":{"Latitude":51.5236208,"Longitude":-0.13742},"BottomRight":{"Latitude":51.5213725,"Longitude":-0.1338066}},"Address":{"Label":"6 Capper Street, London, W1T 7NU, United Kingdom","Country":"GBR","State":"England","County":"London","City":"London","District":"Bloomsbury","Street":"Capper Street","HouseNumber":"6","PostalCode":"W1T 7NU","AdditionalData":[{"value":"United Kingdom","key":"CountryName"},{"value":"England","key":"StateName"},{"value":"London","key":"CountyName"}]},"MapReference":{"ReferenceId":"1259627006","Spot":0.67,"SideOfStreet":"right","StateId":"20248595","CountyId":"20337453","CityId":"20337454"}}},{"Relevance":1.0,"Distance":12.4,"MatchLevel":"houseNumber","MatchQuality":{"Country":1.0,"State":1.0,"County":1.0,"City":1.0,"District":1.0,"Street":[1.0],"HouseNumber":1.0,"PostalCode":1.0},"MatchType":"interpolated","Location":{"LocationId":"NT_RJoaHuJWi8CqHGQnGbEePA_l_25325969_R_yA","LocationType":"point","DisplayPosition":{"Latitude":51.5225501,"Longitude":-0.1354999},"MapView":{"TopLeft":{"Latitude":51.5236742,"Longitude":-0.1373066},"BottomRight":{"Latitude":51.5214259,"Longitude":-0.1336932}},"Address":{"Label":"2 Capper Street, London, WC1E 6JA, United Kingdom","Country":"GBR","State":"England","County":"London","City":"London","District":"Bloomsbury","Street":"Capper Street","HouseNumber":"2","PostalCode":"WC1E 6JA","AdditionalData":[{"value":"United Kingdom","key":"CountryName"},{"value":"England","key":"StateName"},{"value":"London","key":"CountyName"}]},"MapReference":{"ReferenceId":"25325969","Spot":0.0,"SideOfStreet":"right","StateId":"20248595","CountyId":"20337453","CityId":"20337454"}}},{"Relevance":1.0,"Distance":16.9,"MatchLevel":"houseNumber","MatchQuality":{"Country":1.0,"State":1.0,"County":1.0,"City":1.0,"District":1.0,"Street":[1.0],"HouseNumber":1.0,"PostalCode":1.0},"MatchType":"interpolated","Location":{"LocationId":"NT_qhrTL2GT.ZYsq9NtF2Sj5D_xcTN","LocationType":"point","DisplayPosition":{"Latitude":51.52245,"Longitude":-0.13615},"MapView":{"TopLeft":{"Latitude":51.5235742,"Longitude":-0.1379567},"BottomRight":{"Latitude":51.5213258,"Longitude":-0.1343433}},"Address":{"Label":"175 Tottenham Court Road, London, W1T 7, United Kingdom","Country":"GBR","State":"England","County":"London","City":"London","District":"Fitzrovia","Street":"Tottenham Court Road","HouseNumber":"175","PostalCode":"W1T 7","AdditionalData":[{"value":"United Kingdom","key":"CountryName"},{"value":"England","key":"StateName"},{"value":"London","key":"CountyName"}]},"MapReference":{"ReferenceId":"726162849","Spot":0.37,"SideOfStreet":"right","StateId":"20248595","CountyId":"20337453","CityId":"20337454","AddressId":"747955063","RoadLinkId":"129182542"}}},{"Relevance":1.0,"Distance":17.2,"MatchLevel":"street","MatchQuality":{"Country":1.0,"State":1.0,"County":1.0,"City":1.0,"District":1.0,"Street":[1.0],"PostalCode":1.0},"Location":{"LocationId":"NT_xc.RlK8QJ4d2wgqN7fZ6nC_l_1159104252_L","LocationType":"point","DisplayPosition":{"Latitude":51.52272,"Longitude":-0.13571},"MapView":{"TopLeft":{"Latitude":51.52284,"Longitude":-0.13585},"BottomRight":{"Latitude":51.52272,"Longitude":-0.13571}},"Address":{"Label":"Mortimer Market, London, WC1E 6, United Kingdom","Country":"GBR","State":"England","County":"London","City":"London","District":"Bloomsbury","Street":"Mortimer Market","PostalCode":"WC1E 6","AdditionalData":[{"value":"United Kingdom","key":"CountryName"},{"value":"England","key":"StateName"},{"value":"London","key":"CountyName"}]},"MapReference":{"ReferenceId":"1159104252","Spot":0.0,"SideOfStreet":"left","StateId":"20248595","CountyId":"20337453","CityId":"20337454"}}},{"Relevance":1.0,"Distance":17.5,"MatchLevel":"postalCode","MatchQuality":{"PostalCode":1.0},"MatchType":"interpolated","Location":{"LocationId":"NT_xc.RlK8QJ4d2wgqN7fZ6nC_l_1159104251_L_1A","LocationType":"point","DisplayPosition":{"Latitude":51.52272,"Longitude":-0.13562},"MapView":{"TopLeft":{"Latitude":51.5317132,"Longitude":-0.1500738},"BottomRight":{"Latitude":51.5137268,"Longitude":-0.1211662}},"Address":{"Label":"WC1E 6JB, London, England, United Kingdom","Country":"GBR","State":"England","County":"London","City":"London","PostalCode":"WC1E 6JB","AdditionalData":[{"value":"United Kingdom","key":"CountryName"},{"value":"England","key":"StateName"},{"value":"London","key":"CountyName"}]},"MapReference":{"ReferenceId":"1159104251","Spot":0.54,"SideOfStreet":"neither","StateId":"20248595","CountyId":"20337453","CityId":"20337454"}}},{"Relevance":1.0,"Distance":22.6,"MatchLevel":"street","MatchQuality":{"Country":1.0,"State":1.0,"County":1.0,"City":1.0,"District":1.0,"Street":[1.0],"PostalCode":1.0},"Location":{"LocationId":"NT_cE.JMO9Bc4ZnDypoIGcM.C_l_1259627005_L","LocationType":"point","DisplayPosition":{"Latitude":51.52239,"Longitude":-0.13584},"MapView":{"TopLeft":{"Latitude":51.52239,"Longitude":-0.13601},"BottomRight":{"Latitude":51.52231,"Longitude":-0.13584}},"Address":{"Label":"Capper Street, London, W1T 7, United Kingdom","Country":"GBR","State":"England","County":"London","City":"London","District":"Bloomsbury","Street":"Capper Street","PostalCode":"W1T 7","AdditionalData":[{"value":"United Kingdom","key":"CountryName"},{"value":"England","key":"StateName"},{"value":"London","key":"CountyName"}]},"MapReference":{"ReferenceId":"1259627005","Spot":1.0,"SideOfStreet":"left","StateId":"20248595","CountyId":"20337453","CityId":"20337454"}}},{"Relevance":1.0,"Distance":24.0,"MatchLevel":"postalCode","MatchQuality":{"PostalCode":1.0},"Location":{"LocationId":"NT_xc.RlK8QJ4d2wgqN7fZ6nC_l_1159104252_L","LocationType":"point","DisplayPosition":{"Latitude":51.52276,"Longitude":-0.13583},"MapView":{"TopLeft":{"Latitude":51.5317532,"Longitude":-0.1502838},"BottomRight":{"Latitude":51.5137668,"Longitude":-0.1213762}},"Address":{"Label":"W1T 7HA, London, England, United Kingdom","Country":"GBR","State":"England","County":"London","City":"London","PostalCode":"W1T 7HA","AdditionalData":[{"value":"United Kingdom","key":"CountryName"},{"value":"England","key":"StateName"},{"value":"London","key":"CountyName"}]},"MapReference":{"ReferenceId":"1159104252","Spot":0.0,"SideOfStreet":"neither","StateId":"20248595","CountyId":"20337453","CityId":"20337454"}}}]}]}}