{"Response":{"MetaInfo":{"Timestamp":"2020-03-28T10:59:32.473+0000","NextPageInformation":"2"},"View":[{"_type":"SearchResultsViewType","ViewId":0,"Result":[{"Relevance":1.0,"Distance":0.0,"Direction":0.0,"MatchLevel":"district","MatchQuality":{"Country":1.0,"State":1.0,"County":1.0,"City":1.0,"District":1.0,"PostalCode":1.0},"Location":{"LocationId":"NT_5tnkA7Fvq1XkvkJ1IJhD8D","LocationType":"point","DisplayPosition":{"Latitude":51.5775137,"Longitude":8.0863071},"MapView":{"TopLeft":{"Latitude":51.59178,"Longitude":8.06792},"BottomRight":{"Latitude":51.54693,"Longitude":8.16083}},"Address":{"Label":"Soest, Nordrhein-Westfalen, Deutschland","Country":"DEU","State":"Nordrhein-Westfalen","County":"Soest","City":"Soest","District":"Soest","PostalCode":"59494","AdditionalData":[{"value":"Deutschland","key":"CountryName"},{"value":"Nordrhein-Westfalen","key":"StateName"},{"value":"Soest","key":"CountyName"}]},"MapReference":{"ReferenceId":"75359538","SideOfStreet":"neither","CountryId":"20147700","StateId":"20157369","CountyId":"20160789","CityId":"20160875","DistrictId":"20160877"}}},{"Relevance":1.0,"Distance":14.8,"MatchLevel":"street","MatchQuality":{"Country":1.0,"State":1.0,"County":1.0,"City":1.0,"District":1.0,"Street":[1.0],"PostalCode":1.0},"Location":{"LocationId":"NT_7OHiR8FqcDVKcvPgTD4CdB_l_75366076_L","LocationType":"point","DisplayPosition":{"Latitude":51.5776464,"Longitude":8.0863202},"MapView":{"TopLeft":{"Latitude":51.57779,"Longitude":8.08446},"BottomRight":{"Latitude":51.57759,"Longitude":8.08689}},"Address":{"Label":"Schwemeckerweg, 59494 Soest, Deutschland","Country":"DEU","State":"Nordrhein-Westfalen","County":"Soest","City":"Soest","District":"Soest","Street":"Schwemeckerweg","PostalCode":"59494","AdditionalData":[{"value":"Deutschland","key":"CountryName"},{"value":"Nordrhein-Westfalen","key":"StateName"},{"value":"Soest","key":"CountyName"}]},"MapReference":{"ReferenceId":"75366076","Spot":0.23,"SideOfStreet":"left","CountryId":"20147700","StateId":"20157369","CountyId":"20160789","CityId":"20160875","DistrictId":"20160877"}}},{"Relevance":1.0,"Distance":26.7,"MatchLevel":"houseNumber","MatchQuality":{"Country":1.0,"State":1.0,"County":1.0,"City":1.0,"District":1.0,"Street":[1.0],"HouseNumber":1.0,"PostalCode":1.0},"MatchType":"interpolated","Location":{"LocationId":"NT_YRktm7gTeiBlvXnAsVVqIA_3YD","LocationType":"point","DisplayPosition":{"Latitude":51.57703,"Longitude":8.08596},"MapView":{"TopLeft":{"Latitude":51.5781542,"Longitude":8.0841511},"BottomRight":{"Latitude":51.5759058,"Longitude":8.0877689}},"Address":{"Label":"Hattroper Weg 76, 59494 Soest, Deutschland","Country":"DEU","State":"Nordrhein-Westfalen","County":"Soest","City":"Soest","District":"Soest","Street":"Hattroper Weg","HouseNumber":"76","PostalCode":"59494","AdditionalData":[{"value":"Deutschland","key":"CountryName"},{"value":"Nordrhein-Westfalen","key":"StateName"},{"value":"Soest","key":"CountyName"}]},"MapReference":{"ReferenceId":"1201927184","Spot":0.5,"SideOfStreet":"right","CountryId":"20147700","StateId":"20157369","CountyId":"20160789","CityId":"20160875","DistrictId":"20160877","AddressId":"193999483","RoadLinkId":"514619101"}}},{"Relevance":1.0,"Distance":67.2,"MatchLevel":"street","MatchQuality":{"Country":1.0,"State":1.0,"County":1.0,"City":1.0,"District":1.0,"Street":[1.0],"PostalCode":1.0},"Location":{"LocationId":"NT_YRktm7gTeiBlvXnAsVVqIA_l_1201927037_R","LocationType":"point","DisplayPosition":{"Latitude":51.57691,"Longitude":8.08628},"MapView":{"TopLeft":{"Latitude":51.57691,"Longitude":8.08628},"BottomRight":{"Latitude":51.57678,"Longitude":8.0866}},"Address":{"Label":"Hattroper Weg, 59494 Soest, Deutschland","Country":"DEU","State":"Nordrhein-Westfalen","County":"Soest","City":"Soest","District":"Soest","Street":"Hattroper Weg","PostalCode":"59494","AdditionalData":[{"value":"Deutschland","key":"CountryName"},{"value":"Nordrhein-Westfalen","key":"StateName"},{"value":"Soest","key":"CountyName"}]},"MapReference":{"ReferenceId":"1201927037","Spot":1.0,"SideOfStreet":"right","CountryId":"20147700","StateId":"20157369","CountyId":"20160789","CityId":"20160875","DistrictId":"20160877"}}},{"Relevance":1.0,"Distance":84.1,"MatchLevel":"street","MatchQuality":{"Country":1.0,"State":1.0,"County":1.0,"City":1.0,"District":1.0,"Street":[1.0],"PostalCode":1.0},"Location":{"LocationId":"NT_YRktm7gTeiBlvXnAsVVqIA_l_1201927036_R","LocationType":"point","DisplayPosition":{"Latitude":51.57678,"Longitude":8.0866},"MapView":{"TopLeft":{"Latitude":51.57678,"Longitude":8.0866},"BottomRight":{"Latitude":51.57666,"Longitude":8.0869}},"Address":{"Label":"Hattroper Weg, 59494 Soest, Deutschland","Country":"DEU","State":"Nordrhein-Westfalen","County":"Soest","City":"Soest","District":"Soest","Street":"Hattroper Weg","PostalCode":"59494","AdditionalData":[{"value":"Deutschland","key":"CountryName"},{"value":"Nordrhein-Westfalen","key":"StateName"},{"value":"Soest","key":"CountyName"}]},"MapReference":{"ReferenceId":"1201927036","Spot":1.0,"SideOfStreet":"right","CountryId":"20147700","StateId":"20157369","CountyId":"20160789","CityId":"20160875","DistrictId":"20160877"}}},{"Relevance":1.0,"Distance":90.9,"MatchLevel":"houseNumber","MatchQuality":{"Country":1.0,"State":1.0,"County":1.0,"City":1.0,"District":1.0,"Street":[1.0],"HouseNumber":1.0,"PostalCode":1.0},"MatchType":"interpolated","Location":{"LocationId":"NT_YRktm7gTeiBlvXnAsVVqIA_1cD","LocationType":"point","DisplayPosition":{"Latitude":51.57742,"Longitude":8.085},"MapView":{"TopLeft":{"Latitude":51.5785442,"Longitude":8.0831911},"BottomRight":{"Latitude":51.5762958,"Longitude":8.0868089}},"Address":{"Label":"Hattroper Weg 57, 59494 Soest, Deutschland","Country":"DEU","State":"Nordrhein-Westfalen","County":"Soest","City":"Soest","District":"Soest","Street":"Hattroper Weg","HouseNumber":"57","PostalCode":"59494","AdditionalData":[{"value":"Deutschland","key":"CountryName"},{"value":"Nordrhein-Westfalen","key":"StateName"},{"value":"Soest","key":"CountyName"}]},"MapReference":{"ReferenceId":"1201927185","Spot":0.52,"SideOfStreet":"left","CountryId":"20147700","StateId":"20157369","CountyId":"20160789","CityId":"20160875","DistrictId":"20160877","AddressId":"192954601","RoadLinkId":"514619102"}}},{"Relevance":1.0,"Distance":103.4,"MatchLevel":"street","MatchQuality":{"Country":1.0,"State":1.0,"County":1.0,"City":1.0,"District":1.0,"Street":[1.0],"PostalCode":1.0},"Location":{"LocationId":"NT_DGqi8uGEZ3Hez1PcKZ99mA_l_1201926908_R","LocationType":"point","DisplayPosition":{"Latitude":51.57666,"Longitude":8.0869},"MapView":{"TopLeft":{"Latitude":51.57666,"Longitude":8.0869},"BottomRight":{"Latitude":51.57659,"Longitude":8.08708}},"Address":{"Label":"Hattroper Weg, 59494 Soest, Deutschland","Country":"DEU","State":"Nordrhein-Westfalen","County":"Soest","City":"Soest","District":"Soest","Street":"Hattroper Weg","PostalCode":"59494","AdditionalData":[{"value":"Deutschland","key":"CountryName"},{"value":"Nordrhein-Westfalen","key":"StateName"},{"value":"Soest","key":"CountyName"}]},"MapReference":{"ReferenceId":"1201926908","Spot":1.0,"SideOfStreet":"right","CountryId":"20147700","StateId":"20157369","CountyId":"20160789","CityId":"20160875","DistrictId":"20160877"}}},{"Relevance":1.0,"Distance":107.3,"MatchLevel":"houseNumber","MatchQuality":{"Country":1.0,"State":1.0,"County":1.0,"City":1.0,"District":1.0,"Street":[1.0],"HouseNumber":1.0,"PostalCode":1.0},"MatchType":"interpolated","Location":{"LocationId":"NT_7OHiR8FqcDVKcvPgTD4CdB_2AD","LocationType":"point","DisplayPosition":{"Latitude":51.57749,"Longitude":8.08786},"MapView":{"TopLeft":{"Latitude":51.5786142,"Longitude":8.0860511},"BottomRight":{"Latitude":51.5763658,"Longitude":8.0896689}},"Address":{"Label":"Schwemeckerweg 60, 59494 Soest, Deutschland","Country":"DEU","State":"Nordrhein-Westfalen","County":"Soest","City":"Soest","District":"Soest","Street":"Schwemeckerweg","HouseNumber":"60","PostalCode":"59494","AdditionalData":[{"value":"Deutschland","key":"CountryName"},{"value":"Nordrhein-Westfalen","key":"StateName"},{"value":"Soest","key":"CountyName"}]},"MapReference":{"ReferenceId":"75366077","Spot":0.72,"SideOfStreet":"right","CountryId":"20147700","StateId":"20157369","CountyId":"20160789","CityId":"20160875","DistrictId":"20160877","AddressId":"194111288","RoadLinkId":"35034453"}}},{"Relevance":1.0,"Distance":123.4,"MatchLevel":"houseNumber","MatchQuality":{"Country":1.0,"State":1.0,"County":1.0,"City":1.0,"District":1.0,"Street":[1.0],"HouseNumber":1.0,"PostalCode":1.0},"MatchType":"interpolated","Location":{"LocationId":"NT_BOFTwiFVrJFTYSN5uwvBVA_xkD","LocationType":"point","DisplayPosition":{"Latitude":51.57638,"Longitude":8.08679},"MapView":{"TopLeft":{"Latitude":51.5775042,"Longitude":8.0849811},"BottomRight":{"Latitude":51.5752558,"Longitude":8.0885989}},"Address":{"Label":"An Lentzen Kämpen 19, 59494 Soest, Deutschland","Country":"DEU","State":"Nordrhein-Westfalen","County":"Soest","City":"Soest","District":"Soest","Street":"An Lentzen Kämpen","HouseNumber":"19","PostalCode":"59494","AdditionalData":[{"value":"Deutschland","key":"CountryName"},{"value":"Nordrhein-Westfalen","key":"StateName"},{"value":"Soest","key":"CountyName"}]},"MapReference":{"ReferenceId":"74806224","Spot":0.42,"SideOfStreet":"left","CountryId":"20147700","StateId":"20157369","CountyId":"20160789","CityId":"20160875","DistrictId":"20160877","AddressId":"209445197","RoadLinkId":"34949500"}}},{"Relevance":1.0,"Distance":125.1,"MatchLevel":"street","MatchQuality":{"Country":1.0,"State":1.0,"County":1.0,"City":1.0,"District":1.0,"PostalCode":1.0},"Location":{"LocationId":"NT_vB8roBRCarHdiqHCHMk9FA_l_1264123389_L","LocationType":"point","DisplayPosition":{"Latitude":51.57765,"Longitude":8.08451},"MapView":{"TopLeft":{"Latitude":51.5777,"Longitude":8.084},"BottomRight":{"Latitude":51.57764,"Longitude":8.08451}},"Address":{"Label":"59494 Soest, Deutschland","Country":"DEU","State":"Nordrhein-Westfalen","County":"Soest","City":"Soest","District":"Soest","PostalCode":"59494","AdditionalData":[{"value":"Deutschland","key":"CountryName"},{"value":"Nordrhein-Westfalen","key":"StateName"},{"value":"Soest","key":"CountyName"}]},"MapReference":{"ReferenceId":"1264123389","Spot":1.0,"SideOfStreet":"left","CountryId":"20147700","StateId":"20157369","CountyId":"20160789","CityId":"20160875","DistrictId":"20160877"}}}]}]}}