{"Response":{"MetaInfo":{"Timestamp":"2020-03-28T10:39:14.335+0000","NextPageInformation":"2"},"View":[{"_type":"SearchResultsViewType","ViewId":0,"Result":[{"Relevance":1.0,"Distance":0.0,"Direction":0.0,"MatchLevel":"district","MatchQuality":{"Country":1.0,"State":1.0,"County":1.0,"City":1.0,"District":1.0,"PostalCode":1.0},"Location":{"LocationId":"NT_h8QBMxqkB6biy0Ft3y4W4B","LocationType":"point","DisplayPosition":{"Latitude":51.5569006,"Longitude":0.6786543},"MapView":{"TopLeft":{"Latitude":51.56634,"Longitude":0.66583},"BottomRight":{"Latitude":51.53345,"Longitude":0.70611}},"Address":{"Label":"Westcliff-on-Sea, England, United Kingdom","Country":"GBR","State":"England","County":"Essex","City":"Westcliff-on-Sea","District":"Westcliff-on-Sea","PostalCode":"SS0 9","AdditionalData":[{"value":"United Kingdom","key":"CountryName"},{"value":"England","key":"StateName"},{"value":"Essex","key":"CountyName"}]},"MapReference":{"ReferenceId":"25890960","SideOfStreet":"neither","StateId":"20248595","CountyId":"20335385","CityId":"20335844","DistrictId":"20335845"}}},{"Relevance":1.0,"Distance":8.1,"MatchLevel":"houseNumber","MatchQuality":{"Country":1.0,"State":1.0,"County":1.0,"City":1.0,"District":1.0,"Street":[1.0],"HouseNumber":1.0,"PostalCode":1.0},"MatchType":"interpolated","Location":{"LocationId":"NT_HtKwYOTNxdLnJHQjwNKeTB_l_25889121_L_xAD","LocationType":"point","DisplayPosition":{"Latitude":51.5569618,"Longitude":0.678718},"MapView":{"TopLeft":{"Latitude":51.558086,"Longitude":0.67691},"BottomRight":{"Latitude":51.5558377,"Longitude":0.6805261}},"Address":{"Label":"10 Bridgwater Drive, Westcliff-on-Sea, SS0 0, United Kingdom","Country":"GBR","State":"England","County":"Essex","City":"Westcliff-on-Sea","District":"Westcliff-on-Sea","Street":"Bridgwater Drive","HouseNumber":"10","PostalCode":"SS0 0","AdditionalData":[{"value":"United Kingdom","key":"CountryName"},{"value":"England","key":"StateName"},{"value":"Essex","key":"CountyName"}]},"MapReference":{"ReferenceId":"25889121","Spot":0.18,"SideOfStreet":"left","StateId":"20248595","CountyId":"20335385","CityId":"20335844","DistrictId":"20335845"}}},{"Relevance":1.0,"Distance":17.0,"MatchLevel":"houseNumber","MatchQuality":{"Country":1.0,"State":1.0,"County":1.0,"City":1.0,"District":1.0,"Street":[1.0],"HouseNumber":1.0,"PostalCode":1.0},"MatchType":"interpolated","Location":{"LocationId":"NT_weHBrgHxybyJB9NUyiwZsD_l_762360157_L_zEDO","LocationType":"point","DisplayPosition":{"Latitude":51.5567467,"Longitude":0.6790367},"MapView":{"TopLeft":{"Latitude":51.5578708,"Longitude":0.6772286},"BottomRight":{"Latitude":51.5556225,"Longitude":0.6808447}},"Address":{"Label":"318 Southbourne Grove, Westcliff-on-Sea, SS0 0, United Kingdom","Country":"GBR","State":"England","County":"Essex","City":"Westcliff-on-Sea","District":"Westcliff-on-Sea","Street":"Southbourne Grove","HouseNumber":"318","PostalCode":"SS0 0","AdditionalData":[{"value":"United Kingdom","key":"CountryName"},{"value":"England","key":"StateName"},{"value":"Essex","key":"CountyName"}]},"MapReference":{"ReferenceId":"762360157","Spot":0.67,"SideOfStreet":"left","StateId":"20248595","CountyId":"20335385","CityId":"20335844","DistrictId":"20335845"}}},{"Relevance":1.0,"Distance":18.2,"MatchLevel":"houseNumber","MatchQuality":{"Country":1.0,"State":1.0,"County":1.0,"City":1.0,"District":1.0,"Street":[1.0],"HouseNumber":1.0,"PostalCode":1.0},"MatchType":"interpolated","Location":{"LocationId":"NT_OqtCSeml.ER3a9wtE2SVXB_l_25889120_L_zIDM","LocationType":"point","DisplayPosition":{"Latitude":51.55694,"Longitude":0.67908},"MapView":{"TopLeft":{"Latitude":51.5580642,"Longitude":0.6772719},"BottomRight":{"Latitude":51.5558159,"Longitude":0.6808881}},"Address":{"Label":"320 Southbourne Grove, Westcliff-on-Sea, SS0 0AQ, United Kingdom","Country":"GBR","State":"England","County":"Essex","City":"Westcliff-on-Sea","District":"Westcliff-on-Sea","Street":"Southbourne Grove","HouseNumber":"320","PostalCode":"SS0 0AQ","AdditionalData":[{"value":"United Kingdom","key":"CountryName"},{"value":"England","key":"StateName"},{"value":"Essex","key":"CountyName"}]},"MapReference":{"ReferenceId":"25889120","Spot":0.0,"SideOfStreet":"left","StateId":"20248595","CountyId":"20335385","CityId":"20335844","DistrictId":"20335845"}}},{"Relevance":1.0,"Distance":48.7,"MatchLevel":"houseNumber","MatchQuality":{"Country":1.0,"State":1.0,"County":1.0,"City":1.0,"District":1.0,"Street":[1.0],"HouseNumber":1.0,"PostalCode":1.0},"MatchType":"interpolated","Location":{"LocationId":"NT_weHBrgHxybyJB9NUyiwZsD_l_762360127_L_zIDN","LocationType":"point","DisplayPosition":{"Latitude":51.5572401,"Longitude":0.67915},"MapView":{"TopLeft":{"Latitude":51.5583643,"Longitude":0.6773419},"BottomRight":{"Latitude":51.556116,"Longitude":0.6809581}},"Address":{"Label":"324 Southbourne Grove, Westcliff-on-Sea, SS0 0, United Kingdom","Country":"GBR","State":"England","County":"Essex","City":"Westcliff-on-Sea","District":"Westcliff-on-Sea","Street":"Southbourne Grove","HouseNumber":"324","PostalCode":"SS0 0","AdditionalData":[{"value":"United Kingdom","key":"CountryName"},{"value":"England","key":"StateName"},{"value":"Essex","key":"CountyName"}]},"MapReference":{"ReferenceId":"762360127","Spot":0.14,"SideOfStreet":"left","StateId":"20248595","CountyId":"20335385","CityId":"20335844","DistrictId":"20335845"}}},{"Relevance":1.0,"Distance":53.5,"MatchLevel":"houseNumber","MatchQuality":{"Country":1.0,"State":1.0,"County":1.0,"City":1.0,"District":1.0,"Street":[1.0],"HouseNumber":1.0,"PostalCode":1.0},"MatchType":"interpolated","Location":{"LocationId":"NT_bP0CdEAfS.KDkf2HAo396A_l_25889094_L_ycDN","LocationType":"point","DisplayPosition":{"Latitude":51.5570806,"Longitude":0.6794369},"MapView":{"TopLeft":{"Latitude":51.5582048,"Longitude":0.6776288},"BottomRight":{"Latitude":51.5559565,"Longitude":0.681245}},"Address":{"Label":"274 Carlton Avenue, Westcliff-on-Sea, SS0 0PX, United Kingdom","Country":"GBR","State":"England","County":"Essex","City":"Westcliff-on-Sea","District":"Westcliff-on-Sea","Street":"Carlton Avenue","HouseNumber":"274","PostalCode":"SS0 0PX","AdditionalData":[{"value":"United Kingdom","key":"CountryName"},{"value":"England","key":"StateName"},{"value":"Essex","key":"CountyName"}]},"MapReference":{"ReferenceId":"25889094","Spot":0.85,"SideOfStreet":"left","StateId":"20248595","CountyId":"20335385","CityId":"20335844","DistrictId":"20335845"}}},{"Relevance":1.0,"Distance":64.1,"MatchLevel":"houseNumber","MatchQuality":{"Country":1.0,"State":1.0,"County":1.0,"City":1.0,"District":1.0,"Street":[1.0],"HouseNumber":1.0,"PostalCode":1.0},"MatchType":"interpolated","Location":{"LocationId":"NT_xaT8Y-1AnAwBIoHDWny6MD_l_25889221_R_xMD","LocationType":"point","DisplayPosition":{"Latitude":51.5561975,"Longitude":0.6784899},"MapView":{"TopLeft":{"Latitude":51.5573217,"Longitude":0.6766819},"BottomRight":{"Latitude":51.5550734,"Longitude":0.680298}},"Address":{"Label":"13 Southbourne Gardens, Westcliff-on-Sea, SS0 0, United Kingdom","Country":"GBR","State":"England","County":"Essex","City":"Westcliff-on-Sea","District":"Westcliff-on-Sea","Street":"Southbourne Gardens","HouseNumber":"13","PostalCode":"SS0 0","AdditionalData":[{"value":"United Kingdom","key":"CountryName"},{"value":"England","key":"StateName"},{"value":"Essex","key":"CountyName"}]},"MapReference":{"ReferenceId":"25889221","Spot":0.34,"SideOfStreet":"right","StateId":"20248595","CountyId":"20335385","CityId":"20335844","DistrictId":"20335845"}}},{"Relevance":1.0,"Distance":67.5,"MatchLevel":"houseNumber","MatchQuality":{"Country":1.0,"State":1.0,"County":1.0,"City":1.0,"District":1.0,"Street":[1.0],"HouseNumber":1.0,"PostalCode":1.0},"MatchType":"interpolated","Location":{"LocationId":"NT_weHBrgHxybyJB9NUyiwZsD_l_762360156_L_zAjN","LocationType":"point","DisplayPosition":{"Latitude":51.55626,"Longitude":0.678935},"MapView":{"TopLeft":{"Latitude":51.5573842,"Longitude":0.6771269},"BottomRight":{"Latitude":51.5551359,"Longitude":0.6807431}},"Address":{"Label":"306 Southbourne Grove, Westcliff-on-Sea, SS0 0, United Kingdom","Country":"GBR","State":"England","County":"Essex","City":"Westcliff-on-Sea","District":"Westcliff-on-Sea","Street":"Southbourne Grove","HouseNumber":"306","PostalCode":"SS0 0","AdditionalData":[{"value":"United Kingdom","key":"CountryName"},{"value":"England","key":"StateName"},{"value":"Essex","key":"CountyName"}]},"MapReference":{"ReferenceId":"762360156","Spot":0.5,"SideOfStreet":"left","StateId":"20248595","CountyId":"20335385","CityId":"20335844","DistrictId":"20335845"}}},{"Relevance":1.0,"Distance":97.9,"MatchLevel":"houseNumber","MatchQuality":{"Country":1.0,"State":1.0,"County":1.0,"City":1.0,"District":1.0,"Street":[1.0],"HouseNumber":1.0,"PostalCode":1.0},"MatchType":"interpolated","Location":{"LocationId":"NT_X6IdN6pyYmchVsLhvt0oPD_l_25889084_R_yA","LocationType":"point","DisplayPosition":{"Latitude":51.55723,"Longitude":0.67711},"MapView":{"TopLeft":{"Latitude":51.5583542,"Longitude":0.6753019},"BottomRight":{"Latitude":51.5561059,"Longitude":0.6789181}},"Address":{"Label":"2 Somerset Avenue, Westcliff-on-Sea, SS0 0, United Kingdom","Country":"GBR","State":"England","County":"Essex","City":"Westcliff-on-Sea","District":"Westcliff-on-Sea","Street":"Somerset Avenue","HouseNumber":"2","PostalCode":"SS0 0","AdditionalData":[{"value":"United Kingdom","key":"CountryName"},{"value":"England","key":"StateName"},{"value":"Essex","key":"CountyName"}]},"MapReference":{"ReferenceId":"25889084","Spot":0.16,"SideOfStreet":"right","StateId":"20248595","CountyId":"20335385","CityId":"20335844","DistrictId":"20335845"}}},{"Relevance":1.0,"Distance":98.6,"MatchLevel":"houseNumber","MatchQuality":{"Country":1.0,"State":1.0,"County":1.0,"City":1.0,"District":1.0,"Street":[1.0],"HouseNumber":1.0,"PostalCode":1.0},"MatchType":"interpolated","Location":{"LocationId":"NT_weHBrgHxybyJB9NUyiwZsD_l_25889338_L_zAjM","LocationType":"point","DisplayPosition":{"Latitude":51.5559663,"Longitude":0.678875},"MapView":{"TopLeft":{"Latitude":51.5570904,"Longitude":0.677067},"BottomRight":{"Latitude":51.5548421,"Longitude":0.680683}},"Address":{"Label":"302 Southbourne Grove, Westcliff-on-Sea, SS0 0, United Kingdom","Country":"GBR","State":"England","County":"Essex","City":"Westcliff-on-Sea","District":"Westcliff-on-Sea","Street":"Southbourne Grove","HouseNumber":"302","PostalCode":"SS0 0","AdditionalData":[{"value":"United Kingdom","key":"CountryName"},{"value":"England","key":"StateName"},{"value":"Essex","key":"CountyName"}]},"MapReference":{"ReferenceId":"25889338","Spot":0.74,"SideOfStreet":"left","StateId":"20248595","CountyId":"20335385","CityId":"20335844","DistrictId":"20335845"}}}]}]}}