{"Response":{"MetaInfo":{"Timestamp":"2020-03-28T11:02:12.977+0000","NextPageInformation":"2"},"View":[{"_type":"SearchResultsViewType","ViewId":0,"Result":[{"Relevance":1.0,"Distance":0.0,"Direction":0.0,"MatchLevel":"city","MatchQuality":{"Country":1.0,"State":1.0,"County":1.0,"City":1.0,"PostalCode":1.0},"Location":{"LocationId":"NT_pb25hKxKf2hdwI44skZzRC","LocationType":"point","DisplayPosition":{"Latitude":51.5175614,"Longitude":10.794111},"MapView":{"TopLeft":{"Latitude":51.55702,"Longitude":10.67467},"BottomRight":{"Latitude":51.43985,"Longitude":10.94808}},"Address":{"Label":"Nordhausen, Thüringen, Deutschland","Country":"DEU","State":"Thüringen","County":"Nordhausen","City":"Nordhausen","PostalCode":"99734","AdditionalData":[{"value":"Deutschland","key":"CountryName"},{"value":"Thüringen","key":"StateName"},{"value":"Nordhausen","key":"CountyName"}]},"MapReference":{"ReferenceId":"1103926803","SideOfStreet":"neither","CountryId":"20147700","StateId":"20196974","CountyId":"20197233","CityId":"20197291"}}},{"Relevance":1.0,"Distance":9.4,"MatchLevel":"street","MatchQuality":{"Country":1.0,"State":1.0,"County":1.0,"City":1.0,"PostalCode":1.0},"Location":{"LocationId":"NT_-0DHq9RYZu8vosXIiUgteC_l_1247901137_L","LocationType":"point","DisplayPosition":{"Latitude":51.51748,"Longitude":10.79415},"MapView":{"TopLeft":{"Latitude":51.51748,"Longitude":10.79409},"BottomRight":{"Latitude":51.51736,"Longitude":10.79528}},"Address":{"Label":"99734 Nordhausen, Deutschland","Country":"DEU","State":"Thüringen","County":"Nordhausen","City":"Nordhausen","PostalCode":"99734","AdditionalData":[{"value":"Deutschland","key":"CountryName"},{"value":"Thüringen","key":"StateName"},{"value":"Nordhausen","key":"CountyName"}]},"MapReference":{"ReferenceId":"1247901137","Spot":0.11,"SideOfStreet":"left","CountryId":"20147700","StateId":"20196974","CountyId":"20197233","CityId":"20197291"}}},{"Relevance":1.0,"Distance":22.4,"MatchLevel":"street","MatchQuality":{"Country":1.0,"State":1.0,"County":1.0,"City":1.0,"PostalCode":1.0},"Location":{"LocationId":"NT_-0DHq9RYZu8vosXIiUgteC_l_1247901281_R","LocationType":"point","DisplayPosition":{"Latitude":51.51736,"Longitude":10.79409},"MapView":{"TopLeft":{"Latitude":51.51736,"Longitude":10.79409},"BottomRight":{"Latitude":51.51732,"Longitude":10.79409}},"Address":{"Label":"99734 Nordhausen, Deutschland","Country":"DEU","State":"Thüringen","County":"Nordhausen","City":"Nordhausen","PostalCode":"99734","AdditionalData":[{"value":"Deutschland","key":"CountryName"},{"value":"Thüringen","key":"StateName"},{"value":"Nordhausen","key":"CountyName"}]},"MapReference":{"ReferenceId":"1247901281","Spot":1.0,"SideOfStreet":"right","CountryId":"20147700","StateId":"20196974","CountyId":"20197233","CityId":"20197291"}}},{"Relevance":1.0,"Distance":22.5,"MatchLevel":"street","MatchQuality":{"Country":1.0,"State":1.0,"County":1.0,"City":1.0,"PostalCode":1.0},"Location":{"LocationId":"NT_-0DHq9RYZu8vosXIiUgteC_l_1247901156_R","LocationType":"point","DisplayPosition":{"Latitude":51.5173598,"Longitude":10.7940921},"MapView":{"TopLeft":{"Latitude":51.51736,"Longitude":10.79409},"BottomRight":{"Latitude":51.5173,"Longitude":10.79473}},"Address":{"Label":"99734 Nordhausen, Deutschland","Country":"DEU","State":"Thüringen","County":"Nordhausen","City":"Nordhausen","PostalCode":"99734","AdditionalData":[{"value":"Deutschland","key":"CountryName"},{"value":"Thüringen","key":"StateName"},{"value":"Nordhausen","key":"CountyName"}]},"MapReference":{"ReferenceId":"1247901156","Spot":1.0,"SideOfStreet":"right","CountryId":"20147700","StateId":"20196974","CountyId":"20197233","CityId":"20197291"}}},{"Relevance":1.0,"Distance":26.9,"MatchLevel":"street","MatchQuality":{"Country":1.0,"State":1.0,"County":1.0,"City":1.0,"District":1.0,"PostalCode":1.0},"Location":{"LocationId":"NT_Y3nygks22-s1.PhAWYphdD_l_1247901280_L","LocationType":"point","DisplayPosition":{"Latitude":51.51732,"Longitude":10.79409},"MapView":{"TopLeft":{"Latitude":51.51732,"Longitude":10.79408},"BottomRight":{"Latitude":51.51709,"Longitude":10.79551}},"Address":{"Label":"99734 Nordhausen, Deutschland","Country":"DEU","State":"Thüringen","County":"Nordhausen","City":"Nordhausen","District":"Nordhausen","PostalCode":"99734","AdditionalData":[{"value":"Deutschland","key":"CountryName"},{"value":"Thüringen","key":"StateName"},{"value":"Nordhausen","key":"CountyName"}]},"MapReference":{"ReferenceId":"1247901280","Spot":1.0,"SideOfStreet":"left","CountryId":"20147700","StateId":"20196974","CountyId":"20197233","CityId":"20197291","DistrictId":"20197293"}}},{"Relevance":1.0,"Distance":51.8,"MatchLevel":"street","MatchQuality":{"Country":1.0,"State":1.0,"County":1.0,"City":1.0,"District":1.0,"PostalCode":1.0},"Location":{"LocationId":"NT_Y3nygks22-s1.PhAWYphdD_l_1247901155_R","LocationType":"point","DisplayPosition":{"Latitude":51.5173,"Longitude":10.79473},"MapView":{"TopLeft":{"Latitude":51.5173,"Longitude":10.79473},"BottomRight":{"Latitude":51.51723,"Longitude":10.79553}},"Address":{"Label":"99734 Nordhausen, Deutschland","Country":"DEU","State":"Thüringen","County":"Nordhausen","City":"Nordhausen","District":"Nordhausen","PostalCode":"99734","AdditionalData":[{"value":"Deutschland","key":"CountryName"},{"value":"Thüringen","key":"StateName"},{"value":"Nordhausen","key":"CountyName"}]},"MapReference":{"ReferenceId":"1247901155","Spot":1.0,"SideOfStreet":"right","CountryId":"20147700","StateId":"20196974","CountyId":"20197233","CityId":"20197291","DistrictId":"20197293"}}},{"Relevance":1.0,"Distance":57.8,"MatchLevel":"street","MatchQuality":{"Country":1.0,"State":1.0,"County":1.0,"City":1.0,"District":1.0,"Street":[1.0],"PostalCode":1.0},"Location":{"LocationId":"NT_NfSx0OCSQfZcWirXPXtIHC_l_1180681858_R","LocationType":"point","DisplayPosition":{"Latitude":51.5170422,"Longitude":10.7940764},"MapView":{"TopLeft":{"Latitude":51.51714,"Longitude":10.79261},"BottomRight":{"Latitude":51.51704,"Longitude":10.79411}},"Address":{"Label":"Dr.-Robert-Koch-Straße, 99734 Nordhausen, Deutschland","Country":"DEU","State":"Thüringen","County":"Nordhausen","City":"Nordhausen","District":"Nordhausen","Street":"Dr.-Robert-Koch-Straße","PostalCode":"99734","AdditionalData":[{"value":"Deutschland","key":"CountryName"},{"value":"Thüringen","key":"StateName"},{"value":"Nordhausen","key":"CountyName"}]},"MapReference":{"ReferenceId":"1180681858","Spot":0.02,"SideOfStreet":"right","CountryId":"20147700","StateId":"20196974","CountyId":"20197233","CityId":"20197291","DistrictId":"20197293"}}},{"Relevance":1.0,"Distance":58.0,"MatchLevel":"street","MatchQuality":{"Country":1.0,"State":1.0,"County":1.0,"City":1.0,"District":1.0,"Street":[1.0],"PostalCode":1.0},"Location":{"LocationId":"NT_NfSx0OCSQfZcWirXPXtIHC_l_1247831287_R","LocationType":"point","DisplayPosition":{"Latitude":51.51704,"Longitude":10.79411},"MapView":{"TopLeft":{"Latitude":51.51704,"Longitude":10.79411},"BottomRight":{"Latitude":51.51674,"Longitude":10.79744}},"Address":{"Label":"Dr.-Robert-Koch-Straße, 99734 Nordhausen, Deutschland","Country":"DEU","State":"Thüringen","County":"Nordhausen","City":"Nordhausen","District":"Nordhausen","Street":"Dr.-Robert-Koch-Straße","PostalCode":"99734","AdditionalData":[{"value":"Deutschland","key":"CountryName"},{"value":"Thüringen","key":"StateName"},{"value":"Nordhausen","key":"CountyName"}]},"MapReference":{"ReferenceId":"1247831287","Spot":1.0,"SideOfStreet":"right","CountryId":"20147700","StateId":"20196974","CountyId":"20197233","CityId":"20197291","DistrictId":"20197293"}}},{"Relevance":1.0,"Distance":58.0,"MatchLevel":"street","MatchQuality":{"Country":1.0,"State":1.0,"County":1.0,"City":1.0,"District":1.0,"Street":[1.0],"PostalCode":1.0},"Location":{"LocationId":"NT_NfSx0OCSQfZcWirXPXtIHC_l_1188320231_L","LocationType":"point","DisplayPosition":{"Latitude":51.51704,"Longitude":10.79411},"MapView":{"TopLeft":{"Latitude":51.51704,"Longitude":10.79406},"BottomRight":{"Latitude":51.51638,"Longitude":10.79531}},"Address":{"Label":"Dr.-Robert-Koch-Straße, 99734 Nordhausen, Deutschland","Country":"DEU","State":"Thüringen","County":"Nordhausen","City":"Nordhausen","District":"Nordhausen","Street":"Dr.-Robert-Koch-Straße","PostalCode":"99734","AdditionalData":[{"value":"Deutschland","key":"CountryName"},{"value":"Thüringen","key":"StateName"},{"value":"Nordhausen","key":"CountyName"}]},"MapReference":{"ReferenceId":"1188320231","Spot":1.0,"SideOfStreet":"left","CountryId":"20147700","StateId":"20196974","CountyId":"20197233","CityId":"20197291","DistrictId":"20197293"}}},{"Relevance":1.0,"Distance":83.4,"MatchLevel":"street","MatchQuality":{"Country":1.0,"State":1.0,"County":1.0,"City":1.0,"District":1.0,"PostalCode":1.0},"Location":{"LocationId":"NT_Y3nygks22-s1.PhAWYphdD_l_1247901138_R","LocationType":"point","DisplayPosition":{"Latitude":51.51738,"Longitude":10.79528},"MapView":{"TopLeft":{"Latitude":51.51738,"Longitude":10.79528},"BottomRight":{"Latitude":51.51736,"Longitude":10.79555}},"Address":{"Label":"99734 Nordhausen, Deutschland","Country":"DEU","State":"Thüringen","County":"Nordhausen","City":"Nordhausen","District":"Nordhausen","PostalCode":"99734","AdditionalData":[{"value":"Deutschland","key":"CountryName"},{"value":"Thüringen","key":"StateName"},{"value":"Nordhausen","key":"CountyName"}]},"MapReference":{"ReferenceId":"1247901138","Spot":1.0,"SideOfStreet":"right","CountryId":"20147700","StateId":"20196974","CountyId":"20197233","CityId":"20197291","DistrictId":"20197293"}}}]}]}}