{"Response":{"MetaInfo":{"Timestamp":"2020-03-31T17:03:55.693+0000","NextPageInformation":"2"},"View":[{"_type":"SearchResultsViewType","ViewId":0,"Result":[{"Relevance":1.0,"Distance":0.0,"Direction":0.0,"MatchLevel":"city","MatchQuality":{"Country":1.0,"County":1.0,"City":1.0,"PostalCode":1.0},"Location":{"LocationId":"NT_huxzstSI4B-xKq9eXxkqLD","LocationType":"point","DisplayPosition":{"Latitude":51.6833,"Longitude":-9.45},"MapView":{"TopLeft":{"Latitude":51.69365,"Longitude":-9.4724},"BottomRight":{"Latitude":51.66667,"Longitude":-9.42888}},"Address":{"Label":"Bantry, Ireland","Country":"IRL","County":"County Cork","City":"Bantry","AdditionalData":[{"value":"Ireland","key":"CountryName"},{"value":"County Cork","key":"CountyName"}]},"MapReference":{"ReferenceId":"589002970","SideOfStreet":"neither","CountryId":"20403667","CountyId":"20411183","CityId":"20511782"}}},{"Relevance":1.0,"Distance":66.2,"MatchLevel":"postalCode","MatchQuality":{"PostalCode":1.0},"MatchType":"interpolated","Location":{"LocationId":"NT_zB2os0Yl2azfRSI7zH5SAD_xA","LocationType":"point","DisplayPosition":{"Latitude":51.68347,"Longitude":-9.44908},"MapView":{"TopLeft":{"Latitude":51.6924632,"Longitude":-9.4635851},"BottomRight":{"Latitude":51.6744768,"Longitude":-9.4345749}},"Address":{"Label":"P75 VX20, Bantry, Ireland","Country":"IRL","County":"County Cork","City":"Bantry","PostalCode":"P75 VX20","AdditionalData":[{"value":"Ireland","key":"CountryName"},{"value":"County Cork","key":"CountyName"}]},"MapReference":{"ReferenceId":"589002240","Spot":0.59,"SideOfStreet":"neither","CountryId":"20403667","CountyId":"20411183","CityId":"20511782"}}},{"Relevance":1.0,"Distance":70.2,"MatchLevel":"houseNumber","MatchQuality":{"Country":1.0,"County":1.0,"City":1.0,"District":1.0,"Street":[1.0],"HouseNumber":1.0,"PostalCode":1.0},"MatchType":"interpolated","Location":{"LocationId":"NT_zB2os0Yl2azfRSI7zH5SAD_xA","LocationType":"point","DisplayPosition":{"Latitude":51.68359,"Longitude":-9.44913},"MapView":{"TopLeft":{"Latitude":51.6847142,"Longitude":-9.4509431},"BottomRight":{"Latitude":51.6824658,"Longitude":-9.4473169}},"Address":{"Label":"1 St Cainir's Place, Bantry, County Cork, P75 EF67, Ireland","Country":"IRL","County":"County Cork","City":"Bantry","District":"Bantry","Street":"St Cainir's Place","HouseNumber":"1","PostalCode":"P75 EF67","AdditionalData":[{"value":"Ireland","key":"CountryName"},{"value":"County Cork","key":"CountyName"}]},"MapReference":{"ReferenceId":"589002240","Spot":0.59,"SideOfStreet":"left","CountryId":"20403667","CountyId":"20411183","CityId":"20511782","DistrictId":"20511840","AddressId":"214698520","RoadLinkId":"86708369"}}},{"Relevance":1.0,"Distance":87.4,"MatchLevel":"houseNumber","MatchQuality":{"Country":1.0,"County":1.0,"City":1.0,"District":1.0,"Street":[1.0],"PostalCode":1.0},"MatchType":"interpolated","Location":{"LocationId":"NT_.Dtl0hG7o1XvLgkjglCuCB","LocationType":"point","DisplayPosition":{"Latitude":51.68263,"Longitude":-9.44825},"MapView":{"TopLeft":{"Latitude":51.6837542,"Longitude":-9.4500631},"BottomRight":{"Latitude":51.6815058,"Longitude":-9.4464369}},"Address":{"Label":"\"Telscombe Cliffs\" Old Barrack Road, Bantry, County Cork, P75 AK59, Ireland","Country":"IRL","County":"County Cork","City":"Bantry","District":"Bantry","Street":"Old Barrack Road","PostalCode":"P75 AK59","AdditionalData":[{"value":"Ireland","key":"CountryName"},{"value":"County Cork","key":"CountyName"}],"Building":"Telscombe Cliffs"},"MapReference":{"ReferenceId":"589002248","Spot":0.87,"SideOfStreet":"left","CountryId":"20403667","CountyId":"20411183","CityId":"20511782","DistrictId":"20511840","AddressId":"743647185","RoadLinkId":"86494310"}}},{"Relevance":1.0,"Distance":96.5,"MatchLevel":"houseNumber","MatchQuality":{"Country":1.0,"County":1.0,"City":1.0,"District":1.0,"Street":[1.0],"HouseNumber":1.0,"PostalCode":1.0},"MatchType":"interpolated","Location":{"LocationId":"NT_zB2os0Yl2azfRSI7zH5SAD_yID","LocationType":"point","DisplayPosition":{"Latitude":51.68347,"Longitude":-9.44791},"MapView":{"TopLeft":{"Latitude":51.6845942,"Longitude":-9.4497231},"BottomRight":{"Latitude":51.6823458,"Longitude":-9.4460969}},"Address":{"Label":"22 St Cainir's Place, Bantry, County Cork, P75 H324, Ireland","Country":"IRL","County":"County Cork","City":"Bantry","District":"Bantry","Street":"St Cainir's Place","HouseNumber":"22","PostalCode":"P75 H324","AdditionalData":[{"value":"Ireland","key":"CountryName"},{"value":"County Cork","key":"CountyName"}]},"MapReference":{"ReferenceId":"589002238","Spot":0.64,"SideOfStreet":"left","CountryId":"20403667","CountyId":"20411183","CityId":"20511782","DistrictId":"20511840","AddressId":"214698521","RoadLinkId":"86505026"}}},{"Relevance":1.0,"Distance":101.4,"MatchLevel":"postalCode","MatchQuality":{"PostalCode":1.0},"MatchType":"interpolated","Location":{"LocationId":"NT_zB2os0Yl2azfRSI7zH5SAD_yID","LocationType":"point","DisplayPosition":{"Latitude":51.68331,"Longitude":-9.44853},"MapView":{"TopLeft":{"Latitude":51.6923032,"Longitude":-9.463035},"BottomRight":{"Latitude":51.6743168,"Longitude":-9.434025}},"Address":{"Label":"P75 XV74, Bantry, Ireland","Country":"IRL","County":"County Cork","City":"Bantry","PostalCode":"P75 XV74","AdditionalData":[{"value":"Ireland","key":"CountryName"},{"value":"County Cork","key":"CountyName"}]},"MapReference":{"ReferenceId":"589002238","Spot":0.64,"SideOfStreet":"neither","CountryId":"20403667","CountyId":"20411183","CityId":"20511782"}}},{"Relevance":1.0,"Distance":136.8,"MatchLevel":"houseNumber","MatchQuality":{"Country":1.0,"County":1.0,"City":1.0,"District":1.0,"Street":[1.0],"HouseNumber":1.0,"PostalCode":1.0},"MatchType":"interpolated","Location":{"LocationId":"NT_.Dtl0hG7o1XvLgkjglCuCB_yA","LocationType":"point","DisplayPosition":{"Latitude":51.68303,"Longitude":-9.4479},"MapView":{"TopLeft":{"Latitude":51.6841542,"Longitude":-9.4497131},"BottomRight":{"Latitude":51.6819058,"Longitude":-9.4460869}},"Address":{"Label":"2 Old Barrack Road, Bantry, County Cork, P75 NX85, Ireland","Country":"IRL","County":"County Cork","City":"Bantry","District":"Bantry","Street":"Old Barrack Road","HouseNumber":"2","PostalCode":"P75 NX85","AdditionalData":[{"value":"Ireland","key":"CountryName"},{"value":"County Cork","key":"CountyName"}]},"MapReference":{"ReferenceId":"589002243","Spot":0.24,"SideOfStreet":"left","CountryId":"20403667","CountyId":"20411183","CityId":"20511782","DistrictId":"20511840","AddressId":"214229959","RoadLinkId":"86654948"}}},{"Relevance":1.0,"Distance":140.4,"MatchLevel":"postalCode","MatchQuality":{"PostalCode":1.0},"MatchType":"interpolated","Location":{"LocationId":"NT_.Dtl0hG7o1XvLgkjglCuCB_yA","LocationType":"point","DisplayPosition":{"Latitude":51.68314,"Longitude":-9.44798},"MapView":{"TopLeft":{"Latitude":51.6921332,"Longitude":-9.462485},"BottomRight":{"Latitude":51.6741468,"Longitude":-9.433475}},"Address":{"Label":"P75 C981, Bantry, Ireland","Country":"IRL","County":"County Cork","City":"Bantry","PostalCode":"P75 C981","AdditionalData":[{"value":"Ireland","key":"CountryName"},{"value":"County Cork","key":"CountyName"}]},"MapReference":{"ReferenceId":"589002243","Spot":0.24,"SideOfStreet":"neither","CountryId":"20403667","CountyId":"20411183","CityId":"20511782"}}},{"Relevance":1.0,"Distance":147.2,"MatchLevel":"postalCode","MatchQuality":{"PostalCode":1.0},"MatchType":"interpolated","Location":{"LocationId":"NT_.Dtl0hG7o1XvLgkjglCuCB","LocationType":"point","DisplayPosition":{"Latitude":51.68276,"Longitude":-9.44805},"MapView":{"TopLeft":{"Latitude":51.6917532,"Longitude":-9.4625548},"BottomRight":{"Latitude":51.6737668,"Longitude":-9.4335452}},"Address":{"Label":"P75 VY88, Bantry, Ireland","Country":"IRL","County":"County Cork","City":"Bantry","PostalCode":"P75 VY88","AdditionalData":[{"value":"Ireland","key":"CountryName"},{"value":"County Cork","key":"CountyName"}]},"MapReference":{"ReferenceId":"589002248","Spot":0.87,"SideOfStreet":"neither","CountryId":"20403667","CountyId":"20411183","CityId":"20511782"}}},{"Relevance":1.0,"Distance":151.8,"MatchLevel":"houseNumber","MatchQuality":{"Country":1.0,"County":1.0,"City":1.0,"District":1.0,"Street":[1.0],"HouseNumber":1.0,"PostalCode":1.0},"MatchType":"interpolated","Location":{"LocationId":"NT_zB2os0Yl2azfRSI7zH5SAD_xED","LocationType":"point","DisplayPosition":{"Latitude":51.68375,"Longitude":-9.44795},"MapView":{"TopLeft":{"Latitude":51.6848742,"Longitude":-9.4497631},"BottomRight":{"Latitude":51.6826258,"Longitude":-9.4461369}},"Address":{"Label":"11 St Cainir's Place, Bantry, County Cork, P75 X795, Ireland","Country":"IRL","County":"County Cork","City":"Bantry","District":"Bantry","Street":"St Cainir's Place","HouseNumber":"11","PostalCode":"P75 X795","AdditionalData":[{"value":"Ireland","key":"CountryName"},{"value":"County Cork","key":"CountyName"}]},"MapReference":{"ReferenceId":"589002239","Spot":0.09,"SideOfStreet":"left","CountryId":"20403667","CountyId":"20411183","CityId":"20511782","DistrictId":"20511840","AddressId":"214819122","RoadLinkId":"86814164"}}}]}]}}