{"Response":{"MetaInfo":{"Timestamp":"2020-03-28T11:30:16.160+0000","NextPageInformation":"2"},"View":[{"_type":"SearchResultsViewType","ViewId":0,"Result":[{"Relevance":1.0,"Distance":0.0,"Direction":0.0,"MatchLevel":"district","MatchQuality":{"Country":1.0,"State":1.0,"County":1.0,"City":1.0,"District":1.0,"PostalCode":1.0},"Location":{"LocationId":"NT_eaGY.-jH2n8NnuVweMQBSC","LocationType":"point","DisplayPosition":{"Latitude":51.6503986,"Longitude":19.3302534},"MapView":{"TopLeft":{"Latitude":51.69787,"Longitude":19.30353},"BottomRight":{"Latitude":51.64245,"Longitude":19.41292}},"Address":{"Label":"Pabianice, Woj. Łódzkie, Polska","Country":"POL","State":"Woj. Łódzkie","County":"Powiat Pabianicki","City":"Pabianice","District":"Pabianice","PostalCode":"95-200","AdditionalData":[{"value":"Polska","key":"CountryName"},{"value":"Woj. Łódzkie","key":"StateName"},{"value":"Powiat Pabianicki","key":"CountyName"}]},"MapReference":{"ReferenceId":"1007228663","SideOfStreet":"neither","CountryId":"20624059","StateId":"20625723","CountyId":"20625866","CityId":"20675061","DistrictId":"20675062"}}},{"Relevance":1.0,"Distance":53.1,"MatchLevel":"street","MatchQuality":{"Country":1.0,"State":1.0,"County":1.0,"City":1.0,"District":1.0,"Street":[1.0],"PostalCode":1.0},"Location":{"LocationId":"NT_tnmg9JHZdOggS6SLrx9mhA_l_595648500_R","LocationType":"point","DisplayPosition":{"Latitude":51.6499236,"Longitude":19.3301766},"MapView":{"TopLeft":{"Latitude":51.65013,"Longitude":19.3289},"BottomRight":{"Latitude":51.64986,"Longitude":19.33057}},"Address":{"Label":"ulica Zagajnikowa, 95-200 Pabianice, Polska","Country":"POL","State":"Woj. Łódzkie","County":"Powiat Pabianicki","City":"Pabianice","District":"Pabianice","Street":"ulica Zagajnikowa","PostalCode":"95-200","AdditionalData":[{"value":"Polska","key":"CountryName"},{"value":"Woj. Łódzkie","key":"StateName"},{"value":"Powiat Pabianicki","key":"CountyName"}]},"MapReference":{"ReferenceId":"595648500","Spot":0.24,"SideOfStreet":"right","CountryId":"20624059","StateId":"20625723","CountyId":"20625866","CityId":"20675061","DistrictId":"20675062"}}},{"Relevance":1.0,"Distance":58.1,"MatchLevel":"street","MatchQuality":{"Country":1.0,"State":1.0,"County":1.0,"City":1.0,"District":1.0,"PostalCode":1.0},"Location":{"LocationId":"NT_-fszY.o2uog1X7oaFBwP7C_l_595652477_L","LocationType":"point","DisplayPosition":{"Latitude":51.650919,"Longitude":19.3303213},"MapView":{"TopLeft":{"Latitude":51.65103,"Longitude":19.32947},"BottomRight":{"Latitude":51.65073,"Longitude":19.33177}},"Address":{"Label":"95-200 Pabianice, Polska","Country":"POL","State":"Woj. Łódzkie","County":"Powiat Pabianicki","City":"Pabianice","District":"Pabianice","PostalCode":"95-200","AdditionalData":[{"value":"Polska","key":"CountryName"},{"value":"Woj. Łódzkie","key":"StateName"},{"value":"Powiat Pabianicki","key":"CountyName"}]},"MapReference":{"ReferenceId":"595652477","Spot":0.63,"SideOfStreet":"left","CountryId":"20624059","StateId":"20625723","CountyId":"20625866","CityId":"20675061","DistrictId":"20675062"}}},{"Relevance":1.0,"Distance":63.7,"MatchLevel":"street","MatchQuality":{"Country":1.0,"State":1.0,"County":1.0,"City":1.0,"District":1.0,"Street":[1.0],"PostalCode":1.0},"Location":{"LocationId":"NT_tnmg9JHZdOggS6SLrx9mhA_l_595650481_L","LocationType":"point","DisplayPosition":{"Latitude":51.64986,"Longitude":19.33057},"MapView":{"TopLeft":{"Latitude":51.64987,"Longitude":19.33057},"BottomRight":{"Latitude":51.64986,"Longitude":19.33229}},"Address":{"Label":"ulica Zagajnikowa, 95-200 Pabianice, Polska","Country":"POL","State":"Woj. Łódzkie","County":"Powiat Pabianicki","City":"Pabianice","District":"Pabianice","Street":"ulica Zagajnikowa","PostalCode":"95-200","AdditionalData":[{"value":"Polska","key":"CountryName"},{"value":"Woj. Łódzkie","key":"StateName"},{"value":"Powiat Pabianicki","key":"CountyName"}]},"MapReference":{"ReferenceId":"595650481","Spot":0.0,"SideOfStreet":"left","CountryId":"20624059","StateId":"20625723","CountyId":"20625866","CityId":"20675061","DistrictId":"20675062"}}},{"Relevance":1.0,"Distance":74.8,"MatchLevel":"houseNumber","MatchQuality":{"Country":1.0,"State":1.0,"County":1.0,"City":1.0,"District":1.0,"Street":[1.0],"HouseNumber":1.0,"PostalCode":1.0},"MatchType":"interpolated","Location":{"LocationId":"NT_l1s6ptynN6F-7YaYEeFUXB_2AD","LocationType":"point","DisplayPosition":{"Latitude":51.65055,"Longitude":19.32904},"MapView":{"TopLeft":{"Latitude":51.6516742,"Longitude":19.3272282},"BottomRight":{"Latitude":51.6494258,"Longitude":19.3308518}},"Address":{"Label":"ulica Wiejska 60, 95-200 Pabianice, Polska","Country":"POL","State":"Woj. Łódzkie","County":"Powiat Pabianicki","City":"Pabianice","District":"Pabianice","Street":"ulica Wiejska","HouseNumber":"60","PostalCode":"95-200","AdditionalData":[{"value":"Polska","key":"CountryName"},{"value":"Woj. Łódzkie","key":"StateName"},{"value":"Powiat Pabianicki","key":"CountyName"}]},"MapReference":{"ReferenceId":"595648495","Spot":0.45,"SideOfStreet":"right","CountryId":"20624059","StateId":"20625723","CountyId":"20625866","CityId":"20675061","DistrictId":"20675062","AddressId":"209815666","RoadLinkId":"95840423"}}},{"Relevance":1.0,"Distance":88.6,"MatchLevel":"street","MatchQuality":{"Country":1.0,"State":1.0,"County":1.0,"City":1.0,"District":1.0,"PostalCode":1.0},"Location":{"LocationId":"NT_-fszY.o2uog1X7oaFBwP7C_l_595652478_L","LocationType":"point","DisplayPosition":{"Latitude":51.65103,"Longitude":19.32947},"MapView":{"TopLeft":{"Latitude":51.65106,"Longitude":19.32922},"BottomRight":{"Latitude":51.65103,"Longitude":19.32947}},"Address":{"Label":"95-200 Pabianice, Polska","Country":"POL","State":"Woj. Łódzkie","County":"Powiat Pabianicki","City":"Pabianice","District":"Pabianice","PostalCode":"95-200","AdditionalData":[{"value":"Polska","key":"CountryName"},{"value":"Woj. Łódzkie","key":"StateName"},{"value":"Powiat Pabianicki","key":"CountyName"}]},"MapReference":{"ReferenceId":"595652478","Spot":0.0,"SideOfStreet":"left","CountryId":"20624059","StateId":"20625723","CountyId":"20625866","CityId":"20675061","DistrictId":"20675062"}}},{"Relevance":1.0,"Distance":97.9,"MatchLevel":"houseNumber","MatchQuality":{"Country":1.0,"State":1.0,"County":1.0,"City":1.0,"District":1.0,"Street":[1.0],"HouseNumber":1.0,"PostalCode":1.0},"MatchType":"interpolated","Location":{"LocationId":"NT_l1s6ptynN6F-7YaYEeFUXB_2QD","LocationType":"point","DisplayPosition":{"Latitude":51.6499,"Longitude":19.32881},"MapView":{"TopLeft":{"Latitude":51.6510242,"Longitude":19.3269982},"BottomRight":{"Latitude":51.6487758,"Longitude":19.3306218}},"Address":{"Label":"ulica Wiejska 64, 95-200 Pabianice, Polska","Country":"POL","State":"Woj. Łódzkie","County":"Powiat Pabianicki","City":"Pabianice","District":"Pabianice","Street":"ulica Wiejska","HouseNumber":"64","PostalCode":"95-200","AdditionalData":[{"value":"Polska","key":"CountryName"},{"value":"Woj. Łódzkie","key":"StateName"},{"value":"Powiat Pabianicki","key":"CountyName"}]},"MapReference":{"ReferenceId":"1255777012","Spot":0.93,"SideOfStreet":"right","CountryId":"20624059","StateId":"20625723","CountyId":"20625866","CityId":"20675061","DistrictId":"20675062","AddressId":"732075653","RoadLinkId":"579281442"}}},{"Relevance":1.0,"Distance":102.4,"MatchLevel":"street","MatchQuality":{"Country":1.0,"State":1.0,"County":1.0,"City":1.0,"District":1.0,"Street":[1.0],"PostalCode":1.0},"Location":{"LocationId":"NT_l1s6ptynN6F-7YaYEeFUXB_l_595648479_R","LocationType":"point","DisplayPosition":{"Latitude":51.65106,"Longitude":19.32922},"MapView":{"TopLeft":{"Latitude":51.65193,"Longitude":19.32857},"BottomRight":{"Latitude":51.65106,"Longitude":19.32922}},"Address":{"Label":"ulica Wiejska, 95-200 Pabianice, Polska","Country":"POL","State":"Woj. Łódzkie","County":"Powiat Pabianicki","City":"Pabianice","District":"Pabianice","Street":"ulica Wiejska","PostalCode":"95-200","AdditionalData":[{"value":"Polska","key":"CountryName"},{"value":"Woj. Łódzkie","key":"StateName"},{"value":"Powiat Pabianicki","key":"CountyName"}]},"MapReference":{"ReferenceId":"595648479","Spot":0.0,"SideOfStreet":"right","CountryId":"20624059","StateId":"20625723","CountyId":"20625866","CityId":"20675061","DistrictId":"20675062"}}},{"Relevance":1.0,"Distance":110.9,"MatchLevel":"street","MatchQuality":{"Country":1.0,"State":1.0,"County":1.0,"City":1.0,"District":1.0,"PostalCode":1.0},"Location":{"LocationId":"NT_-fszY.o2uog1X7oaFBwP7C_l_595652476_L","LocationType":"point","DisplayPosition":{"Latitude":51.65073,"Longitude":19.33177},"MapView":{"TopLeft":{"Latitude":51.65073,"Longitude":19.33177},"BottomRight":{"Latitude":51.65059,"Longitude":19.33266}},"Address":{"Label":"95-200 Pabianice, Polska","Country":"POL","State":"Woj. Łódzkie","County":"Powiat Pabianicki","City":"Pabianice","District":"Pabianice","PostalCode":"95-200","AdditionalData":[{"value":"Polska","key":"CountryName"},{"value":"Woj. Łódzkie","key":"StateName"},{"value":"Powiat Pabianicki","key":"CountyName"}]},"MapReference":{"ReferenceId":"595652476","Spot":1.0,"SideOfStreet":"left","CountryId":"20624059","StateId":"20625723","CountyId":"20625866","CityId":"20675061","DistrictId":"20675062"}}},{"Relevance":1.0,"Distance":111.7,"MatchLevel":"houseNumber","MatchQuality":{"Country":1.0,"State":1.0,"County":1.0,"City":1.0,"District":1.0,"Street":[1.0],"HouseNumber":1.0,"PostalCode":1.0},"MatchType":"interpolated","Location":{"LocationId":"NT_ESJP8UewBcAflA34UwzOIB_2A","LocationType":"point","DisplayPosition":{"Latitude":51.64942,"Longitude":19.33062},"MapView":{"TopLeft":{"Latitude":51.6505442,"Longitude":19.3288082},"BottomRight":{"Latitude":51.6482958,"Longitude":19.3324318}},"Address":{"Label":"ulica Hermanowska 6, 95-200 Pabianice, Polska","Country":"POL","State":"Woj. Łódzkie","County":"Powiat Pabianicki","City":"Pabianice","District":"Pabianice","Street":"ulica Hermanowska","HouseNumber":"6","PostalCode":"95-200","AdditionalData":[{"value":"Polska","key":"CountryName"},{"value":"Woj. Łódzkie","key":"StateName"},{"value":"Powiat Pabianicki","key":"CountyName"}]},"MapReference":{"ReferenceId":"595648511","Spot":0.46,"SideOfStreet":"right","CountryId":"20624059","StateId":"20625723","CountyId":"20625866","CityId":"20675061","DistrictId":"20675061","AddressId":"732204992","RoadLinkId":"95952205"}}}]}]}}