{"Response":{"MetaInfo":{"Timestamp":"2020-03-28T11:42:52.521+0000","NextPageInformation":"2"},"View":[{"_type":"SearchResultsViewType","ViewId":0,"Result":[{"Relevance":1.0,"Distance":0.0,"Direction":0.0,"MatchLevel":"district","MatchQuality":{"Country":1.0,"State":1.0,"County":1.0,"City":1.0,"District":1.0,"PostalCode":1.0},"Location":{"LocationId":"NT_BdCxq2bbeiUmb-HJpWvi0A","LocationType":"point","DisplayPosition":{"Latitude":51.6730437,"Longitude":8.3479743},"MapView":{"TopLeft":{"Latitude":51.69397,"Longitude":8.29789},"BottomRight":{"Latitude":51.64875,"Longitude":8.3827}},"Address":{"Label":"Lippstadt, Nordrhein-Westfalen, Deutschland","Country":"DEU","State":"Nordrhein-Westfalen","County":"Soest","City":"Lippstadt","District":"Lippstadt","PostalCode":"59557","AdditionalData":[{"value":"Deutschland","key":"CountryName"},{"value":"Nordrhein-Westfalen","key":"StateName"},{"value":"Soest","key":"CountyName"}]},"MapReference":{"ReferenceId":"1203937653","SideOfStreet":"neither","CountryId":"20147700","StateId":"20157369","CountyId":"20160789","CityId":"20160837","DistrictId":"20160839"}}},{"Relevance":1.0,"Distance":5.8,"MatchLevel":"houseNumber","MatchQuality":{"Country":1.0,"State":1.0,"County":1.0,"City":1.0,"District":1.0,"Street":[1.0],"HouseNumber":1.0,"PostalCode":1.0},"MatchType":"interpolated","Location":{"LocationId":"NT_NfVMmLO61A-rDWbbGl4MlB_yA","LocationType":"point","DisplayPosition":{"Latitude":51.67309,"Longitude":8.3479},"MapView":{"TopLeft":{"Latitude":51.6742142,"Longitude":8.3460873},"BottomRight":{"Latitude":51.6719658,"Longitude":8.3497127}},"Address":{"Label":"Königsau 2, 59555 Lippstadt, Deutschland","Country":"DEU","State":"Nordrhein-Westfalen","County":"Soest","City":"Lippstadt","District":"Lippstadt","Street":"Königsau","HouseNumber":"2","PostalCode":"59555","AdditionalData":[{"value":"Deutschland","key":"CountryName"},{"value":"Nordrhein-Westfalen","key":"StateName"},{"value":"Soest","key":"CountyName"}]},"MapReference":{"ReferenceId":"1159228398","Spot":0.45,"SideOfStreet":"left","CountryId":"20147700","StateId":"20157369","CountyId":"20160789","CityId":"20160837","DistrictId":"20160839","AddressId":"196080586","RoadLinkId":"465855455"}}},{"Relevance":1.0,"Distance":28.7,"MatchLevel":"street","MatchQuality":{"Country":1.0,"State":1.0,"County":1.0,"City":1.0,"District":1.0,"Street":[1.0],"PostalCode":1.0},"Location":{"LocationId":"NT_NfVMmLO61A-rDWbbGl4MlB_l_1159228397_L","LocationType":"point","DisplayPosition":{"Latitude":51.67306,"Longitude":8.34839},"MapView":{"TopLeft":{"Latitude":51.67306,"Longitude":8.34839},"BottomRight":{"Latitude":51.67305,"Longitude":8.3485}},"Address":{"Label":"Königsau, 59555 Lippstadt, Deutschland","Country":"DEU","State":"Nordrhein-Westfalen","County":"Soest","City":"Lippstadt","District":"Lippstadt","Street":"Königsau","PostalCode":"59555","AdditionalData":[{"value":"Deutschland","key":"CountryName"},{"value":"Nordrhein-Westfalen","key":"StateName"},{"value":"Soest","key":"CountyName"}]},"MapReference":{"ReferenceId":"1159228397","Spot":1.0,"SideOfStreet":"left","CountryId":"20147700","StateId":"20157369","CountyId":"20160789","CityId":"20160837","DistrictId":"20160839"}}},{"Relevance":1.0,"Distance":28.8,"MatchLevel":"street","MatchQuality":{"Country":1.0,"State":1.0,"County":1.0,"City":1.0,"District":1.0,"PostalCode":1.0},"Location":{"LocationId":"NT_tcsRqc-.4CppQ7mAekn5BC_l_1159234971_L","LocationType":"point","DisplayPosition":{"Latitude":51.6729526,"Longitude":8.3483649},"MapView":{"TopLeft":{"Latitude":51.67306,"Longitude":8.34825},"BottomRight":{"Latitude":51.67246,"Longitude":8.34839}},"Address":{"Label":"59555 Lippstadt, Deutschland","Country":"DEU","State":"Nordrhein-Westfalen","County":"Soest","City":"Lippstadt","District":"Lippstadt","PostalCode":"59555","AdditionalData":[{"value":"Deutschland","key":"CountryName"},{"value":"Nordrhein-Westfalen","key":"StateName"},{"value":"Soest","key":"CountyName"}]},"MapReference":{"ReferenceId":"1159234971","Spot":0.82,"SideOfStreet":"left","CountryId":"20147700","StateId":"20157369","CountyId":"20160789","CityId":"20160837","DistrictId":"20160839"}}},{"Relevance":1.0,"Distance":38.4,"MatchLevel":"houseNumber","MatchQuality":{"Country":1.0,"State":1.0,"County":1.0,"City":1.0,"District":1.0,"Street":[1.0],"HouseNumber":1.0,"PostalCode":1.0},"MatchType":"interpolated","Location":{"LocationId":"NT_NfVMmLO61A-rDWbbGl4MlB_l_1159228396_L_1A","LocationType":"point","DisplayPosition":{"Latitude":51.67305,"Longitude":8.348531},"MapView":{"TopLeft":{"Latitude":51.6741742,"Longitude":8.3467183},"BottomRight":{"Latitude":51.6719258,"Longitude":8.3503437}},"Address":{"Label":"Königsau 5, 59555 Lippstadt, Deutschland","Country":"DEU","State":"Nordrhein-Westfalen","County":"Soest","City":"Lippstadt","District":"Lippstadt","Street":"Königsau","HouseNumber":"5","PostalCode":"59555","AdditionalData":[{"value":"Deutschland","key":"CountryName"},{"value":"Nordrhein-Westfalen","key":"StateName"},{"value":"Soest","key":"CountyName"}]},"MapReference":{"ReferenceId":"1159228396","Spot":0.52,"SideOfStreet":"left","CountryId":"20147700","StateId":"20157369","CountyId":"20160789","CityId":"20160837","DistrictId":"20160839"}}},{"Relevance":1.0,"Distance":38.4,"MatchLevel":"houseNumber","MatchQuality":{"Country":1.0,"State":1.0,"County":1.0,"City":1.0,"District":1.0,"Street":[1.0],"HouseNumber":1.0,"PostalCode":1.0},"MatchType":"interpolated","Location":{"LocationId":"NT_OWBwLz3OfNDzFUCh4Vi36A_2ED","LocationType":"point","DisplayPosition":{"Latitude":51.67296,"Longitude":8.34731},"MapView":{"TopLeft":{"Latitude":51.6740842,"Longitude":8.3454973},"BottomRight":{"Latitude":51.6718358,"Longitude":8.3491227}},"Address":{"Label":"Lange Straße 61, 59555 Lippstadt, Deutschland","Country":"DEU","State":"Nordrhein-Westfalen","County":"Soest","City":"Lippstadt","District":"Lippstadt","Street":"Lange Straße","HouseNumber":"61","PostalCode":"59555","AdditionalData":[{"value":"Deutschland","key":"CountryName"},{"value":"Nordrhein-Westfalen","key":"StateName"},{"value":"Soest","key":"CountyName"}]},"MapReference":{"ReferenceId":"75367161","Spot":0.76,"SideOfStreet":"right","CountryId":"20147700","StateId":"20157369","CountyId":"20160789","CityId":"20160837","DistrictId":"20160839","AddressId":"195874241","RoadLinkId":"35492032"}}},{"Relevance":1.0,"Distance":40.4,"MatchLevel":"street","MatchQuality":{"Country":1.0,"State":1.0,"County":1.0,"City":1.0,"District":1.0,"PostalCode":1.0},"Location":{"LocationId":"NT_tcsRqc-.4CppQ7mAekn5BC_l_1159234651_L","LocationType":"point","DisplayPosition":{"Latitude":51.67305,"Longitude":8.34856},"MapView":{"TopLeft":{"Latitude":51.67378,"Longitude":8.34856},"BottomRight":{"Latitude":51.67305,"Longitude":8.34874}},"Address":{"Label":"59555 Lippstadt, Deutschland","Country":"DEU","State":"Nordrhein-Westfalen","County":"Soest","City":"Lippstadt","District":"Lippstadt","PostalCode":"59555","AdditionalData":[{"value":"Deutschland","key":"CountryName"},{"value":"Nordrhein-Westfalen","key":"StateName"},{"value":"Soest","key":"CountyName"}]},"MapReference":{"ReferenceId":"1159234651","Spot":0.0,"SideOfStreet":"left","CountryId":"20147700","StateId":"20157369","CountyId":"20160789","CityId":"20160837","DistrictId":"20160839"}}},{"Relevance":1.0,"Distance":44.5,"MatchLevel":"houseNumber","MatchQuality":{"Country":1.0,"State":1.0,"County":1.0,"City":1.0,"District":1.0,"Street":[1.0],"HouseNumber":1.0,"PostalCode":1.0},"MatchType":"interpolated","Location":{"LocationId":"NT_NfVMmLO61A-rDWbbGl4MlB_3A","LocationType":"point","DisplayPosition":{"Latitude":51.67304,"Longitude":8.34862},"MapView":{"TopLeft":{"Latitude":51.6741642,"Longitude":8.3468073},"BottomRight":{"Latitude":51.6719158,"Longitude":8.3504327}},"Address":{"Label":"Königsau 7, 59555 Lippstadt, Deutschland","Country":"DEU","State":"Nordrhein-Westfalen","County":"Soest","City":"Lippstadt","District":"Lippstadt","Street":"Königsau","HouseNumber":"7","PostalCode":"59555","AdditionalData":[{"value":"Deutschland","key":"CountryName"},{"value":"Nordrhein-Westfalen","key":"StateName"},{"value":"Soest","key":"CountyName"}]},"MapReference":{"ReferenceId":"1159228395","Spot":0.81,"SideOfStreet":"right","CountryId":"20147700","StateId":"20157369","CountyId":"20160789","CityId":"20160837","DistrictId":"20160839","AddressId":"194322803","RoadLinkId":"465855452"}}},{"Relevance":1.0,"Distance":45.7,"MatchLevel":"houseNumber","MatchQuality":{"Country":1.0,"State":1.0,"County":1.0,"City":1.0,"District":1.0,"Street":[1.0],"HouseNumber":1.0,"PostalCode":1.0},"MatchType":"interpolated","Location":{"LocationId":"NT_OWBwLz3OfNDzFUCh4Vi36A_1cD","LocationType":"point","DisplayPosition":{"Latitude":51.67326,"Longitude":8.34729},"MapView":{"TopLeft":{"Latitude":51.6743842,"Longitude":8.3454773},"BottomRight":{"Latitude":51.6721358,"Longitude":8.3491027}},"Address":{"Label":"Lange Straße 57, 59555 Lippstadt, Deutschland","Country":"DEU","State":"Nordrhein-Westfalen","County":"Soest","City":"Lippstadt","District":"Lippstadt","Street":"Lange Straße","HouseNumber":"57","PostalCode":"59555","AdditionalData":[{"value":"Deutschland","key":"CountryName"},{"value":"Nordrhein-Westfalen","key":"StateName"},{"value":"Soest","key":"CountyName"}]},"MapReference":{"ReferenceId":"75367150","Spot":0.16,"SideOfStreet":"right","CountryId":"20147700","StateId":"20157369","CountyId":"20160789","CityId":"20160837","DistrictId":"20160839","AddressId":"195325473","RoadLinkId":"35039169"}}},{"Relevance":1.0,"Distance":64.7,"MatchLevel":"houseNumber","MatchQuality":{"Country":1.0,"State":1.0,"County":1.0,"City":1.0,"District":1.0,"Street":[1.0],"HouseNumber":1.0,"PostalCode":1.0},"MatchType":"interpolated","Location":{"LocationId":"NT_IYs4XZSaNyqaEtZWEZnJ2B_5A","LocationType":"point","DisplayPosition":{"Latitude":51.67268,"Longitude":8.34882},"MapView":{"TopLeft":{"Latitude":51.6738042,"Longitude":8.3470073},"BottomRight":{"Latitude":51.6715558,"Longitude":8.3506327}},"Address":{"Label":"Woldemei 9, 59555 Lippstadt, Deutschland","Country":"DEU","State":"Nordrhein-Westfalen","County":"Soest","City":"Lippstadt","District":"Lippstadt","Street":"Woldemei","HouseNumber":"9","PostalCode":"59555","AdditionalData":[{"value":"Deutschland","key":"CountryName"},{"value":"Nordrhein-Westfalen","key":"StateName"},{"value":"Soest","key":"CountyName"}]},"MapReference":{"ReferenceId":"75368133","Spot":0.05,"SideOfStreet":"left","CountryId":"20147700","StateId":"20157369","CountyId":"20160789","CityId":"20160837","DistrictId":"20160839","AddressId":"194502866","RoadLinkId":"35397386"}}}]}]}}