{"Response":{"MetaInfo":{"Timestamp":"2020-03-28T10:48:03.662+0000","NextPageInformation":"2"},"View":[{"_type":"SearchResultsViewType","ViewId":0,"Result":[{"Relevance":1.0,"Distance":0.0,"Direction":0.0,"MatchLevel":"district","MatchQuality":{"Country":1.0,"State":1.0,"County":1.0,"City":1.0,"District":1.0,"PostalCode":1.0},"Location":{"LocationId":"NT_chww6xJ0BD0MzgElV1-hwD","LocationType":"point","DisplayPosition":{"Latitude":51.6485376,"Longitude":17.8243589},"MapView":{"TopLeft":{"Latitude":51.67369,"Longitude":17.74833},"BottomRight":{"Latitude":51.61069,"Longitude":17.87859}},"Address":{"Label":"Ostrów Wielkopolski, Woj. Wielkopolskie, Polska","Country":"POL","State":"Woj. Wielkopolskie","County":"Powiat Ostrowski","City":"Ostrów Wielkopolski","District":"Ostrów Wielkopolski","PostalCode":"63-400","AdditionalData":[{"value":"Polska","key":"CountryName"},{"value":"Woj. Wielkopolskie","key":"StateName"},{"value":"Powiat Ostrowski","key":"CountyName"}]},"MapReference":{"ReferenceId":"802887094","SideOfStreet":"neither","CountryId":"20624059","StateId":"20629915","CountyId":"20631642","CityId":"20699561","DistrictId":"20699562"}}},{"Relevance":1.0,"Distance":15.9,"MatchLevel":"houseNumber","MatchQuality":{"Country":1.0,"State":1.0,"County":1.0,"City":1.0,"District":1.0,"Street":[1.0],"HouseNumber":1.0,"PostalCode":1.0},"MatchType":"interpolated","Location":{"LocationId":"NT_.glHI4F4uXTXbanuxkEPEB_1EE","LocationType":"point","DisplayPosition":{"Latitude":51.64868,"Longitude":17.82412},"MapView":{"TopLeft":{"Latitude":51.6498042,"Longitude":17.8223083},"BottomRight":{"Latitude":51.6475558,"Longitude":17.8259317}},"Address":{"Label":"ulica marsz. Józefa Piłsudskiego 5A, 63-400 Ostrów Wielkopolski, Polska","Country":"POL","State":"Woj. Wielkopolskie","County":"Powiat Ostrowski","City":"Ostrów Wielkopolski","District":"Ostrów Wielkopolski","Street":"ulica marsz. Józefa Piłsudskiego","HouseNumber":"5A","PostalCode":"63-400","AdditionalData":[{"value":"Polska","key":"CountryName"},{"value":"Woj. Wielkopolskie","key":"StateName"},{"value":"Powiat Ostrowski","key":"CountyName"}]},"MapReference":{"ReferenceId":"1089074480","Spot":0.64,"SideOfStreet":"right","CountryId":"20624059","StateId":"20629915","CountyId":"20631642","CityId":"20699561","DistrictId":"20699562","AddressId":"222016489","RoadLinkId":"404080233"}}},{"Relevance":1.0,"Distance":32.5,"MatchLevel":"houseNumber","MatchQuality":{"Country":1.0,"State":1.0,"County":1.0,"City":1.0,"District":1.0,"Street":[1.0],"HouseNumber":1.0,"PostalCode":1.0},"MatchType":"interpolated","Location":{"LocationId":"NT_.glHI4F4uXTXbanuxkEPEB_xAD","LocationType":"point","DisplayPosition":{"Latitude":51.64879,"Longitude":17.82412},"MapView":{"TopLeft":{"Latitude":51.6499142,"Longitude":17.8223083},"BottomRight":{"Latitude":51.6476658,"Longitude":17.8259317}},"Address":{"Label":"ulica marsz. Józefa Piłsudskiego 10, 63-400 Ostrów Wielkopolski, Polska","Country":"POL","State":"Woj. Wielkopolskie","County":"Powiat Ostrowski","City":"Ostrów Wielkopolski","District":"Ostrów Wielkopolski","Street":"ulica marsz. Józefa Piłsudskiego","HouseNumber":"10","PostalCode":"63-400","AdditionalData":[{"value":"Polska","key":"CountryName"},{"value":"Woj. Wielkopolskie","key":"StateName"},{"value":"Powiat Ostrowski","key":"CountyName"}]},"MapReference":{"ReferenceId":"1089074481","Spot":0.09,"SideOfStreet":"left","CountryId":"20624059","StateId":"20629915","CountyId":"20631642","CityId":"20699561","DistrictId":"20699562","AddressId":"222016483","RoadLinkId":"404080234"}}},{"Relevance":1.0,"Distance":33.2,"MatchLevel":"houseNumber","MatchQuality":{"Country":1.0,"State":1.0,"County":1.0,"City":1.0,"District":1.0,"Street":[1.0],"HouseNumber":1.0,"PostalCode":1.0},"MatchType":"interpolated","Location":{"LocationId":"NT_.glHI4F4uXTXbanuxkEPEB_3A","LocationType":"point","DisplayPosition":{"Latitude":51.64824,"Longitude":17.82409},"MapView":{"TopLeft":{"Latitude":51.6493642,"Longitude":17.8222783},"BottomRight":{"Latitude":51.6471158,"Longitude":17.8259017}},"Address":{"Label":"ulica marsz. Józefa Piłsudskiego 7, 63-400 Ostrów Wielkopolski, Polska","Country":"POL","State":"Woj. Wielkopolskie","County":"Powiat Ostrowski","City":"Ostrów Wielkopolski","District":"Ostrów Wielkopolski","Street":"ulica marsz. Józefa Piłsudskiego","HouseNumber":"7","PostalCode":"63-400","AdditionalData":[{"value":"Polska","key":"CountryName"},{"value":"Woj. Wielkopolskie","key":"StateName"},{"value":"Powiat Ostrowski","key":"CountyName"}]},"MapReference":{"ReferenceId":"1089068455","Spot":0.58,"SideOfStreet":"right","CountryId":"20624059","StateId":"20629915","CountyId":"20631642","CityId":"20699561","DistrictId":"20699562","AddressId":"222016490","RoadLinkId":"404074266"}}},{"Relevance":1.0,"Distance":39.8,"MatchLevel":"houseNumber","MatchQuality":{"Country":1.0,"State":1.0,"County":1.0,"City":1.0,"District":1.0,"Street":[1.0],"HouseNumber":1.0,"PostalCode":1.0},"MatchType":"interpolated","Location":{"LocationId":"NT_Ef2OfHQZk-mwXirqq.-gBB_yA","LocationType":"point","DisplayPosition":{"Latitude":51.64907,"Longitude":17.82463},"MapView":{"TopLeft":{"Latitude":51.6501942,"Longitude":17.8228182},"BottomRight":{"Latitude":51.6479458,"Longitude":17.8264418}},"Address":{"Label":"ulica prof. Antoniego Kaliny 2, 63-400 Ostrów Wielkopolski, Polska","Country":"POL","State":"Woj. Wielkopolskie","County":"Powiat Ostrowski","City":"Ostrów Wielkopolski","District":"Ostrów Wielkopolski","Street":"ulica prof. Antoniego Kaliny","HouseNumber":"2","PostalCode":"63-400","AdditionalData":[{"value":"Polska","key":"CountryName"},{"value":"Woj. Wielkopolskie","key":"StateName"},{"value":"Powiat Ostrowski","key":"CountyName"}]},"MapReference":{"ReferenceId":"595373608","Spot":0.9,"SideOfStreet":"left","CountryId":"20624059","StateId":"20629915","CountyId":"20631642","CityId":"20699561","DistrictId":"20699562","AddressId":"222016237","RoadLinkId":"94835000"}}},{"Relevance":1.0,"Distance":71.3,"MatchLevel":"houseNumber","MatchQuality":{"Country":1.0,"State":1.0,"County":1.0,"City":1.0,"District":1.0,"Street":[1.0],"HouseNumber":1.0,"PostalCode":1.0},"MatchType":"interpolated","Location":{"LocationId":"NT_lTCNjBCI4TnZFVcFCfepBB_xcD","LocationType":"point","DisplayPosition":{"Latitude":51.64773,"Longitude":17.8236},"MapView":{"TopLeft":{"Latitude":51.6488542,"Longitude":17.8217883},"BottomRight":{"Latitude":51.6466058,"Longitude":17.8254117}},"Address":{"Label":"ulica kard. M. Ledóchowskiego 17, 63-400 Ostrów Wielkopolski, Polska","Country":"POL","State":"Woj. Wielkopolskie","County":"Powiat Ostrowski","City":"Ostrów Wielkopolski","District":"Ostrów Wielkopolski","Street":"ulica kard. M. Ledóchowskiego","HouseNumber":"17","PostalCode":"63-400","AdditionalData":[{"value":"Polska","key":"CountryName"},{"value":"Woj. Wielkopolskie","key":"StateName"},{"value":"Powiat Ostrowski","key":"CountyName"}]},"MapReference":{"ReferenceId":"1241055610","Spot":0.2,"SideOfStreet":"right","CountryId":"20624059","StateId":"20629915","CountyId":"20631642","CityId":"20699561","DistrictId":"20699562","AddressId":"210064057","RoadLinkId":"562176060"}}},{"Relevance":1.0,"Distance":76.0,"MatchLevel":"houseNumber","MatchQuality":{"Country":1.0,"State":1.0,"County":1.0,"City":1.0,"District":1.0,"Street":[1.0],"HouseNumber":1.0,"PostalCode":1.0},"MatchType":"interpolated","Location":{"LocationId":"NT_lTCNjBCI4TnZFVcFCfepBB_xkD","LocationType":"point","DisplayPosition":{"Latitude":51.64763,"Longitude":17.82418},"MapView":{"TopLeft":{"Latitude":51.6487542,"Longitude":17.8223683},"BottomRight":{"Latitude":51.6465058,"Longitude":17.8259917}},"Address":{"Label":"ulica kard. M. Ledóchowskiego 19, 63-400 Ostrów Wielkopolski, Polska","Country":"POL","State":"Woj. Wielkopolskie","County":"Powiat Ostrowski","City":"Ostrów Wielkopolski","District":"Ostrów Wielkopolski","Street":"ulica kard. M. Ledóchowskiego","HouseNumber":"19","PostalCode":"63-400","AdditionalData":[{"value":"Polska","key":"CountryName"},{"value":"Woj. Wielkopolskie","key":"StateName"},{"value":"Powiat Ostrowski","key":"CountyName"}]},"MapReference":{"ReferenceId":"595373764","Spot":0.94,"SideOfStreet":"right","CountryId":"20624059","StateId":"20629915","CountyId":"20631642","CityId":"20699561","DistrictId":"20699562","AddressId":"210026367","RoadLinkId":"94886791"}}},{"Relevance":1.0,"Distance":82.2,"MatchLevel":"street","MatchQuality":{"Country":1.0,"State":1.0,"County":1.0,"City":1.0,"District":1.0,"Street":[1.0],"PostalCode":1.0},"Location":{"LocationId":"NT_.glHI4F4uXTXbanuxkEPEB_l_1089068454_R","LocationType":"point","DisplayPosition":{"Latitude":51.64782,"Longitude":17.82407},"MapView":{"TopLeft":{"Latitude":51.64782,"Longitude":17.82405},"BottomRight":{"Latitude":51.64764,"Longitude":17.82407}},"Address":{"Label":"ulica marsz. Józefa Piłsudskiego, 63-400 Ostrów Wielkopolski, Polska","Country":"POL","State":"Woj. Wielkopolskie","County":"Powiat Ostrowski","City":"Ostrów Wielkopolski","District":"Ostrów Wielkopolski","Street":"ulica marsz. Józefa Piłsudskiego","PostalCode":"63-400","AdditionalData":[{"value":"Polska","key":"CountryName"},{"value":"Woj. Wielkopolskie","key":"StateName"},{"value":"Powiat Ostrowski","key":"CountyName"}]},"MapReference":{"ReferenceId":"1089068454","Spot":1.0,"SideOfStreet":"right","CountryId":"20624059","StateId":"20629915","CountyId":"20631642","CityId":"20699561","DistrictId":"20699562"}}},{"Relevance":1.0,"Distance":91.4,"MatchLevel":"houseNumber","MatchQuality":{"Country":1.0,"State":1.0,"County":1.0,"City":1.0,"District":1.0,"Street":[1.0],"HouseNumber":1.0,"PostalCode":1.0},"MatchType":"interpolated","Location":{"LocationId":"NT_.glHI4F4uXTXbanuxkEPEB_zEE","LocationType":"point","DisplayPosition":{"Latitude":51.64936,"Longitude":17.82415},"MapView":{"TopLeft":{"Latitude":51.6504842,"Longitude":17.8223382},"BottomRight":{"Latitude":51.6482358,"Longitude":17.8259618}},"Address":{"Label":"ulica marsz. Józefa Piłsudskiego 3A, 63-400 Ostrów Wielkopolski, Polska","Country":"POL","State":"Woj. Wielkopolskie","County":"Powiat Ostrowski","City":"Ostrów Wielkopolski","District":"Ostrów Wielkopolski","Street":"ulica marsz. Józefa Piłsudskiego","HouseNumber":"3A","PostalCode":"63-400","AdditionalData":[{"value":"Polska","key":"CountryName"},{"value":"Woj. Wielkopolskie","key":"StateName"},{"value":"Powiat Ostrowski","key":"CountyName"}]},"MapReference":{"ReferenceId":"1022247327","Spot":0.47,"SideOfStreet":"right","CountryId":"20624059","StateId":"20629915","CountyId":"20631642","CityId":"20699561","DistrictId":"20699562","AddressId":"771572906","RoadLinkId":"346767451"}}},{"Relevance":1.0,"Distance":102.1,"MatchLevel":"landmark","MatchQuality":{"Country":1.0,"State":1.0,"County":1.0,"City":1.0,"District":1.0,"Street":[1.0],"PostalCode":1.0,"Name":1.0},"Location":{"LocationId":"NT_U-ToYNxD0HBqf3JLkWTyYA_p_Lx2-IOpe8rE197SN.X1ZjA","LocationType":"park","Name":"Park Miejski","DisplayPosition":{"Latitude":51.64687,"Longitude":17.82097},"MapView":{"TopLeft":{"Latitude":51.64812,"Longitude":17.82035},"BottomRight":{"Latitude":51.64506,"Longitude":17.82405}},"Address":{"Label":"aleja Powstańców Wielkopolskich, 63-400 Ostrów Wielkopolski, Polska","Country":"POL","State":"Woj. Wielkopolskie","County":"Powiat Ostrowski","City":"Ostrów Wielkopolski","District":"Ostrów Wielkopolski","Street":"aleja Powstańców Wielkopolskich","PostalCode":"63-400","AdditionalData":[{"value":"Polska","key":"CountryName"},{"value":"Woj. Wielkopolskie","key":"StateName"},{"value":"Powiat Ostrowski","key":"CountyName"}]},"MapReference":{"CountryId":"20624059","StateId":"20629915","CountyId":"20631642","CityId":"20699561","DistrictId":"20699562","PlaceId":"995204166"}}}]}]}}