{"Response":{"MetaInfo":{"Timestamp":"2020-03-28T11:29:48.411+0000","NextPageInformation":"2"},"View":[{"_type":"SearchResultsViewType","ViewId":0,"Result":[{"Relevance":1.0,"Distance":0.0,"Direction":0.0,"MatchLevel":"district","MatchQuality":{"Country":1.0,"State":1.0,"County":1.0,"City":1.0,"District":1.0,"PostalCode":1.0},"Location":{"LocationId":"NT_chww6xJ0BD0MzgElV1-hwD","LocationType":"point","DisplayPosition":{"Latitude":51.6274169,"Longitude":17.8049814},"MapView":{"TopLeft":{"Latitude":51.67369,"Longitude":17.74833},"BottomRight":{"Latitude":51.61069,"Longitude":17.87859}},"Address":{"Label":"Ostrów Wielkopolski, Woj. Wielkopolskie, Polska","Country":"POL","State":"Woj. Wielkopolskie","County":"Powiat Ostrowski","City":"Ostrów Wielkopolski","District":"Ostrów Wielkopolski","PostalCode":"63-400","AdditionalData":[{"value":"Polska","key":"CountryName"},{"value":"Woj. Wielkopolskie","key":"StateName"},{"value":"Powiat Ostrowski","key":"CountyName"}]},"MapReference":{"ReferenceId":"802887094","SideOfStreet":"neither","CountryId":"20624059","StateId":"20629915","CountyId":"20631642","CityId":"20699561","DistrictId":"20699562"}}},{"Relevance":1.0,"Distance":18.2,"MatchLevel":"houseNumber","MatchQuality":{"Country":1.0,"State":1.0,"County":1.0,"City":1.0,"District":1.0,"Street":[1.0],"HouseNumber":1.0,"PostalCode":1.0},"MatchType":"interpolated","Location":{"LocationId":"NT_JLEpWoySMDkmoaKDBOuaCD_xAD","LocationType":"point","DisplayPosition":{"Latitude":51.62744,"Longitude":17.80472},"MapView":{"TopLeft":{"Latitude":51.6285642,"Longitude":17.8029091},"BottomRight":{"Latitude":51.6263158,"Longitude":17.8065309}},"Address":{"Label":"ulica Brzozowa 10, 63-400 Ostrów Wielkopolski, Polska","Country":"POL","State":"Woj. Wielkopolskie","County":"Powiat Ostrowski","City":"Ostrów Wielkopolski","District":"Ostrów Wielkopolski","Street":"ulica Brzozowa","HouseNumber":"10","PostalCode":"63-400","AdditionalData":[{"value":"Polska","key":"CountryName"},{"value":"Woj. Wielkopolskie","key":"StateName"},{"value":"Powiat Ostrowski","key":"CountyName"}]},"MapReference":{"ReferenceId":"910743837","Spot":0.31,"SideOfStreet":"left","CountryId":"20624059","StateId":"20629915","CountyId":"20631642","CityId":"20699561","DistrictId":"20699562","AddressId":"210386832","RoadLinkId":"270255368"}}},{"Relevance":1.0,"Distance":43.2,"MatchLevel":"houseNumber","MatchQuality":{"Country":1.0,"State":1.0,"County":1.0,"City":1.0,"District":1.0,"Street":[1.0],"HouseNumber":1.0,"PostalCode":1.0},"MatchType":"interpolated","Location":{"LocationId":"NT_JLEpWoySMDkmoaKDBOuaCD_xQD","LocationType":"point","DisplayPosition":{"Latitude":51.62719,"Longitude":17.80566},"MapView":{"TopLeft":{"Latitude":51.6283142,"Longitude":17.8038491},"BottomRight":{"Latitude":51.6260658,"Longitude":17.8074709}},"Address":{"Label":"ulica Brzozowa 14, 63-400 Ostrów Wielkopolski, Polska","Country":"POL","State":"Woj. Wielkopolskie","County":"Powiat Ostrowski","City":"Ostrów Wielkopolski","District":"Ostrów Wielkopolski","Street":"ulica Brzozowa","HouseNumber":"14","PostalCode":"63-400","AdditionalData":[{"value":"Polska","key":"CountryName"},{"value":"Woj. Wielkopolskie","key":"StateName"},{"value":"Powiat Ostrowski","key":"CountyName"}]},"MapReference":{"ReferenceId":"910743839","Spot":0.7,"SideOfStreet":"left","CountryId":"20624059","StateId":"20629915","CountyId":"20631642","CityId":"20699561","DistrictId":"20699562","AddressId":"210025722","RoadLinkId":"270255369"}}},{"Relevance":1.0,"Distance":67.6,"MatchLevel":"houseNumber","MatchQuality":{"Country":1.0,"State":1.0,"County":1.0,"City":1.0,"District":1.0,"Street":[1.0],"HouseNumber":1.0,"PostalCode":1.0},"MatchType":"interpolated","Location":{"LocationId":"NT_JLEpWoySMDkmoaKDBOuaCD_xYD","LocationType":"point","DisplayPosition":{"Latitude":51.62742,"Longitude":17.80596},"MapView":{"TopLeft":{"Latitude":51.6285442,"Longitude":17.8041491},"BottomRight":{"Latitude":51.6262958,"Longitude":17.8077709}},"Address":{"Label":"ulica Brzozowa 16, 63-400 Ostrów Wielkopolski, Polska","Country":"POL","State":"Woj. Wielkopolskie","County":"Powiat Ostrowski","City":"Ostrów Wielkopolski","District":"Ostrów Wielkopolski","Street":"ulica Brzozowa","HouseNumber":"16","PostalCode":"63-400","AdditionalData":[{"value":"Polska","key":"CountryName"},{"value":"Woj. Wielkopolskie","key":"StateName"},{"value":"Powiat Ostrowski","key":"CountyName"}]},"MapReference":{"ReferenceId":"910743836","Spot":0.82,"SideOfStreet":"left","CountryId":"20624059","StateId":"20629915","CountyId":"20631642","CityId":"20699561","DistrictId":"20699562","AddressId":"210942508","RoadLinkId":"270255367"}}},{"Relevance":1.0,"Distance":98.3,"MatchLevel":"street","MatchQuality":{"Country":1.0,"State":1.0,"County":1.0,"City":1.0,"District":1.0,"Street":[1.0],"PostalCode":1.0},"Location":{"LocationId":"NT_JLEpWoySMDkmoaKDBOuaCD_l_910743840_L","LocationType":"point","DisplayPosition":{"Latitude":51.62656,"Longitude":17.80533},"MapView":{"TopLeft":{"Latitude":51.62665,"Longitude":17.80533},"BottomRight":{"Latitude":51.62656,"Longitude":17.8056}},"Address":{"Label":"ulica Brzozowa, 63-400 Ostrów Wielkopolski, Polska","Country":"POL","State":"Woj. Wielkopolskie","County":"Powiat Ostrowski","City":"Ostrów Wielkopolski","District":"Ostrów Wielkopolski","Street":"ulica Brzozowa","PostalCode":"63-400","AdditionalData":[{"value":"Polska","key":"CountryName"},{"value":"Woj. Wielkopolskie","key":"StateName"},{"value":"Powiat Ostrowski","key":"CountyName"}]},"MapReference":{"ReferenceId":"910743840","Spot":0.0,"SideOfStreet":"left","CountryId":"20624059","StateId":"20629915","CountyId":"20631642","CityId":"20699561","DistrictId":"20699562"}}},{"Relevance":1.0,"Distance":122.4,"MatchLevel":"houseNumber","MatchQuality":{"Country":1.0,"State":1.0,"County":1.0,"City":1.0,"District":1.0,"Street":[1.0],"HouseNumber":1.0,"PostalCode":1.0},"MatchType":"interpolated","Location":{"LocationId":"NT_NudOwy-WxXkvU4GAArb5GA_5kD","LocationType":"point","DisplayPosition":{"Latitude":51.62835,"Longitude":17.80298},"MapView":{"TopLeft":{"Latitude":51.6294742,"Longitude":17.8011691},"BottomRight":{"Latitude":51.6272258,"Longitude":17.8047909}},"Address":{"Label":"ulica Staroprzygodzka 99, 63-400 Ostrów Wielkopolski, Polska","Country":"POL","State":"Woj. Wielkopolskie","County":"Powiat Ostrowski","City":"Ostrów Wielkopolski","District":"Ostrów Wielkopolski","Street":"ulica Staroprzygodzka","HouseNumber":"99","PostalCode":"63-400","AdditionalData":[{"value":"Polska","key":"CountryName"},{"value":"Woj. Wielkopolskie","key":"StateName"},{"value":"Powiat Ostrowski","key":"CountyName"}]},"MapReference":{"ReferenceId":"753655590","Spot":0.66,"SideOfStreet":"right","CountryId":"20624059","StateId":"20629915","CountyId":"20631642","CityId":"20699561","DistrictId":"20699562","AddressId":"210663136","RoadLinkId":"149014102"}}},{"Relevance":1.0,"Distance":122.5,"MatchLevel":"houseNumber","MatchQuality":{"Country":1.0,"State":1.0,"County":1.0,"City":1.0,"District":1.0,"Street":[1.0],"HouseNumber":1.0,"PostalCode":1.0},"MatchType":"interpolated","Location":{"LocationId":"NT_Qfscs47IYtxvd1Lj1bpddC_3QE","LocationType":"point","DisplayPosition":{"Latitude":51.62663,"Longitude":17.80342},"MapView":{"TopLeft":{"Latitude":51.6277542,"Longitude":17.8016091},"BottomRight":{"Latitude":51.6255058,"Longitude":17.8052309}},"Address":{"Label":"ulica Chłopska 7D, 63-400 Ostrów Wielkopolski, Polska","Country":"POL","State":"Woj. Wielkopolskie","County":"Powiat Ostrowski","City":"Ostrów Wielkopolski","District":"Ostrów Wielkopolski","Street":"ulica Chłopska","HouseNumber":"7D","PostalCode":"63-400","AdditionalData":[{"value":"Polska","key":"CountryName"},{"value":"Woj. Wielkopolskie","key":"StateName"},{"value":"Powiat Ostrowski","key":"CountyName"}]},"MapReference":{"ReferenceId":"754106884","Spot":0.04,"SideOfStreet":"right","CountryId":"20624059","StateId":"20629915","CountyId":"20631642","CityId":"20699561","DistrictId":"20699562","AddressId":"582574325","RoadLinkId":"149495793"}}},{"Relevance":1.0,"Distance":128.8,"MatchLevel":"houseNumber","MatchQuality":{"Country":1.0,"State":1.0,"County":1.0,"City":1.0,"District":1.0,"Street":[1.0],"HouseNumber":1.0,"PostalCode":1.0},"MatchType":"interpolated","Location":{"LocationId":"NT_JLEpWoySMDkmoaKDBOuaCD_zYTQ","LocationType":"point","DisplayPosition":{"Latitude":51.62649,"Longitude":17.8061},"MapView":{"TopLeft":{"Latitude":51.6276142,"Longitude":17.8042891},"BottomRight":{"Latitude":51.6253658,"Longitude":17.8079109}},"Address":{"Label":"ulica Brzozowa 36A, 63-400 Ostrów Wielkopolski, Polska","Country":"POL","State":"Woj. Wielkopolskie","County":"Powiat Ostrowski","City":"Ostrów Wielkopolski","District":"Ostrów Wielkopolski","Street":"ulica Brzozowa","HouseNumber":"36A","PostalCode":"63-400","AdditionalData":[{"value":"Polska","key":"CountryName"},{"value":"Woj. Wielkopolskie","key":"StateName"},{"value":"Powiat Ostrowski","key":"CountyName"}]},"MapReference":{"ReferenceId":"910743838","Spot":0.04,"SideOfStreet":"right","CountryId":"20624059","StateId":"20629915","CountyId":"20631642","CityId":"20699561","DistrictId":"20699562","AddressId":"582337746","RoadLinkId":"270255371"}}},{"Relevance":1.0,"Distance":138.0,"MatchLevel":"houseNumber","MatchQuality":{"Country":1.0,"State":1.0,"County":1.0,"City":1.0,"District":1.0,"Street":[1.0],"HouseNumber":1.0,"PostalCode":1.0},"MatchType":"interpolated","Location":{"LocationId":"NT_JLEpWoySMDkmoaKDBOuaCD_yYD","LocationType":"point","DisplayPosition":{"Latitude":51.62716,"Longitude":17.80727},"MapView":{"TopLeft":{"Latitude":51.6282842,"Longitude":17.8054591},"BottomRight":{"Latitude":51.6260358,"Longitude":17.8090809}},"Address":{"Label":"ulica Brzozowa 26, 63-400 Ostrów Wielkopolski, Polska","Country":"POL","State":"Woj. Wielkopolskie","County":"Powiat Ostrowski","City":"Ostrów Wielkopolski","District":"Ostrów Wielkopolski","Street":"ulica Brzozowa","HouseNumber":"26","PostalCode":"63-400","AdditionalData":[{"value":"Polska","key":"CountryName"},{"value":"Woj. Wielkopolskie","key":"StateName"},{"value":"Powiat Ostrowski","key":"CountyName"}]},"MapReference":{"ReferenceId":"910739846","Spot":0.79,"SideOfStreet":"left","CountryId":"20624059","StateId":"20629915","CountyId":"20631642","CityId":"20699561","DistrictId":"20699562","AddressId":"582566168","RoadLinkId":"270251813"}}},{"Relevance":1.0,"Distance":148.7,"MatchLevel":"houseNumber","MatchQuality":{"Country":1.0,"State":1.0,"County":1.0,"City":1.0,"District":1.0,"Street":[1.0],"HouseNumber":1.0,"PostalCode":1.0},"MatchType":"interpolated","Location":{"LocationId":"NT_NudOwy-WxXkvU4GAArb5GA_xAzMFB","LocationType":"point","DisplayPosition":{"Latitude":51.62741,"Longitude":17.80236},"MapView":{"TopLeft":{"Latitude":51.6285342,"Longitude":17.8005491},"BottomRight":{"Latitude":51.6262858,"Longitude":17.8041709}},"Address":{"Label":"ulica Staroprzygodzka 103E, 63-400 Ostrów Wielkopolski, Polska","Country":"POL","State":"Woj. Wielkopolskie","County":"Powiat Ostrowski","City":"Ostrów Wielkopolski","District":"Ostrów Wielkopolski","Street":"ulica Staroprzygodzka","HouseNumber":"103E","PostalCode":"63-400","AdditionalData":[{"value":"Polska","key":"CountryName"},{"value":"Woj. Wielkopolskie","key":"StateName"},{"value":"Powiat Ostrowski","key":"CountyName"}]},"MapReference":{"ReferenceId":"595376109","Spot":0.61,"SideOfStreet":"right","CountryId":"20624059","StateId":"20629915","CountyId":"20631642","CityId":"20699561","DistrictId":"20699562","AddressId":"732000352","RoadLinkId":"95289079"}}}]}]}}