{"Response":{"MetaInfo":{"Timestamp":"2020-03-28T10:48:32.095+0000","NextPageInformation":"2"},"View":[{"_type":"SearchResultsViewType","ViewId":0,"Result":[{"Relevance":1.0,"Distance":0.0,"Direction":0.0,"MatchLevel":"district","MatchQuality":{"Country":1.0,"State":1.0,"County":1.0,"City":1.0,"District":1.0,"PostalCode":1.0},"Location":{"LocationId":"NT_N-ctGhe0zK.oEhVvwjYH4B","LocationType":"point","DisplayPosition":{"Latitude":51.6522126,"Longitude":16.0723656},"MapView":{"TopLeft":{"Latitude":51.67617,"Longitude":16.03442},"BottomRight":{"Latitude":51.63785,"Longitude":16.14885}},"Address":{"Label":"Głogów, Woj. Dolnośląskie, Polska","Country":"POL","State":"Woj. Dolnośląskie","County":"Powiat Głogowski","City":"Głogów","District":"Głogów","PostalCode":"67-200","AdditionalData":[{"value":"Polska","key":"CountryName"},{"value":"Woj. Dolnośląskie","key":"StateName"},{"value":"Powiat Głogowski","key":"CountyName"}]},"MapReference":{"ReferenceId":"906954851","SideOfStreet":"neither","CountryId":"20624059","StateId":"20625002","CountyId":"20625037","CityId":"20680061","DistrictId":"20680062"}}},{"Relevance":1.0,"Distance":15.8,"MatchLevel":"houseNumber","MatchQuality":{"Country":1.0,"State":1.0,"County":1.0,"City":1.0,"District":1.0,"Street":[1.0],"HouseNumber":1.0,"PostalCode":1.0},"MatchType":"interpolated","Location":{"LocationId":"NT_eSP4V6g2sD0ZbYkomc2JcC_1EE","LocationType":"point","DisplayPosition":{"Latitude":51.65184,"Longitude":16.0725},"MapView":{"TopLeft":{"Latitude":51.6529642,"Longitude":16.0706881},"BottomRight":{"Latitude":51.6507158,"Longitude":16.0743119}},"Address":{"Label":"ulica Gwiaździsta 5A, 67-200 Głogów, Polska","Country":"POL","State":"Woj. Dolnośląskie","County":"Powiat Głogowski","City":"Głogów","District":"Głogów","Street":"ulica Gwiaździsta","HouseNumber":"5A","PostalCode":"67-200","AdditionalData":[{"value":"Polska","key":"CountryName"},{"value":"Woj. Dolnośląskie","key":"StateName"},{"value":"Powiat Głogowski","key":"CountyName"}]},"MapReference":{"ReferenceId":"594138698","Spot":0.21,"SideOfStreet":"left","CountryId":"20624059","StateId":"20625002","CountyId":"20625037","CityId":"20680061","DistrictId":"20680062","AddressId":"210821833","RoadLinkId":"153594487"}}},{"Relevance":1.0,"Distance":53.7,"MatchLevel":"houseNumber","MatchQuality":{"Country":1.0,"State":1.0,"County":1.0,"City":1.0,"District":1.0,"Street":[1.0],"HouseNumber":1.0,"PostalCode":1.0},"MatchType":"interpolated","Location":{"LocationId":"NT_BgHB-9HUnv79fHh2t.PWUD_xID","LocationType":"point","DisplayPosition":{"Latitude":51.65291,"Longitude":16.07262},"MapView":{"TopLeft":{"Latitude":51.6540342,"Longitude":16.0708081},"BottomRight":{"Latitude":51.6517858,"Longitude":16.0744319}},"Address":{"Label":"ulica Saturna 12, 67-200 Głogów, Polska","Country":"POL","State":"Woj. Dolnośląskie","County":"Powiat Głogowski","City":"Głogów","District":"Głogów","Street":"ulica Saturna","HouseNumber":"12","PostalCode":"67-200","AdditionalData":[{"value":"Polska","key":"CountryName"},{"value":"Woj. Dolnośląskie","key":"StateName"},{"value":"Powiat Głogowski","key":"CountyName"}]},"MapReference":{"ReferenceId":"758977274","Spot":0.36,"SideOfStreet":"left","CountryId":"20624059","StateId":"20625002","CountyId":"20625037","CityId":"20680061","DistrictId":"20680062","AddressId":"210129667","RoadLinkId":"153594493"}}},{"Relevance":1.0,"Distance":56.8,"MatchLevel":"street","MatchQuality":{"Country":1.0,"State":1.0,"County":1.0,"City":1.0,"District":1.0,"Street":[1.0],"PostalCode":1.0},"Location":{"LocationId":"NT_eSP4V6g2sD0ZbYkomc2JcC_l_758951063_R","LocationType":"point","DisplayPosition":{"Latitude":51.6517216,"Longitude":16.0721365},"MapView":{"TopLeft":{"Latitude":51.65196,"Longitude":16.0714},"BottomRight":{"Latitude":51.65157,"Longitude":16.07231}},"Address":{"Label":"ulica Gwiaździsta, 67-200 Głogów, Polska","Country":"POL","State":"Woj. Dolnośląskie","County":"Powiat Głogowski","City":"Głogów","District":"Głogów","Street":"ulica Gwiaździsta","PostalCode":"67-200","AdditionalData":[{"value":"Polska","key":"CountryName"},{"value":"Woj. Dolnośląskie","key":"StateName"},{"value":"Powiat Głogowski","key":"CountyName"}]},"MapReference":{"ReferenceId":"758951063","Spot":0.23,"SideOfStreet":"right","CountryId":"20624059","StateId":"20625002","CountyId":"20625037","CityId":"20680061","DistrictId":"20680062"}}},{"Relevance":1.0,"Distance":69.3,"MatchLevel":"street","MatchQuality":{"Country":1.0,"State":1.0,"County":1.0,"City":1.0,"District":1.0,"PostalCode":1.0},"Location":{"LocationId":"NT_fA.ySRZIfJCxrPm8lxkiNC_l_758951066_R","LocationType":"point","DisplayPosition":{"Latitude":51.6515919,"Longitude":16.0724576},"MapView":{"TopLeft":{"Latitude":51.65161,"Longitude":16.07231},"BottomRight":{"Latitude":51.65141,"Longitude":16.07274}},"Address":{"Label":"67-200 Głogów, Polska","Country":"POL","State":"Woj. Dolnośląskie","County":"Powiat Głogowski","City":"Głogów","District":"Głogów","PostalCode":"67-200","AdditionalData":[{"value":"Polska","key":"CountryName"},{"value":"Woj. Dolnośląskie","key":"StateName"},{"value":"Powiat Głogowski","key":"CountyName"}]},"MapReference":{"ReferenceId":"758951066","Spot":0.72,"SideOfStreet":"right","CountryId":"20624059","StateId":"20625002","CountyId":"20625037","CityId":"20680061","DistrictId":"20680062"}}},{"Relevance":1.0,"Distance":72.3,"MatchLevel":"street","MatchQuality":{"Country":1.0,"State":1.0,"County":1.0,"City":1.0,"District":1.0,"PostalCode":1.0},"Location":{"LocationId":"NT_fA.ySRZIfJCxrPm8lxkiNC_l_758297623_R","LocationType":"point","DisplayPosition":{"Latitude":51.65196,"Longitude":16.0714},"MapView":{"TopLeft":{"Latitude":51.65196,"Longitude":16.07125},"BottomRight":{"Latitude":51.65167,"Longitude":16.0714}},"Address":{"Label":"67-200 Głogów, Polska","Country":"POL","State":"Woj. Dolnośląskie","County":"Powiat Głogowski","City":"Głogów","District":"Głogów","PostalCode":"67-200","AdditionalData":[{"value":"Polska","key":"CountryName"},{"value":"Woj. Dolnośląskie","key":"StateName"},{"value":"Powiat Głogowski","key":"CountyName"}]},"MapReference":{"ReferenceId":"758297623","Spot":1.0,"SideOfStreet":"right","CountryId":"20624059","StateId":"20625002","CountyId":"20625037","CityId":"20680061","DistrictId":"20680062"}}},{"Relevance":1.0,"Distance":97.8,"MatchLevel":"street","MatchQuality":{"Country":1.0,"State":1.0,"County":1.0,"City":1.0,"District":1.0,"PostalCode":1.0},"Location":{"LocationId":"NT_fA.ySRZIfJCxrPm8lxkiNC_l_758297622_R","LocationType":"point","DisplayPosition":{"Latitude":51.65167,"Longitude":16.07125},"MapView":{"TopLeft":{"Latitude":51.65167,"Longitude":16.07111},"BottomRight":{"Latitude":51.65141,"Longitude":16.07125}},"Address":{"Label":"67-200 Głogów, Polska","Country":"POL","State":"Woj. Dolnośląskie","County":"Powiat Głogowski","City":"Głogów","District":"Głogów","PostalCode":"67-200","AdditionalData":[{"value":"Polska","key":"CountryName"},{"value":"Woj. Dolnośląskie","key":"StateName"},{"value":"Powiat Głogowski","key":"CountyName"}]},"MapReference":{"ReferenceId":"758297622","Spot":1.0,"SideOfStreet":"right","CountryId":"20624059","StateId":"20625002","CountyId":"20625037","CityId":"20680061","DistrictId":"20680062"}}},{"Relevance":1.0,"Distance":103.3,"MatchLevel":"houseNumber","MatchQuality":{"Country":1.0,"State":1.0,"County":1.0,"City":1.0,"District":1.0,"Street":[1.0],"HouseNumber":1.0,"PostalCode":1.0},"MatchType":"interpolated","Location":{"LocationId":"NT_eSP4V6g2sD0ZbYkomc2JcC_zEE","LocationType":"point","DisplayPosition":{"Latitude":51.65211,"Longitude":16.07072},"MapView":{"TopLeft":{"Latitude":51.6532342,"Longitude":16.0689081},"BottomRight":{"Latitude":51.6509858,"Longitude":16.0725319}},"Address":{"Label":"ulica Gwiaździsta 3A, 67-200 Głogów, Polska","Country":"POL","State":"Woj. Dolnośląskie","County":"Powiat Głogowski","City":"Głogów","District":"Głogów","Street":"ulica Gwiaździsta","HouseNumber":"3A","PostalCode":"67-200","AdditionalData":[{"value":"Polska","key":"CountryName"},{"value":"Woj. Dolnośląskie","key":"StateName"},{"value":"Powiat Głogowski","key":"CountyName"}]},"MapReference":{"ReferenceId":"1102776748","Spot":0.82,"SideOfStreet":"right","CountryId":"20624059","StateId":"20625002","CountyId":"20625037","CityId":"20680061","DistrictId":"20680062","AddressId":"701644995","RoadLinkId":"415009705"}}},{"Relevance":1.0,"Distance":104.7,"MatchLevel":"houseNumber","MatchQuality":{"Country":1.0,"State":1.0,"County":1.0,"City":1.0,"District":1.0,"Street":[1.0],"HouseNumber":1.0,"PostalCode":1.0},"MatchType":"interpolated","Location":{"LocationId":"NT_eSP4V6g2sD0ZbYkomc2JcC_xcD","LocationType":"point","DisplayPosition":{"Latitude":51.6513,"Longitude":16.07274},"MapView":{"TopLeft":{"Latitude":51.6524242,"Longitude":16.0709282},"BottomRight":{"Latitude":51.6501758,"Longitude":16.0745518}},"Address":{"Label":"ulica Gwiaździsta 17, 67-200 Głogów, Polska","Country":"POL","State":"Woj. Dolnośląskie","County":"Powiat Głogowski","City":"Głogów","District":"Głogów","Street":"ulica Gwiaździsta","HouseNumber":"17","PostalCode":"67-200","AdditionalData":[{"value":"Polska","key":"CountryName"},{"value":"Woj. Dolnośląskie","key":"StateName"},{"value":"Powiat Głogowski","key":"CountyName"}]},"MapReference":{"ReferenceId":"758951067","Spot":0.65,"SideOfStreet":"right","CountryId":"20624059","StateId":"20625002","CountyId":"20625037","CityId":"20680061","DistrictId":"20680062","AddressId":"211174633","RoadLinkId":"153594544"}}},{"Relevance":1.0,"Distance":112.5,"MatchLevel":"houseNumber","MatchQuality":{"Country":1.0,"State":1.0,"County":1.0,"City":1.0,"District":1.0,"Street":[1.0],"HouseNumber":1.0,"PostalCode":1.0},"MatchType":"interpolated","Location":{"LocationId":"NT_BgHB-9HUnv79fHh2t.PWUD_0AD","LocationType":"point","DisplayPosition":{"Latitude":51.65329,"Longitude":16.07256},"MapView":{"TopLeft":{"Latitude":51.6544142,"Longitude":16.0707481},"BottomRight":{"Latitude":51.6521658,"Longitude":16.0743719}},"Address":{"Label":"ulica Saturna 40, 67-200 Głogów, Polska","Country":"POL","State":"Woj. Dolnośląskie","County":"Powiat Głogowski","City":"Głogów","District":"Głogów","Street":"ulica Saturna","HouseNumber":"40","PostalCode":"67-200","AdditionalData":[{"value":"Polska","key":"CountryName"},{"value":"Woj. Dolnośląskie","key":"StateName"},{"value":"Powiat Głogowski","key":"CountyName"}]},"MapReference":{"ReferenceId":"821328744","Spot":0.33,"SideOfStreet":"left","CountryId":"20624059","StateId":"20625002","CountyId":"20625037","CityId":"20680061","DistrictId":"20680062","AddressId":"211174848","RoadLinkId":"207887766"}}}]}]}}