{"Response":{"MetaInfo":{"Timestamp":"2020-03-28T11:01:18.897+0000","NextPageInformation":"2"},"View":[{"_type":"SearchResultsViewType","ViewId":0,"Result":[{"Relevance":1.0,"Distance":0.0,"Direction":0.0,"MatchLevel":"city","MatchQuality":{"Country":1.0,"State":1.0,"County":1.0,"City":1.0,"PostalCode":1.0},"Location":{"LocationId":"NT_4TFoczCs4Qb5mCrH85p9eB","LocationType":"point","DisplayPosition":{"Latitude":51.6437787,"Longitude":6.4513728},"MapView":{"TopLeft":{"Latitude":51.75522,"Longitude":6.35491},"BottomRight":{"Latitude":51.61339,"Longitude":6.51763}},"Address":{"Label":"Xanten, Nordrhein-Westfalen, Deutschland","Country":"DEU","State":"Nordrhein-Westfalen","County":"Wesel","City":"Xanten","PostalCode":"46509","AdditionalData":[{"value":"Deutschland","key":"CountryName"},{"value":"Nordrhein-Westfalen","key":"StateName"},{"value":"Wesel","key":"CountyName"}]},"MapReference":{"ReferenceId":"1204791302","SideOfStreet":"neither","CountryId":"20147700","StateId":"20157369","CountyId":"20157875","CityId":"20157971"}}},{"Relevance":1.0,"Distance":59.5,"MatchLevel":"street","MatchQuality":{"Country":1.0,"State":1.0,"County":1.0,"City":1.0,"Street":[1.0],"PostalCode":1.0},"Location":{"LocationId":"NT_kF723Og5oG6FnYhNYxtv5C_l_51180451_L","LocationType":"point","DisplayPosition":{"Latitude":51.64336,"Longitude":6.45191},"MapView":{"TopLeft":{"Latitude":51.64375,"Longitude":6.45191},"BottomRight":{"Latitude":51.64336,"Longitude":6.45371}},"Address":{"Label":"In der Hees, 46509 Xanten, Deutschland","Country":"DEU","State":"Nordrhein-Westfalen","County":"Wesel","City":"Xanten","Street":"In der Hees","PostalCode":"46509","AdditionalData":[{"value":"Deutschland","key":"CountryName"},{"value":"Nordrhein-Westfalen","key":"StateName"},{"value":"Wesel","key":"CountyName"}]},"MapReference":{"ReferenceId":"51180451","Spot":0.0,"SideOfStreet":"left","CountryId":"20147700","StateId":"20157369","CountyId":"20157875","CityId":"20157971"}}},{"Relevance":1.0,"Distance":75.3,"MatchLevel":"houseNumber","MatchQuality":{"Country":1.0,"State":1.0,"County":1.0,"City":1.0,"Street":[1.0],"HouseNumber":1.0,"PostalCode":1.0},"MatchType":"interpolated","Location":{"LocationId":"NT_jdlQ0md0HG46UVmJyI1CIC_zED","LocationType":"point","DisplayPosition":{"Latitude":51.64426,"Longitude":6.45214},"MapView":{"TopLeft":{"Latitude":51.6453842,"Longitude":6.4503284},"BottomRight":{"Latitude":51.6431358,"Longitude":6.4539516}},"Address":{"Label":"Heeser Weg 31, 46509 Xanten, Deutschland","Country":"DEU","State":"Nordrhein-Westfalen","County":"Wesel","City":"Xanten","Street":"Heeser Weg","HouseNumber":"31","PostalCode":"46509","AdditionalData":[{"value":"Deutschland","key":"CountryName"},{"value":"Nordrhein-Westfalen","key":"StateName"},{"value":"Wesel","key":"CountyName"}]},"MapReference":{"ReferenceId":"51180448","Spot":0.36,"SideOfStreet":"right","CountryId":"20147700","StateId":"20157369","CountyId":"20157875","CityId":"20157971","AddressId":"194783862","RoadLinkId":"35203520"}}},{"Relevance":1.0,"Distance":115.9,"MatchLevel":"houseNumber","MatchQuality":{"Country":1.0,"State":1.0,"County":1.0,"City":1.0,"Street":[1.0],"HouseNumber":1.0,"PostalCode":1.0},"MatchType":"interpolated","Location":{"LocationId":"NT_kF723Og5oG6FnYhNYxtv5C_2A","LocationType":"point","DisplayPosition":{"Latitude":51.64312,"Longitude":6.45286},"MapView":{"TopLeft":{"Latitude":51.6442442,"Longitude":6.4510485},"BottomRight":{"Latitude":51.6419958,"Longitude":6.4546715}},"Address":{"Label":"In der Hees 6, 46509 Xanten, Deutschland","Country":"DEU","State":"Nordrhein-Westfalen","County":"Wesel","City":"Xanten","Street":"In der Hees","HouseNumber":"6","PostalCode":"46509","AdditionalData":[{"value":"Deutschland","key":"CountryName"},{"value":"Nordrhein-Westfalen","key":"StateName"},{"value":"Wesel","key":"CountyName"}]},"MapReference":{"ReferenceId":"52711408","Spot":0.34,"SideOfStreet":"left","CountryId":"20147700","StateId":"20157369","CountyId":"20157875","CityId":"20157971","AddressId":"194156764","RoadLinkId":"35603088"}}},{"Relevance":1.0,"Distance":121.3,"MatchLevel":"landmark","MatchQuality":{"Country":1.0,"State":1.0,"County":1.0,"City":1.0,"PostalCode":1.0,"Name":1.0},"Location":{"LocationId":"NT_eDjlBM8IoYY5gRGsbi66.A","LocationType":"woodland","Name":"Die Hees","DisplayPosition":{"Latitude":51.6387,"Longitude":6.44468},"MapView":{"TopLeft":{"Latitude":51.6473,"Longitude":6.42771},"BottomRight":{"Latitude":51.63009,"Longitude":6.46097}},"Address":{"Label":"46509 Xanten, Deutschland","Country":"DEU","State":"Nordrhein-Westfalen","County":"Wesel","City":"Xanten","PostalCode":"46509","AdditionalData":[{"value":"Deutschland","key":"CountryName"},{"value":"Nordrhein-Westfalen","key":"StateName"},{"value":"Wesel","key":"CountyName"}]},"MapReference":{"CountryId":"20147700","StateId":"20157369","CountyId":"20157875","CityId":"20157971","PlaceId":"53300601"}}},{"Relevance":1.0,"Distance":135.9,"MatchLevel":"street","MatchQuality":{"Country":1.0,"State":1.0,"County":1.0,"City":1.0,"Street":[1.0],"PostalCode":1.0},"Location":{"LocationId":"NT_kF723Og5oG6FnYhNYxtv5C_l_52711407_L","LocationType":"point","DisplayPosition":{"Latitude":51.64287,"Longitude":6.45269},"MapView":{"TopLeft":{"Latitude":51.64287,"Longitude":6.45269},"BottomRight":{"Latitude":51.64252,"Longitude":6.45291}},"Address":{"Label":"In der Hees, 46509 Xanten, Deutschland","Country":"DEU","State":"Nordrhein-Westfalen","County":"Wesel","City":"Xanten","Street":"In der Hees","PostalCode":"46509","AdditionalData":[{"value":"Deutschland","key":"CountryName"},{"value":"Nordrhein-Westfalen","key":"StateName"},{"value":"Wesel","key":"CountyName"}]},"MapReference":{"ReferenceId":"52711407","Spot":1.0,"SideOfStreet":"left","CountryId":"20147700","StateId":"20157369","CountyId":"20157875","CityId":"20157971"}}},{"Relevance":1.0,"Distance":152.0,"MatchLevel":"houseNumber","MatchQuality":{"Country":1.0,"State":1.0,"County":1.0,"City":1.0,"Street":[1.0],"HouseNumber":1.0,"PostalCode":1.0},"MatchType":"interpolated","Location":{"LocationId":"NT_kF723Og5oG6FnYhNYxtv5C_0A","LocationType":"point","DisplayPosition":{"Latitude":51.64334,"Longitude":6.45367},"MapView":{"TopLeft":{"Latitude":51.6444642,"Longitude":6.4518585},"BottomRight":{"Latitude":51.6422158,"Longitude":6.4554815}},"Address":{"Label":"In der Hees 4, 46509 Xanten, Deutschland","Country":"DEU","State":"Nordrhein-Westfalen","County":"Wesel","City":"Xanten","Street":"In der Hees","HouseNumber":"4","PostalCode":"46509","AdditionalData":[{"value":"Deutschland","key":"CountryName"},{"value":"Nordrhein-Westfalen","key":"StateName"},{"value":"Wesel","key":"CountyName"}]},"MapReference":{"ReferenceId":"51180534","Spot":0.4,"SideOfStreet":"left","CountryId":"20147700","StateId":"20157369","CountyId":"20157875","CityId":"20157971","AddressId":"196379030","RoadLinkId":"34968360"}}},{"Relevance":1.0,"Distance":158.6,"MatchLevel":"houseNumber","MatchQuality":{"Country":1.0,"State":1.0,"County":1.0,"City":1.0,"Street":[1.0],"HouseNumber":1.0,"PostalCode":1.0},"MatchType":"interpolated","Location":{"LocationId":"NT_kF723Og5oG6FnYhNYxtv5C_4A","LocationType":"point","DisplayPosition":{"Latitude":51.64216,"Longitude":6.45177},"MapView":{"TopLeft":{"Latitude":51.6432842,"Longitude":6.4499585},"BottomRight":{"Latitude":51.6410358,"Longitude":6.4535815}},"Address":{"Label":"In der Hees 8, 46509 Xanten, Deutschland","Country":"DEU","State":"Nordrhein-Westfalen","County":"Wesel","City":"Xanten","Street":"In der Hees","HouseNumber":"8","PostalCode":"46509","AdditionalData":[{"value":"Deutschland","key":"CountryName"},{"value":"Nordrhein-Westfalen","key":"StateName"},{"value":"Wesel","key":"CountyName"}]},"MapReference":{"ReferenceId":"51181177","Spot":0.22,"SideOfStreet":"left","CountryId":"20147700","StateId":"20157369","CountyId":"20157875","CityId":"20157971","AddressId":"196712787","RoadLinkId":"35465259"}}},{"Relevance":1.0,"Distance":159.9,"MatchLevel":"street","MatchQuality":{"Country":1.0,"State":1.0,"County":1.0,"City":1.0,"Street":[1.0],"PostalCode":1.0},"Location":{"LocationId":"NT_kF723Og5oG6FnYhNYxtv5C_l_51180449_L","LocationType":"point","DisplayPosition":{"Latitude":51.64391,"Longitude":6.45368},"MapView":{"TopLeft":{"Latitude":51.64407,"Longitude":6.45368},"BottomRight":{"Latitude":51.64372,"Longitude":6.45374}},"Address":{"Label":"In der Hees, 46509 Xanten, Deutschland","Country":"DEU","State":"Nordrhein-Westfalen","County":"Wesel","City":"Xanten","Street":"In der Hees","PostalCode":"46509","AdditionalData":[{"value":"Deutschland","key":"CountryName"},{"value":"Nordrhein-Westfalen","key":"StateName"},{"value":"Wesel","key":"CountyName"}]},"MapReference":{"ReferenceId":"51180449","Spot":0.53,"SideOfStreet":"left","CountryId":"20147700","StateId":"20157369","CountyId":"20157875","CityId":"20157971"}}},{"Relevance":1.0,"Distance":161.4,"MatchLevel":"street","MatchQuality":{"Country":1.0,"State":1.0,"County":1.0,"City":1.0,"Street":[1.0],"PostalCode":1.0},"Location":{"LocationId":"NT_kF723Og5oG6FnYhNYxtv5C_l_51180443_L","LocationType":"point","DisplayPosition":{"Latitude":51.64372,"Longitude":6.45371},"MapView":{"TopLeft":{"Latitude":51.64372,"Longitude":6.45371},"BottomRight":{"Latitude":51.64367,"Longitude":6.45393}},"Address":{"Label":"In der Hees, 46509 Xanten, Deutschland","Country":"DEU","State":"Nordrhein-Westfalen","County":"Wesel","City":"Xanten","Street":"In der Hees","PostalCode":"46509","AdditionalData":[{"value":"Deutschland","key":"CountryName"},{"value":"Nordrhein-Westfalen","key":"StateName"},{"value":"Wesel","key":"CountyName"}]},"MapReference":{"ReferenceId":"51180443","Spot":1.0,"SideOfStreet":"left","CountryId":"20147700","StateId":"20157369","CountyId":"20157875","CityId":"20157971"}}}]}]}}