{"Response":{"MetaInfo":{"Timestamp":"2020-03-28T11:29:37.787+0000","NextPageInformation":"2"},"View":[{"_type":"SearchResultsViewType","ViewId":0,"Result":[{"Relevance":1.0,"Distance":0.0,"Direction":0.0,"MatchLevel":"district","MatchQuality":{"Country":1.0,"State":1.0,"County":1.0,"City":1.0,"District":1.0,"PostalCode":1.0},"Location":{"LocationId":"NT_n.ku3pqm1M8R0s4lcZP9PD","LocationType":"point","DisplayPosition":{"Latitude":51.6737683,"Longitude":19.478558},"MapView":{"TopLeft":{"Latitude":51.68602,"Longitude":19.46489},"BottomRight":{"Latitude":51.64043,"Longitude":19.51596}},"Address":{"Label":"Rzgów, Woj. Łódzkie, Polska","Country":"POL","State":"Woj. Łódzkie","County":"Powiat Łódzki Wschodni","City":"Rzgów","District":"Rzgów","PostalCode":"95-030","AdditionalData":[{"value":"Polska","key":"CountryName"},{"value":"Woj. Łódzkie","key":"StateName"},{"value":"Powiat Łódzki Wschodni","key":"CountyName"}]},"MapReference":{"ReferenceId":"774446331","SideOfStreet":"neither","CountryId":"20624059","StateId":"20625723","CountyId":"20625811","CityId":"20625822","DistrictId":"20682436"}}},{"Relevance":1.0,"Distance":14.2,"MatchLevel":"street","MatchQuality":{"Country":1.0,"State":1.0,"County":1.0,"City":1.0,"District":1.0,"PostalCode":1.0},"Location":{"LocationId":"NT_q-wC.KfWic-anmnLiGGGsD_l_1261707799_R","LocationType":"point","DisplayPosition":{"Latitude":51.6738938,"Longitude":19.4785211},"MapView":{"TopLeft":{"Latitude":51.67392,"Longitude":19.47827},"BottomRight":{"Latitude":51.67382,"Longitude":19.47861}},"Address":{"Label":"95-030 Rzgów, Polska","Country":"POL","State":"Woj. Łódzkie","County":"Powiat Łódzki Wschodni","City":"Rzgów","District":"Rzgów","PostalCode":"95-030","AdditionalData":[{"value":"Polska","key":"CountryName"},{"value":"Woj. Łódzkie","key":"StateName"},{"value":"Powiat Łódzki Wschodni","key":"CountyName"}]},"MapReference":{"ReferenceId":"1261707799","Spot":0.74,"SideOfStreet":"right","CountryId":"20624059","StateId":"20625723","CountyId":"20625811","CityId":"20625822","DistrictId":"20682436"}}},{"Relevance":1.0,"Distance":20.7,"MatchLevel":"street","MatchQuality":{"Country":1.0,"State":1.0,"County":1.0,"City":1.0,"District":1.0,"PostalCode":1.0},"Location":{"LocationId":"NT_q-wC.KfWic-anmnLiGGGsD_l_1261707798_R","LocationType":"point","DisplayPosition":{"Latitude":51.67382,"Longitude":19.47827},"MapView":{"TopLeft":{"Latitude":51.67382,"Longitude":19.47809},"BottomRight":{"Latitude":51.67378,"Longitude":19.47827}},"Address":{"Label":"95-030 Rzgów, Polska","Country":"POL","State":"Woj. Łódzkie","County":"Powiat Łódzki Wschodni","City":"Rzgów","District":"Rzgów","PostalCode":"95-030","AdditionalData":[{"value":"Polska","key":"CountryName"},{"value":"Woj. Łódzkie","key":"StateName"},{"value":"Powiat Łódzki Wschodni","key":"CountyName"}]},"MapReference":{"ReferenceId":"1261707798","Spot":1.0,"SideOfStreet":"right","CountryId":"20624059","StateId":"20625723","CountyId":"20625811","CityId":"20625822","DistrictId":"20682436"}}},{"Relevance":1.0,"Distance":21.1,"MatchLevel":"street","MatchQuality":{"Country":1.0,"State":1.0,"County":1.0,"City":1.0,"District":1.0,"PostalCode":1.0},"Location":{"LocationId":"NT_q-wC.KfWic-anmnLiGGGsD_l_1261707793_L","LocationType":"point","DisplayPosition":{"Latitude":51.6735813,"Longitude":19.4786085},"MapView":{"TopLeft":{"Latitude":51.67366,"Longitude":19.47827},"BottomRight":{"Latitude":51.67349,"Longitude":19.4789}},"Address":{"Label":"95-030 Rzgów, Polska","Country":"POL","State":"Woj. Łódzkie","County":"Powiat Łódzki Wschodni","City":"Rzgów","District":"Rzgów","PostalCode":"95-030","AdditionalData":[{"value":"Polska","key":"CountryName"},{"value":"Woj. Łódzkie","key":"StateName"},{"value":"Powiat Łódzki Wschodni","key":"CountyName"}]},"MapReference":{"ReferenceId":"1261707793","Spot":0.54,"SideOfStreet":"left","CountryId":"20624059","StateId":"20625723","CountyId":"20625811","CityId":"20625822","DistrictId":"20682436"}}},{"Relevance":1.0,"Distance":32.3,"MatchLevel":"street","MatchQuality":{"Country":1.0,"State":1.0,"County":1.0,"City":1.0,"District":1.0,"PostalCode":1.0},"Location":{"LocationId":"NT_q-wC.KfWic-anmnLiGGGsD_l_1261707797_R","LocationType":"point","DisplayPosition":{"Latitude":51.67378,"Longitude":19.47809},"MapView":{"TopLeft":{"Latitude":51.67378,"Longitude":19.47787},"BottomRight":{"Latitude":51.67354,"Longitude":19.47809}},"Address":{"Label":"95-030 Rzgów, Polska","Country":"POL","State":"Woj. Łódzkie","County":"Powiat Łódzki Wschodni","City":"Rzgów","District":"Rzgów","PostalCode":"95-030","AdditionalData":[{"value":"Polska","key":"CountryName"},{"value":"Woj. Łódzkie","key":"StateName"},{"value":"Powiat Łódzki Wschodni","key":"CountyName"}]},"MapReference":{"ReferenceId":"1261707797","Spot":1.0,"SideOfStreet":"right","CountryId":"20624059","StateId":"20625723","CountyId":"20625811","CityId":"20625822","DistrictId":"20682436"}}},{"Relevance":1.0,"Distance":32.4,"MatchLevel":"street","MatchQuality":{"Country":1.0,"State":1.0,"County":1.0,"City":1.0,"District":1.0,"PostalCode":1.0},"Location":{"LocationId":"NT_q-wC.KfWic-anmnLiGGGsD_l_1261707792_R","LocationType":"point","DisplayPosition":{"Latitude":51.6735619,"Longitude":19.4782254},"MapView":{"TopLeft":{"Latitude":51.67378,"Longitude":19.47809},"BottomRight":{"Latitude":51.67349,"Longitude":19.47827}},"Address":{"Label":"95-030 Rzgów, Polska","Country":"POL","State":"Woj. Łódzkie","County":"Powiat Łódzki Wschodni","City":"Rzgów","District":"Rzgów","PostalCode":"95-030","AdditionalData":[{"value":"Polska","key":"CountryName"},{"value":"Woj. Łódzkie","key":"StateName"},{"value":"Powiat Łódzki Wschodni","key":"CountyName"}]},"MapReference":{"ReferenceId":"1261707792","Spot":0.25,"SideOfStreet":"right","CountryId":"20624059","StateId":"20625723","CountyId":"20625811","CityId":"20625822","DistrictId":"20682436"}}},{"Relevance":1.0,"Distance":36.8,"MatchLevel":"street","MatchQuality":{"Country":1.0,"State":1.0,"County":1.0,"City":1.0,"District":1.0,"PostalCode":1.0},"Location":{"LocationId":"NT_q-wC.KfWic-anmnLiGGGsD_l_1261707795_L","LocationType":"point","DisplayPosition":{"Latitude":51.67349,"Longitude":19.47827},"MapView":{"TopLeft":{"Latitude":51.67349,"Longitude":19.4781},"BottomRight":{"Latitude":51.67338,"Longitude":19.47827}},"Address":{"Label":"95-030 Rzgów, Polska","Country":"POL","State":"Woj. Łódzkie","County":"Powiat Łódzki Wschodni","City":"Rzgów","District":"Rzgów","PostalCode":"95-030","AdditionalData":[{"value":"Polska","key":"CountryName"},{"value":"Woj. Łódzkie","key":"StateName"},{"value":"Powiat Łódzki Wschodni","key":"CountyName"}]},"MapReference":{"ReferenceId":"1261707795","Spot":1.0,"SideOfStreet":"left","CountryId":"20624059","StateId":"20625723","CountyId":"20625811","CityId":"20625822","DistrictId":"20682436"}}},{"Relevance":1.0,"Distance":53.3,"MatchLevel":"street","MatchQuality":{"Country":1.0,"State":1.0,"County":1.0,"City":1.0,"District":1.0,"PostalCode":1.0},"Location":{"LocationId":"NT_q-wC.KfWic-anmnLiGGGsD_l_1261707759_R","LocationType":"point","DisplayPosition":{"Latitude":51.6742427,"Longitude":19.4784464},"MapView":{"TopLeft":{"Latitude":51.67436,"Longitude":19.47736},"BottomRight":{"Latitude":51.67406,"Longitude":19.47875}},"Address":{"Label":"95-030 Rzgów, Polska","Country":"POL","State":"Woj. Łódzkie","County":"Powiat Łódzki Wschodni","City":"Rzgów","District":"Rzgów","PostalCode":"95-030","AdditionalData":[{"value":"Polska","key":"CountryName"},{"value":"Woj. Łódzkie","key":"StateName"},{"value":"Powiat Łódzki Wschodni","key":"CountyName"}]},"MapReference":{"ReferenceId":"1261707759","Spot":0.77,"SideOfStreet":"right","CountryId":"20624059","StateId":"20625723","CountyId":"20625811","CityId":"20625822","DistrictId":"20682436"}}},{"Relevance":1.0,"Distance":53.5,"MatchLevel":"street","MatchQuality":{"Country":1.0,"State":1.0,"County":1.0,"City":1.0,"District":1.0,"PostalCode":1.0},"Location":{"LocationId":"NT_q-wC.KfWic-anmnLiGGGsD_l_1261707794_L","LocationType":"point","DisplayPosition":{"Latitude":51.67338,"Longitude":19.4781},"MapView":{"TopLeft":{"Latitude":51.67338,"Longitude":19.47794},"BottomRight":{"Latitude":51.67328,"Longitude":19.4781}},"Address":{"Label":"95-030 Rzgów, Polska","Country":"POL","State":"Woj. Łódzkie","County":"Powiat Łódzki Wschodni","City":"Rzgów","District":"Rzgów","PostalCode":"95-030","AdditionalData":[{"value":"Polska","key":"CountryName"},{"value":"Woj. Łódzkie","key":"StateName"},{"value":"Powiat Łódzki Wschodni","key":"CountyName"}]},"MapReference":{"ReferenceId":"1261707794","Spot":1.0,"SideOfStreet":"left","CountryId":"20624059","StateId":"20625723","CountyId":"20625811","CityId":"20625822","DistrictId":"20682436"}}},{"Relevance":1.0,"Distance":53.8,"MatchLevel":"street","MatchQuality":{"Country":1.0,"State":1.0,"County":1.0,"City":1.0,"District":1.0,"PostalCode":1.0},"Location":{"LocationId":"NT_q-wC.KfWic-anmnLiGGGsD_l_1261707796_R","LocationType":"point","DisplayPosition":{"Latitude":51.67354,"Longitude":19.47787},"MapView":{"TopLeft":{"Latitude":51.67354,"Longitude":19.47772},"BottomRight":{"Latitude":51.67343,"Longitude":19.47787}},"Address":{"Label":"95-030 Rzgów, Polska","Country":"POL","State":"Woj. Łódzkie","County":"Powiat Łódzki Wschodni","City":"Rzgów","District":"Rzgów","PostalCode":"95-030","AdditionalData":[{"value":"Polska","key":"CountryName"},{"value":"Woj. Łódzkie","key":"StateName"},{"value":"Powiat Łódzki Wschodni","key":"CountyName"}]},"MapReference":{"ReferenceId":"1261707796","Spot":1.0,"SideOfStreet":"right","CountryId":"20624059","StateId":"20625723","CountyId":"20625811","CityId":"20625822","DistrictId":"20682436"}}}]}]}}