{"Response":{"MetaInfo":{"Timestamp":"2020-03-28T11:19:39.833+0000","NextPageInformation":"2"},"View":[{"_type":"SearchResultsViewType","ViewId":0,"Result":[{"Relevance":1.0,"Distance":0.0,"Direction":0.0,"MatchLevel":"district","MatchQuality":{"Country":1.0,"State":1.0,"County":1.0,"City":1.0,"District":1.0,"PostalCode":1.0},"Location":{"LocationId":"NT_vlzwh5IyyolxfYKZY5Zg-D","LocationType":"point","DisplayPosition":{"Latitude":51.6352201,"Longitude":-2.1549512},"MapView":{"TopLeft":{"Latitude":51.64854,"Longitude":-2.17249},"BottomRight":{"Latitude":51.63076,"Longitude":-2.14594}},"Address":{"Label":"Tetbury, England, United Kingdom","Country":"GBR","State":"England","County":"Gloucestershire","City":"Tetbury","District":"Tetbury","PostalCode":"GL8 8","AdditionalData":[{"value":"United Kingdom","key":"CountryName"},{"value":"England","key":"StateName"},{"value":"Gloucestershire","key":"CountyName"}]},"MapReference":{"ReferenceId":"26534192","SideOfStreet":"neither","StateId":"20248595","CountyId":"20334235","CityId":"20348750","DistrictId":"20348751"}}},{"Relevance":1.0,"Distance":29.8,"MatchLevel":"postalCode","MatchQuality":{"PostalCode":1.0},"Location":{"LocationId":"NT_rzhD-LHYbNWu01ywT45oIC_l_763881934_L","LocationType":"point","DisplayPosition":{"Latitude":51.6352,"Longitude":-2.15452},"MapView":{"TopLeft":{"Latitude":51.6441932,"Longitude":-2.1690096},"BottomRight":{"Latitude":51.6262068,"Longitude":-2.1400304}},"Address":{"Label":"GL8 8XB, Tetbury, England, United Kingdom","Country":"GBR","State":"England","County":"Gloucestershire","City":"Tetbury","PostalCode":"GL8 8XB","AdditionalData":[{"value":"United Kingdom","key":"CountryName"},{"value":"England","key":"StateName"},{"value":"Gloucestershire","key":"CountyName"}]},"MapReference":{"ReferenceId":"763881934","Spot":0.85,"SideOfStreet":"neither","StateId":"20248595","CountyId":"20334235","CityId":"20348750"}}},{"Relevance":1.0,"Distance":33.6,"MatchLevel":"street","MatchQuality":{"Country":1.0,"State":1.0,"County":1.0,"City":1.0,"District":1.0,"PostalCode":1.0},"Location":{"LocationId":"NT_rzhD-LHYbNWu01ywT45oIC_l_763881934_L","LocationType":"point","DisplayPosition":{"Latitude":51.6353863,"Longitude":-2.1545449},"MapView":{"TopLeft":{"Latitude":51.63557,"Longitude":-2.15462},"BottomRight":{"Latitude":51.63454,"Longitude":-2.15387}},"Address":{"Label":"Tetbury, GL8 8, United Kingdom","Country":"GBR","State":"England","County":"Gloucestershire","City":"Tetbury","District":"Tetbury","PostalCode":"GL8 8","AdditionalData":[{"value":"United Kingdom","key":"CountryName"},{"value":"England","key":"StateName"},{"value":"Gloucestershire","key":"CountyName"}]},"MapReference":{"ReferenceId":"763881934","Spot":0.85,"SideOfStreet":"left","StateId":"20248595","CountyId":"20334235","CityId":"20348750","DistrictId":"20348751"}}},{"Relevance":1.0,"Distance":38.7,"MatchLevel":"street","MatchQuality":{"Country":1.0,"State":1.0,"County":1.0,"City":1.0,"District":1.0,"Street":[1.0],"PostalCode":1.0},"Location":{"LocationId":"NT_VKSsMPlXZwGGrh5ZUvAEhC_l_763881933_R","LocationType":"point","DisplayPosition":{"Latitude":51.6348785,"Longitude":-2.155061},"MapView":{"TopLeft":{"Latitude":51.63518,"Longitude":-2.15588},"BottomRight":{"Latitude":51.63454,"Longitude":-2.15387}},"Address":{"Label":"Newnton Road, Tetbury, GL8 8, United Kingdom","Country":"GBR","State":"England","County":"Gloucestershire","City":"Tetbury","District":"Tetbury","Street":"Newnton Road","PostalCode":"GL8 8","AdditionalData":[{"value":"United Kingdom","key":"CountryName"},{"value":"England","key":"StateName"},{"value":"Gloucestershire","key":"CountyName"}]},"MapReference":{"ReferenceId":"763881933","Spot":0.59,"SideOfStreet":"right","StateId":"20248595","CountyId":"20334235","CityId":"20348750","DistrictId":"20348751"}}},{"Relevance":1.0,"Distance":64.3,"MatchLevel":"street","MatchQuality":{"Country":1.0,"State":1.0,"County":1.0,"City":1.0,"District":1.0,"Street":[1.0],"PostalCode":1.0},"Location":{"LocationId":"NT_VKSsMPlXZwGGrh5ZUvAEhC_l_763537793_R","LocationType":"point","DisplayPosition":{"Latitude":51.63518,"Longitude":-2.15588},"MapView":{"TopLeft":{"Latitude":51.63527,"Longitude":-2.15611},"BottomRight":{"Latitude":51.63518,"Longitude":-2.15588}},"Address":{"Label":"Fox Hill, Tetbury, GL8 8, United Kingdom","Country":"GBR","State":"England","County":"Gloucestershire","City":"Tetbury","District":"Tetbury","Street":"Fox Hill","PostalCode":"GL8 8","AdditionalData":[{"value":"United Kingdom","key":"CountryName"},{"value":"England","key":"StateName"},{"value":"Gloucestershire","key":"CountyName"}]},"MapReference":{"ReferenceId":"763537793","Spot":0.0,"SideOfStreet":"right","StateId":"20248595","CountyId":"20334235","CityId":"20348750","DistrictId":"20348751"}}},{"Relevance":1.0,"Distance":69.0,"MatchLevel":"street","MatchQuality":{"Country":1.0,"State":1.0,"County":1.0,"City":1.0,"District":1.0,"Street":[1.0],"PostalCode":1.0},"Location":{"LocationId":"NT_2Y6-k48jUCgglSfM7NJpNC_l_577358583_R","LocationType":"point","DisplayPosition":{"Latitude":51.63567,"Longitude":-2.15564},"MapView":{"TopLeft":{"Latitude":51.63567,"Longitude":-2.15588},"BottomRight":{"Latitude":51.63518,"Longitude":-2.15564}},"Address":{"Label":"The Old Rope Walk, Tetbury, GL8 8, United Kingdom","Country":"GBR","State":"England","County":"Gloucestershire","City":"Tetbury","District":"Tetbury","Street":"The Old Rope Walk","PostalCode":"GL8 8","AdditionalData":[{"value":"United Kingdom","key":"CountryName"},{"value":"England","key":"StateName"},{"value":"Gloucestershire","key":"CountyName"}]},"MapReference":{"ReferenceId":"577358583","Spot":1.0,"SideOfStreet":"right","StateId":"20248595","CountyId":"20334235","CityId":"20348750","DistrictId":"20348751"}}},{"Relevance":1.0,"Distance":72.8,"MatchLevel":"postalCode","MatchQuality":{"PostalCode":1.0},"Location":{"LocationId":"NT_2Y6-k48jUCgglSfM7NJpNC_l_577358583_R","LocationType":"point","DisplayPosition":{"Latitude":51.63571,"Longitude":-2.15565},"MapView":{"TopLeft":{"Latitude":51.6447032,"Longitude":-2.1701398},"BottomRight":{"Latitude":51.6267168,"Longitude":-2.1411602}},"Address":{"Label":"GL8 8XQ, Tetbury, England, United Kingdom","Country":"GBR","State":"England","County":"Gloucestershire","City":"Tetbury","PostalCode":"GL8 8XQ","AdditionalData":[{"value":"United Kingdom","key":"CountryName"},{"value":"England","key":"StateName"},{"value":"Gloucestershire","key":"CountyName"}]},"MapReference":{"ReferenceId":"577358583","Spot":1.0,"SideOfStreet":"neither","StateId":"20248595","CountyId":"20334235","CityId":"20348750"}}},{"Relevance":1.0,"Distance":80.2,"MatchLevel":"street","MatchQuality":{"Country":1.0,"State":1.0,"County":1.0,"City":1.0,"District":1.0,"Street":[1.0],"PostalCode":1.0},"Location":{"LocationId":"NT_XPMqj9vbiv-HRYRniuE7eD_l_763537794_R","LocationType":"point","DisplayPosition":{"Latitude":51.63527,"Longitude":-2.15611},"MapView":{"TopLeft":{"Latitude":51.63544,"Longitude":-2.15657},"BottomRight":{"Latitude":51.63527,"Longitude":-2.15611}},"Address":{"Label":"Fox Hill, Tetbury, GL8 8, United Kingdom","Country":"GBR","State":"England","County":"Gloucestershire","City":"Tetbury","District":"Tetbury","Street":"Fox Hill","PostalCode":"GL8 8","AdditionalData":[{"value":"United Kingdom","key":"CountryName"},{"value":"England","key":"StateName"},{"value":"Gloucestershire","key":"CountyName"}]},"MapReference":{"ReferenceId":"763537794","Spot":0.0,"SideOfStreet":"right","StateId":"20248595","CountyId":"20334235","CityId":"20348750","DistrictId":"20348751"}}},{"Relevance":1.0,"Distance":106.2,"MatchLevel":"street","MatchQuality":{"Country":1.0,"State":1.0,"County":1.0,"City":1.0,"District":1.0,"Street":[1.0],"PostalCode":1.0},"Location":{"LocationId":"NT_VKSsMPlXZwGGrh5ZUvAEhC_l_763881932_R","LocationType":"point","DisplayPosition":{"Latitude":51.63454,"Longitude":-2.15387},"MapView":{"TopLeft":{"Latitude":51.63454,"Longitude":-2.15387},"BottomRight":{"Latitude":51.63443,"Longitude":-2.15354}},"Address":{"Label":"Newnton Road, Tetbury, GL8 8, United Kingdom","Country":"GBR","State":"England","County":"Gloucestershire","City":"Tetbury","District":"Tetbury","Street":"Newnton Road","PostalCode":"GL8 8","AdditionalData":[{"value":"United Kingdom","key":"CountryName"},{"value":"England","key":"StateName"},{"value":"Gloucestershire","key":"CountyName"}]},"MapReference":{"ReferenceId":"763881932","Spot":1.0,"SideOfStreet":"right","StateId":"20248595","CountyId":"20334235","CityId":"20348750","DistrictId":"20348751"}}},{"Relevance":1.0,"Distance":114.4,"MatchLevel":"street","MatchQuality":{"Country":1.0,"State":1.0,"County":1.0,"City":1.0,"District":1.0,"Street":[1.0],"PostalCode":1.0},"Location":{"LocationId":"NT_XPMqj9vbiv-HRYRniuE7eD_l_763537795_R","LocationType":"point","DisplayPosition":{"Latitude":51.63544,"Longitude":-2.15657},"MapView":{"TopLeft":{"Latitude":51.63557,"Longitude":-2.15692},"BottomRight":{"Latitude":51.63544,"Longitude":-2.15657}},"Address":{"Label":"Fox Hill, Tetbury, GL8 8, United Kingdom","Country":"GBR","State":"England","County":"Gloucestershire","City":"Tetbury","District":"Tetbury","Street":"Fox Hill","PostalCode":"GL8 8","AdditionalData":[{"value":"United Kingdom","key":"CountryName"},{"value":"England","key":"StateName"},{"value":"Gloucestershire","key":"CountyName"}]},"MapReference":{"ReferenceId":"763537795","Spot":0.0,"SideOfStreet":"right","StateId":"20248595","CountyId":"20334235","CityId":"20348750","DistrictId":"20348751"}}}]}]}}