{"Response":{"MetaInfo":{"Timestamp":"2020-03-28T10:48:28.805+0000","NextPageInformation":"2"},"View":[{"_type":"SearchResultsViewType","ViewId":0,"Result":[{"Relevance":1.0,"Distance":0.0,"Direction":0.0,"MatchLevel":"district","MatchQuality":{"Country":1.0,"State":1.0,"County":1.0,"City":1.0,"District":1.0,"PostalCode":1.0},"Location":{"LocationId":"NT_N-ctGhe0zK.oEhVvwjYH4B","LocationType":"point","DisplayPosition":{"Latitude":51.6653374,"Longitude":16.075055},"MapView":{"TopLeft":{"Latitude":51.67617,"Longitude":16.03442},"BottomRight":{"Latitude":51.63785,"Longitude":16.14885}},"Address":{"Label":"Głogów, Woj. Dolnośląskie, Polska","Country":"POL","State":"Woj. Dolnośląskie","County":"Powiat Głogowski","City":"Głogów","District":"Głogów","PostalCode":"67-200","AdditionalData":[{"value":"Polska","key":"CountryName"},{"value":"Woj. Dolnośląskie","key":"StateName"},{"value":"Powiat Głogowski","key":"CountyName"}]},"MapReference":{"ReferenceId":"906954851","SideOfStreet":"neither","CountryId":"20624059","StateId":"20625002","CountyId":"20625037","CityId":"20680061","DistrictId":"20680062"}}},{"Relevance":1.0,"Distance":24.5,"MatchLevel":"street","MatchQuality":{"Country":1.0,"State":1.0,"County":1.0,"City":1.0,"District":1.0,"Street":[1.0],"PostalCode":1.0},"Location":{"LocationId":"NT_Cs6tZ0sb715YPm0AmYm9HD_l_1102779061_L","LocationType":"point","DisplayPosition":{"Latitude":51.66555,"Longitude":16.07496},"MapView":{"TopLeft":{"Latitude":51.66557,"Longitude":16.07454},"BottomRight":{"Latitude":51.66555,"Longitude":16.07496}},"Address":{"Label":"ulica gen. Władysława Sikorskiego, 67-200 Głogów, Polska","Country":"POL","State":"Woj. Dolnośląskie","County":"Powiat Głogowski","City":"Głogów","District":"Głogów","Street":"ulica gen. Władysława Sikorskiego","PostalCode":"67-200","AdditionalData":[{"value":"Polska","key":"CountryName"},{"value":"Woj. Dolnośląskie","key":"StateName"},{"value":"Powiat Głogowski","key":"CountyName"}]},"MapReference":{"ReferenceId":"1102779061","Spot":0.0,"SideOfStreet":"left","CountryId":"20624059","StateId":"20625002","CountyId":"20625037","CityId":"20680061","DistrictId":"20680062"}}},{"Relevance":1.0,"Distance":30.0,"MatchLevel":"houseNumber","MatchQuality":{"Country":1.0,"State":1.0,"County":1.0,"City":1.0,"District":1.0,"Street":[1.0],"HouseNumber":1.0,"PostalCode":1.0},"MatchType":"interpolated","Location":{"LocationId":"NT_t1krOmolo0OMrU47.soZtD_xkD","LocationType":"point","DisplayPosition":{"Latitude":51.66552,"Longitude":16.07549},"MapView":{"TopLeft":{"Latitude":51.6666442,"Longitude":16.0736776},"BottomRight":{"Latitude":51.6643958,"Longitude":16.0773024}},"Address":{"Label":"ulica gen. Władysława Sikorskiego 19, 67-200 Głogów, Polska","Country":"POL","State":"Woj. Dolnośląskie","County":"Powiat Głogowski","City":"Głogów","District":"Głogów","Street":"ulica gen. Władysława Sikorskiego","HouseNumber":"19","PostalCode":"67-200","AdditionalData":[{"value":"Polska","key":"CountryName"},{"value":"Woj. Dolnośląskie","key":"StateName"},{"value":"Powiat Głogowski","key":"CountyName"}]},"MapReference":{"ReferenceId":"1103661804","Spot":0.74,"SideOfStreet":"left","CountryId":"20624059","StateId":"20625002","CountyId":"20625037","CityId":"20680061","DistrictId":"20680062","AddressId":"222226224","RoadLinkId":"415771145"}}},{"Relevance":1.0,"Distance":42.0,"MatchLevel":"houseNumber","MatchQuality":{"Country":1.0,"State":1.0,"County":1.0,"City":1.0,"District":1.0,"Street":[1.0],"HouseNumber":1.0,"PostalCode":1.0},"MatchType":"interpolated","Location":{"LocationId":"NT_t1krOmolo0OMrU47.soZtD_yED","LocationType":"point","DisplayPosition":{"Latitude":51.66557,"Longitude":16.07447},"MapView":{"TopLeft":{"Latitude":51.6666942,"Longitude":16.0726576},"BottomRight":{"Latitude":51.6644458,"Longitude":16.0762824}},"Address":{"Label":"ulica gen. Władysława Sikorskiego 21, 67-200 Głogów, Polska","Country":"POL","State":"Woj. Dolnośląskie","County":"Powiat Głogowski","City":"Głogów","District":"Głogów","Street":"ulica gen. Władysława Sikorskiego","HouseNumber":"21","PostalCode":"67-200","AdditionalData":[{"value":"Polska","key":"CountryName"},{"value":"Woj. Dolnośląskie","key":"StateName"},{"value":"Powiat Głogowski","key":"CountyName"}]},"MapReference":{"ReferenceId":"1102779062","Spot":0.13,"SideOfStreet":"left","CountryId":"20624059","StateId":"20625002","CountyId":"20625037","CityId":"20680061","DistrictId":"20680062","AddressId":"701644999","RoadLinkId":"415012261"}}},{"Relevance":1.0,"Distance":54.1,"MatchLevel":"houseNumber","MatchQuality":{"Country":1.0,"State":1.0,"County":1.0,"City":1.0,"District":1.0,"Street":[1.0],"HouseNumber":1.0,"PostalCode":1.0},"MatchType":"interpolated","Location":{"LocationId":"NT_52ZNIw0Qr7SmGxoI2otq.C_yA","LocationType":"point","DisplayPosition":{"Latitude":51.66577,"Longitude":16.07453},"MapView":{"TopLeft":{"Latitude":51.6668942,"Longitude":16.0727176},"BottomRight":{"Latitude":51.6646458,"Longitude":16.0763424}},"Address":{"Label":"ulica Jana Matejki 2, 67-200 Głogów, Polska","Country":"POL","State":"Woj. Dolnośląskie","County":"Powiat Głogowski","City":"Głogów","District":"Głogów","Street":"ulica Jana Matejki","HouseNumber":"2","PostalCode":"67-200","AdditionalData":[{"value":"Polska","key":"CountryName"},{"value":"Woj. Dolnośląskie","key":"StateName"},{"value":"Powiat Głogowski","key":"CountyName"}]},"MapReference":{"ReferenceId":"757241977","Spot":0.8,"SideOfStreet":"right","CountryId":"20624059","StateId":"20625002","CountyId":"20625037","CityId":"20680061","DistrictId":"20680062","AddressId":"211470815","RoadLinkId":"152243762"}}},{"Relevance":1.0,"Distance":64.7,"MatchLevel":"street","MatchQuality":{"Country":1.0,"State":1.0,"County":1.0,"City":1.0,"District":1.0,"Street":[1.0],"PostalCode":1.0},"Location":{"LocationId":"NT_t1krOmolo0OMrU47.soZtD_l_757241979_L","LocationType":"point","DisplayPosition":{"Latitude":51.66582,"Longitude":16.07453},"MapView":{"TopLeft":{"Latitude":51.66595,"Longitude":16.07221},"BottomRight":{"Latitude":51.66582,"Longitude":16.07453}},"Address":{"Label":"ulica gen. Władysława Sikorskiego, 67-200 Głogów, Polska","Country":"POL","State":"Woj. Dolnośląskie","County":"Powiat Głogowski","City":"Głogów","District":"Głogów","Street":"ulica gen. Władysława Sikorskiego","PostalCode":"67-200","AdditionalData":[{"value":"Polska","key":"CountryName"},{"value":"Woj. Dolnośląskie","key":"StateName"},{"value":"Powiat Głogowski","key":"CountyName"}]},"MapReference":{"ReferenceId":"757241979","Spot":0.0,"SideOfStreet":"left","CountryId":"20624059","StateId":"20625002","CountyId":"20625037","CityId":"20680061","DistrictId":"20680062"}}},{"Relevance":1.0,"Distance":78.8,"MatchLevel":"houseNumber","MatchQuality":{"Country":1.0,"State":1.0,"County":1.0,"City":1.0,"District":1.0,"Street":[1.0],"HouseNumber":1.0,"PostalCode":1.0},"MatchType":"interpolated","Location":{"LocationId":"NT_52ZNIw0Qr7SmGxoI2otq.C_0A","LocationType":"point","DisplayPosition":{"Latitude":51.66603,"Longitude":16.07456},"MapView":{"TopLeft":{"Latitude":51.6671542,"Longitude":16.0727476},"BottomRight":{"Latitude":51.6649058,"Longitude":16.0763724}},"Address":{"Label":"ulica Jana Matejki 4, 67-200 Głogów, Polska","Country":"POL","State":"Woj. Dolnośląskie","County":"Powiat Głogowski","City":"Głogów","District":"Głogów","Street":"ulica Jana Matejki","HouseNumber":"4","PostalCode":"67-200","AdditionalData":[{"value":"Polska","key":"CountryName"},{"value":"Woj. Dolnośląskie","key":"StateName"},{"value":"Powiat Głogowski","key":"CountyName"}]},"MapReference":{"ReferenceId":"757241978","Spot":0.29,"SideOfStreet":"right","CountryId":"20624059","StateId":"20625002","CountyId":"20625037","CityId":"20680061","DistrictId":"20680062","AddressId":"210601619","RoadLinkId":"152243763"}}},{"Relevance":1.0,"Distance":87.7,"MatchLevel":"houseNumber","MatchQuality":{"Country":1.0,"State":1.0,"County":1.0,"City":1.0,"District":1.0,"Street":[1.0],"HouseNumber":1.0,"PostalCode":1.0},"MatchType":"interpolated","Location":{"LocationId":"NT_t1krOmolo0OMrU47.soZtD_xgD","LocationType":"point","DisplayPosition":{"Latitude":51.66559,"Longitude":16.07385},"MapView":{"TopLeft":{"Latitude":51.6667142,"Longitude":16.0720376},"BottomRight":{"Latitude":51.6644658,"Longitude":16.0756624}},"Address":{"Label":"ulica gen. Władysława Sikorskiego 18, 67-200 Głogów, Polska","Country":"POL","State":"Woj. Dolnośląskie","County":"Powiat Głogowski","City":"Głogów","District":"Głogów","Street":"ulica gen. Władysława Sikorskiego","HouseNumber":"18","PostalCode":"67-200","AdditionalData":[{"value":"Polska","key":"CountryName"},{"value":"Woj. Dolnośląskie","key":"StateName"},{"value":"Powiat Głogowski","key":"CountyName"}]},"MapReference":{"ReferenceId":"1102779063","Spot":0.12,"SideOfStreet":"right","CountryId":"20624059","StateId":"20625002","CountyId":"20625037","CityId":"20680061","DistrictId":"20680062","AddressId":"701645004","RoadLinkId":"415012263"}}},{"Relevance":1.0,"Distance":95.5,"MatchLevel":"street","MatchQuality":{"Country":1.0,"State":1.0,"County":1.0,"City":1.0,"District":1.0,"PostalCode":1.0},"Location":{"LocationId":"NT_fA.ySRZIfJCxrPm8lxkiNC_l_594137911_L","LocationType":"point","DisplayPosition":{"Latitude":51.66619,"Longitude":16.07522},"MapView":{"TopLeft":{"Latitude":51.66659,"Longitude":16.07522},"BottomRight":{"Latitude":51.66614,"Longitude":16.07702}},"Address":{"Label":"67-200 Głogów, Polska","Country":"POL","State":"Woj. Dolnośląskie","County":"Powiat Głogowski","City":"Głogów","District":"Głogów","PostalCode":"67-200","AdditionalData":[{"value":"Polska","key":"CountryName"},{"value":"Woj. Dolnośląskie","key":"StateName"},{"value":"Powiat Głogowski","key":"CountyName"}]},"MapReference":{"ReferenceId":"594137911","Spot":0.83,"SideOfStreet":"left","CountryId":"20624059","StateId":"20625002","CountyId":"20625037","CityId":"20680061","DistrictId":"20680062"}}},{"Relevance":1.0,"Distance":122.5,"MatchLevel":"street","MatchQuality":{"Country":1.0,"State":1.0,"County":1.0,"City":1.0,"District":1.0,"Street":[1.0],"PostalCode":1.0},"Location":{"LocationId":"NT_4iHBjzu6DAlV2ckIgUEuaD_l_1103668697_L","LocationType":"point","DisplayPosition":{"Latitude":51.6651,"Longitude":16.07679},"MapView":{"TopLeft":{"Latitude":51.66533,"Longitude":16.07679},"BottomRight":{"Latitude":51.66502,"Longitude":16.07689}},"Address":{"Label":"ulica Wojska Polskiego, 67-200 Głogów, Polska","Country":"POL","State":"Woj. Dolnośląskie","County":"Powiat Głogowski","City":"Głogów","District":"Głogów","Street":"ulica Wojska Polskiego","PostalCode":"67-200","AdditionalData":[{"value":"Polska","key":"CountryName"},{"value":"Woj. Dolnośląskie","key":"StateName"},{"value":"Powiat Głogowski","key":"CountyName"}]},"MapReference":{"ReferenceId":"1103668697","Spot":0.24,"SideOfStreet":"left","CountryId":"20624059","StateId":"20625002","CountyId":"20625037","CityId":"20680061","DistrictId":"20680062"}}}]}]}}