{"Response":{"MetaInfo":{"Timestamp":"2020-03-28T11:40:43.018+0000","NextPageInformation":"2"},"View":[{"_type":"SearchResultsViewType","ViewId":0,"Result":[{"Relevance":1.0,"Distance":0.0,"Direction":0.0,"MatchLevel":"district","MatchQuality":{"Country":1.0,"State":1.0,"County":1.0,"City":1.0,"District":1.0,"PostalCode":1.0},"Location":{"LocationId":"NT_c8fMRCwak3uwcPZlxoqYqA","LocationType":"point","DisplayPosition":{"Latitude":51.6199446,"Longitude":7.1812179},"MapView":{"TopLeft":{"Latitude":51.63296,"Longitude":7.16321},"BottomRight":{"Latitude":51.55659,"Longitude":7.25772}},"Address":{"Label":"Recklinghausen, Nordrhein-Westfalen, Deutschland","Country":"DEU","State":"Nordrhein-Westfalen","County":"Recklinghausen","City":"Recklinghausen","District":"Recklinghausen","PostalCode":"45657","AdditionalData":[{"value":"Deutschland","key":"CountryName"},{"value":"Nordrhein-Westfalen","key":"StateName"},{"value":"Recklinghausen","key":"CountyName"}]},"MapReference":{"ReferenceId":"1201262405","SideOfStreet":"neither","CountryId":"20147700","StateId":"20157369","CountyId":"20159272","CityId":"20159336","DistrictId":"20159343"}}},{"Relevance":1.0,"Distance":9.3,"MatchLevel":"houseNumber","MatchQuality":{"Country":1.0,"State":1.0,"County":1.0,"City":1.0,"District":1.0,"Street":[1.0],"HouseNumber":1.0,"PostalCode":1.0},"MatchType":"interpolated","Location":{"LocationId":"NT_5-9M0QU5SHPC3SHORmIxOB_xAjM","LocationType":"point","DisplayPosition":{"Latitude":51.61964,"Longitude":7.18129},"MapView":{"TopLeft":{"Latitude":51.6207642,"Longitude":7.1794794},"BottomRight":{"Latitude":51.6185158,"Longitude":7.1831006}},"Address":{"Label":"Dorstener Straße 102, 45657 Recklinghausen, Deutschland","Country":"DEU","State":"Nordrhein-Westfalen","County":"Recklinghausen","City":"Recklinghausen","District":"Recklinghausen","Street":"Dorstener Straße","HouseNumber":"102","PostalCode":"45657","AdditionalData":[{"value":"Deutschland","key":"CountryName"},{"value":"Nordrhein-Westfalen","key":"StateName"},{"value":"Recklinghausen","key":"CountyName"}]},"MapReference":{"ReferenceId":"1199095371","Spot":0.51,"SideOfStreet":"left","CountryId":"20147700","StateId":"20157369","CountyId":"20159272","CityId":"20159336","DistrictId":"20159343","AddressId":"194407348","RoadLinkId":"510699106"}}},{"Relevance":1.0,"Distance":29.5,"MatchLevel":"houseNumber","MatchQuality":{"Country":1.0,"State":1.0,"County":1.0,"City":1.0,"District":1.0,"Street":[1.0],"HouseNumber":1.0,"PostalCode":1.0},"MatchType":"interpolated","Location":{"LocationId":"NT_5-9M0QU5SHPC3SHORmIxOB_xAjMBB","LocationType":"point","DisplayPosition":{"Latitude":51.61975,"Longitude":7.18083},"MapView":{"TopLeft":{"Latitude":51.6208742,"Longitude":7.1790194},"BottomRight":{"Latitude":51.6186258,"Longitude":7.1826406}},"Address":{"Label":"Dorstener Straße 102A, 45657 Recklinghausen, Deutschland","Country":"DEU","State":"Nordrhein-Westfalen","County":"Recklinghausen","City":"Recklinghausen","District":"Recklinghausen","Street":"Dorstener Straße","HouseNumber":"102A","PostalCode":"45657","AdditionalData":[{"value":"Deutschland","key":"CountryName"},{"value":"Nordrhein-Westfalen","key":"StateName"},{"value":"Recklinghausen","key":"CountyName"}]},"MapReference":{"ReferenceId":"1122937447","Spot":0.22,"SideOfStreet":"right","CountryId":"20147700","StateId":"20157369","CountyId":"20159272","CityId":"20159336","DistrictId":"20159343","AddressId":"193823291","RoadLinkId":"433205350"}}},{"Relevance":1.0,"Distance":36.6,"MatchLevel":"houseNumber","MatchQuality":{"Country":1.0,"State":1.0,"County":1.0,"City":1.0,"District":1.0,"Street":[1.0],"HouseNumber":1.0,"PostalCode":1.0},"MatchType":"interpolated","Location":{"LocationId":"NT_5-9M0QU5SHPC3SHORmIxOB_xATN","LocationType":"point","DisplayPosition":{"Latitude":51.61963,"Longitude":7.18106},"MapView":{"TopLeft":{"Latitude":51.6207542,"Longitude":7.1792494},"BottomRight":{"Latitude":51.6185058,"Longitude":7.1828706}},"Address":{"Label":"Dorstener Straße 105, 45657 Recklinghausen, Deutschland","Country":"DEU","State":"Nordrhein-Westfalen","County":"Recklinghausen","City":"Recklinghausen","District":"Recklinghausen","Street":"Dorstener Straße","HouseNumber":"105","PostalCode":"45657","AdditionalData":[{"value":"Deutschland","key":"CountryName"},{"value":"Nordrhein-Westfalen","key":"StateName"},{"value":"Recklinghausen","key":"CountyName"}]},"MapReference":{"ReferenceId":"843684041","Spot":0.01,"SideOfStreet":"left","CountryId":"20147700","StateId":"20157369","CountyId":"20159272","CityId":"20159336","DistrictId":"20159343","AddressId":"193823290","RoadLinkId":"225085462"}}},{"Relevance":1.0,"Distance":41.2,"MatchLevel":"houseNumber","MatchQuality":{"Country":1.0,"State":1.0,"County":1.0,"City":1.0,"District":1.0,"Street":[1.0],"HouseNumber":1.0,"PostalCode":1.0},"MatchType":"interpolated","Location":{"LocationId":"NT_5-9M0QU5SHPC3SHORmIxOB_xADM","LocationType":"point","DisplayPosition":{"Latitude":51.61964,"Longitude":7.18179},"MapView":{"TopLeft":{"Latitude":51.6207642,"Longitude":7.1799794},"BottomRight":{"Latitude":51.6185158,"Longitude":7.1836006}},"Address":{"Label":"Dorstener Straße 100, 45657 Recklinghausen, Deutschland","Country":"DEU","State":"Nordrhein-Westfalen","County":"Recklinghausen","City":"Recklinghausen","District":"Recklinghausen","Street":"Dorstener Straße","HouseNumber":"100","PostalCode":"45657","AdditionalData":[{"value":"Deutschland","key":"CountryName"},{"value":"Nordrhein-Westfalen","key":"StateName"},{"value":"Recklinghausen","key":"CountyName"}]},"MapReference":{"ReferenceId":"1199095372","Spot":0.72,"SideOfStreet":"left","CountryId":"20147700","StateId":"20157369","CountyId":"20159272","CityId":"20159336","DistrictId":"20159343","AddressId":"193184238","RoadLinkId":"510699107"}}},{"Relevance":1.0,"Distance":47.0,"MatchLevel":"landmark","MatchQuality":{"Country":1.0,"State":1.0,"County":1.0,"City":1.0,"District":1.0,"Street":[1.0],"PostalCode":1.0,"Name":1.0},"Location":{"LocationId":"NT_qqia35n.whr1kukUiR-8SA_p_2-3Y6yRYjV6-wzNPb0kyUA","LocationType":"animalPark","Name":"Tierpark Recklinghausen","DisplayPosition":{"Latitude":51.62118,"Longitude":7.18252},"MapView":{"TopLeft":{"Latitude":51.62291,"Longitude":7.17911},"BottomRight":{"Latitude":51.61942,"Longitude":7.18523}},"Address":{"Label":"Stadtgarten, 45657 Recklinghausen, Deutschland","Country":"DEU","State":"Nordrhein-Westfalen","County":"Recklinghausen","City":"Recklinghausen","District":"Recklinghausen","Street":"Stadtgarten","PostalCode":"45657","AdditionalData":[{"value":"Deutschland","key":"CountryName"},{"value":"Nordrhein-Westfalen","key":"StateName"},{"value":"Recklinghausen","key":"CountyName"}]},"MapReference":{"CountryId":"20147700","StateId":"20157369","CountyId":"20159272","CityId":"20159336","DistrictId":"20159343","PlaceId":"50543262"}}},{"Relevance":1.0,"Distance":57.4,"MatchLevel":"street","MatchQuality":{"Country":1.0,"State":1.0,"County":1.0,"City":1.0,"District":1.0,"PostalCode":1.0},"Location":{"LocationId":"NT_qowKAjX8WwNJZizFDxZhTA_l_1122937454_L","LocationType":"point","DisplayPosition":{"Latitude":51.61965,"Longitude":7.1819},"MapView":{"TopLeft":{"Latitude":51.61965,"Longitude":7.18185},"BottomRight":{"Latitude":51.61937,"Longitude":7.1819}},"Address":{"Label":"45657 Recklinghausen, Deutschland","Country":"DEU","State":"Nordrhein-Westfalen","County":"Recklinghausen","City":"Recklinghausen","District":"Recklinghausen","PostalCode":"45657","AdditionalData":[{"value":"Deutschland","key":"CountryName"},{"value":"Nordrhein-Westfalen","key":"StateName"},{"value":"Recklinghausen","key":"CountyName"}]},"MapReference":{"ReferenceId":"1122937454","Spot":1.0,"SideOfStreet":"left","CountryId":"20147700","StateId":"20157369","CountyId":"20159272","CityId":"20159336","DistrictId":"20159343"}}},{"Relevance":1.0,"Distance":61.4,"MatchLevel":"houseNumber","MatchQuality":{"Country":1.0,"State":1.0,"County":1.0,"City":1.0,"District":1.0,"Street":[1.0],"HouseNumber":1.0,"PostalCode":1.0},"MatchType":"interpolated","Location":{"LocationId":"NT_5-9M0QU5SHPC3SHORmIxOB_5cD","LocationType":"point","DisplayPosition":{"Latitude":51.61965,"Longitude":7.18197},"MapView":{"TopLeft":{"Latitude":51.6207742,"Longitude":7.1801594},"BottomRight":{"Latitude":51.6185258,"Longitude":7.1837806}},"Address":{"Label":"Dorstener Straße 97, 45657 Recklinghausen, Deutschland","Country":"DEU","State":"Nordrhein-Westfalen","County":"Recklinghausen","City":"Recklinghausen","District":"Recklinghausen","Street":"Dorstener Straße","HouseNumber":"97","PostalCode":"45657","AdditionalData":[{"value":"Deutschland","key":"CountryName"},{"value":"Nordrhein-Westfalen","key":"StateName"},{"value":"Recklinghausen","key":"CountyName"}]},"MapReference":{"ReferenceId":"1122937452","Spot":0.23,"SideOfStreet":"right","CountryId":"20147700","StateId":"20157369","CountyId":"20159272","CityId":"20159336","DistrictId":"20159343","AddressId":"192766877","RoadLinkId":"433205355"}}},{"Relevance":1.0,"Distance":74.8,"MatchLevel":"street","MatchQuality":{"Country":1.0,"State":1.0,"County":1.0,"City":1.0,"District":1.0,"Street":[1.0],"PostalCode":1.0},"Location":{"LocationId":"NT_xx0bGhjT-RoiWsUJnptiHA_l_1258124961_L","LocationType":"point","DisplayPosition":{"Latitude":51.61966,"Longitude":7.1822},"MapView":{"TopLeft":{"Latitude":51.61998,"Longitude":7.1822},"BottomRight":{"Latitude":51.61966,"Longitude":7.1823}},"Address":{"Label":"Stadtgarten, 45657 Recklinghausen, Deutschland","Country":"DEU","State":"Nordrhein-Westfalen","County":"Recklinghausen","City":"Recklinghausen","District":"Recklinghausen","Street":"Stadtgarten","PostalCode":"45657","AdditionalData":[{"value":"Deutschland","key":"CountryName"},{"value":"Nordrhein-Westfalen","key":"StateName"},{"value":"Recklinghausen","key":"CountyName"}]},"MapReference":{"ReferenceId":"1258124961","Spot":0.0,"SideOfStreet":"left","CountryId":"20147700","StateId":"20157369","CountyId":"20159272","CityId":"20159336","DistrictId":"20159343"}}},{"Relevance":1.0,"Distance":75.5,"MatchLevel":"street","MatchQuality":{"Country":1.0,"State":1.0,"County":1.0,"City":1.0,"District":1.0,"Street":[1.0],"PostalCode":1.0},"Location":{"LocationId":"NT_xx0bGhjT-RoiWsUJnptiHA_l_1258124962_L","LocationType":"point","DisplayPosition":{"Latitude":51.6201041,"Longitude":7.1822814},"MapView":{"TopLeft":{"Latitude":51.62085,"Longitude":7.18215},"BottomRight":{"Latitude":51.61998,"Longitude":7.1823}},"Address":{"Label":"Stadtgarten, 45657 Recklinghausen, Deutschland","Country":"DEU","State":"Nordrhein-Westfalen","County":"Recklinghausen","City":"Recklinghausen","District":"Recklinghausen","Street":"Stadtgarten","PostalCode":"45657","AdditionalData":[{"value":"Deutschland","key":"CountryName"},{"value":"Nordrhein-Westfalen","key":"StateName"},{"value":"Recklinghausen","key":"CountyName"}]},"MapReference":{"ReferenceId":"1258124962","Spot":0.14,"SideOfStreet":"left","CountryId":"20147700","StateId":"20157369","CountyId":"20159272","CityId":"20159336","DistrictId":"20159343"}}}]}]}}