{"Response":{"MetaInfo":{"Timestamp":"2020-03-28T11:59:40.883+0000","NextPageInformation":"2"},"View":[{"_type":"SearchResultsViewType","ViewId":0,"Result":[{"Relevance":1.0,"Distance":0.0,"Direction":0.0,"MatchLevel":"district","MatchQuality":{"Country":1.0,"State":1.0,"County":1.0,"City":1.0,"District":1.0,"PostalCode":1.0},"Location":{"LocationId":"NT_8G-xa86HTilvsu4OSxeOwB","LocationType":"point","DisplayPosition":{"Latitude":51.6622994,"Longitude":0.8282282},"MapView":{"TopLeft":{"Latitude":51.66672,"Longitude":0.81283},"BottomRight":{"Latitude":51.65768,"Longitude":0.84012}},"Address":{"Label":"Southminster, England, United Kingdom","Country":"GBR","State":"England","County":"Essex","City":"Southminster","District":"Southminster","PostalCode":"CM0 7","AdditionalData":[{"value":"United Kingdom","key":"CountryName"},{"value":"England","key":"StateName"},{"value":"Essex","key":"CountyName"}]},"MapReference":{"ReferenceId":"717676392","SideOfStreet":"neither","StateId":"20248595","CountyId":"20335385","CityId":"20335812","DistrictId":"20335813"}}},{"Relevance":1.0,"Distance":20.4,"MatchLevel":"houseNumber","MatchQuality":{"Country":1.0,"State":1.0,"County":1.0,"City":1.0,"District":1.0,"Street":[1.0],"HouseNumber":1.0,"PostalCode":1.0},"MatchType":"interpolated","Location":{"LocationId":"NT_H13a3Spoa526KdnMTIhbvC_l_25883359_L_xUD","LocationType":"point","DisplayPosition":{"Latitude":51.662514,"Longitude":0.828508},"MapView":{"TopLeft":{"Latitude":51.6636382,"Longitude":0.8266957},"BottomRight":{"Latitude":51.6613898,"Longitude":0.8303203}},"Address":{"Label":"15 High Street, Southminster, CM0 7, United Kingdom","Country":"GBR","State":"England","County":"Essex","City":"Southminster","District":"Southminster","Street":"High Street","HouseNumber":"15","PostalCode":"CM0 7","AdditionalData":[{"value":"United Kingdom","key":"CountryName"},{"value":"England","key":"StateName"},{"value":"Essex","key":"CountyName"}]},"MapReference":{"ReferenceId":"25883359","Spot":0.63,"SideOfStreet":"left","StateId":"20248595","CountyId":"20335385","CityId":"20335812","DistrictId":"20335813"}}},{"Relevance":1.0,"Distance":22.1,"MatchLevel":"houseNumber","MatchQuality":{"Country":1.0,"State":1.0,"County":1.0,"City":1.0,"District":1.0,"Street":[1.0],"HouseNumber":1.0,"PostalCode":1.0},"MatchType":"interpolated","Location":{"LocationId":"NT_KF6VrZmPetKsbmGFwgpcWC_l_781753781_L_xcD","LocationType":"point","DisplayPosition":{"Latitude":51.66257,"Longitude":0.8280198},"MapView":{"TopLeft":{"Latitude":51.6636942,"Longitude":0.8262076},"BottomRight":{"Latitude":51.6614459,"Longitude":0.8298321}},"Address":{"Label":"17 High Street, Southminster, CM0 7AY, United Kingdom","Country":"GBR","State":"England","County":"Essex","City":"Southminster","District":"Southminster","Street":"High Street","HouseNumber":"17","PostalCode":"CM0 7AY","AdditionalData":[{"value":"United Kingdom","key":"CountryName"},{"value":"England","key":"StateName"},{"value":"Essex","key":"CountyName"}]},"MapReference":{"ReferenceId":"781753781","Spot":0.32,"SideOfStreet":"left","StateId":"20248595","CountyId":"20335385","CityId":"20335812","DistrictId":"20335813"}}},{"Relevance":1.0,"Distance":27.9,"MatchLevel":"street","MatchQuality":{"Country":1.0,"State":1.0,"County":1.0,"City":1.0,"District":1.0,"Street":[1.0],"PostalCode":1.0},"Location":{"LocationId":"NT_1k1YZBIgdhrN5nb2OwvIEA_l_566029303_R","LocationType":"point","DisplayPosition":{"Latitude":51.66255,"Longitude":0.82824},"MapView":{"TopLeft":{"Latitude":51.66334,"Longitude":0.82824},"BottomRight":{"Latitude":51.66255,"Longitude":0.82855}},"Address":{"Label":"Queenborough Road, Southminster, CM0 7, United Kingdom","Country":"GBR","State":"England","County":"Essex","City":"Southminster","District":"Southminster","Street":"Queenborough Road","PostalCode":"CM0 7","AdditionalData":[{"value":"United Kingdom","key":"CountryName"},{"value":"England","key":"StateName"},{"value":"Essex","key":"CountyName"}]},"MapReference":{"ReferenceId":"566029303","Spot":0.0,"SideOfStreet":"right","StateId":"20248595","CountyId":"20335385","CityId":"20335812","DistrictId":"20335813"}}},{"Relevance":1.0,"Distance":37.0,"MatchLevel":"street","MatchQuality":{"Country":1.0,"State":1.0,"County":1.0,"City":1.0,"District":1.0,"Street":[1.0],"PostalCode":1.0},"Location":{"LocationId":"NT_9XSWogd2eg4HIwhlBWxIDC_l_566029305_R","LocationType":"point","DisplayPosition":{"Latitude":51.66213,"Longitude":0.82869},"MapView":{"TopLeft":{"Latitude":51.66213,"Longitude":0.82869},"BottomRight":{"Latitude":51.66211,"Longitude":0.82886}},"Address":{"Label":"Rose & Crown Mews, Southminster, CM0 7, United Kingdom","Country":"GBR","State":"England","County":"Essex","City":"Southminster","District":"Southminster","Street":"Rose & Crown Mews","PostalCode":"CM0 7","AdditionalData":[{"value":"United Kingdom","key":"CountryName"},{"value":"England","key":"StateName"},{"value":"Essex","key":"CountyName"}]},"MapReference":{"ReferenceId":"566029305","Spot":1.0,"SideOfStreet":"right","StateId":"20248595","CountyId":"20335385","CityId":"20335812","DistrictId":"20335813"}}},{"Relevance":1.0,"Distance":45.8,"MatchLevel":"postalCode","MatchQuality":{"PostalCode":1.0},"MatchType":"interpolated","Location":{"LocationId":"NT_H13a3Spoa526KdnMTIhbvC_l_25883359_L_xUD","LocationType":"point","DisplayPosition":{"Latitude":51.66207,"Longitude":0.82878},"MapView":{"TopLeft":{"Latitude":51.6710632,"Longitude":0.8142818},"BottomRight":{"Latitude":51.6530768,"Longitude":0.8432782}},"Address":{"Label":"CM0 7BY, Southminster, England, United Kingdom","Country":"GBR","State":"England","County":"Essex","City":"Southminster","PostalCode":"CM0 7BY","AdditionalData":[{"value":"United Kingdom","key":"CountryName"},{"value":"England","key":"StateName"},{"value":"Essex","key":"CountyName"}]},"MapReference":{"ReferenceId":"25883359","Spot":0.63,"SideOfStreet":"neither","StateId":"20248595","CountyId":"20335385","CityId":"20335812"}}},{"Relevance":1.0,"Distance":48.0,"MatchLevel":"street","MatchQuality":{"Country":1.0,"State":1.0,"County":1.0,"City":1.0,"District":1.0,"Street":[1.0],"PostalCode":1.0},"Location":{"LocationId":"NT_9XSWogd2eg4HIwhlBWxIDC_l_566029306_L","LocationType":"point","DisplayPosition":{"Latitude":51.6621229,"Longitude":0.8288636},"MapView":{"TopLeft":{"Latitude":51.66247,"Longitude":0.82886},"BottomRight":{"Latitude":51.66211,"Longitude":0.82896}},"Address":{"Label":"Rose & Crown Mews, Southminster, CM0 7, United Kingdom","Country":"GBR","State":"England","County":"Essex","City":"Southminster","District":"Southminster","Street":"Rose & Crown Mews","PostalCode":"CM0 7","AdditionalData":[{"value":"United Kingdom","key":"CountryName"},{"value":"England","key":"StateName"},{"value":"Essex","key":"CountyName"}]},"MapReference":{"ReferenceId":"566029306","Spot":0.04,"SideOfStreet":"left","StateId":"20248595","CountyId":"20335385","CityId":"20335812","DistrictId":"20335813"}}},{"Relevance":1.0,"Distance":48.4,"MatchLevel":"street","MatchQuality":{"Country":1.0,"State":1.0,"County":1.0,"City":1.0,"District":1.0,"Street":[1.0],"PostalCode":1.0},"Location":{"LocationId":"NT_9XSWogd2eg4HIwhlBWxIDC_l_566029307_R","LocationType":"point","DisplayPosition":{"Latitude":51.66211,"Longitude":0.82886},"MapView":{"TopLeft":{"Latitude":51.66211,"Longitude":0.82886},"BottomRight":{"Latitude":51.66209,"Longitude":0.82898}},"Address":{"Label":"Rose & Crown Mews, Southminster, CM0 7, United Kingdom","Country":"GBR","State":"England","County":"Essex","City":"Southminster","District":"Southminster","Street":"Rose & Crown Mews","PostalCode":"CM0 7","AdditionalData":[{"value":"United Kingdom","key":"CountryName"},{"value":"England","key":"StateName"},{"value":"Essex","key":"CountyName"}]},"MapReference":{"ReferenceId":"566029307","Spot":1.0,"SideOfStreet":"right","StateId":"20248595","CountyId":"20335385","CityId":"20335812","DistrictId":"20335813"}}},{"Relevance":1.0,"Distance":51.2,"MatchLevel":"postalCode","MatchQuality":{"PostalCode":1.0},"MatchType":"interpolated","Location":{"LocationId":"NT_H13a3Spoa526KdnMTIhbvC_l_717676392_L_3A","LocationType":"point","DisplayPosition":{"Latitude":51.66232,"Longitude":0.82897},"MapView":{"TopLeft":{"Latitude":51.6713132,"Longitude":0.8144717},"BottomRight":{"Latitude":51.6533268,"Longitude":0.8434683}},"Address":{"Label":"CM0 7BZ, Southminster, England, United Kingdom","Country":"GBR","State":"England","County":"Essex","City":"Southminster","PostalCode":"CM0 7BZ","AdditionalData":[{"value":"United Kingdom","key":"CountryName"},{"value":"England","key":"StateName"},{"value":"Essex","key":"CountyName"}]},"MapReference":{"ReferenceId":"717676392","Spot":0.52,"SideOfStreet":"neither","StateId":"20248595","CountyId":"20335385","CityId":"20335812"}}},{"Relevance":1.0,"Distance":53.9,"MatchLevel":"houseNumber","MatchQuality":{"Country":1.0,"State":1.0,"County":1.0,"City":1.0,"District":1.0,"Street":[1.0],"HouseNumber":1.0,"PostalCode":1.0},"MatchType":"interpolated","Location":{"LocationId":"NT_ZQQtcYFAPKtsPI--s6X9wC_l_25883358_R_xA","LocationType":"point","DisplayPosition":{"Latitude":51.66247,"Longitude":0.82896},"MapView":{"TopLeft":{"Latitude":51.6635942,"Longitude":0.8271477},"BottomRight":{"Latitude":51.6613459,"Longitude":0.8307723}},"Address":{"Label":"1 Munsons Court, Southminster, CM0 7, United Kingdom","Country":"GBR","State":"England","County":"Essex","City":"Southminster","District":"Southminster","Street":"Munsons Court","HouseNumber":"1","PostalCode":"CM0 7","AdditionalData":[{"value":"United Kingdom","key":"CountryName"},{"value":"England","key":"StateName"},{"value":"Essex","key":"CountyName"}]},"MapReference":{"ReferenceId":"25883358","Spot":0.0,"SideOfStreet":"right","StateId":"20248595","CountyId":"20335385","CityId":"20335812","DistrictId":"20335813"}}}]}]}}