{"Response":{"MetaInfo":{"Timestamp":"2020-03-28T09:35:18.705+0000","NextPageInformation":"2"},"View":[{"_type":"SearchResultsViewType","ViewId":0,"Result":[{"Relevance":1.0,"Distance":0.0,"Direction":0.0,"MatchLevel":"district","MatchQuality":{"Country":1.0,"State":1.0,"County":1.0,"City":1.0,"District":1.0,"PostalCode":1.0},"Location":{"LocationId":"NT_DFLcov8smAvx-t8-PNyosA","LocationType":"point","DisplayPosition":{"Latitude":51.6622059,"Longitude":12.2744931},"MapView":{"TopLeft":{"Latitude":51.69187,"Longitude":12.23098},"BottomRight":{"Latitude":51.64138,"Longitude":12.28154}},"Address":{"Label":"Wolfen, Bitterfeld-Wolfen, Sachsen-Anhalt, Deutschland","Country":"DEU","State":"Sachsen-Anhalt","County":"Anhalt-Bitterfeld","City":"Bitterfeld-Wolfen","District":"Wolfen","PostalCode":"06766","AdditionalData":[{"value":"Deutschland","key":"CountryName"},{"value":"Sachsen-Anhalt","key":"StateName"},{"value":"Anhalt-Bitterfeld","key":"CountyName"}]},"MapReference":{"ReferenceId":"541296994","SideOfStreet":"neither","CountryId":"20147700","StateId":"20194537","CountyId":"20194724","CityId":"20194725","DistrictId":"20194811"}}},{"Relevance":1.0,"Distance":14.1,"MatchLevel":"houseNumber","MatchQuality":{"Country":1.0,"State":1.0,"County":1.0,"City":1.0,"District":1.0,"Street":[1.0],"HouseNumber":1.0,"PostalCode":1.0},"MatchType":"interpolated","Location":{"LocationId":"NT_eDyVT9zVmZqPL8QeV.HPoC_yIE","LocationType":"point","DisplayPosition":{"Latitude":51.66231,"Longitude":12.27461},"MapView":{"TopLeft":{"Latitude":51.6634342,"Longitude":12.2727977},"BottomRight":{"Latitude":51.6611858,"Longitude":12.2764223}},"Address":{"Label":"Robert-Koch-Straße 2B, 06766 Bitterfeld-Wolfen, Deutschland","Country":"DEU","State":"Sachsen-Anhalt","County":"Anhalt-Bitterfeld","City":"Bitterfeld-Wolfen","District":"Wolfen","Street":"Robert-Koch-Straße","HouseNumber":"2B","PostalCode":"06766","AdditionalData":[{"value":"Deutschland","key":"CountryName"},{"value":"Sachsen-Anhalt","key":"StateName"},{"value":"Anhalt-Bitterfeld","key":"CountyName"}]},"MapReference":{"ReferenceId":"551740719","Spot":0.68,"SideOfStreet":"right","CountryId":"20147700","StateId":"20194537","CountyId":"20194724","CityId":"20194725","DistrictId":"20194811","AddressId":"185067223","RoadLinkId":"37738710"}}},{"Relevance":1.0,"Distance":82.6,"MatchLevel":"houseNumber","MatchQuality":{"Country":1.0,"State":1.0,"County":1.0,"City":1.0,"District":1.0,"Street":[1.0],"HouseNumber":1.0,"PostalCode":1.0},"MatchType":"interpolated","Location":{"LocationId":"NT_w835rdWuGcUcMJ-pqOLCpD_5ED","LocationType":"point","DisplayPosition":{"Latitude":51.66224,"Longitude":12.27591},"MapView":{"TopLeft":{"Latitude":51.6633642,"Longitude":12.2740977},"BottomRight":{"Latitude":51.6611158,"Longitude":12.2777223}},"Address":{"Label":"Leipziger Straße 91, 06766 Bitterfeld-Wolfen, Deutschland","Country":"DEU","State":"Sachsen-Anhalt","County":"Anhalt-Bitterfeld","City":"Bitterfeld-Wolfen","District":"Wolfen","Street":"Leipziger Straße","HouseNumber":"91","PostalCode":"06766","AdditionalData":[{"value":"Deutschland","key":"CountryName"},{"value":"Sachsen-Anhalt","key":"StateName"},{"value":"Anhalt-Bitterfeld","key":"CountyName"}]},"MapReference":{"ReferenceId":"812959679","Spot":0.82,"SideOfStreet":"left","CountryId":"20147700","StateId":"20194537","CountyId":"20194724","CityId":"20194725","DistrictId":"20194811","AddressId":"249046829","RoadLinkId":"200283707"}}},{"Relevance":1.0,"Distance":88.5,"MatchLevel":"houseNumber","MatchQuality":{"Country":1.0,"State":1.0,"County":1.0,"City":1.0,"District":1.0,"Street":[1.0],"HouseNumber":1.0,"PostalCode":1.0},"MatchType":"interpolated","Location":{"LocationId":"NT_w835rdWuGcUcMJ-pqOLCpD_4kD","LocationType":"point","DisplayPosition":{"Latitude":51.66308,"Longitude":12.27565},"MapView":{"TopLeft":{"Latitude":51.6642042,"Longitude":12.2738377},"BottomRight":{"Latitude":51.6619558,"Longitude":12.2774623}},"Address":{"Label":"Leipziger Straße 89, 06766 Bitterfeld-Wolfen, Deutschland","Country":"DEU","State":"Sachsen-Anhalt","County":"Anhalt-Bitterfeld","City":"Bitterfeld-Wolfen","District":"Wolfen","Street":"Leipziger Straße","HouseNumber":"89","PostalCode":"06766","AdditionalData":[{"value":"Deutschland","key":"CountryName"},{"value":"Sachsen-Anhalt","key":"StateName"},{"value":"Anhalt-Bitterfeld","key":"CountyName"}]},"MapReference":{"ReferenceId":"541296994","Spot":0.0,"SideOfStreet":"left","CountryId":"20147700","StateId":"20194537","CountyId":"20194724","CityId":"20194725","DistrictId":"20194811","AddressId":"185567557","RoadLinkId":"37479823"}}},{"Relevance":1.0,"Distance":101.0,"MatchLevel":"houseNumber","MatchQuality":{"Country":1.0,"State":1.0,"County":1.0,"City":1.0,"District":1.0,"Street":[1.0],"HouseNumber":1.0,"PostalCode":1.0},"MatchType":"interpolated","Location":{"LocationId":"NT_w835rdWuGcUcMJ-pqOLCpD_4AD","LocationType":"point","DisplayPosition":{"Latitude":51.66259,"Longitude":12.27582},"MapView":{"TopLeft":{"Latitude":51.6637142,"Longitude":12.2740077},"BottomRight":{"Latitude":51.6614658,"Longitude":12.2776323}},"Address":{"Label":"Leipziger Straße 80, 06766 Bitterfeld-Wolfen, Deutschland","Country":"DEU","State":"Sachsen-Anhalt","County":"Anhalt-Bitterfeld","City":"Bitterfeld-Wolfen","District":"Wolfen","Street":"Leipziger Straße","HouseNumber":"80","PostalCode":"06766","AdditionalData":[{"value":"Deutschland","key":"CountryName"},{"value":"Sachsen-Anhalt","key":"StateName"},{"value":"Anhalt-Bitterfeld","key":"CountyName"}]},"MapReference":{"ReferenceId":"541296993","Spot":0.2,"SideOfStreet":"right","CountryId":"20147700","StateId":"20194537","CountyId":"20194724","CityId":"20194725","DistrictId":"20194811","AddressId":"185157431","RoadLinkId":"37745812"}}},{"Relevance":1.0,"Distance":132.7,"MatchLevel":"houseNumber","MatchQuality":{"Country":1.0,"State":1.0,"County":1.0,"City":1.0,"District":1.0,"Street":[1.0],"HouseNumber":1.0,"PostalCode":1.0},"MatchType":"interpolated","Location":{"LocationId":"NT_BRGNQhD-PYlJyEzJwhBvdA_xID","LocationType":"point","DisplayPosition":{"Latitude":51.66067,"Longitude":12.27362},"MapView":{"TopLeft":{"Latitude":51.6617942,"Longitude":12.2718078},"BottomRight":{"Latitude":51.6595458,"Longitude":12.2754322}},"Address":{"Label":"Bahnhofstraße 12, 06766 Bitterfeld-Wolfen, Deutschland","Country":"DEU","State":"Sachsen-Anhalt","County":"Anhalt-Bitterfeld","City":"Bitterfeld-Wolfen","District":"Wolfen","Street":"Bahnhofstraße","HouseNumber":"12","PostalCode":"06766","AdditionalData":[{"value":"Deutschland","key":"CountryName"},{"value":"Sachsen-Anhalt","key":"StateName"},{"value":"Anhalt-Bitterfeld","key":"CountyName"}]},"MapReference":{"ReferenceId":"541296142","Spot":0.15,"SideOfStreet":"left","CountryId":"20147700","StateId":"20194537","CountyId":"20194724","CityId":"20194725","DistrictId":"20194811","AddressId":"186213730","RoadLinkId":"37510780"}}},{"Relevance":1.0,"Distance":136.6,"MatchLevel":"houseNumber","MatchQuality":{"Country":1.0,"State":1.0,"County":1.0,"City":1.0,"District":1.0,"Street":[1.0],"HouseNumber":1.0,"PostalCode":1.0},"MatchType":"interpolated","Location":{"LocationId":"NT_O-ZWlkWzHvYdVikXBo15sA_yEE","LocationType":"point","DisplayPosition":{"Latitude":51.66362,"Longitude":12.27427},"MapView":{"TopLeft":{"Latitude":51.6647442,"Longitude":12.2724577},"BottomRight":{"Latitude":51.6624958,"Longitude":12.2760823}},"Address":{"Label":"Kirchstraße 2A, 06766 Bitterfeld-Wolfen, Deutschland","Country":"DEU","State":"Sachsen-Anhalt","County":"Anhalt-Bitterfeld","City":"Bitterfeld-Wolfen","District":"Wolfen","Street":"Kirchstraße","HouseNumber":"2A","PostalCode":"06766","AdditionalData":[{"value":"Deutschland","key":"CountryName"},{"value":"Sachsen-Anhalt","key":"StateName"},{"value":"Anhalt-Bitterfeld","key":"CountyName"}]},"MapReference":{"ReferenceId":"541296050","Spot":0.43,"SideOfStreet":"right","CountryId":"20147700","StateId":"20194537","CountyId":"20194724","CityId":"20194725","DistrictId":"20194811","AddressId":"185579359","RoadLinkId":"37380786"}}},{"Relevance":1.0,"Distance":140.0,"MatchLevel":"houseNumber","MatchQuality":{"Country":1.0,"State":1.0,"County":1.0,"City":1.0,"District":1.0,"Street":[1.0],"HouseNumber":1.0,"PostalCode":1.0},"MatchType":"interpolated","Location":{"LocationId":"NT_O-ZWlkWzHvYdVikXBo15sA_0QE","LocationType":"point","DisplayPosition":{"Latitude":51.66352,"Longitude":12.27347},"MapView":{"TopLeft":{"Latitude":51.6646442,"Longitude":12.2716577},"BottomRight":{"Latitude":51.6623958,"Longitude":12.2752823}},"Address":{"Label":"Kirchstraße 4D, 06766 Bitterfeld-Wolfen, Deutschland","Country":"DEU","State":"Sachsen-Anhalt","County":"Anhalt-Bitterfeld","City":"Bitterfeld-Wolfen","District":"Wolfen","Street":"Kirchstraße","HouseNumber":"4D","PostalCode":"06766","AdditionalData":[{"value":"Deutschland","key":"CountryName"},{"value":"Sachsen-Anhalt","key":"StateName"},{"value":"Anhalt-Bitterfeld","key":"CountyName"}]},"MapReference":{"ReferenceId":"544582539","Spot":0.94,"SideOfStreet":"right","CountryId":"20147700","StateId":"20194537","CountyId":"20194724","CityId":"20194725","DistrictId":"20194811","AddressId":"185072424","RoadLinkId":"37648609"}}},{"Relevance":1.0,"Distance":143.7,"MatchLevel":"houseNumber","MatchQuality":{"Country":1.0,"State":1.0,"County":1.0,"City":1.0,"District":1.0,"Street":[1.0],"HouseNumber":1.0,"PostalCode":1.0},"MatchType":"interpolated","Location":{"LocationId":"NT_w835rdWuGcUcMJ-pqOLCpD_xATM","LocationType":"point","DisplayPosition":{"Latitude":51.66111,"Longitude":12.27592},"MapView":{"TopLeft":{"Latitude":51.6622342,"Longitude":12.2741078},"BottomRight":{"Latitude":51.6599858,"Longitude":12.2777322}},"Address":{"Label":"Leipziger Straße 101, 06766 Bitterfeld-Wolfen, Deutschland","Country":"DEU","State":"Sachsen-Anhalt","County":"Anhalt-Bitterfeld","City":"Bitterfeld-Wolfen","District":"Wolfen","Street":"Leipziger Straße","HouseNumber":"101","PostalCode":"06766","AdditionalData":[{"value":"Deutschland","key":"CountryName"},{"value":"Sachsen-Anhalt","key":"StateName"},{"value":"Anhalt-Bitterfeld","key":"CountyName"}]},"MapReference":{"ReferenceId":"812959678","Spot":0.53,"SideOfStreet":"left","CountryId":"20147700","StateId":"20194537","CountyId":"20194724","CityId":"20194725","DistrictId":"20194811","AddressId":"249039954","RoadLinkId":"200283706"}}},{"Relevance":1.0,"Distance":161.7,"MatchLevel":"houseNumber","MatchQuality":{"Country":1.0,"State":1.0,"County":1.0,"City":1.0,"District":1.0,"Street":[1.0],"HouseNumber":1.0,"PostalCode":1.0},"MatchType":"interpolated","Location":{"LocationId":"NT_G.g1i9qJ2V3NzfdDI5Ry0C_xA","LocationType":"point","DisplayPosition":{"Latitude":51.66316,"Longitude":12.27636},"MapView":{"TopLeft":{"Latitude":51.6642842,"Longitude":12.2745477},"BottomRight":{"Latitude":51.6620358,"Longitude":12.2781723}},"Address":{"Label":"Bernhard-Göring-Straße 1, 06766 Bitterfeld-Wolfen, Deutschland","Country":"DEU","State":"Sachsen-Anhalt","County":"Anhalt-Bitterfeld","City":"Bitterfeld-Wolfen","District":"Wolfen","Street":"Bernhard-Göring-Straße","HouseNumber":"1","PostalCode":"06766","AdditionalData":[{"value":"Deutschland","key":"CountryName"},{"value":"Sachsen-Anhalt","key":"StateName"},{"value":"Anhalt-Bitterfeld","key":"CountyName"}]},"MapReference":{"ReferenceId":"541296964","Spot":0.32,"SideOfStreet":"right","CountryId":"20147700","StateId":"20194537","CountyId":"20194724","CityId":"20194725","DistrictId":"20194811","AddressId":"185229957","RoadLinkId":"37688030"}}}]}]}}