{"Response":{"MetaInfo":{"Timestamp":"2020-03-28T10:34:33.169+0000","NextPageInformation":"2"},"View":[{"_type":"SearchResultsViewType","ViewId":0,"Result":[{"Relevance":1.0,"Distance":0.0,"Direction":0.0,"MatchLevel":"district","MatchQuality":{"Country":1.0,"State":1.0,"County":1.0,"City":1.0,"District":1.0,"PostalCode":1.0},"Location":{"LocationId":"NT_MNcwTDaI8jevZZTg8imcnC","LocationType":"point","DisplayPosition":{"Latitude":51.600292,"Longitude":0.0842391},"MapView":{"TopLeft":{"Latitude":51.61343,"Longitude":0.03889},"BottomRight":{"Latitude":51.54253,"Longitude":0.13073}},"Address":{"Label":"Ilford, England, United Kingdom","Country":"GBR","State":"England","County":"Essex","City":"Ilford","District":"Ilford","PostalCode":"IG1 4","AdditionalData":[{"value":"United Kingdom","key":"CountryName"},{"value":"England","key":"StateName"},{"value":"Essex","key":"CountyName"}]},"MapReference":{"ReferenceId":"25375601","SideOfStreet":"neither","StateId":"20248595","CountyId":"20335385","CityId":"20335678","DistrictId":"20335679"}}},{"Relevance":1.0,"Distance":0.2,"MatchLevel":"postalCode","MatchQuality":{"PostalCode":1.0},"MatchType":"interpolated","Location":{"LocationId":"NT_ewqKgEN1Z7k8KyPyY3YZeB_l_835742861_L_4MD","LocationType":"point","DisplayPosition":{"Latitude":51.60029,"Longitude":0.08424},"MapView":{"TopLeft":{"Latitude":51.6092832,"Longitude":0.0697615},"BottomRight":{"Latitude":51.5912968,"Longitude":0.0987185}},"Address":{"Label":"IG6 2NB, Ilford, England, United Kingdom","Country":"GBR","State":"England","County":"Essex","City":"Ilford","PostalCode":"IG6 2NB","AdditionalData":[{"value":"United Kingdom","key":"CountryName"},{"value":"England","key":"StateName"},{"value":"Essex","key":"CountyName"}]},"MapReference":{"ReferenceId":"835742861","Spot":0.5,"SideOfStreet":"neither","StateId":"20248595","CountyId":"20335385","CityId":"20335678"}}},{"Relevance":1.0,"Distance":18.7,"MatchLevel":"houseNumber","MatchQuality":{"Country":1.0,"State":1.0,"County":1.0,"City":1.0,"District":1.0,"Street":[1.0],"HouseNumber":1.0,"PostalCode":1.0},"MatchType":"interpolated","Location":{"LocationId":"NT_ewqKgEN1Z7k8KyPyY3YZeB_4UD","LocationType":"point","DisplayPosition":{"Latitude":51.60048,"Longitude":0.08455},"MapView":{"TopLeft":{"Latitude":51.6016042,"Longitude":0.0827402},"BottomRight":{"Latitude":51.5993558,"Longitude":0.0863598}},"Address":{"Label":"85 Fencepiece Road, Ilford, IG6 2ND, United Kingdom","Country":"GBR","State":"England","County":"Essex","City":"Ilford","District":"Ilford","Street":"Fencepiece Road","HouseNumber":"85","PostalCode":"IG6 2ND","AdditionalData":[{"value":"United Kingdom","key":"CountryName"},{"value":"England","key":"StateName"},{"value":"Essex","key":"CountyName"}]},"MapReference":{"ReferenceId":"835742862","Spot":0.08,"SideOfStreet":"left","StateId":"20248595","CountyId":"20335385","CityId":"20335678","DistrictId":"20335679","AddressId":"749030769","RoadLinkId":"218970029"}}},{"Relevance":1.0,"Distance":24.9,"MatchLevel":"houseNumber","MatchQuality":{"Country":1.0,"State":1.0,"County":1.0,"City":1.0,"District":1.0,"Street":[1.0],"HouseNumber":1.0,"PostalCode":1.0},"MatchType":"interpolated","Location":{"LocationId":"NT_ewqKgEN1Z7k8KyPyY3YZeB_xUjN","LocationType":"point","DisplayPosition":{"Latitude":51.60038,"Longitude":0.08457},"MapView":{"TopLeft":{"Latitude":51.6015042,"Longitude":0.0827602},"BottomRight":{"Latitude":51.5992558,"Longitude":0.0863798}},"Address":{"Label":"156 Fencepiece Road, Ilford, IG6 2LA, United Kingdom","Country":"GBR","State":"England","County":"Essex","City":"Ilford","District":"Ilford","Street":"Fencepiece Road","HouseNumber":"156","PostalCode":"IG6 2LA","AdditionalData":[{"value":"United Kingdom","key":"CountryName"},{"value":"England","key":"StateName"},{"value":"Essex","key":"CountyName"}]},"MapReference":{"ReferenceId":"25370024","Spot":0.14,"SideOfStreet":"right","StateId":"20248595","CountyId":"20335385","CityId":"20335678","DistrictId":"20335679","AddressId":"748951948","RoadLinkId":"82574256"}}},{"Relevance":1.0,"Distance":25.1,"MatchLevel":"houseNumber","MatchQuality":{"Country":1.0,"State":1.0,"County":1.0,"City":1.0,"District":1.0,"Street":[1.0],"HouseNumber":1.0,"PostalCode":1.0},"MatchType":"interpolated","Location":{"LocationId":"NT_ewqKgEN1Z7k8KyPyY3YZeB_l_835742861_L_4MD","LocationType":"point","DisplayPosition":{"Latitude":51.600123,"Longitude":0.0846126},"MapView":{"TopLeft":{"Latitude":51.6012472,"Longitude":0.0828028},"BottomRight":{"Latitude":51.5989989,"Longitude":0.0864224}},"Address":{"Label":"83 Fencepiece Road, Ilford, IG6 2NB, United Kingdom","Country":"GBR","State":"England","County":"Essex","City":"Ilford","District":"Ilford","Street":"Fencepiece Road","HouseNumber":"83","PostalCode":"IG6 2NB","AdditionalData":[{"value":"United Kingdom","key":"CountryName"},{"value":"England","key":"StateName"},{"value":"Essex","key":"CountyName"}]},"MapReference":{"ReferenceId":"835742861","Spot":0.5,"SideOfStreet":"left","StateId":"20248595","CountyId":"20335385","CityId":"20335678","DistrictId":"20335679"}}},{"Relevance":1.0,"Distance":31.8,"MatchLevel":"houseNumber","MatchQuality":{"Country":1.0,"State":1.0,"County":1.0,"City":1.0,"District":1.0,"Street":[1.0],"HouseNumber":1.0,"PostalCode":1.0},"MatchType":"interpolated","Location":{"LocationId":"NT_aSFDb1yYwwX-sUMdFfnreC_xA","LocationType":"point","DisplayPosition":{"Latitude":51.60028,"Longitude":0.08377},"MapView":{"TopLeft":{"Latitude":51.6014042,"Longitude":0.0819602},"BottomRight":{"Latitude":51.5991558,"Longitude":0.0855798}},"Address":{"Label":"1 Greenwood Gardens, Ilford, IG6 2NE, United Kingdom","Country":"GBR","State":"England","County":"Essex","City":"Ilford","District":"Ilford","Street":"Greenwood Gardens","HouseNumber":"1","PostalCode":"IG6 2NE","AdditionalData":[{"value":"United Kingdom","key":"CountryName"},{"value":"England","key":"StateName"},{"value":"Essex","key":"CountyName"}]},"MapReference":{"ReferenceId":"25370103","Spot":0.79,"SideOfStreet":"right","StateId":"20248595","CountyId":"20335385","CityId":"20335678","DistrictId":"20335679","AddressId":"748968964","RoadLinkId":"82637288"}}},{"Relevance":1.0,"Distance":45.9,"MatchLevel":"postalCode","MatchQuality":{"PostalCode":1.0},"MatchType":"interpolated","Location":{"LocationId":"NT_ewqKgEN1Z7k8KyPyY3YZeB_4UD","LocationType":"point","DisplayPosition":{"Latitude":51.60065,"Longitude":0.08457},"MapView":{"TopLeft":{"Latitude":51.6096432,"Longitude":0.0700914},"BottomRight":{"Latitude":51.5916568,"Longitude":0.0990486}},"Address":{"Label":"IG6 2LB, Ilford, England, United Kingdom","Country":"GBR","State":"England","County":"Essex","City":"Ilford","PostalCode":"IG6 2LB","AdditionalData":[{"value":"United Kingdom","key":"CountryName"},{"value":"England","key":"StateName"},{"value":"Essex","key":"CountyName"}]},"MapReference":{"ReferenceId":"835742862","Spot":0.08,"SideOfStreet":"neither","StateId":"20248595","CountyId":"20335385","CityId":"20335678"}}},{"Relevance":1.0,"Distance":58.1,"MatchLevel":"houseNumber","MatchQuality":{"Country":1.0,"State":1.0,"County":1.0,"City":1.0,"District":1.0,"Street":[1.0],"HouseNumber":1.0,"PostalCode":1.0},"MatchType":"interpolated","Location":{"LocationId":"NT_ewqKgEN1Z7k8KyPyY3YZeB_l_1144475823_L_4ED","LocationType":"point","DisplayPosition":{"Latitude":51.5998173,"Longitude":0.084669},"MapView":{"TopLeft":{"Latitude":51.6009414,"Longitude":0.0828592},"BottomRight":{"Latitude":51.5986931,"Longitude":0.0864787}},"Address":{"Label":"81 Fencepiece Road, Ilford, IG6 2NB, United Kingdom","Country":"GBR","State":"England","County":"Essex","City":"Ilford","District":"Ilford","Street":"Fencepiece Road","HouseNumber":"81","PostalCode":"IG6 2NB","AdditionalData":[{"value":"United Kingdom","key":"CountryName"},{"value":"England","key":"StateName"},{"value":"Essex","key":"CountyName"}]},"MapReference":{"ReferenceId":"1144475823","Spot":0.55,"SideOfStreet":"left","StateId":"20248595","CountyId":"20335385","CityId":"20335678","DistrictId":"20335679"}}},{"Relevance":1.0,"Distance":66.9,"MatchLevel":"houseNumber","MatchQuality":{"Country":1.0,"State":1.0,"County":1.0,"City":1.0,"District":1.0,"Street":[1.0],"HouseNumber":1.0,"PostalCode":1.0},"MatchType":"interpolated","Location":{"LocationId":"NT_islxxqHrp9a.hhWnS9hCTC_xA","LocationType":"point","DisplayPosition":{"Latitude":51.60094,"Longitude":0.08365},"MapView":{"TopLeft":{"Latitude":51.6020642,"Longitude":0.0818402},"BottomRight":{"Latitude":51.5998158,"Longitude":0.0854598}},"Address":{"Label":"1 Fairlop Gardens, Ilford, IG6 2, United Kingdom","Country":"GBR","State":"England","County":"Essex","City":"Ilford","District":"Ilford","Street":"Fairlop Gardens","HouseNumber":"1","PostalCode":"IG6 2","AdditionalData":[{"value":"United Kingdom","key":"CountryName"},{"value":"England","key":"StateName"},{"value":"Essex","key":"CountyName"}]},"MapReference":{"ReferenceId":"25370007","Spot":0.76,"SideOfStreet":"right","StateId":"20248595","CountyId":"20335385","CityId":"20335678","DistrictId":"20335679","AddressId":"748941484","RoadLinkId":"82995846"}}},{"Relevance":1.0,"Distance":68.5,"MatchLevel":"houseNumber","MatchQuality":{"Country":1.0,"State":1.0,"County":1.0,"City":1.0,"District":1.0,"Street":[1.0],"HouseNumber":1.0,"PostalCode":1.0},"MatchType":"interpolated","Location":{"LocationId":"NT_tnePDkMp2XP.s8bz3q-WBD_yA","LocationType":"point","DisplayPosition":{"Latitude":51.60055,"Longitude":0.08514},"MapView":{"TopLeft":{"Latitude":51.6016742,"Longitude":0.0833302},"BottomRight":{"Latitude":51.5994258,"Longitude":0.0869498}},"Address":{"Label":"2 Trelawney Road, Ilford, IG6 2NH, United Kingdom","Country":"GBR","State":"England","County":"Essex","City":"Ilford","District":"Ilford","Street":"Trelawney Road","HouseNumber":"2","PostalCode":"IG6 2NH","AdditionalData":[{"value":"United Kingdom","key":"CountryName"},{"value":"England","key":"StateName"},{"value":"Essex","key":"CountyName"}]},"MapReference":{"ReferenceId":"25370009","Spot":0.2,"SideOfStreet":"right","StateId":"20248595","CountyId":"20335385","CityId":"20335678","DistrictId":"20335679","AddressId":"748966861","RoadLinkId":"82601572"}}}]}]}}