{"Response":{"MetaInfo":{"Timestamp":"2020-03-28T10:21:09.476+0000","NextPageInformation":"2"},"View":[{"_type":"SearchResultsViewType","ViewId":0,"Result":[{"Relevance":1.0,"Distance":0.0,"Direction":0.0,"MatchLevel":"district","MatchQuality":{"Country":1.0,"State":1.0,"County":1.0,"City":1.0,"District":1.0,"PostalCode":1.0},"Location":{"LocationId":"NT_dq6zX-qrviQtp-OiJYjZLD","LocationType":"point","DisplayPosition":{"Latitude":51.6289894,"Longitude":6.6463132},"MapView":{"TopLeft":{"Latitude":51.63362,"Longitude":6.63069},"BottomRight":{"Latitude":51.61534,"Longitude":6.68723}},"Address":{"Label":"Friedrichsfeld, Voerde (Niederrhein), Nordrhein-Westfalen, Deutschland","Country":"DEU","State":"Nordrhein-Westfalen","County":"Wesel","City":"Voerde (Niederrhein)","District":"Friedrichsfeld","PostalCode":"46562","AdditionalData":[{"value":"Deutschland","key":"CountryName"},{"value":"Nordrhein-Westfalen","key":"StateName"},{"value":"Wesel","key":"CountyName"}]},"MapReference":{"ReferenceId":"51206528","SideOfStreet":"neither","CountryId":"20147700","StateId":"20157369","CountyId":"20157875","CityId":"20157951","DistrictId":"20157954"}}},{"Relevance":1.0,"Distance":5.8,"MatchLevel":"houseNumber","MatchQuality":{"Country":1.0,"State":1.0,"County":1.0,"City":1.0,"District":1.0,"Street":[1.0],"HouseNumber":1.0,"PostalCode":1.0},"MatchType":"interpolated","Location":{"LocationId":"NT_GUxf3oz.CLvOX1SdB1KhgD_zcjQ","LocationType":"point","DisplayPosition":{"Latitude":51.62887,"Longitude":6.6461},"MapView":{"TopLeft":{"Latitude":51.6299942,"Longitude":6.6442891},"BottomRight":{"Latitude":51.6277458,"Longitude":6.6479109}},"Address":{"Label":"Poststraße 37B, 46562 Voerde (Niederrhein), Deutschland","Country":"DEU","State":"Nordrhein-Westfalen","County":"Wesel","City":"Voerde (Niederrhein)","District":"Friedrichsfeld","Street":"Poststraße","HouseNumber":"37B","PostalCode":"46562","AdditionalData":[{"value":"Deutschland","key":"CountryName"},{"value":"Nordrhein-Westfalen","key":"StateName"},{"value":"Wesel","key":"CountyName"}]},"MapReference":{"ReferenceId":"51206710","Spot":0.16,"SideOfStreet":"right","CountryId":"20147700","StateId":"20157369","CountyId":"20157875","CityId":"20157951","DistrictId":"20157954","AddressId":"622055423","RoadLinkId":"35153960"}}},{"Relevance":1.0,"Distance":28.5,"MatchLevel":"houseNumber","MatchQuality":{"Country":1.0,"State":1.0,"County":1.0,"City":1.0,"District":1.0,"Street":[1.0],"HouseNumber":1.0,"PostalCode":1.0},"MatchType":"interpolated","Location":{"LocationId":"NT_GUxf3oz.CLvOX1SdB1KhgD_zcTQ","LocationType":"point","DisplayPosition":{"Latitude":51.62874,"Longitude":6.64673},"MapView":{"TopLeft":{"Latitude":51.6298642,"Longitude":6.6449191},"BottomRight":{"Latitude":51.6276158,"Longitude":6.6485409}},"Address":{"Label":"Poststraße 37A, 46562 Voerde (Niederrhein), Deutschland","Country":"DEU","State":"Nordrhein-Westfalen","County":"Wesel","City":"Voerde (Niederrhein)","District":"Friedrichsfeld","Street":"Poststraße","HouseNumber":"37A","PostalCode":"46562","AdditionalData":[{"value":"Deutschland","key":"CountryName"},{"value":"Nordrhein-Westfalen","key":"StateName"},{"value":"Wesel","key":"CountyName"}]},"MapReference":{"ReferenceId":"51206715","Spot":0.46,"SideOfStreet":"left","CountryId":"20147700","StateId":"20157369","CountyId":"20157875","CityId":"20157951","DistrictId":"20157954","AddressId":"622055422","RoadLinkId":"35701824"}}},{"Relevance":1.0,"Distance":39.0,"MatchLevel":"houseNumber","MatchQuality":{"Country":1.0,"State":1.0,"County":1.0,"City":1.0,"District":1.0,"Street":[1.0],"HouseNumber":1.0,"PostalCode":1.0},"MatchType":"interpolated","Location":{"LocationId":"NT_GUxf3oz.CLvOX1SdB1KhgD_zUTQ","LocationType":"point","DisplayPosition":{"Latitude":51.62873,"Longitude":6.64581},"MapView":{"TopLeft":{"Latitude":51.6298542,"Longitude":6.6439991},"BottomRight":{"Latitude":51.6276058,"Longitude":6.6476209}},"Address":{"Label":"Poststraße 35A, 46562 Voerde (Niederrhein), Deutschland","Country":"DEU","State":"Nordrhein-Westfalen","County":"Wesel","City":"Voerde (Niederrhein)","District":"Friedrichsfeld","Street":"Poststraße","HouseNumber":"35A","PostalCode":"46562","AdditionalData":[{"value":"Deutschland","key":"CountryName"},{"value":"Nordrhein-Westfalen","key":"StateName"},{"value":"Wesel","key":"CountyName"}]},"MapReference":{"ReferenceId":"812005413","Spot":0.0,"SideOfStreet":"left","CountryId":"20147700","StateId":"20157369","CountyId":"20157875","CityId":"20157951","DistrictId":"20157954","AddressId":"192764947","RoadLinkId":"199451575"}}},{"Relevance":1.0,"Distance":45.1,"MatchLevel":"street","MatchQuality":{"Country":1.0,"State":1.0,"County":1.0,"City":1.0,"District":1.0,"Street":[1.0],"PostalCode":1.0},"Location":{"LocationId":"NT_GUxf3oz.CLvOX1SdB1KhgD_l_812005412_L","LocationType":"point","DisplayPosition":{"Latitude":51.62873,"Longitude":6.64581},"MapView":{"TopLeft":{"Latitude":51.62873,"Longitude":6.64492},"BottomRight":{"Latitude":51.6287,"Longitude":6.64581}},"Address":{"Label":"Poststraße, 46562 Voerde (Niederrhein), Deutschland","Country":"DEU","State":"Nordrhein-Westfalen","County":"Wesel","City":"Voerde (Niederrhein)","District":"Friedrichsfeld","Street":"Poststraße","PostalCode":"46562","AdditionalData":[{"value":"Deutschland","key":"CountryName"},{"value":"Nordrhein-Westfalen","key":"StateName"},{"value":"Wesel","key":"CountyName"}]},"MapReference":{"ReferenceId":"812005412","Spot":1.0,"SideOfStreet":"left","CountryId":"20147700","StateId":"20157369","CountyId":"20157875","CityId":"20157951","DistrictId":"20157954"}}},{"Relevance":1.0,"Distance":47.8,"MatchLevel":"houseNumber","MatchQuality":{"Country":1.0,"State":1.0,"County":1.0,"City":1.0,"District":1.0,"Street":[1.0],"HouseNumber":1.0,"PostalCode":1.0},"MatchType":"interpolated","Location":{"LocationId":"NT_bVt3vEEl1F9w7aEmerff6C_2ED","LocationType":"point","DisplayPosition":{"Latitude":51.62856,"Longitude":6.6463},"MapView":{"TopLeft":{"Latitude":51.6296842,"Longitude":6.6444891},"BottomRight":{"Latitude":51.6274358,"Longitude":6.6481109}},"Address":{"Label":"Schmaler Weg 61, 46562 Voerde (Niederrhein), Deutschland","Country":"DEU","State":"Nordrhein-Westfalen","County":"Wesel","City":"Voerde (Niederrhein)","District":"Friedrichsfeld","Street":"Schmaler Weg","HouseNumber":"61","PostalCode":"46562","AdditionalData":[{"value":"Deutschland","key":"CountryName"},{"value":"Nordrhein-Westfalen","key":"StateName"},{"value":"Wesel","key":"CountyName"}]},"MapReference":{"ReferenceId":"61371586","Spot":0.73,"SideOfStreet":"left","CountryId":"20147700","StateId":"20157369","CountyId":"20157875","CityId":"20157951","DistrictId":"20157954","AddressId":"196259105","RoadLinkId":"35315728"}}},{"Relevance":1.0,"Distance":71.4,"MatchLevel":"houseNumber","MatchQuality":{"Country":1.0,"State":1.0,"County":1.0,"City":1.0,"District":1.0,"Street":[1.0],"HouseNumber":1.0,"PostalCode":1.0},"MatchType":"interpolated","Location":{"LocationId":"NT_GUxf3oz.CLvOX1SdB1KhgD_yQD","LocationType":"point","DisplayPosition":{"Latitude":51.62868,"Longitude":6.64737},"MapView":{"TopLeft":{"Latitude":51.6298042,"Longitude":6.6455591},"BottomRight":{"Latitude":51.6275558,"Longitude":6.6491809}},"Address":{"Label":"Poststraße 24, 46562 Voerde (Niederrhein), Deutschland","Country":"DEU","State":"Nordrhein-Westfalen","County":"Wesel","City":"Voerde (Niederrhein)","District":"Friedrichsfeld","Street":"Poststraße","HouseNumber":"24","PostalCode":"46562","AdditionalData":[{"value":"Deutschland","key":"CountryName"},{"value":"Nordrhein-Westfalen","key":"StateName"},{"value":"Wesel","key":"CountyName"}]},"MapReference":{"ReferenceId":"51206709","Spot":0.83,"SideOfStreet":"left","CountryId":"20147700","StateId":"20157369","CountyId":"20157875","CityId":"20157951","DistrictId":"20157954","AddressId":"193090593","RoadLinkId":"35771998"}}},{"Relevance":1.0,"Distance":84.2,"MatchLevel":"houseNumber","MatchQuality":{"Country":1.0,"State":1.0,"County":1.0,"City":1.0,"District":1.0,"Street":[1.0],"HouseNumber":1.0,"PostalCode":1.0},"MatchType":"interpolated","Location":{"LocationId":"NT_GUxf3oz.CLvOX1SdB1KhgD_0MD","LocationType":"point","DisplayPosition":{"Latitude":51.62888,"Longitude":6.64758},"MapView":{"TopLeft":{"Latitude":51.6300042,"Longitude":6.6457691},"BottomRight":{"Latitude":51.6277558,"Longitude":6.6493909}},"Address":{"Label":"Poststraße 43, 46562 Voerde (Niederrhein), Deutschland","Country":"DEU","State":"Nordrhein-Westfalen","County":"Wesel","City":"Voerde (Niederrhein)","District":"Friedrichsfeld","Street":"Poststraße","HouseNumber":"43","PostalCode":"46562","AdditionalData":[{"value":"Deutschland","key":"CountryName"},{"value":"Nordrhein-Westfalen","key":"StateName"},{"value":"Wesel","key":"CountyName"}]},"MapReference":{"ReferenceId":"51206713","Spot":0.44,"SideOfStreet":"left","CountryId":"20147700","StateId":"20157369","CountyId":"20157875","CityId":"20157951","DistrictId":"20157954","AddressId":"193011198","RoadLinkId":"35077620"}}},{"Relevance":1.0,"Distance":89.3,"MatchLevel":"houseNumber","MatchQuality":{"Country":1.0,"State":1.0,"County":1.0,"City":1.0,"District":1.0,"Street":[1.0],"HouseNumber":1.0,"PostalCode":1.0},"MatchType":"interpolated","Location":{"LocationId":"NT_dvdYasyXGzB4I3dZE6VFiC_yA","LocationType":"point","DisplayPosition":{"Latitude":51.6288,"Longitude":6.64757},"MapView":{"TopLeft":{"Latitude":51.6299242,"Longitude":6.6457591},"BottomRight":{"Latitude":51.6276758,"Longitude":6.6493809}},"Address":{"Label":"Bülowstraße 2, 46562 Voerde (Niederrhein), Deutschland","Country":"DEU","State":"Nordrhein-Westfalen","County":"Wesel","City":"Voerde (Niederrhein)","District":"Friedrichsfeld","Street":"Bülowstraße","HouseNumber":"2","PostalCode":"46562","AdditionalData":[{"value":"Deutschland","key":"CountryName"},{"value":"Nordrhein-Westfalen","key":"StateName"},{"value":"Wesel","key":"CountyName"}]},"MapReference":{"ReferenceId":"51206714","Spot":0.31,"SideOfStreet":"right","CountryId":"20147700","StateId":"20157369","CountyId":"20157875","CityId":"20157951","DistrictId":"20157954","AddressId":"195204717","RoadLinkId":"35141630"}}},{"Relevance":1.0,"Distance":101.4,"MatchLevel":"street","MatchQuality":{"Country":1.0,"State":1.0,"County":1.0,"City":1.0,"District":1.0,"Street":[1.0],"PostalCode":1.0},"Location":{"LocationId":"NT_GUxf3oz.CLvOX1SdB1KhgD_l_76167331_L","LocationType":"point","DisplayPosition":{"Latitude":51.6287,"Longitude":6.64492},"MapView":{"TopLeft":{"Latitude":51.6287,"Longitude":6.64458},"BottomRight":{"Latitude":51.6286,"Longitude":6.64492}},"Address":{"Label":"Poststraße, 46562 Voerde (Niederrhein), Deutschland","Country":"DEU","State":"Nordrhein-Westfalen","County":"Wesel","City":"Voerde (Niederrhein)","District":"Friedrichsfeld","Street":"Poststraße","PostalCode":"46562","AdditionalData":[{"value":"Deutschland","key":"CountryName"},{"value":"Nordrhein-Westfalen","key":"StateName"},{"value":"Wesel","key":"CountyName"}]},"MapReference":{"ReferenceId":"76167331","Spot":1.0,"SideOfStreet":"left","CountryId":"20147700","StateId":"20157369","CountyId":"20157875","CityId":"20157951","DistrictId":"20157954"}}}]}]}}