{"Response":{"MetaInfo":{"Timestamp":"2020-03-28T10:35:05.074+0000","NextPageInformation":"2"},"View":[{"_type":"SearchResultsViewType","ViewId":0,"Result":[{"Relevance":1.0,"Distance":0.0,"Direction":0.0,"MatchLevel":"district","MatchQuality":{"Country":1.0,"State":1.0,"County":1.0,"City":1.0,"District":1.0,"PostalCode":1.0},"Location":{"LocationId":"NT_ouAfUEcRvTANbvfPBABOpA","LocationType":"point","DisplayPosition":{"Latitude":51.6558215,"Longitude":-0.2803168},"MapView":{"TopLeft":{"Latitude":51.67609,"Longitude":-0.29775},"BottomRight":{"Latitude":51.64082,"Longitude":-0.24958}},"Address":{"Label":"Borehamwood, England, United Kingdom","Country":"GBR","State":"England","County":"Hertfordshire","City":"Borehamwood","District":"Borehamwood","PostalCode":"WD6 1","AdditionalData":[{"value":"United Kingdom","key":"CountryName"},{"value":"England","key":"StateName"},{"value":"Hertfordshire","key":"CountyName"}]},"MapReference":{"ReferenceId":"1143638353","SideOfStreet":"neither","StateId":"20248595","CountyId":"20336428","CityId":"20336478","DistrictId":"20336479"}}},{"Relevance":1.0,"Distance":15.7,"MatchLevel":"houseNumber","MatchQuality":{"Country":1.0,"State":1.0,"County":1.0,"City":1.0,"District":1.0,"Street":[1.0],"HouseNumber":1.0,"PostalCode":1.0},"MatchType":"interpolated","Location":{"LocationId":"NT_lwK.6BhEvoA1.Nq-R77KuD_l_991722779_R_0ID","LocationType":"point","DisplayPosition":{"Latitude":51.6557284,"Longitude":-0.2807323},"MapView":{"TopLeft":{"Latitude":51.6568526,"Longitude":-0.2825444},"BottomRight":{"Latitude":51.6546043,"Longitude":-0.2789203}},"Address":{"Label":"42 Theobald Street, Borehamwood, WD6 4SE, United Kingdom","Country":"GBR","State":"England","County":"Hertfordshire","City":"Borehamwood","District":"Borehamwood","Street":"Theobald Street","HouseNumber":"42","PostalCode":"WD6 4SE","AdditionalData":[{"value":"United Kingdom","key":"CountryName"},{"value":"England","key":"StateName"},{"value":"Hertfordshire","key":"CountyName"}]},"MapReference":{"ReferenceId":"991722779","Spot":0.8,"SideOfStreet":"right","StateId":"20248595","CountyId":"20336428","CityId":"20336478","DistrictId":"20336479"}}},{"Relevance":1.0,"Distance":27.9,"MatchLevel":"postalCode","MatchQuality":{"PostalCode":1.0},"MatchType":"interpolated","Location":{"LocationId":"NT_lwK.6BhEvoA1.Nq-R77KuD_l_991722779_R_0ID","LocationType":"point","DisplayPosition":{"Latitude":51.65567,"Longitude":-0.28064},"MapView":{"TopLeft":{"Latitude":51.6646632,"Longitude":-0.2951362},"BottomRight":{"Latitude":51.6466768,"Longitude":-0.2661438}},"Address":{"Label":"WD6 4SF, Borehamwood, England, United Kingdom","Country":"GBR","State":"England","County":"Hertfordshire","City":"Borehamwood","PostalCode":"WD6 4SF","AdditionalData":[{"value":"United Kingdom","key":"CountryName"},{"value":"England","key":"StateName"},{"value":"Hertfordshire","key":"CountyName"}]},"MapReference":{"ReferenceId":"991722779","Spot":0.8,"SideOfStreet":"neither","StateId":"20248595","CountyId":"20336428","CityId":"20336478"}}},{"Relevance":1.0,"Distance":36.0,"MatchLevel":"postalCode","MatchQuality":{"PostalCode":1.0},"Location":{"LocationId":"NT_lwK.6BhEvoA1.Nq-R77KuD_l_991722778_R","LocationType":"point","DisplayPosition":{"Latitude":51.65588,"Longitude":-0.28083},"MapView":{"TopLeft":{"Latitude":51.6648732,"Longitude":-0.2953262},"BottomRight":{"Latitude":51.6468868,"Longitude":-0.2663338}},"Address":{"Label":"WD6 4SD, Borehamwood, England, United Kingdom","Country":"GBR","State":"England","County":"Hertfordshire","City":"Borehamwood","PostalCode":"WD6 4SD","AdditionalData":[{"value":"United Kingdom","key":"CountryName"},{"value":"England","key":"StateName"},{"value":"Hertfordshire","key":"CountyName"}]},"MapReference":{"ReferenceId":"991722778","Spot":1.0,"SideOfStreet":"neither","StateId":"20248595","CountyId":"20336428","CityId":"20336478"}}},{"Relevance":1.0,"Distance":48.8,"MatchLevel":"street","MatchQuality":{"Country":1.0,"State":1.0,"County":1.0,"City":1.0,"District":1.0,"PostalCode":1.0},"Location":{"LocationId":"NT_y4BkijfKx0H9zJAs3z93OD_l_780276108_L","LocationType":"point","DisplayPosition":{"Latitude":51.6561,"Longitude":-0.27977},"MapView":{"TopLeft":{"Latitude":51.6561,"Longitude":-0.27977},"BottomRight":{"Latitude":51.65517,"Longitude":-0.27849}},"Address":{"Label":"Borehamwood, WD6 4, United Kingdom","Country":"GBR","State":"England","County":"Hertfordshire","City":"Borehamwood","District":"Borehamwood","PostalCode":"WD6 4","AdditionalData":[{"value":"United Kingdom","key":"CountryName"},{"value":"England","key":"StateName"},{"value":"Hertfordshire","key":"CountyName"}]},"MapReference":{"ReferenceId":"780276108","Spot":1.0,"SideOfStreet":"left","StateId":"20248595","CountyId":"20336428","CityId":"20336478","DistrictId":"20336479"}}},{"Relevance":1.0,"Distance":48.8,"MatchLevel":"street","MatchQuality":{"Country":1.0,"State":1.0,"County":1.0,"City":1.0,"District":1.0,"PostalCode":1.0},"Location":{"LocationId":"NT_y4BkijfKx0H9zJAs3z93OD_l_780276110_L","LocationType":"point","DisplayPosition":{"Latitude":51.6561,"Longitude":-0.27977},"MapView":{"TopLeft":{"Latitude":51.6561,"Longitude":-0.27977},"BottomRight":{"Latitude":51.65596,"Longitude":-0.27772}},"Address":{"Label":"Borehamwood, WD6 4, United Kingdom","Country":"GBR","State":"England","County":"Hertfordshire","City":"Borehamwood","District":"Borehamwood","PostalCode":"WD6 4","AdditionalData":[{"value":"United Kingdom","key":"CountryName"},{"value":"England","key":"StateName"},{"value":"Hertfordshire","key":"CountyName"}]},"MapReference":{"ReferenceId":"780276110","Spot":1.0,"SideOfStreet":"left","StateId":"20248595","CountyId":"20336428","CityId":"20336478","DistrictId":"20336479"}}},{"Relevance":1.0,"Distance":48.9,"MatchLevel":"street","MatchQuality":{"Country":1.0,"State":1.0,"County":1.0,"City":1.0,"District":1.0,"PostalCode":1.0},"Location":{"LocationId":"NT_y4BkijfKx0H9zJAs3z93OD_l_1259919315_R","LocationType":"point","DisplayPosition":{"Latitude":51.65617,"Longitude":-0.28075},"MapView":{"TopLeft":{"Latitude":51.65621,"Longitude":-0.28082},"BottomRight":{"Latitude":51.65614,"Longitude":-0.28074}},"Address":{"Label":"Borehamwood, WD6 4, United Kingdom","Country":"GBR","State":"England","County":"Hertfordshire","City":"Borehamwood","District":"Borehamwood","PostalCode":"WD6 4","AdditionalData":[{"value":"United Kingdom","key":"CountryName"},{"value":"England","key":"StateName"},{"value":"Hertfordshire","key":"CountyName"}]},"MapReference":{"ReferenceId":"1259919315","Spot":0.63,"SideOfStreet":"right","StateId":"20248595","CountyId":"20336428","CityId":"20336478","DistrictId":"20336479"}}},{"Relevance":1.0,"Distance":49.6,"MatchLevel":"street","MatchQuality":{"Country":1.0,"State":1.0,"County":1.0,"City":1.0,"District":1.0,"PostalCode":1.0},"Location":{"LocationId":"NT_y4BkijfKx0H9zJAs3z93OD_l_1259919313_L","LocationType":"point","DisplayPosition":{"Latitude":51.65614,"Longitude":-0.28082},"MapView":{"TopLeft":{"Latitude":51.65623,"Longitude":-0.2809},"BottomRight":{"Latitude":51.65614,"Longitude":-0.28082}},"Address":{"Label":"Borehamwood, WD6 4, United Kingdom","Country":"GBR","State":"England","County":"Hertfordshire","City":"Borehamwood","District":"Borehamwood","PostalCode":"WD6 4","AdditionalData":[{"value":"United Kingdom","key":"CountryName"},{"value":"England","key":"StateName"},{"value":"Hertfordshire","key":"CountyName"}]},"MapReference":{"ReferenceId":"1259919313","Spot":0.0,"SideOfStreet":"left","StateId":"20248595","CountyId":"20336428","CityId":"20336478","DistrictId":"20336479"}}},{"Relevance":1.0,"Distance":50.4,"MatchLevel":"landmark","MatchQuality":{"Country":1.0,"State":1.0,"County":1.0,"City":1.0,"District":1.0,"Street":[1.0],"PostalCode":1.0,"Name":1.0},"Location":{"LocationId":"NT_tvYPD2lM-NXgXnIA0a8OAA_p_vrH6bNd0ZD8DDDfRxOEdXC","LocationType":"shoppingCentre","Name":"Borehamwood Shopping Park","DisplayPosition":{"Latitude":51.6561,"Longitude":-0.27525},"MapView":{"TopLeft":{"Latitude":51.65772,"Longitude":-0.28005},"BottomRight":{"Latitude":51.65503,"Longitude":-0.27473}},"Address":{"Label":"Shenley Road, Borehamwood, WD6 1, United Kingdom","Country":"GBR","State":"England","County":"Hertfordshire","City":"Borehamwood","District":"Borehamwood","Street":"Shenley Road","PostalCode":"WD6 1","AdditionalData":[{"value":"United Kingdom","key":"CountryName"},{"value":"England","key":"StateName"},{"value":"Hertfordshire","key":"CountyName"}]},"MapReference":{"StateId":"20248595","CountyId":"20336428","CityId":"20336478","DistrictId":"20336479","PlaceId":"1001107645"}}},{"Relevance":1.0,"Distance":50.4,"MatchLevel":"street","MatchQuality":{"Country":1.0,"State":1.0,"County":1.0,"City":1.0,"District":1.0,"Street":[1.0],"PostalCode":1.0},"Location":{"LocationId":"NT_FcGFYyMKB9RzMZHWhoBpxC_l_839267653_L","LocationType":"point","DisplayPosition":{"Latitude":51.6561365,"Longitude":-0.2797919},"MapView":{"TopLeft":{"Latitude":51.65636,"Longitude":-0.27991},"BottomRight":{"Latitude":51.6561,"Longitude":-0.27977}},"Address":{"Label":"Neptune Court, Borehamwood, WD6 4, United Kingdom","Country":"GBR","State":"England","County":"Hertfordshire","City":"Borehamwood","District":"Borehamwood","Street":"Neptune Court","PostalCode":"WD6 4","AdditionalData":[{"value":"United Kingdom","key":"CountryName"},{"value":"England","key":"StateName"},{"value":"Hertfordshire","key":"CountyName"}]},"MapReference":{"ReferenceId":"839267653","Spot":0.14,"SideOfStreet":"left","StateId":"20248595","CountyId":"20336428","CityId":"20336478","DistrictId":"20336479"}}}]}]}}