{"Response":{"MetaInfo":{"Timestamp":"2020-03-28T11:15:17.649+0000","NextPageInformation":"2"},"View":[{"_type":"SearchResultsViewType","ViewId":0,"Result":[{"Relevance":1.0,"Distance":0.0,"Direction":0.0,"MatchLevel":"district","MatchQuality":{"Country":1.0,"State":1.0,"County":1.0,"City":1.0,"District":1.0,"PostalCode":1.0},"Location":{"LocationId":"NT_.wfQRiQYB.c.BjJhTo5XiB","LocationType":"point","DisplayPosition":{"Latitude":51.6587375,"Longitude":-0.1029026},"MapView":{"TopLeft":{"Latitude":51.73087,"Longitude":-0.15333},"BottomRight":{"Latitude":51.63358,"Longitude":0.00357}},"Address":{"Label":"Enfield, England, United Kingdom","Country":"GBR","State":"England","County":"Middlesex","City":"Enfield","District":"Enfield","PostalCode":"EN2 6","AdditionalData":[{"value":"United Kingdom","key":"CountryName"},{"value":"England","key":"StateName"},{"value":"Middlesex","key":"CountyName"}]},"MapReference":{"ReferenceId":"1226139303","SideOfStreet":"neither","StateId":"20248595","CountyId":"20337579","CityId":"20337586","DistrictId":"20337587"}}},{"Relevance":1.0,"Distance":24.7,"MatchLevel":"houseNumber","MatchQuality":{"Country":1.0,"State":1.0,"County":1.0,"City":1.0,"District":1.0,"Street":[1.0],"HouseNumber":1.0,"PostalCode":1.0},"MatchType":"interpolated","Location":{"LocationId":"NT_koUD684NJ7YARjjvnJwmGB_xQD","LocationType":"point","DisplayPosition":{"Latitude":51.65834,"Longitude":-0.10273},"MapView":{"TopLeft":{"Latitude":51.6594642,"Longitude":-0.1045421},"BottomRight":{"Latitude":51.6572158,"Longitude":-0.1009179}},"Address":{"Label":"14 The Grove, Enfield, EN2 7PY, United Kingdom","Country":"GBR","State":"England","County":"Middlesex","City":"Enfield","District":"Enfield","Street":"The Grove","HouseNumber":"14","PostalCode":"EN2 7PY","AdditionalData":[{"value":"United Kingdom","key":"CountryName"},{"value":"England","key":"StateName"},{"value":"Middlesex","key":"CountyName"}]},"MapReference":{"ReferenceId":"25981248","Spot":0.95,"SideOfStreet":"right","StateId":"20248595","CountyId":"20337579","CityId":"20337586","DistrictId":"20337587","AddressId":"749693757","RoadLinkId":"82512095"}}},{"Relevance":1.0,"Distance":26.4,"MatchLevel":"houseNumber","MatchQuality":{"Country":1.0,"State":1.0,"County":1.0,"City":1.0,"District":1.0,"Street":[1.0],"HouseNumber":1.0,"PostalCode":1.0},"MatchType":"interpolated","Location":{"LocationId":"NT_koUD684NJ7YARjjvnJwmGB_xYD","LocationType":"point","DisplayPosition":{"Latitude":51.65833,"Longitude":-0.10277},"MapView":{"TopLeft":{"Latitude":51.6594542,"Longitude":-0.1045821},"BottomRight":{"Latitude":51.6572058,"Longitude":-0.1009579}},"Address":{"Label":"16 The Grove, Enfield, EN2 7PY, United Kingdom","Country":"GBR","State":"England","County":"Middlesex","City":"Enfield","District":"Enfield","Street":"The Grove","HouseNumber":"16","PostalCode":"EN2 7PY","AdditionalData":[{"value":"United Kingdom","key":"CountryName"},{"value":"England","key":"StateName"},{"value":"Middlesex","key":"CountyName"}]},"MapReference":{"ReferenceId":"25981247","Spot":1.0,"SideOfStreet":"left","StateId":"20248595","CountyId":"20337579","CityId":"20337586","DistrictId":"20337587","AddressId":"749495920","RoadLinkId":"82860867"}}},{"Relevance":1.0,"Distance":30.2,"MatchLevel":"houseNumber","MatchQuality":{"Country":1.0,"State":1.0,"County":1.0,"City":1.0,"District":1.0,"Street":[1.0],"PostalCode":1.0},"MatchType":"interpolated","Location":{"LocationId":"NT_fLu.nMtvcxqPNCsx145WPA","LocationType":"point","DisplayPosition":{"Latitude":51.65878,"Longitude":-0.10247},"MapView":{"TopLeft":{"Latitude":51.6599042,"Longitude":-0.1042821},"BottomRight":{"Latitude":51.6576558,"Longitude":-0.1006579}},"Address":{"Label":"Cavell Drive, Enfield, EN2 7, United Kingdom","Country":"GBR","State":"England","County":"Middlesex","City":"Enfield","District":"Enfield","Street":"Cavell Drive","PostalCode":"EN2 7","AdditionalData":[{"value":"United Kingdom","key":"CountryName"},{"value":"England","key":"StateName"},{"value":"Middlesex","key":"CountyName"}],"Building":"Bmi Worth London Hospital"},"MapReference":{"ReferenceId":"26014001","Spot":0.33,"SideOfStreet":"left","StateId":"20248595","CountyId":"20337579","CityId":"20337586","DistrictId":"20337587","AddressId":"763414076","RoadLinkId":"82567687"}}},{"Relevance":1.0,"Distance":48.1,"MatchLevel":"postalCode","MatchQuality":{"PostalCode":1.0},"MatchType":"interpolated","Location":{"LocationId":"NT_koUD684NJ7YARjjvnJwmGB_xYD","LocationType":"point","DisplayPosition":{"Latitude":51.65831,"Longitude":-0.1028},"MapView":{"TopLeft":{"Latitude":51.6673032,"Longitude":-0.117297},"BottomRight":{"Latitude":51.6493168,"Longitude":-0.088303}},"Address":{"Label":"EN2 7PY, Enfield, England, United Kingdom","Country":"GBR","State":"England","County":"Middlesex","City":"Enfield","PostalCode":"EN2 7PY","AdditionalData":[{"value":"United Kingdom","key":"CountryName"},{"value":"England","key":"StateName"},{"value":"Middlesex","key":"CountyName"}]},"MapReference":{"ReferenceId":"25981247","Spot":1.0,"SideOfStreet":"neither","StateId":"20248595","CountyId":"20337579","CityId":"20337586"}}},{"Relevance":1.0,"Distance":62.2,"MatchLevel":"houseNumber","MatchQuality":{"Country":1.0,"State":1.0,"County":1.0,"City":1.0,"District":1.0,"Street":[1.0],"HouseNumber":1.0,"PostalCode":1.0},"MatchType":"interpolated","Location":{"LocationId":"NT_koUD684NJ7YARjjvnJwmGB_yYD","LocationType":"point","DisplayPosition":{"Latitude":51.65803,"Longitude":-0.10289},"MapView":{"TopLeft":{"Latitude":51.6591542,"Longitude":-0.1047021},"BottomRight":{"Latitude":51.6569058,"Longitude":-0.1010779}},"Address":{"Label":"26 The Grove, Enfield, EN2 7PY, United Kingdom","Country":"GBR","State":"England","County":"Middlesex","City":"Enfield","District":"Enfield","Street":"The Grove","HouseNumber":"26","PostalCode":"EN2 7PY","AdditionalData":[{"value":"United Kingdom","key":"CountryName"},{"value":"England","key":"StateName"},{"value":"Middlesex","key":"CountyName"}]},"MapReference":{"ReferenceId":"25380466","Spot":0.86,"SideOfStreet":"left","StateId":"20248595","CountyId":"20337579","CityId":"20337586","DistrictId":"20337587","AddressId":"749563312","RoadLinkId":"82256186"}}},{"Relevance":1.0,"Distance":66.6,"MatchLevel":"houseNumber","MatchQuality":{"Country":1.0,"State":1.0,"County":1.0,"City":1.0,"District":1.0,"Street":[1.0],"HouseNumber":1.0,"PostalCode":1.0},"MatchType":"interpolated","Location":{"LocationId":"NT_9NvDEAj3LLztYSGm-KZKHC_xgD","LocationType":"point","DisplayPosition":{"Latitude":51.65845,"Longitude":-0.10411},"MapView":{"TopLeft":{"Latitude":51.6595742,"Longitude":-0.1059221},"BottomRight":{"Latitude":51.6573258,"Longitude":-0.1022979}},"Address":{"Label":"18 Valley Fields Crescent, Enfield, EN2 7QA, United Kingdom","Country":"GBR","State":"England","County":"Middlesex","City":"Enfield","District":"Enfield","Street":"Valley Fields Crescent","HouseNumber":"18","PostalCode":"EN2 7QA","AdditionalData":[{"value":"United Kingdom","key":"CountryName"},{"value":"England","key":"StateName"},{"value":"Middlesex","key":"CountyName"}]},"MapReference":{"ReferenceId":"25981244","Spot":0.14,"SideOfStreet":"right","StateId":"20248595","CountyId":"20337579","CityId":"20337586","DistrictId":"20337587","AddressId":"763597767","RoadLinkId":"82493559"}}},{"Relevance":1.0,"Distance":74.1,"MatchLevel":"street","MatchQuality":{"Country":1.0,"State":1.0,"County":1.0,"City":1.0,"District":1.0,"Street":[1.0],"PostalCode":1.0},"Location":{"LocationId":"NT_koUD684NJ7YARjjvnJwmGB_l_25380443_L","LocationType":"point","DisplayPosition":{"Latitude":51.65809,"Longitude":-0.10265},"MapView":{"TopLeft":{"Latitude":51.65822,"Longitude":-0.10265},"BottomRight":{"Latitude":51.65809,"Longitude":-0.10205}},"Address":{"Label":"The Grove, Enfield, EN2 7, United Kingdom","Country":"GBR","State":"England","County":"Middlesex","City":"Enfield","District":"Enfield","Street":"The Grove","PostalCode":"EN2 7","AdditionalData":[{"value":"United Kingdom","key":"CountryName"},{"value":"England","key":"StateName"},{"value":"Middlesex","key":"CountyName"}]},"MapReference":{"ReferenceId":"25380443","Spot":0.0,"SideOfStreet":"left","StateId":"20248595","CountyId":"20337579","CityId":"20337586","DistrictId":"20337587"}}},{"Relevance":1.0,"Distance":74.6,"MatchLevel":"houseNumber","MatchQuality":{"Country":1.0,"State":1.0,"County":1.0,"City":1.0,"District":1.0,"Street":[1.0],"HouseNumber":1.0,"PostalCode":1.0},"MatchType":"interpolated","Location":{"LocationId":"NT_D8aV-r.ZXfYy7BgMhTYGOD_xQTM","LocationType":"point","DisplayPosition":{"Latitude":51.65949,"Longitude":-0.10366},"MapView":{"TopLeft":{"Latitude":51.6606142,"Longitude":-0.1054722},"BottomRight":{"Latitude":51.6583658,"Longitude":-0.1018478}},"Address":{"Label":"141 Dunraven Drive, Enfield, EN2 8LN, United Kingdom","Country":"GBR","State":"England","County":"Middlesex","City":"Enfield","District":"Enfield","Street":"Dunraven Drive","HouseNumber":"141","PostalCode":"EN2 8LN","AdditionalData":[{"value":"United Kingdom","key":"CountryName"},{"value":"England","key":"StateName"},{"value":"Middlesex","key":"CountyName"}]},"MapReference":{"ReferenceId":"25492520","Spot":0.15,"SideOfStreet":"right","StateId":"20248595","CountyId":"20337579","CityId":"20337586","DistrictId":"20337587","AddressId":"749563070","RoadLinkId":"82881720"}}},{"Relevance":1.0,"Distance":77.5,"MatchLevel":"houseNumber","MatchQuality":{"Country":1.0,"State":1.0,"County":1.0,"City":1.0,"District":1.0,"Street":[1.0],"HouseNumber":1.0,"PostalCode":1.0},"MatchType":"interpolated","Location":{"LocationId":"NT_ps.MQfRZ7w3PX3qG3zi4sB_xcG","LocationType":"point","DisplayPosition":{"Latitude":51.65845,"Longitude":-0.10152},"MapView":{"TopLeft":{"Latitude":51.6595742,"Longitude":-0.1033321},"BottomRight":{"Latitude":51.6573258,"Longitude":-0.0997079}},"Address":{"Label":"1g Uplands Park Road, Enfield, EN2 7, United Kingdom","Country":"GBR","State":"England","County":"Middlesex","City":"Enfield","District":"Enfield","Street":"Uplands Park Road","HouseNumber":"1g","PostalCode":"EN2 7","AdditionalData":[{"value":"United Kingdom","key":"CountryName"},{"value":"England","key":"StateName"},{"value":"Middlesex","key":"CountyName"}]},"MapReference":{"ReferenceId":"25380431","Spot":0.13,"SideOfStreet":"left","StateId":"20248595","CountyId":"20337579","CityId":"20337586","DistrictId":"20337587","AddressId":"748702477","RoadLinkId":"82618276"}}}]}]}}