{"Response":{"MetaInfo":{"Timestamp":"2020-03-28T10:13:17.454+0000","NextPageInformation":"2"},"View":[{"_type":"SearchResultsViewType","ViewId":0,"Result":[{"Relevance":1.0,"Distance":0.0,"Direction":0.0,"MatchLevel":"district","MatchQuality":{"Country":1.0,"State":1.0,"County":1.0,"City":1.0,"District":1.0,"Subdistrict":1.0,"PostalCode":1.0},"Location":{"LocationId":"NT_vcH9696PtTngc5vN2HK4.A","LocationType":"point","DisplayPosition":{"Latitude":51.7939138,"Longitude":19.4313006},"MapView":{"TopLeft":{"Latitude":51.8324,"Longitude":19.34385},"BottomRight":{"Latitude":51.78353,"Longitude":19.5149}},"Address":{"Label":"Bałuty, Łódź, Woj. Łódzkie, Polska","Country":"POL","State":"Woj. Łódzkie","County":"Łódź","City":"Łódź","District":"Łódź","Subdistrict":"Bałuty","PostalCode":"91-357","AdditionalData":[{"value":"Polska","key":"CountryName"},{"value":"Woj. Łódzkie","key":"StateName"},{"value":"Łódź","key":"CountyName"}]},"MapReference":{"ReferenceId":"595653990","SideOfStreet":"neither","CountryId":"20624059","StateId":"20625723","CountyId":"20625724","CityId":"20625725","DistrictId":"20646758"}}},{"Relevance":1.0,"Distance":9.3,"MatchLevel":"houseNumber","MatchQuality":{"Country":1.0,"State":1.0,"County":1.0,"City":1.0,"District":1.0,"Subdistrict":1.0,"Street":[1.0],"HouseNumber":1.0,"PostalCode":1.0},"MatchType":"interpolated","Location":{"LocationId":"NT_dqGh7Oxl.UkisG-NyGN2OC_xQD","LocationType":"point","DisplayPosition":{"Latitude":51.79378,"Longitude":19.43172},"MapView":{"TopLeft":{"Latitude":51.7949042,"Longitude":19.4299024},"BottomRight":{"Latitude":51.7926558,"Longitude":19.4335376}},"Address":{"Label":"ulica Hipoteczna 14, 91-335 Łódź, Polska","Country":"POL","State":"Woj. Łódzkie","County":"Łódź","City":"Łódź","District":"Łódź","Subdistrict":"Bałuty","Street":"ulica Hipoteczna","HouseNumber":"14","PostalCode":"91-335","AdditionalData":[{"value":"Polska","key":"CountryName"},{"value":"Woj. Łódzkie","key":"StateName"},{"value":"Łódź","key":"CountyName"}]},"MapReference":{"ReferenceId":"949509898","Spot":0.64,"SideOfStreet":"left","CountryId":"20624059","StateId":"20625723","CountyId":"20625724","CityId":"20625725","DistrictId":"20646758","AddressId":"210923526","RoadLinkId":"296499216"}}},{"Relevance":1.0,"Distance":26.4,"MatchLevel":"houseNumber","MatchQuality":{"Country":1.0,"State":1.0,"County":1.0,"City":1.0,"District":1.0,"Subdistrict":1.0,"Street":[1.0],"HouseNumber":1.0,"PostalCode":1.0},"MatchType":"interpolated","Location":{"LocationId":"NT_eOVO.b40Q8V5vfEaG6QpQD_zED","LocationType":"point","DisplayPosition":{"Latitude":51.79349,"Longitude":19.4312},"MapView":{"TopLeft":{"Latitude":51.7946142,"Longitude":19.4293824},"BottomRight":{"Latitude":51.7923658,"Longitude":19.4330176}},"Address":{"Label":"ulica Srebrna 31, 91-334 Łódź, Polska","Country":"POL","State":"Woj. Łódzkie","County":"Łódź","City":"Łódź","District":"Łódź","Subdistrict":"Bałuty","Street":"ulica Srebrna","HouseNumber":"31","PostalCode":"91-334","AdditionalData":[{"value":"Polska","key":"CountryName"},{"value":"Woj. Łódzkie","key":"StateName"},{"value":"Łódź","key":"CountyName"}]},"MapReference":{"ReferenceId":"595642203","Spot":0.24,"SideOfStreet":"right","CountryId":"20624059","StateId":"20625723","CountyId":"20625724","CityId":"20625725","DistrictId":"20646758","AddressId":"209974763","RoadLinkId":"95379488"}}},{"Relevance":1.0,"Distance":33.4,"MatchLevel":"street","MatchQuality":{"Country":1.0,"State":1.0,"County":1.0,"City":1.0,"District":1.0,"Subdistrict":1.0,"PostalCode":1.0},"Location":{"LocationId":"NT_iKXKWLrFkJMp0kWOjaeO0C_l_1199134125_L","LocationType":"point","DisplayPosition":{"Latitude":51.79396,"Longitude":19.43178},"MapView":{"TopLeft":{"Latitude":51.79396,"Longitude":19.43178},"BottomRight":{"Latitude":51.79357,"Longitude":19.43442}},"Address":{"Label":"91-335 Łódź, Polska","Country":"POL","State":"Woj. Łódzkie","County":"Łódź","City":"Łódź","District":"Łódź","Subdistrict":"Bałuty","PostalCode":"91-335","AdditionalData":[{"value":"Polska","key":"CountryName"},{"value":"Woj. Łódzkie","key":"StateName"},{"value":"Łódź","key":"CountyName"}]},"MapReference":{"ReferenceId":"1199134125","Spot":1.0,"SideOfStreet":"left","CountryId":"20624059","StateId":"20625723","CountyId":"20625724","CityId":"20625725","DistrictId":"20646758"}}},{"Relevance":1.0,"Distance":47.2,"MatchLevel":"street","MatchQuality":{"Country":1.0,"State":1.0,"County":1.0,"City":1.0,"District":1.0,"Subdistrict":1.0,"PostalCode":1.0},"Location":{"LocationId":"NT_iKXKWLrFkJMp0kWOjaeO0C_l_1199142388_L","LocationType":"point","DisplayPosition":{"Latitude":51.79413,"Longitude":19.43071},"MapView":{"TopLeft":{"Latitude":51.79421,"Longitude":19.43021},"BottomRight":{"Latitude":51.79413,"Longitude":19.43071}},"Address":{"Label":"91-335 Łódź, Polska","Country":"POL","State":"Woj. Łódzkie","County":"Łódź","City":"Łódź","District":"Łódź","Subdistrict":"Bałuty","PostalCode":"91-335","AdditionalData":[{"value":"Polska","key":"CountryName"},{"value":"Woj. Łódzkie","key":"StateName"},{"value":"Łódź","key":"CountyName"}]},"MapReference":{"ReferenceId":"1199142388","Spot":0.0,"SideOfStreet":"left","CountryId":"20624059","StateId":"20625723","CountyId":"20625724","CityId":"20625725","DistrictId":"20646758"}}},{"Relevance":1.0,"Distance":61.3,"MatchLevel":"houseNumber","MatchQuality":{"Country":1.0,"State":1.0,"County":1.0,"City":1.0,"District":1.0,"Subdistrict":1.0,"Street":[1.0],"HouseNumber":1.0,"PostalCode":1.0},"MatchType":"interpolated","Location":{"LocationId":"NT_eOVO.b40Q8V5vfEaG6QpQD_ykD","LocationType":"point","DisplayPosition":{"Latitude":51.79341,"Longitude":19.43196},"MapView":{"TopLeft":{"Latitude":51.7945342,"Longitude":19.4301425},"BottomRight":{"Latitude":51.7922858,"Longitude":19.4337775}},"Address":{"Label":"ulica Srebrna 29, 91-334 Łódź, Polska","Country":"POL","State":"Woj. Łódzkie","County":"Łódź","City":"Łódź","District":"Łódź","Subdistrict":"Bałuty","Street":"ulica Srebrna","HouseNumber":"29","PostalCode":"91-334","AdditionalData":[{"value":"Polska","key":"CountryName"},{"value":"Woj. Łódzkie","key":"StateName"},{"value":"Łódź","key":"CountyName"}]},"MapReference":{"ReferenceId":"595642221","Spot":0.88,"SideOfStreet":"right","CountryId":"20624059","StateId":"20625723","CountyId":"20625724","CityId":"20625725","DistrictId":"20646758","AddressId":"210675446","RoadLinkId":"95476689"}}},{"Relevance":1.0,"Distance":73.6,"MatchLevel":"houseNumber","MatchQuality":{"Country":1.0,"State":1.0,"County":1.0,"City":1.0,"District":1.0,"Subdistrict":1.0,"Street":[1.0],"HouseNumber":1.0,"PostalCode":1.0},"MatchType":"interpolated","Location":{"LocationId":"NT_dqGh7Oxl.UkisG-NyGN2OC_xgzLyID","LocationType":"point","DisplayPosition":{"Latitude":51.79451,"Longitude":19.43194},"MapView":{"TopLeft":{"Latitude":51.7956342,"Longitude":19.4301224},"BottomRight":{"Latitude":51.7933858,"Longitude":19.4337576}},"Address":{"Label":"ulica Hipoteczna 18/22, 91-335 Łódź, Polska","Country":"POL","State":"Woj. Łódzkie","County":"Łódź","City":"Łódź","District":"Łódź","Subdistrict":"Bałuty","Street":"ulica Hipoteczna","HouseNumber":"18/22","PostalCode":"91-335","AdditionalData":[{"value":"Polska","key":"CountryName"},{"value":"Woj. Łódzkie","key":"StateName"},{"value":"Łódź","key":"CountyName"}]},"MapReference":{"ReferenceId":"1199134526","Spot":0.65,"SideOfStreet":"left","CountryId":"20624059","StateId":"20625723","CountyId":"20625724","CityId":"20625725","DistrictId":"20646758","AddressId":"210343366","RoadLinkId":"510824690"}}},{"Relevance":1.0,"Distance":80.1,"MatchLevel":"houseNumber","MatchQuality":{"Country":1.0,"State":1.0,"County":1.0,"City":1.0,"District":1.0,"Subdistrict":1.0,"Street":[1.0],"HouseNumber":1.0,"PostalCode":1.0},"MatchType":"interpolated","Location":{"LocationId":"NT_55gPwN.meM22GZ7.4JdqJC_xED","LocationType":"point","DisplayPosition":{"Latitude":51.79412,"Longitude":19.42994},"MapView":{"TopLeft":{"Latitude":51.7952442,"Longitude":19.4281224},"BottomRight":{"Latitude":51.7929958,"Longitude":19.4317576}},"Address":{"Label":"ulica Franciszka Prożka 11, 91-335 Łódź, Polska","Country":"POL","State":"Woj. Łódzkie","County":"Łódź","City":"Łódź","District":"Łódź","Subdistrict":"Bałuty","Street":"ulica Franciszka Prożka","HouseNumber":"11","PostalCode":"91-335","AdditionalData":[{"value":"Polska","key":"CountryName"},{"value":"Woj. Łódzkie","key":"StateName"},{"value":"Łódź","key":"CountyName"}]},"MapReference":{"ReferenceId":"595642176","Spot":0.82,"SideOfStreet":"right","CountryId":"20624059","StateId":"20625723","CountyId":"20625724","CityId":"20625725","DistrictId":"20646758","AddressId":"210360465","RoadLinkId":"95723011"}}},{"Relevance":1.0,"Distance":81.9,"MatchLevel":"street","MatchQuality":{"Country":1.0,"State":1.0,"County":1.0,"City":1.0,"District":1.0,"Subdistrict":1.0,"PostalCode":1.0},"Location":{"LocationId":"NT_iKXKWLrFkJMp0kWOjaeO0C_l_1199142389_L","LocationType":"point","DisplayPosition":{"Latitude":51.79421,"Longitude":19.43021},"MapView":{"TopLeft":{"Latitude":51.79423,"Longitude":19.42998},"BottomRight":{"Latitude":51.79421,"Longitude":19.43021}},"Address":{"Label":"91-335 Łódź, Polska","Country":"POL","State":"Woj. Łódzkie","County":"Łódź","City":"Łódź","District":"Łódź","Subdistrict":"Bałuty","PostalCode":"91-335","AdditionalData":[{"value":"Polska","key":"CountryName"},{"value":"Woj. Łódzkie","key":"StateName"},{"value":"Łódź","key":"CountyName"}]},"MapReference":{"ReferenceId":"1199142389","Spot":0.0,"SideOfStreet":"left","CountryId":"20624059","StateId":"20625723","CountyId":"20625724","CityId":"20625725","DistrictId":"20646758"}}},{"Relevance":1.0,"Distance":83.3,"MatchLevel":"street","MatchQuality":{"Country":1.0,"State":1.0,"County":1.0,"City":1.0,"District":1.0,"Subdistrict":1.0,"PostalCode":1.0},"Location":{"LocationId":"NT_iKXKWLrFkJMp0kWOjaeO0C_l_1199142390_R","LocationType":"point","DisplayPosition":{"Latitude":51.79426,"Longitude":19.4302261},"MapView":{"TopLeft":{"Latitude":51.79511,"Longitude":19.43021},"BottomRight":{"Latitude":51.79421,"Longitude":19.4305}},"Address":{"Label":"91-335 Łódź, Polska","Country":"POL","State":"Woj. Łódzkie","County":"Łódź","City":"Łódź","District":"Łódź","Subdistrict":"Bałuty","PostalCode":"91-335","AdditionalData":[{"value":"Polska","key":"CountryName"},{"value":"Woj. Łódzkie","key":"StateName"},{"value":"Łódź","key":"CountyName"}]},"MapReference":{"ReferenceId":"1199142390","Spot":0.06,"SideOfStreet":"right","CountryId":"20624059","StateId":"20625723","CountyId":"20625724","CityId":"20625725","DistrictId":"20646758"}}}]}]}}