{"Response":{"MetaInfo":{"Timestamp":"2020-03-28T09:50:22.999+0000","NextPageInformation":"2"},"View":[{"_type":"SearchResultsViewType","ViewId":0,"Result":[{"Relevance":1.0,"Distance":0.0,"Direction":0.0,"MatchLevel":"district","MatchQuality":{"Country":1.0,"State":1.0,"County":1.0,"City":1.0,"District":1.0,"PostalCode":1.0},"Location":{"LocationId":"NT_03Qq.Vn.ive13ph3gVY.SD","LocationType":"point","DisplayPosition":{"Latitude":51.740914,"Longitude":-0.4503358},"MapView":{"TopLeft":{"Latitude":51.78228,"Longitude":-0.51056},"BottomRight":{"Latitude":51.72723,"Longitude":-0.42104}},"Address":{"Label":"Hemel Hempstead, England, United Kingdom","Country":"GBR","State":"England","County":"Hertfordshire","City":"Hemel Hempstead","District":"Hemel Hempstead","PostalCode":"HP1 1","AdditionalData":[{"value":"United Kingdom","key":"CountryName"},{"value":"England","key":"StateName"},{"value":"Hertfordshire","key":"CountyName"}]},"MapReference":{"ReferenceId":"1082559379","SideOfStreet":"neither","StateId":"20248595","CountyId":"20336428","CityId":"20336512","DistrictId":"20336513"}}},{"Relevance":1.0,"Distance":34.1,"MatchLevel":"postalCode","MatchQuality":{"PostalCode":1.0},"MatchType":"interpolated","Location":{"LocationId":"NT_KLjxTcYHI9Og1.q0cRQMwD_l_25789717_L_xYD","LocationType":"point","DisplayPosition":{"Latitude":51.74116,"Longitude":-0.45004},"MapView":{"TopLeft":{"Latitude":51.7501532,"Longitude":-0.4645636},"BottomRight":{"Latitude":51.7321668,"Longitude":-0.4355164}},"Address":{"Label":"HP3 9LY, Hemel Hempstead, England, United Kingdom","Country":"GBR","State":"England","County":"Hertfordshire","City":"Hemel Hempstead","PostalCode":"HP3 9LY","AdditionalData":[{"value":"United Kingdom","key":"CountryName"},{"value":"England","key":"StateName"},{"value":"Hertfordshire","key":"CountyName"}]},"MapReference":{"ReferenceId":"25789717","Spot":0.18,"SideOfStreet":"neither","StateId":"20248595","CountyId":"20336428","CityId":"20336512"}}},{"Relevance":1.0,"Distance":38.6,"MatchLevel":"houseNumber","MatchQuality":{"Country":1.0,"State":1.0,"County":1.0,"City":1.0,"District":1.0,"Street":[1.0],"HouseNumber":1.0,"PostalCode":1.0},"MatchType":"interpolated","Location":{"LocationId":"NT_KLjxTcYHI9Og1.q0cRQMwD_l_25789717_L_xYD","LocationType":"point","DisplayPosition":{"Latitude":51.7413201,"Longitude":-0.45014},"MapView":{"TopLeft":{"Latitude":51.7424443,"Longitude":-0.4519555},"BottomRight":{"Latitude":51.740196,"Longitude":-0.4483246}},"Address":{"Label":"16 Gatecroft, Hemel Hempstead, HP3 9NA, United Kingdom","Country":"GBR","State":"England","County":"Hertfordshire","City":"Hemel Hempstead","District":"Hemel Hempstead","Street":"Gatecroft","HouseNumber":"16","PostalCode":"HP3 9NA","AdditionalData":[{"value":"United Kingdom","key":"CountryName"},{"value":"England","key":"StateName"},{"value":"Hertfordshire","key":"CountyName"}]},"MapReference":{"ReferenceId":"25789717","Spot":0.18,"SideOfStreet":"left","StateId":"20248595","CountyId":"20336428","CityId":"20336512","DistrictId":"20336513"}}},{"Relevance":1.0,"Distance":82.2,"MatchLevel":"houseNumber","MatchQuality":{"Country":1.0,"State":1.0,"County":1.0,"City":1.0,"District":1.0,"Street":[1.0],"HouseNumber":1.0,"PostalCode":1.0},"MatchType":"interpolated","Location":{"LocationId":"NT_M9DMp4jBwf2K5KdgGtyg0C_l_25789967_L_2A","LocationType":"point","DisplayPosition":{"Latitude":51.7406175,"Longitude":-0.4490125},"MapView":{"TopLeft":{"Latitude":51.7417417,"Longitude":-0.4508279},"BottomRight":{"Latitude":51.7394934,"Longitude":-0.4471971}},"Address":{"Label":"6 Candlefield Road, Hemel Hempstead, HP3 9UW, United Kingdom","Country":"GBR","State":"England","County":"Hertfordshire","City":"Hemel Hempstead","District":"Hemel Hempstead","Street":"Candlefield Road","HouseNumber":"6","PostalCode":"HP3 9UW","AdditionalData":[{"value":"United Kingdom","key":"CountryName"},{"value":"England","key":"StateName"},{"value":"Hertfordshire","key":"CountyName"}]},"MapReference":{"ReferenceId":"25789967","Spot":0.64,"SideOfStreet":"left","StateId":"20248595","CountyId":"20336428","CityId":"20336512","DistrictId":"20336513"}}},{"Relevance":1.0,"Distance":86.4,"MatchLevel":"houseNumber","MatchQuality":{"Country":1.0,"State":1.0,"County":1.0,"City":1.0,"District":1.0,"Street":[1.0],"HouseNumber":1.0,"PostalCode":1.0},"MatchType":"interpolated","Location":{"LocationId":"NT_evN0m4mdwLbYFJXHpEdK0C_l_25789821_L_0A","LocationType":"point","DisplayPosition":{"Latitude":51.7409,"Longitude":-0.44892},"MapView":{"TopLeft":{"Latitude":51.7420242,"Longitude":-0.4507354},"BottomRight":{"Latitude":51.7397759,"Longitude":-0.4471046}},"Address":{"Label":"4 Candlefield Road, Hemel Hempstead, HP3 8, United Kingdom","Country":"GBR","State":"England","County":"Hertfordshire","City":"Hemel Hempstead","District":"Hemel Hempstead","Street":"Candlefield Road","HouseNumber":"4","PostalCode":"HP3 8","AdditionalData":[{"value":"United Kingdom","key":"CountryName"},{"value":"England","key":"StateName"},{"value":"Hertfordshire","key":"CountyName"}]},"MapReference":{"ReferenceId":"25789821","Spot":0.18,"SideOfStreet":"left","StateId":"20248595","CountyId":"20336428","CityId":"20336512","DistrictId":"20336513"}}},{"Relevance":1.0,"Distance":92.7,"MatchLevel":"houseNumber","MatchQuality":{"Country":1.0,"State":1.0,"County":1.0,"City":1.0,"District":1.0,"Street":[1.0],"HouseNumber":1.0,"PostalCode":1.0},"MatchType":"interpolated","Location":{"LocationId":"NT_zrnX18l4vN3NYvsLkHGVJA_l_25790054_R_xYD","LocationType":"point","DisplayPosition":{"Latitude":51.7401038,"Longitude":-0.4495863},"MapView":{"TopLeft":{"Latitude":51.7412279,"Longitude":-0.4514017},"BottomRight":{"Latitude":51.7389796,"Longitude":-0.4477709}},"Address":{"Label":"16 Candlefield Close, Hemel Hempstead, HP3 9UP, United Kingdom","Country":"GBR","State":"England","County":"Hertfordshire","City":"Hemel Hempstead","District":"Hemel Hempstead","Street":"Candlefield Close","HouseNumber":"16","PostalCode":"HP3 9UP","AdditionalData":[{"value":"United Kingdom","key":"CountryName"},{"value":"England","key":"StateName"},{"value":"Hertfordshire","key":"CountyName"}]},"MapReference":{"ReferenceId":"25790054","Spot":0.61,"SideOfStreet":"right","StateId":"20248595","CountyId":"20336428","CityId":"20336512","DistrictId":"20336513"}}},{"Relevance":1.0,"Distance":99.0,"MatchLevel":"postalCode","MatchQuality":{"PostalCode":1.0},"MatchType":"interpolated","Location":{"LocationId":"NT_zrnX18l4vN3NYvsLkHGVJA_l_25790054_R_xYD","LocationType":"point","DisplayPosition":{"Latitude":51.74016,"Longitude":-0.44957},"MapView":{"TopLeft":{"Latitude":51.7491532,"Longitude":-0.4640933},"BottomRight":{"Latitude":51.7311668,"Longitude":-0.4350467}},"Address":{"Label":"HP3 9UP, Hemel Hempstead, England, United Kingdom","Country":"GBR","State":"England","County":"Hertfordshire","City":"Hemel Hempstead","PostalCode":"HP3 9UP","AdditionalData":[{"value":"United Kingdom","key":"CountryName"},{"value":"England","key":"StateName"},{"value":"Hertfordshire","key":"CountyName"}]},"MapReference":{"ReferenceId":"25790054","Spot":0.61,"SideOfStreet":"neither","StateId":"20248595","CountyId":"20336428","CityId":"20336512"}}},{"Relevance":1.0,"Distance":104.6,"MatchLevel":"street","MatchQuality":{"Country":1.0,"State":1.0,"County":1.0,"City":1.0,"District":1.0,"Street":[1.0],"PostalCode":1.0},"Location":{"LocationId":"NT_TQ614UusCtGvg9oqohP8RB_l_25789605_R","LocationType":"point","DisplayPosition":{"Latitude":51.74166,"Longitude":-0.44941},"MapView":{"TopLeft":{"Latitude":51.74199,"Longitude":-0.44941},"BottomRight":{"Latitude":51.74166,"Longitude":-0.44859}},"Address":{"Label":"Bennetts Gate, Hemel Hempstead, HP3 8, United Kingdom","Country":"GBR","State":"England","County":"Hertfordshire","City":"Hemel Hempstead","District":"Hemel Hempstead","Street":"Bennetts Gate","PostalCode":"HP3 8","AdditionalData":[{"value":"United Kingdom","key":"CountryName"},{"value":"England","key":"StateName"},{"value":"Hertfordshire","key":"CountyName"}]},"MapReference":{"ReferenceId":"25789605","Spot":0.0,"SideOfStreet":"right","StateId":"20248595","CountyId":"20336428","CityId":"20336512","DistrictId":"20336513"}}},{"Relevance":1.0,"Distance":104.6,"MatchLevel":"street","MatchQuality":{"Country":1.0,"State":1.0,"County":1.0,"City":1.0,"District":1.0,"Street":[1.0],"PostalCode":1.0},"Location":{"LocationId":"NT_CNfnc7qd0l8KJIinG5gzRD_l_25789656_L","LocationType":"point","DisplayPosition":{"Latitude":51.74166,"Longitude":-0.44941},"MapView":{"TopLeft":{"Latitude":51.74166,"Longitude":-0.44941},"BottomRight":{"Latitude":51.74151,"Longitude":-0.44894}},"Address":{"Label":"Leys Road, Hemel Hempstead, HP3 9, United Kingdom","Country":"GBR","State":"England","County":"Hertfordshire","City":"Hemel Hempstead","District":"Hemel Hempstead","Street":"Leys Road","PostalCode":"HP3 9","AdditionalData":[{"value":"United Kingdom","key":"CountryName"},{"value":"England","key":"StateName"},{"value":"Hertfordshire","key":"CountyName"}]},"MapReference":{"ReferenceId":"25789656","Spot":1.0,"SideOfStreet":"left","StateId":"20248595","CountyId":"20336428","CityId":"20336512","DistrictId":"20336513"}}},{"Relevance":1.0,"Distance":104.7,"MatchLevel":"houseNumber","MatchQuality":{"Country":1.0,"State":1.0,"County":1.0,"City":1.0,"District":1.0,"Street":[1.0],"HouseNumber":1.0,"PostalCode":1.0},"MatchType":"interpolated","Location":{"LocationId":"NT_M9DMp4jBwf2K5KdgGtyg0C_l_25790053_L_yID","LocationType":"point","DisplayPosition":{"Latitude":51.74016,"Longitude":-0.44911},"MapView":{"TopLeft":{"Latitude":51.7412842,"Longitude":-0.4509254},"BottomRight":{"Latitude":51.7390359,"Longitude":-0.4472946}},"Address":{"Label":"22 Candlefield Road, Hemel Hempstead, HP3 9UW, United Kingdom","Country":"GBR","State":"England","County":"Hertfordshire","City":"Hemel Hempstead","District":"Hemel Hempstead","Street":"Candlefield Road","HouseNumber":"22","PostalCode":"HP3 9UW","AdditionalData":[{"value":"United Kingdom","key":"CountryName"},{"value":"England","key":"StateName"},{"value":"Hertfordshire","key":"CountyName"}]},"MapReference":{"ReferenceId":"25790053","Spot":0.51,"SideOfStreet":"left","StateId":"20248595","CountyId":"20336428","CityId":"20336512","DistrictId":"20336513"}}}]}]}}