{"Response":{"MetaInfo":{"Timestamp":"2020-03-28T11:17:30.942+0000","NextPageInformation":"2"},"View":[{"_type":"SearchResultsViewType","ViewId":0,"Result":[{"Relevance":1.0,"Distance":-197.5,"MatchLevel":"landmark","MatchQuality":{"Country":1.0,"State":1.0,"County":1.0,"City":1.0,"District":1.0,"PostalCode":1.0,"Name":1.0},"Location":{"LocationId":"NT_uvJ9n2y-RB9RcvRSvTU3nC_p_Iy--KUdHGoEJ7uLzYftzsB","LocationType":"park","Name":"Llanarth Court","DisplayPosition":{"Latitude":51.78776,"Longitude":-2.89338},"MapView":{"TopLeft":{"Latitude":51.7962,"Longitude":-2.91217},"BottomRight":{"Latitude":51.78275,"Longitude":-2.89093}},"Address":{"Label":"Raglan, NP15 2, United Kingdom","Country":"GBR","State":"Wales","County":"Gwent","City":"Raglan","District":"Great Oak","PostalCode":"NP15 2","AdditionalData":[{"value":"United Kingdom","key":"CountryName"},{"value":"Wales","key":"StateName"},{"value":"Gwent","key":"CountyName"}]},"MapReference":{"StateId":"20287683","CountyId":"20341601","CityId":"20341842","DistrictId":"20341845","PlaceId":"1144005291"}}},{"Relevance":1.0,"Distance":0.0,"Direction":0.0,"MatchLevel":"postalCode","MatchQuality":{"Country":1.0,"State":1.0,"PostalCode":1.0},"Location":{"LocationId":"NT_-443ur.8QWjsGe4qfmqKMD","LocationType":"point","DisplayPosition":{"Latitude":51.7926266,"Longitude":-2.8974964},"MapView":{"TopLeft":{"Latitude":53.43583,"Longitude":-5.41386},"BottomRight":{"Latitude":51.38116,"Longitude":-2.64983}},"Address":{"Label":"NP15 2, Wales, United Kingdom","Country":"GBR","State":"Wales","PostalCode":"NP15 2","AdditionalData":[{"value":"United Kingdom","key":"CountryName"},{"value":"Wales","key":"StateName"}]},"MapReference":{"ReferenceId":"811292273","SideOfStreet":"neither","StateId":"20287683"}}},{"Relevance":1.0,"Distance":56.7,"MatchLevel":"street","MatchQuality":{"Country":1.0,"State":1.0,"County":1.0,"City":1.0,"District":1.0,"PostalCode":1.0},"Location":{"LocationId":"NT_y8KCNRg1XAhT26uOPWgQeC_l_1039532997_R","LocationType":"point","DisplayPosition":{"Latitude":51.79212,"Longitude":-2.8974},"MapView":{"TopLeft":{"Latitude":51.79212,"Longitude":-2.89832},"BottomRight":{"Latitude":51.79155,"Longitude":-2.89733}},"Address":{"Label":"Raglan, NP15 2, United Kingdom","Country":"GBR","State":"Wales","County":"Gwent","City":"Raglan","District":"Llanarth","PostalCode":"NP15 2","AdditionalData":[{"value":"United Kingdom","key":"CountryName"},{"value":"Wales","key":"StateName"},{"value":"Gwent","key":"CountyName"}]},"MapReference":{"ReferenceId":"1039532997","Spot":1.0,"SideOfStreet":"right","StateId":"20287683","CountyId":"20341601","CityId":"20341842","DistrictId":"20341846"}}},{"Relevance":1.0,"Distance":107.0,"MatchLevel":"street","MatchQuality":{"Country":1.0,"State":1.0,"County":1.0,"City":1.0,"District":1.0,"PostalCode":1.0},"Location":{"LocationId":"NT_y8KCNRg1XAhT26uOPWgQeC_l_1039532998_R","LocationType":"point","DisplayPosition":{"Latitude":51.7919165,"Longitude":-2.8985474},"MapView":{"TopLeft":{"Latitude":51.79195,"Longitude":-2.89857},"BottomRight":{"Latitude":51.79158,"Longitude":-2.89832}},"Address":{"Label":"Raglan, NP15 2, United Kingdom","Country":"GBR","State":"Wales","County":"Gwent","City":"Raglan","District":"Llanarth","PostalCode":"NP15 2","AdditionalData":[{"value":"United Kingdom","key":"CountryName"},{"value":"Wales","key":"StateName"},{"value":"Gwent","key":"CountyName"}]},"MapReference":{"ReferenceId":"1039532998","Spot":0.91,"SideOfStreet":"right","StateId":"20287683","CountyId":"20341601","CityId":"20341842","DistrictId":"20341846"}}},{"Relevance":1.0,"Distance":129.4,"MatchLevel":"street","MatchQuality":{"Country":1.0,"State":1.0,"County":1.0,"City":1.0,"District":1.0,"PostalCode":1.0},"Location":{"LocationId":"NT_y8KCNRg1XAhT26uOPWgQeC_l_1039533002_L","LocationType":"point","DisplayPosition":{"Latitude":51.79158,"Longitude":-2.89832},"MapView":{"TopLeft":{"Latitude":51.79158,"Longitude":-2.8988},"BottomRight":{"Latitude":51.79123,"Longitude":-2.89832}},"Address":{"Label":"Raglan, NP15 2, United Kingdom","Country":"GBR","State":"Wales","County":"Gwent","City":"Raglan","District":"Llanarth","PostalCode":"NP15 2","AdditionalData":[{"value":"United Kingdom","key":"CountryName"},{"value":"Wales","key":"StateName"},{"value":"Gwent","key":"CountyName"}]},"MapReference":{"ReferenceId":"1039533002","Spot":1.0,"SideOfStreet":"left","StateId":"20287683","CountyId":"20341601","CityId":"20341842","DistrictId":"20341846"}}},{"Relevance":1.0,"Distance":176.7,"MatchLevel":"street","MatchQuality":{"Country":1.0,"State":1.0,"County":1.0,"City":1.0,"District":1.0,"PostalCode":1.0},"Location":{"LocationId":"NT_y8KCNRg1XAhT26uOPWgQeC_l_1039533003_R","LocationType":"point","DisplayPosition":{"Latitude":51.79118,"Longitude":-2.89856},"MapView":{"TopLeft":{"Latitude":51.79123,"Longitude":-2.8988},"BottomRight":{"Latitude":51.78995,"Longitude":-2.89807}},"Address":{"Label":"Raglan, NP15 2, United Kingdom","Country":"GBR","State":"Wales","County":"Gwent","City":"Raglan","District":"Llanarth","PostalCode":"NP15 2","AdditionalData":[{"value":"United Kingdom","key":"CountryName"},{"value":"Wales","key":"StateName"},{"value":"Gwent","key":"CountyName"}]},"MapReference":{"ReferenceId":"1039533003","Spot":0.88,"SideOfStreet":"right","StateId":"20287683","CountyId":"20341601","CityId":"20341842","DistrictId":"20341846"}}},{"Relevance":1.0,"Distance":179.3,"MatchLevel":"street","MatchQuality":{"Country":1.0,"State":1.0,"County":1.0,"City":1.0,"District":1.0,"PostalCode":1.0},"Location":{"LocationId":"NT_y8KCNRg1XAhT26uOPWgQeC_l_1039533001_L","LocationType":"point","DisplayPosition":{"Latitude":51.79123,"Longitude":-2.8988},"MapView":{"TopLeft":{"Latitude":51.79123,"Longitude":-2.89983},"BottomRight":{"Latitude":51.79025,"Longitude":-2.8988}},"Address":{"Label":"Raglan, NP15 2, United Kingdom","Country":"GBR","State":"Wales","County":"Gwent","City":"Raglan","District":"Llanarth","PostalCode":"NP15 2","AdditionalData":[{"value":"United Kingdom","key":"CountryName"},{"value":"Wales","key":"StateName"},{"value":"Gwent","key":"CountyName"}]},"MapReference":{"ReferenceId":"1039533001","Spot":1.0,"SideOfStreet":"left","StateId":"20287683","CountyId":"20341601","CityId":"20341842","DistrictId":"20341846"}}},{"Relevance":1.0,"Distance":309.2,"MatchLevel":"street","MatchQuality":{"Country":1.0,"State":1.0,"County":1.0,"City":1.0,"District":1.0,"PostalCode":1.0},"Location":{"LocationId":"NT_y8KCNRg1XAhT26uOPWgQeC_l_1039533005_R","LocationType":"point","DisplayPosition":{"Latitude":51.79025,"Longitude":-2.89983},"MapView":{"TopLeft":{"Latitude":51.79025,"Longitude":-2.91194},"BottomRight":{"Latitude":51.78629,"Longitude":-2.89983}},"Address":{"Label":"Raglan, NP15 2, United Kingdom","Country":"GBR","State":"Wales","County":"Gwent","City":"Raglan","District":"Llanarth","PostalCode":"NP15 2","AdditionalData":[{"value":"United Kingdom","key":"CountryName"},{"value":"Wales","key":"StateName"},{"value":"Gwent","key":"CountyName"}]},"MapReference":{"ReferenceId":"1039533005","Spot":1.0,"SideOfStreet":"right","StateId":"20287683","CountyId":"20341601","CityId":"20341842","DistrictId":"20341846"}}},{"Relevance":1.0,"Distance":309.2,"MatchLevel":"street","MatchQuality":{"Country":1.0,"State":1.0,"County":1.0,"City":1.0,"District":1.0,"PostalCode":1.0},"Location":{"LocationId":"NT_y8KCNRg1XAhT26uOPWgQeC_l_1039532996_R","LocationType":"point","DisplayPosition":{"Latitude":51.79025,"Longitude":-2.89983},"MapView":{"TopLeft":{"Latitude":51.79344,"Longitude":-2.9056},"BottomRight":{"Latitude":51.79025,"Longitude":-2.89983}},"Address":{"Label":"Raglan, NP15 2, United Kingdom","Country":"GBR","State":"Wales","County":"Gwent","City":"Raglan","District":"Llanarth","PostalCode":"NP15 2","AdditionalData":[{"value":"United Kingdom","key":"CountryName"},{"value":"Wales","key":"StateName"},{"value":"Gwent","key":"CountyName"}]},"MapReference":{"ReferenceId":"1039532996","Spot":0.0,"SideOfStreet":"right","StateId":"20287683","CountyId":"20341601","CityId":"20341842","DistrictId":"20341846"}}},{"Relevance":1.0,"Distance":309.9,"MatchLevel":"street","MatchQuality":{"Country":1.0,"State":1.0,"County":1.0,"City":1.0,"District":1.0,"PostalCode":1.0},"Location":{"LocationId":"NT_y8KCNRg1XAhT26uOPWgQeC_l_1039533000_R","LocationType":"point","DisplayPosition":{"Latitude":51.78995,"Longitude":-2.89875},"MapView":{"TopLeft":{"Latitude":51.79025,"Longitude":-2.89983},"BottomRight":{"Latitude":51.7899,"Longitude":-2.89875}},"Address":{"Label":"Raglan, NP15 2, United Kingdom","Country":"GBR","State":"Wales","County":"Gwent","City":"Raglan","District":"Llanarth","PostalCode":"NP15 2","AdditionalData":[{"value":"United Kingdom","key":"CountryName"},{"value":"Wales","key":"StateName"},{"value":"Gwent","key":"CountyName"}]},"MapReference":{"ReferenceId":"1039533000","Spot":0.0,"SideOfStreet":"right","StateId":"20287683","CountyId":"20341601","CityId":"20341842","DistrictId":"20341846"}}}]}]}}