{"Response":{"MetaInfo":{"Timestamp":"2020-03-28T11:18:10.174+0000","NextPageInformation":"2"},"View":[{"_type":"SearchResultsViewType","ViewId":0,"Result":[{"Relevance":1.0,"Distance":0.0,"Direction":0.0,"MatchLevel":"district","MatchQuality":{"Country":1.0,"State":1.0,"County":1.0,"City":1.0,"District":1.0,"PostalCode":1.0},"Location":{"LocationId":"NT_4F24Ggn0RkKMiKmiCaY49A","LocationType":"point","DisplayPosition":{"Latitude":51.755766,"Longitude":-1.207889},"MapView":{"TopLeft":{"Latitude":51.78114,"Longitude":-1.2311},"BottomRight":{"Latitude":51.74025,"Longitude":-1.15574}},"Address":{"Label":"Headington, Oxford, England, United Kingdom","Country":"GBR","State":"England","County":"Oxfordshire","City":"Oxford","District":"Headington","PostalCode":"OX3 7","AdditionalData":[{"value":"United Kingdom","key":"CountryName"},{"value":"England","key":"StateName"},{"value":"Oxfordshire","key":"CountyName"}]},"MapReference":{"ReferenceId":"762451560","SideOfStreet":"neither","StateId":"20248595","CountyId":"20337811","CityId":"20338152","DistrictId":"20338173"}}},{"Relevance":1.0,"Distance":9.8,"MatchLevel":"postalCode","MatchQuality":{"PostalCode":1.0},"MatchType":"interpolated","Location":{"LocationId":"NT_hzD1FMB7v2SVeT5hAfb5iB_l_25787896_L_5AD","LocationType":"point","DisplayPosition":{"Latitude":51.75571,"Longitude":-1.20778},"MapView":{"TopLeft":{"Latitude":51.7647032,"Longitude":-1.2223083},"BottomRight":{"Latitude":51.7467168,"Longitude":-1.1932517}},"Address":{"Label":"OX3 7DR, Oxford, England, United Kingdom","Country":"GBR","State":"England","County":"Oxfordshire","City":"Oxford","PostalCode":"OX3 7DR","AdditionalData":[{"value":"United Kingdom","key":"CountryName"},{"value":"England","key":"StateName"},{"value":"Oxfordshire","key":"CountyName"}]},"MapReference":{"ReferenceId":"25787896","Spot":0.51,"SideOfStreet":"neither","StateId":"20248595","CountyId":"20337811","CityId":"20338152"}}},{"Relevance":1.0,"Distance":21.3,"MatchLevel":"houseNumber","MatchQuality":{"Country":1.0,"State":1.0,"County":1.0,"City":1.0,"District":1.0,"Street":[1.0],"HouseNumber":1.0,"PostalCode":1.0},"MatchType":"interpolated","Location":{"LocationId":"NT_F-JCJzLH9Xz22d5EGH0RIC_l_25787744_R_xA","LocationType":"point","DisplayPosition":{"Latitude":51.755958,"Longitude":-1.2082232},"MapView":{"TopLeft":{"Latitude":51.7570822,"Longitude":-1.2100393},"BottomRight":{"Latitude":51.7548339,"Longitude":-1.2064072}},"Address":{"Label":"1 Mattock Close, Oxford, OX3 7AH, United Kingdom","Country":"GBR","State":"England","County":"Oxfordshire","City":"Oxford","District":"Headington","Street":"Mattock Close","HouseNumber":"1","PostalCode":"OX3 7AH","AdditionalData":[{"value":"United Kingdom","key":"CountryName"},{"value":"England","key":"StateName"},{"value":"Oxfordshire","key":"CountyName"}]},"MapReference":{"ReferenceId":"25787744","Spot":0.82,"SideOfStreet":"right","StateId":"20248595","CountyId":"20337811","CityId":"20338152","DistrictId":"20338173"}}},{"Relevance":1.0,"Distance":24.1,"MatchLevel":"houseNumber","MatchQuality":{"Country":1.0,"State":1.0,"County":1.0,"City":1.0,"District":1.0,"Street":[1.0],"HouseNumber":1.0,"PostalCode":1.0},"MatchType":"interpolated","Location":{"LocationId":"NT_hzD1FMB7v2SVeT5hAfb5iB_l_25787896_L_5AD","LocationType":"point","DisplayPosition":{"Latitude":51.7556062,"Longitude":-1.2076515},"MapView":{"TopLeft":{"Latitude":51.7567303,"Longitude":-1.2094675},"BottomRight":{"Latitude":51.754482,"Longitude":-1.2058354}},"Address":{"Label":"90 Windmill Road, Oxford, OX3 7BZ, United Kingdom","Country":"GBR","State":"England","County":"Oxfordshire","City":"Oxford","District":"Headington","Street":"Windmill Road","HouseNumber":"90","PostalCode":"OX3 7BZ","AdditionalData":[{"value":"United Kingdom","key":"CountryName"},{"value":"England","key":"StateName"},{"value":"Oxfordshire","key":"CountyName"}]},"MapReference":{"ReferenceId":"25787896","Spot":0.51,"SideOfStreet":"left","StateId":"20248595","CountyId":"20337811","CityId":"20338152","DistrictId":"20338173"}}},{"Relevance":1.0,"Distance":32.0,"MatchLevel":"houseNumber","MatchQuality":{"Country":1.0,"State":1.0,"County":1.0,"City":1.0,"District":1.0,"Street":[1.0],"HouseNumber":1.0,"PostalCode":1.0},"MatchType":"interpolated","Location":{"LocationId":"NT_-JpnaQpmDgcN-k6iu9DzxC_l_25787657_R_xEzM","LocationType":"point","DisplayPosition":{"Latitude":51.75605,"Longitude":-1.20796},"MapView":{"TopLeft":{"Latitude":51.7571742,"Longitude":-1.2097761},"BottomRight":{"Latitude":51.7549259,"Longitude":-1.206144}},"Address":{"Label":"113 Windmill Road, Oxford, OX3 7DN, United Kingdom","Country":"GBR","State":"England","County":"Oxfordshire","City":"Oxford","District":"Headington","Street":"Windmill Road","HouseNumber":"113","PostalCode":"OX3 7DN","AdditionalData":[{"value":"United Kingdom","key":"CountryName"},{"value":"England","key":"StateName"},{"value":"Oxfordshire","key":"CountyName"}]},"MapReference":{"ReferenceId":"25787657","Spot":0.0,"SideOfStreet":"right","StateId":"20248595","CountyId":"20337811","CityId":"20338152","DistrictId":"20338173"}}},{"Relevance":1.0,"Distance":42.4,"MatchLevel":"houseNumber","MatchQuality":{"Country":1.0,"State":1.0,"County":1.0,"City":1.0,"District":1.0,"Street":[1.0],"HouseNumber":1.0,"PostalCode":1.0},"MatchType":"interpolated","Location":{"LocationId":"NT_dTwG6l4y518goqJxHDfvNB_l_25787627_R_yA","LocationType":"point","DisplayPosition":{"Latitude":51.75628,"Longitude":-1.2078799},"MapView":{"TopLeft":{"Latitude":51.7574042,"Longitude":-1.209696},"BottomRight":{"Latitude":51.7551559,"Longitude":-1.2060639}},"Address":{"Label":"2 Margaret Road, Oxford, OX3 8NG, United Kingdom","Country":"GBR","State":"England","County":"Oxfordshire","City":"Oxford","District":"Headington","Street":"Margaret Road","HouseNumber":"2","PostalCode":"OX3 8NG","AdditionalData":[{"value":"United Kingdom","key":"CountryName"},{"value":"England","key":"StateName"},{"value":"Oxfordshire","key":"CountyName"}]},"MapReference":{"ReferenceId":"25787627","Spot":0.11,"SideOfStreet":"right","StateId":"20248595","CountyId":"20337811","CityId":"20338152","DistrictId":"20338173"}}},{"Relevance":1.0,"Distance":46.6,"MatchLevel":"houseNumber","MatchQuality":{"Country":1.0,"State":1.0,"County":1.0,"City":1.0,"District":1.0,"Street":[1.0],"HouseNumber":1.0,"PostalCode":1.0},"MatchType":"interpolated","Location":{"LocationId":"NT_hzD1FMB7v2SVeT5hAfb5iB_l_1022235437_L_4gD","LocationType":"point","DisplayPosition":{"Latitude":51.75623,"Longitude":-1.20809},"MapView":{"TopLeft":{"Latitude":51.7573542,"Longitude":-1.2099061},"BottomRight":{"Latitude":51.7551059,"Longitude":-1.206274}},"Address":{"Label":"88 Windmill Road, Oxford, OX3 7BZ, United Kingdom","Country":"GBR","State":"England","County":"Oxfordshire","City":"Oxford","District":"Headington","Street":"Windmill Road","HouseNumber":"88","PostalCode":"OX3 7BZ","AdditionalData":[{"value":"United Kingdom","key":"CountryName"},{"value":"England","key":"StateName"},{"value":"Oxfordshire","key":"CountyName"}]},"MapReference":{"ReferenceId":"1022235437","Spot":0.0,"SideOfStreet":"left","StateId":"20248595","CountyId":"20337811","CityId":"20338152","DistrictId":"20338173"}}},{"Relevance":1.0,"Distance":69.6,"MatchLevel":"houseNumber","MatchQuality":{"Country":1.0,"State":1.0,"County":1.0,"City":1.0,"District":1.0,"Street":[1.0],"HouseNumber":1.0,"PostalCode":1.0},"MatchType":"interpolated","Location":{"LocationId":"NT_GozFwaT2vWzKl4vTmKGrRD_l_25787895_L_yA","LocationType":"point","DisplayPosition":{"Latitude":51.75521,"Longitude":-1.2071099},"MapView":{"TopLeft":{"Latitude":51.7563342,"Longitude":-1.2089259},"BottomRight":{"Latitude":51.7540859,"Longitude":-1.2052939}},"Address":{"Label":"2 Gathorne Road, Oxford, OX3 8NF, United Kingdom","Country":"GBR","State":"England","County":"Oxfordshire","City":"Oxford","District":"Headington","Street":"Gathorne Road","HouseNumber":"2","PostalCode":"OX3 8NF","AdditionalData":[{"value":"United Kingdom","key":"CountryName"},{"value":"England","key":"StateName"},{"value":"Oxfordshire","key":"CountyName"}]},"MapReference":{"ReferenceId":"25787895","Spot":0.11,"SideOfStreet":"left","StateId":"20248595","CountyId":"20337811","CityId":"20338152","DistrictId":"20338173"}}},{"Relevance":1.0,"Distance":82.7,"MatchLevel":"houseNumber","MatchQuality":{"Country":1.0,"State":1.0,"County":1.0,"City":1.0,"District":1.0,"Street":[1.0],"HouseNumber":1.0,"PostalCode":1.0},"MatchType":"interpolated","Location":{"LocationId":"NT_-JpnaQpmDgcN-k6iu9DzxC_l_1022235438_L_4QD","LocationType":"point","DisplayPosition":{"Latitude":51.75653,"Longitude":-1.2083},"MapView":{"TopLeft":{"Latitude":51.7576542,"Longitude":-1.2101161},"BottomRight":{"Latitude":51.7554059,"Longitude":-1.206484}},"Address":{"Label":"84 Windmill Road, Oxford, OX3 7BZ, United Kingdom","Country":"GBR","State":"England","County":"Oxfordshire","City":"Oxford","District":"Headington","Street":"Windmill Road","HouseNumber":"84","PostalCode":"OX3 7BZ","AdditionalData":[{"value":"United Kingdom","key":"CountryName"},{"value":"England","key":"StateName"},{"value":"Oxfordshire","key":"CountyName"}]},"MapReference":{"ReferenceId":"1022235438","Spot":0.25,"SideOfStreet":"left","StateId":"20248595","CountyId":"20337811","CityId":"20338152","DistrictId":"20338173"}}},{"Relevance":1.0,"Distance":89.1,"MatchLevel":"postalCode","MatchQuality":{"PostalCode":1.0},"MatchType":"interpolated","Location":{"LocationId":"NT_F-JCJzLH9Xz22d5EGH0RIC_l_25787744_R_xA","LocationType":"point","DisplayPosition":{"Latitude":51.75592,"Longitude":-1.20916},"MapView":{"TopLeft":{"Latitude":51.7649132,"Longitude":-1.2236883},"BottomRight":{"Latitude":51.7469268,"Longitude":-1.1946317}},"Address":{"Label":"OX3 7AH, Oxford, England, United Kingdom","Country":"GBR","State":"England","County":"Oxfordshire","City":"Oxford","PostalCode":"OX3 7AH","AdditionalData":[{"value":"United Kingdom","key":"CountryName"},{"value":"England","key":"StateName"},{"value":"Oxfordshire","key":"CountyName"}]},"MapReference":{"ReferenceId":"25787744","Spot":0.82,"SideOfStreet":"neither","StateId":"20248595","CountyId":"20337811","CityId":"20338152"}}}]}]}}