{"Response":{"MetaInfo":{"Timestamp":"2020-03-28T11:32:09.340+0000","NextPageInformation":"2"},"View":[{"_type":"SearchResultsViewType","ViewId":0,"Result":[{"Relevance":1.0,"Distance":-17.0,"MatchLevel":"landmark","MatchQuality":{"Country":1.0,"State":1.0,"County":1.0,"City":1.0,"District":1.0,"Subdistrict":1.0,"Street":[1.0],"HouseNumber":1.0,"PostalCode":1.0,"Name":1.0},"Location":{"LocationId":"NT_Ya1beIfSQt8O5PUEgvUzIC_p_zzoU0RxuI7ECO2O1w4pbZA","LocationType":"hospital","Name":"Szpital Kliniczny nr 2 im. WAM","DisplayPosition":{"Latitude":51.75921,"Longitude":19.44802},"MapView":{"TopLeft":{"Latitude":51.7603342,"Longitude":19.4462038},"BottomRight":{"Latitude":51.7580858,"Longitude":19.4498362}},"Address":{"Label":"ulica Stefana Żeromskiego 113, 90-549 Łódź, Polska","Country":"POL","State":"Woj. Łódzkie","County":"Łódź","City":"Łódź","District":"Łódź","Subdistrict":"Polesie","Street":"ulica Stefana Żeromskiego","HouseNumber":"113","PostalCode":"90-549","AdditionalData":[{"value":"Polska","key":"CountryName"},{"value":"Woj. Łódzkie","key":"StateName"},{"value":"Łódź","key":"CountyName"}]},"MapReference":{"CountryId":"20624059","StateId":"20625723","CountyId":"20625724","CityId":"20625725","DistrictId":"20646758","PlaceId":"1005088053"}}},{"Relevance":1.0,"Distance":0.0,"Direction":0.0,"MatchLevel":"district","MatchQuality":{"Country":1.0,"State":1.0,"County":1.0,"City":1.0,"District":1.0,"Subdistrict":1.0,"PostalCode":1.0},"Location":{"LocationId":"NT_qyTd-4FU7196LoUV8FShNC","LocationType":"point","DisplayPosition":{"Latitude":51.7592927,"Longitude":19.4477591},"MapView":{"TopLeft":{"Latitude":51.80442,"Longitude":19.35275},"BottomRight":{"Latitude":51.70955,"Longitude":19.45354}},"Address":{"Label":"Polesie, Łódź, Woj. Łódzkie, Polska","Country":"POL","State":"Woj. Łódzkie","County":"Łódź","City":"Łódź","District":"Łódź","Subdistrict":"Polesie","PostalCode":"90-563","AdditionalData":[{"value":"Polska","key":"CountryName"},{"value":"Woj. Łódzkie","key":"StateName"},{"value":"Łódź","key":"CountyName"}]},"MapReference":{"ReferenceId":"855856050","SideOfStreet":"neither","CountryId":"20624059","StateId":"20625723","CountyId":"20625724","CityId":"20625725","DistrictId":"20646758"}}},{"Relevance":1.0,"Distance":12.1,"MatchLevel":"houseNumber","MatchQuality":{"Country":1.0,"State":1.0,"County":1.0,"City":1.0,"District":1.0,"Subdistrict":1.0,"Street":[1.0],"HouseNumber":1.0,"PostalCode":1.0},"MatchType":"interpolated","Location":{"LocationId":"NT_D8h.w1gs83iMSmXZZ4KzTD_xEzMvETM1A","LocationType":"point","DisplayPosition":{"Latitude":51.75937,"Longitude":19.44799},"MapView":{"TopLeft":{"Latitude":51.7604942,"Longitude":19.4461738},"BottomRight":{"Latitude":51.7582458,"Longitude":19.4498062}},"Address":{"Label":"ulica Stefana Żeromskiego 113/115, 90-549 Łódź, Polska","Country":"POL","State":"Woj. Łódzkie","County":"Łódź","City":"Łódź","District":"Łódź","Subdistrict":"Polesie","Street":"ulica Stefana Żeromskiego","HouseNumber":"113/115","PostalCode":"90-549","AdditionalData":[{"value":"Polska","key":"CountryName"},{"value":"Woj. Łódzkie","key":"StateName"},{"value":"Łódź","key":"CountyName"}]},"MapReference":{"ReferenceId":"1247578917","Spot":0.59,"SideOfStreet":"left","CountryId":"20624059","StateId":"20625723","CountyId":"20625724","CityId":"20625725","DistrictId":"20646758","AddressId":"210100886","RoadLinkId":"569392015"}}},{"Relevance":1.0,"Distance":32.4,"MatchLevel":"houseNumber","MatchQuality":{"Country":1.0,"State":1.0,"County":1.0,"City":1.0,"District":1.0,"Subdistrict":1.0,"Street":[1.0],"HouseNumber":1.0,"PostalCode":1.0},"MatchType":"interpolated","Location":{"LocationId":"NT_.gfMjfEfg1ePSjBWHJrxMD_5QzQ","LocationType":"point","DisplayPosition":{"Latitude":51.75929,"Longitude":19.44823},"MapView":{"TopLeft":{"Latitude":51.7604142,"Longitude":19.4464138},"BottomRight":{"Latitude":51.7581658,"Longitude":19.4500462}},"Address":{"Label":"ulica Stefana Żeromskiego 94C, 90-550 Łódź, Polska","Country":"POL","State":"Woj. Łódzkie","County":"Łódź","City":"Łódź","District":"Łódź","Subdistrict":"Polesie","Street":"ulica Stefana Żeromskiego","HouseNumber":"94C","PostalCode":"90-550","AdditionalData":[{"value":"Polska","key":"CountryName"},{"value":"Woj. Łódzkie","key":"StateName"},{"value":"Łódź","key":"CountyName"}]},"MapReference":{"ReferenceId":"866236533","Spot":0.33,"SideOfStreet":"right","CountryId":"20624059","StateId":"20625723","CountyId":"20625724","CityId":"20625725","DistrictId":"20646758","AddressId":"211023315","RoadLinkId":"239305089"}}},{"Relevance":1.0,"Distance":32.7,"MatchLevel":"street","MatchQuality":{"Country":1.0,"State":1.0,"County":1.0,"City":1.0,"District":1.0,"Subdistrict":1.0,"PostalCode":1.0},"Location":{"LocationId":"NT_hbfOxe-CMPjstx-.5vIyRB_l_1185068669_R","LocationType":"point","DisplayPosition":{"Latitude":51.7592191,"Longitude":19.4472989},"MapView":{"TopLeft":{"Latitude":51.75965,"Longitude":19.44723},"BottomRight":{"Latitude":51.7584,"Longitude":19.44743}},"Address":{"Label":"90-554 Łódź, Polska","Country":"POL","State":"Woj. Łódzkie","County":"Łódź","City":"Łódź","District":"Łódź","Subdistrict":"Polesie","PostalCode":"90-554","AdditionalData":[{"value":"Polska","key":"CountryName"},{"value":"Woj. Łódzkie","key":"StateName"},{"value":"Łódź","key":"CountyName"}]},"MapReference":{"ReferenceId":"1185068669","Spot":0.66,"SideOfStreet":"right","CountryId":"20624059","StateId":"20625723","CountyId":"20625724","CityId":"20625725","DistrictId":"20646758"}}},{"Relevance":1.0,"Distance":45.3,"MatchLevel":"street","MatchQuality":{"Country":1.0,"State":1.0,"County":1.0,"City":1.0,"District":1.0,"Subdistrict":1.0,"Street":[1.0],"PostalCode":1.0},"Location":{"LocationId":"NT_D8h.w1gs83iMSmXZZ4KzTD_l_877780073_L","LocationType":"point","DisplayPosition":{"Latitude":51.75893,"Longitude":19.44806},"MapView":{"TopLeft":{"Latitude":51.75893,"Longitude":19.44806},"BottomRight":{"Latitude":51.75856,"Longitude":19.44811}},"Address":{"Label":"ulica Stefana Żeromskiego, 90-549 Łódź, Polska","Country":"POL","State":"Woj. Łódzkie","County":"Łódź","City":"Łódź","District":"Łódź","Subdistrict":"Polesie","Street":"ulica Stefana Żeromskiego","PostalCode":"90-549","AdditionalData":[{"value":"Polska","key":"CountryName"},{"value":"Woj. Łódzkie","key":"StateName"},{"value":"Łódź","key":"CountyName"}]},"MapReference":{"ReferenceId":"877780073","Spot":1.0,"SideOfStreet":"left","CountryId":"20624059","StateId":"20625723","CountyId":"20625724","CityId":"20625725","DistrictId":"20646758"}}},{"Relevance":1.0,"Distance":48.3,"MatchLevel":"street","MatchQuality":{"Country":1.0,"State":1.0,"County":1.0,"City":1.0,"District":1.0,"Subdistrict":1.0,"PostalCode":1.0},"Location":{"LocationId":"NT_hbfOxe-CMPjstx-.5vIyRB_l_1185068665_R","LocationType":"point","DisplayPosition":{"Latitude":51.75968,"Longitude":19.44744},"MapView":{"TopLeft":{"Latitude":51.75968,"Longitude":19.44723},"BottomRight":{"Latitude":51.75965,"Longitude":19.44744}},"Address":{"Label":"90-554 Łódź, Polska","Country":"POL","State":"Woj. Łódzkie","County":"Łódź","City":"Łódź","District":"Łódź","Subdistrict":"Polesie","PostalCode":"90-554","AdditionalData":[{"value":"Polska","key":"CountryName"},{"value":"Woj. Łódzkie","key":"StateName"},{"value":"Łódź","key":"CountyName"}]},"MapReference":{"ReferenceId":"1185068665","Spot":1.0,"SideOfStreet":"right","CountryId":"20624059","StateId":"20625723","CountyId":"20625724","CityId":"20625725","DistrictId":"20646758"}}},{"Relevance":1.0,"Distance":53.9,"MatchLevel":"street","MatchQuality":{"Country":1.0,"State":1.0,"County":1.0,"City":1.0,"District":1.0,"Subdistrict":1.0,"PostalCode":1.0},"Location":{"LocationId":"NT_hbfOxe-CMPjstx-.5vIyRB_l_1185068664_R","LocationType":"point","DisplayPosition":{"Latitude":51.75965,"Longitude":19.44723},"MapView":{"TopLeft":{"Latitude":51.75965,"Longitude":19.44652},"BottomRight":{"Latitude":51.75959,"Longitude":19.44723}},"Address":{"Label":"90-554 Łódź, Polska","Country":"POL","State":"Woj. Łódzkie","County":"Łódź","City":"Łódź","District":"Łódź","Subdistrict":"Polesie","PostalCode":"90-554","AdditionalData":[{"value":"Polska","key":"CountryName"},{"value":"Woj. Łódzkie","key":"StateName"},{"value":"Łódź","key":"CountyName"}]},"MapReference":{"ReferenceId":"1185068664","Spot":1.0,"SideOfStreet":"right","CountryId":"20624059","StateId":"20625723","CountyId":"20625724","CityId":"20625725","DistrictId":"20646758"}}},{"Relevance":1.0,"Distance":57.5,"MatchLevel":"houseNumber","MatchQuality":{"Country":1.0,"State":1.0,"County":1.0,"City":1.0,"District":1.0,"Subdistrict":1.0,"Street":[1.0],"HouseNumber":1.0,"PostalCode":1.0},"MatchType":"interpolated","Location":{"LocationId":"NT_D8h.w1gs83iMSmXZZ4KzTD_l_1247578918_L_xETM","LocationType":"point","DisplayPosition":{"Latitude":51.75981,"Longitude":19.44791},"MapView":{"TopLeft":{"Latitude":51.7609342,"Longitude":19.4460938},"BottomRight":{"Latitude":51.7586859,"Longitude":19.4497262}},"Address":{"Label":"ulica Stefana Żeromskiego 111, 90-549 Łódź, Polska","Country":"POL","State":"Woj. Łódzkie","County":"Łódź","City":"Łódź","District":"Łódź","Subdistrict":"Polesie","Street":"ulica Stefana Żeromskiego","HouseNumber":"111","PostalCode":"90-549","AdditionalData":[{"value":"Polska","key":"CountryName"},{"value":"Woj. Łódzkie","key":"StateName"},{"value":"Łódź","key":"CountyName"}]},"MapReference":{"ReferenceId":"1247578918","Spot":0.2,"SideOfStreet":"left","CountryId":"20624059","StateId":"20625723","CountyId":"20625724","CityId":"20625725","DistrictId":"20646758"}}},{"Relevance":1.0,"Distance":58.1,"MatchLevel":"street","MatchQuality":{"Country":1.0,"State":1.0,"County":1.0,"City":1.0,"District":1.0,"Subdistrict":1.0,"PostalCode":1.0},"Location":{"LocationId":"NT_2AfyWPTRUJjKMJ7nyK4fHD_l_866236534_L","LocationType":"point","DisplayPosition":{"Latitude":51.75892,"Longitude":19.44835},"MapView":{"TopLeft":{"Latitude":51.75892,"Longitude":19.44835},"BottomRight":{"Latitude":51.75892,"Longitude":19.4487}},"Address":{"Label":"90-550 Łódź, Polska","Country":"POL","State":"Woj. Łódzkie","County":"Łódź","City":"Łódź","District":"Łódź","Subdistrict":"Polesie","PostalCode":"90-550","AdditionalData":[{"value":"Polska","key":"CountryName"},{"value":"Woj. Łódzkie","key":"StateName"},{"value":"Łódź","key":"CountyName"}]},"MapReference":{"ReferenceId":"866236534","Spot":0.0,"SideOfStreet":"left","CountryId":"20624059","StateId":"20625723","CountyId":"20625724","CityId":"20625725","DistrictId":"20646758"}}}]}]}}