{"Response":{"MetaInfo":{"Timestamp":"2020-03-28T10:48:15.683+0000","NextPageInformation":"2"},"View":[{"_type":"SearchResultsViewType","ViewId":0,"Result":[{"Relevance":1.0,"Distance":0.0,"Direction":0.0,"MatchLevel":"district","MatchQuality":{"Country":1.0,"State":1.0,"County":1.0,"City":1.0,"District":1.0,"Subdistrict":1.0,"PostalCode":1.0},"Location":{"LocationId":"NT_vcH9696PtTngc5vN2HK4.A","LocationType":"point","DisplayPosition":{"Latitude":51.7969339,"Longitude":19.4466643},"MapView":{"TopLeft":{"Latitude":51.8324,"Longitude":19.34385},"BottomRight":{"Latitude":51.78353,"Longitude":19.5149}},"Address":{"Label":"Bałuty, Łódź, Woj. Łódzkie, Polska","Country":"POL","State":"Woj. Łódzkie","County":"Łódź","City":"Łódź","District":"Łódź","Subdistrict":"Bałuty","PostalCode":"91-357","AdditionalData":[{"value":"Polska","key":"CountryName"},{"value":"Woj. Łódzkie","key":"StateName"},{"value":"Łódź","key":"CountyName"}]},"MapReference":{"ReferenceId":"595653990","SideOfStreet":"neither","CountryId":"20624059","StateId":"20625723","CountyId":"20625724","CityId":"20625725","DistrictId":"20646758"}}},{"Relevance":1.0,"Distance":28.6,"MatchLevel":"houseNumber","MatchQuality":{"Country":1.0,"State":1.0,"County":1.0,"City":1.0,"District":1.0,"Subdistrict":1.0,"Street":[1.0],"HouseNumber":1.0,"PostalCode":1.0},"MatchType":"interpolated","Location":{"LocationId":"NT_cATCJ4crJFux7to-Fv7TSB_0A","LocationType":"point","DisplayPosition":{"Latitude":51.79652,"Longitude":19.44659},"MapView":{"TopLeft":{"Latitude":51.7976442,"Longitude":19.4447723},"BottomRight":{"Latitude":51.7953958,"Longitude":19.4484077}},"Address":{"Label":"ulica Murarska 4, 91-465 Łódź, Polska","Country":"POL","State":"Woj. Łódzkie","County":"Łódź","City":"Łódź","District":"Łódź","Subdistrict":"Bałuty","Street":"ulica Murarska","HouseNumber":"4","PostalCode":"91-465","AdditionalData":[{"value":"Polska","key":"CountryName"},{"value":"Woj. Łódzkie","key":"StateName"},{"value":"Łódź","key":"CountyName"}]},"MapReference":{"ReferenceId":"1152251187","Spot":0.72,"SideOfStreet":"left","CountryId":"20624059","StateId":"20625723","CountyId":"20625724","CityId":"20625725","DistrictId":"20646758","AddressId":"731863204","RoadLinkId":"457563031"}}},{"Relevance":1.0,"Distance":40.8,"MatchLevel":"houseNumber","MatchQuality":{"Country":1.0,"State":1.0,"County":1.0,"City":1.0,"District":1.0,"Subdistrict":1.0,"Street":[1.0],"HouseNumber":1.0,"PostalCode":1.0},"MatchType":"interpolated","Location":{"LocationId":"NT_cATCJ4crJFux7to-Fv7TSB_xID","LocationType":"point","DisplayPosition":{"Latitude":51.79671,"Longitude":19.44726},"MapView":{"TopLeft":{"Latitude":51.7978342,"Longitude":19.4454423},"BottomRight":{"Latitude":51.7955858,"Longitude":19.4490777}},"Address":{"Label":"ulica Murarska 12, 91-465 Łódź, Polska","Country":"POL","State":"Woj. Łódzkie","County":"Łódź","City":"Łódź","District":"Łódź","Subdistrict":"Bałuty","Street":"ulica Murarska","HouseNumber":"12","PostalCode":"91-465","AdditionalData":[{"value":"Polska","key":"CountryName"},{"value":"Woj. Łódzkie","key":"StateName"},{"value":"Łódź","key":"CountyName"}]},"MapReference":{"ReferenceId":"1152251189","Spot":0.57,"SideOfStreet":"left","CountryId":"20624059","StateId":"20625723","CountyId":"20625724","CityId":"20625725","DistrictId":"20646758","AddressId":"211423520","RoadLinkId":"457563033"}}},{"Relevance":1.0,"Distance":40.9,"MatchLevel":"street","MatchQuality":{"Country":1.0,"State":1.0,"County":1.0,"City":1.0,"District":1.0,"Subdistrict":1.0,"Street":[1.0],"PostalCode":1.0},"Location":{"LocationId":"NT_cATCJ4crJFux7to-Fv7TSB_l_1152251188_L","LocationType":"point","DisplayPosition":{"Latitude":51.7965723,"Longitude":19.4467714},"MapView":{"TopLeft":{"Latitude":51.79664,"Longitude":19.44673},"BottomRight":{"Latitude":51.79656,"Longitude":19.447}},"Address":{"Label":"ulica Murarska, 91-465 Łódź, Polska","Country":"POL","State":"Woj. Łódzkie","County":"Łódź","City":"Łódź","District":"Łódź","Subdistrict":"Bałuty","Street":"ulica Murarska","PostalCode":"91-465","AdditionalData":[{"value":"Polska","key":"CountryName"},{"value":"Woj. Łódzkie","key":"StateName"},{"value":"Łódź","key":"CountyName"}]},"MapReference":{"ReferenceId":"1152251188","Spot":0.15,"SideOfStreet":"left","CountryId":"20624059","StateId":"20625723","CountyId":"20625724","CityId":"20625725","DistrictId":"20646758"}}},{"Relevance":1.0,"Distance":46.3,"MatchLevel":"street","MatchQuality":{"Country":1.0,"State":1.0,"County":1.0,"City":1.0,"District":1.0,"Subdistrict":1.0,"Street":[1.0],"PostalCode":1.0},"Location":{"LocationId":"NT_KNivVaun1qYRFs-Ri19aPD_l_1152225476_R","LocationType":"point","DisplayPosition":{"Latitude":51.79721,"Longitude":19.44616},"MapView":{"TopLeft":{"Latitude":51.79721,"Longitude":19.44539},"BottomRight":{"Latitude":51.79701,"Longitude":19.44616}},"Address":{"Label":"ulica Julianowska, 91-468 Łódź, Polska","Country":"POL","State":"Woj. Łódzkie","County":"Łódź","City":"Łódź","District":"Łódź","Subdistrict":"Bałuty","Street":"ulica Julianowska","PostalCode":"91-468","AdditionalData":[{"value":"Polska","key":"CountryName"},{"value":"Woj. Łódzkie","key":"StateName"},{"value":"Łódź","key":"CountyName"}]},"MapReference":{"ReferenceId":"1152225476","Spot":1.0,"SideOfStreet":"right","CountryId":"20624059","StateId":"20625723","CountyId":"20625724","CityId":"20625725","DistrictId":"20646758"}}},{"Relevance":1.0,"Distance":59.7,"MatchLevel":"houseNumber","MatchQuality":{"Country":1.0,"State":1.0,"County":1.0,"City":1.0,"District":1.0,"Subdistrict":1.0,"Street":[1.0],"HouseNumber":1.0,"PostalCode":1.0},"MatchType":"interpolated","Location":{"LocationId":"NT_cATCJ4crJFux7to-Fv7TSB_xQD","LocationType":"point","DisplayPosition":{"Latitude":51.79681,"Longitude":19.44759},"MapView":{"TopLeft":{"Latitude":51.7979342,"Longitude":19.4457723},"BottomRight":{"Latitude":51.7956858,"Longitude":19.4494077}},"Address":{"Label":"ulica Murarska 14, 91-465 Łódź, Polska","Country":"POL","State":"Woj. Łódzkie","County":"Łódź","City":"Łódź","District":"Łódź","Subdistrict":"Bałuty","Street":"ulica Murarska","HouseNumber":"14","PostalCode":"91-465","AdditionalData":[{"value":"Polska","key":"CountryName"},{"value":"Woj. Łódzkie","key":"StateName"},{"value":"Łódź","key":"CountyName"}]},"MapReference":{"ReferenceId":"1152251190","Spot":0.14,"SideOfStreet":"left","CountryId":"20624059","StateId":"20625723","CountyId":"20625724","CityId":"20625725","DistrictId":"20646758","AddressId":"210802137","RoadLinkId":"457563034"}}},{"Relevance":1.0,"Distance":64.8,"MatchLevel":"street","MatchQuality":{"Country":1.0,"State":1.0,"County":1.0,"City":1.0,"District":1.0,"Subdistrict":1.0,"PostalCode":1.0},"Location":{"LocationId":"NT_77nZ-XyfN2chAfAJY9iYNB_l_595642057_R","LocationType":"point","DisplayPosition":{"Latitude":51.79642,"Longitude":19.44622},"MapView":{"TopLeft":{"Latitude":51.79642,"Longitude":19.44622},"BottomRight":{"Latitude":51.79553,"Longitude":19.44742}},"Address":{"Label":"91-464 Łódź, Polska","Country":"POL","State":"Woj. Łódzkie","County":"Łódź","City":"Łódź","District":"Łódź","Subdistrict":"Bałuty","PostalCode":"91-464","AdditionalData":[{"value":"Polska","key":"CountryName"},{"value":"Woj. Łódzkie","key":"StateName"},{"value":"Łódź","key":"CountyName"}]},"MapReference":{"ReferenceId":"595642057","Spot":1.0,"SideOfStreet":"right","CountryId":"20624059","StateId":"20625723","CountyId":"20625724","CityId":"20625725","DistrictId":"20646758"}}},{"Relevance":1.0,"Distance":81.4,"MatchLevel":"houseNumber","MatchQuality":{"Country":1.0,"State":1.0,"County":1.0,"City":1.0,"District":1.0,"Subdistrict":1.0,"Street":[1.0],"HouseNumber":1.0,"PostalCode":1.0},"MatchType":"interpolated","Location":{"LocationId":"NT_KNivVaun1qYRFs-Ri19aPD_l_1152225477_R_xA","LocationType":"point","DisplayPosition":{"Latitude":51.7974542,"Longitude":19.4476322},"MapView":{"TopLeft":{"Latitude":51.7985784,"Longitude":19.4458145},"BottomRight":{"Latitude":51.7963301,"Longitude":19.4494499}},"Address":{"Label":"ulica Julianowska 1, 91-468 Łódź, Polska","Country":"POL","State":"Woj. Łódzkie","County":"Łódź","City":"Łódź","District":"Łódź","Subdistrict":"Bałuty","Street":"ulica Julianowska","HouseNumber":"1","PostalCode":"91-468","AdditionalData":[{"value":"Polska","key":"CountryName"},{"value":"Woj. Łódzkie","key":"StateName"},{"value":"Łódź","key":"CountyName"}]},"MapReference":{"ReferenceId":"1152225477","Spot":0.5,"SideOfStreet":"right","CountryId":"20624059","StateId":"20625723","CountyId":"20625724","CityId":"20625725","DistrictId":"20646758"}}},{"Relevance":1.0,"Distance":82.7,"MatchLevel":"houseNumber","MatchQuality":{"Country":1.0,"State":1.0,"County":1.0,"City":1.0,"District":1.0,"Subdistrict":1.0,"Street":[1.0],"HouseNumber":1.0,"PostalCode":1.0},"MatchType":"interpolated","Location":{"LocationId":"NT_cATCJ4crJFux7to-Fv7TSB_l_595641999_L_yA","LocationType":"point","DisplayPosition":{"Latitude":51.796303,"Longitude":19.4458064},"MapView":{"TopLeft":{"Latitude":51.7974272,"Longitude":19.4439887},"BottomRight":{"Latitude":51.7951789,"Longitude":19.447624}},"Address":{"Label":"ulica Murarska 2, 91-465 Łódź, Polska","Country":"POL","State":"Woj. Łódzkie","County":"Łódź","City":"Łódź","District":"Łódź","Subdistrict":"Bałuty","Street":"ulica Murarska","HouseNumber":"2","PostalCode":"91-465","AdditionalData":[{"value":"Polska","key":"CountryName"},{"value":"Woj. Łódzkie","key":"StateName"},{"value":"Łódź","key":"CountyName"}]},"MapReference":{"ReferenceId":"595641999","Spot":0.51,"SideOfStreet":"left","CountryId":"20624059","StateId":"20625723","CountyId":"20625724","CityId":"20625725","DistrictId":"20646758"}}},{"Relevance":1.0,"Distance":87.1,"MatchLevel":"houseNumber","MatchQuality":{"Country":1.0,"State":1.0,"County":1.0,"City":1.0,"District":1.0,"Subdistrict":1.0,"Street":[1.0],"HouseNumber":1.0,"PostalCode":1.0},"MatchType":"interpolated","Location":{"LocationId":"NT_rxfsJkk7JzZoB1PD--93LD_xATO","LocationType":"point","DisplayPosition":{"Latitude":51.7965,"Longitude":19.44517},"MapView":{"TopLeft":{"Latitude":51.7976242,"Longitude":19.4433523},"BottomRight":{"Latitude":51.7953758,"Longitude":19.4469877}},"Address":{"Label":"ulica Zgierska 109, 91-468 Łódź, Polska","Country":"POL","State":"Woj. Łódzkie","County":"Łódź","City":"Łódź","District":"Łódź","Subdistrict":"Bałuty","Street":"ulica Zgierska","HouseNumber":"109","PostalCode":"91-468","AdditionalData":[{"value":"Polska","key":"CountryName"},{"value":"Woj. Łódzkie","key":"StateName"},{"value":"Łódź","key":"CountyName"}]},"MapReference":{"ReferenceId":"958411547","Spot":0.66,"SideOfStreet":"right","CountryId":"20624059","StateId":"20625723","CountyId":"20625724","CityId":"20625725","DistrictId":"20646758","AddressId":"210016188","RoadLinkId":"301391171"}}}]}]}}