{"Response":{"MetaInfo":{"Timestamp":"2020-03-28T11:01:22.429+0000","NextPageInformation":"2"},"View":[{"_type":"SearchResultsViewType","ViewId":0,"Result":[{"Relevance":1.0,"Distance":0.0,"Direction":0.0,"MatchLevel":"city","MatchQuality":{"Country":1.0,"State":1.0,"County":1.0,"City":1.0,"PostalCode":1.0},"Location":{"LocationId":"NT_VyDZMLWpgpHezPGUlLN5cD","LocationType":"point","DisplayPosition":{"Latitude":51.742574,"Longitude":9.0103615},"MapView":{"TopLeft":{"Latitude":51.7973,"Longitude":8.96433},"BottomRight":{"Latitude":51.64378,"Longitude":9.11748}},"Address":{"Label":"Bad Driburg, Nordrhein-Westfalen, Deutschland","Country":"DEU","State":"Nordrhein-Westfalen","County":"Höxter","City":"Bad Driburg","PostalCode":"33014","AdditionalData":[{"value":"Deutschland","key":"CountryName"},{"value":"Nordrhein-Westfalen","key":"StateName"},{"value":"Höxter","key":"CountyName"}]},"MapReference":{"ReferenceId":"1198132959","SideOfStreet":"neither","CountryId":"20147700","StateId":"20157369","CountyId":"20159695","CityId":"20159696"}}},{"Relevance":1.0,"Distance":39.6,"MatchLevel":"houseNumber","MatchQuality":{"Country":1.0,"State":1.0,"County":1.0,"City":1.0,"Street":[1.0],"HouseNumber":1.0,"PostalCode":1.0},"MatchType":"interpolated","Location":{"LocationId":"NT_DBUJt5RrHBl1U-xC1UpZQC_zgD","LocationType":"point","DisplayPosition":{"Latitude":51.74223,"Longitude":9.01021},"MapView":{"TopLeft":{"Latitude":51.7433542,"Longitude":9.0083945},"BottomRight":{"Latitude":51.7411058,"Longitude":9.0120255}},"Address":{"Label":"Elmarstraße 38, 33014 Bad Driburg, Deutschland","Country":"DEU","State":"Nordrhein-Westfalen","County":"Höxter","City":"Bad Driburg","Street":"Elmarstraße","HouseNumber":"38","PostalCode":"33014","AdditionalData":[{"value":"Deutschland","key":"CountryName"},{"value":"Nordrhein-Westfalen","key":"StateName"},{"value":"Höxter","key":"CountyName"}]},"MapReference":{"ReferenceId":"587016126","Spot":1.0,"SideOfStreet":"right","CountryId":"20147700","StateId":"20157369","CountyId":"20159695","CityId":"20159696","AddressId":"193755811","RoadLinkId":"465992915"}}},{"Relevance":1.0,"Distance":57.0,"MatchLevel":"street","MatchQuality":{"Country":1.0,"State":1.0,"County":1.0,"City":1.0,"Street":[1.0],"PostalCode":1.0},"Location":{"LocationId":"NT_DBUJt5RrHBl1U-xC1UpZQC_l_587016127_L","LocationType":"point","DisplayPosition":{"Latitude":51.74214,"Longitude":9.00992},"MapView":{"TopLeft":{"Latitude":51.74214,"Longitude":9.0095},"BottomRight":{"Latitude":51.74205,"Longitude":9.00992}},"Address":{"Label":"Elmarstraße, 33014 Bad Driburg, Deutschland","Country":"DEU","State":"Nordrhein-Westfalen","County":"Höxter","City":"Bad Driburg","Street":"Elmarstraße","PostalCode":"33014","AdditionalData":[{"value":"Deutschland","key":"CountryName"},{"value":"Nordrhein-Westfalen","key":"StateName"},{"value":"Höxter","key":"CountyName"}]},"MapReference":{"ReferenceId":"587016127","Spot":1.0,"SideOfStreet":"left","CountryId":"20147700","StateId":"20157369","CountyId":"20159695","CityId":"20159696"}}},{"Relevance":1.0,"Distance":57.0,"MatchLevel":"street","MatchQuality":{"Country":1.0,"State":1.0,"County":1.0,"City":1.0,"PostalCode":1.0},"Location":{"LocationId":"NT_YvJ7AE6FFCZK10oHJdEABC_l_587016125_R","LocationType":"point","DisplayPosition":{"Latitude":51.74214,"Longitude":9.00992},"MapView":{"TopLeft":{"Latitude":51.74214,"Longitude":9.00933},"BottomRight":{"Latitude":51.74183,"Longitude":9.00995}},"Address":{"Label":"33014 Bad Driburg, Deutschland","Country":"DEU","State":"Nordrhein-Westfalen","County":"Höxter","City":"Bad Driburg","PostalCode":"33014","AdditionalData":[{"value":"Deutschland","key":"CountryName"},{"value":"Nordrhein-Westfalen","key":"StateName"},{"value":"Höxter","key":"CountyName"}]},"MapReference":{"ReferenceId":"587016125","Spot":1.0,"SideOfStreet":"right","CountryId":"20147700","StateId":"20157369","CountyId":"20159695","CityId":"20159696"}}},{"Relevance":1.0,"Distance":60.7,"MatchLevel":"houseNumber","MatchQuality":{"Country":1.0,"State":1.0,"County":1.0,"City":1.0,"Street":[1.0],"HouseNumber":1.0,"PostalCode":1.0},"MatchType":"interpolated","Location":{"LocationId":"NT_DBUJt5RrHBl1U-xC1UpZQC_0AD","LocationType":"point","DisplayPosition":{"Latitude":51.74298,"Longitude":9.01095},"MapView":{"TopLeft":{"Latitude":51.7441042,"Longitude":9.0091345},"BottomRight":{"Latitude":51.7418558,"Longitude":9.0127655}},"Address":{"Label":"Elmarstraße 40, 33014 Bad Driburg, Deutschland","Country":"DEU","State":"Nordrhein-Westfalen","County":"Höxter","City":"Bad Driburg","Street":"Elmarstraße","HouseNumber":"40","PostalCode":"33014","AdditionalData":[{"value":"Deutschland","key":"CountryName"},{"value":"Nordrhein-Westfalen","key":"StateName"},{"value":"Höxter","key":"CountyName"}]},"MapReference":{"ReferenceId":"587016124","Spot":0.51,"SideOfStreet":"right","CountryId":"20147700","StateId":"20157369","CountyId":"20159695","CityId":"20159696","AddressId":"196364601","RoadLinkId":"35647336"}}},{"Relevance":1.0,"Distance":83.1,"MatchLevel":"street","MatchQuality":{"Country":1.0,"State":1.0,"County":1.0,"City":1.0,"Street":[1.0],"PostalCode":1.0},"Location":{"LocationId":"NT_DBUJt5RrHBl1U-xC1UpZQC_l_587016122_R","LocationType":"point","DisplayPosition":{"Latitude":51.74205,"Longitude":9.0095},"MapView":{"TopLeft":{"Latitude":51.74205,"Longitude":9.00933},"BottomRight":{"Latitude":51.74183,"Longitude":9.0095}},"Address":{"Label":"Elmarstraße, 33014 Bad Driburg, Deutschland","Country":"DEU","State":"Nordrhein-Westfalen","County":"Höxter","City":"Bad Driburg","Street":"Elmarstraße","PostalCode":"33014","AdditionalData":[{"value":"Deutschland","key":"CountryName"},{"value":"Nordrhein-Westfalen","key":"StateName"},{"value":"Höxter","key":"CountyName"}]},"MapReference":{"ReferenceId":"587016122","Spot":1.0,"SideOfStreet":"right","CountryId":"20147700","StateId":"20157369","CountyId":"20159695","CityId":"20159696"}}},{"Relevance":1.0,"Distance":114.3,"MatchLevel":"houseNumber","MatchQuality":{"Country":1.0,"State":1.0,"County":1.0,"City":1.0,"Street":[1.0],"HouseNumber":1.0,"PostalCode":1.0},"MatchType":"interpolated","Location":{"LocationId":"NT_DBUJt5RrHBl1U-xC1UpZQC_zYD","LocationType":"point","DisplayPosition":{"Latitude":51.74171,"Longitude":9.00929},"MapView":{"TopLeft":{"Latitude":51.7428342,"Longitude":9.0074745},"BottomRight":{"Latitude":51.7405858,"Longitude":9.0111055}},"Address":{"Label":"Elmarstraße 36, 33014 Bad Driburg, Deutschland","Country":"DEU","State":"Nordrhein-Westfalen","County":"Höxter","City":"Bad Driburg","Street":"Elmarstraße","HouseNumber":"36","PostalCode":"33014","AdditionalData":[{"value":"Deutschland","key":"CountryName"},{"value":"Nordrhein-Westfalen","key":"StateName"},{"value":"Höxter","key":"CountyName"}]},"MapReference":{"ReferenceId":"587016123","Spot":0.74,"SideOfStreet":"right","CountryId":"20147700","StateId":"20157369","CountyId":"20159695","CityId":"20159696","AddressId":"199478377","RoadLinkId":"34974991"}}},{"Relevance":1.0,"Distance":158.8,"MatchLevel":"houseNumber","MatchQuality":{"Country":1.0,"State":1.0,"County":1.0,"City":1.0,"Street":[1.0],"HouseNumber":1.0,"PostalCode":1.0},"MatchType":"interpolated","Location":{"LocationId":"NT_DBUJt5RrHBl1U-xC1UpZQC_1ED","LocationType":"point","DisplayPosition":{"Latitude":51.74148,"Longitude":9.00888},"MapView":{"TopLeft":{"Latitude":51.7426042,"Longitude":9.0070645},"BottomRight":{"Latitude":51.7403558,"Longitude":9.0106955}},"Address":{"Label":"Elmarstraße 51, 33014 Bad Driburg, Deutschland","Country":"DEU","State":"Nordrhein-Westfalen","County":"Höxter","City":"Bad Driburg","Street":"Elmarstraße","HouseNumber":"51","PostalCode":"33014","AdditionalData":[{"value":"Deutschland","key":"CountryName"},{"value":"Nordrhein-Westfalen","key":"StateName"},{"value":"Höxter","key":"CountyName"}]},"MapReference":{"ReferenceId":"74868334","Spot":0.07,"SideOfStreet":"left","CountryId":"20147700","StateId":"20157369","CountyId":"20159695","CityId":"20159696","AddressId":"255692399","RoadLinkId":"35011169"}}},{"Relevance":1.0,"Distance":159.0,"MatchLevel":"houseNumber","MatchQuality":{"Country":1.0,"State":1.0,"County":1.0,"City":1.0,"District":1.0,"Street":[1.0],"HouseNumber":1.0,"PostalCode":1.0},"MatchType":"interpolated","Location":{"LocationId":"NT_dn0KArGtwsRQc.v8UHFfrC_zID","LocationType":"point","DisplayPosition":{"Latitude":51.74124,"Longitude":9.00929},"MapView":{"TopLeft":{"Latitude":51.7423642,"Longitude":9.0074746},"BottomRight":{"Latitude":51.7401158,"Longitude":9.0111054}},"Address":{"Label":"Elmarstraße 32, 33014 Bad Driburg, Deutschland","Country":"DEU","State":"Nordrhein-Westfalen","County":"Höxter","City":"Bad Driburg","District":"Bad Driburg","Street":"Elmarstraße","HouseNumber":"32","PostalCode":"33014","AdditionalData":[{"value":"Deutschland","key":"CountryName"},{"value":"Nordrhein-Westfalen","key":"StateName"},{"value":"Höxter","key":"CountyName"}]},"MapReference":{"ReferenceId":"74820027","Spot":0.73,"SideOfStreet":"right","CountryId":"20147700","StateId":"20157369","CountyId":"20159695","CityId":"20159696","DistrictId":"20159706","AddressId":"199519833","RoadLinkId":"35516342"}}},{"Relevance":1.0,"Distance":191.5,"MatchLevel":"houseNumber","MatchQuality":{"Country":1.0,"State":1.0,"County":1.0,"City":1.0,"District":1.0,"Street":[1.0],"HouseNumber":1.0,"PostalCode":1.0},"MatchType":"interpolated","Location":{"LocationId":"NT_dxJ8I6ZUfbttk6Rsb2PNbA_1A","LocationType":"point","DisplayPosition":{"Latitude":51.74094,"Longitude":9.0117},"MapView":{"TopLeft":{"Latitude":51.7420642,"Longitude":9.0098846},"BottomRight":{"Latitude":51.7398158,"Longitude":9.0135154}},"Address":{"Label":"Geroweg 5, 33014 Bad Driburg, Deutschland","Country":"DEU","State":"Nordrhein-Westfalen","County":"Höxter","City":"Bad Driburg","District":"Bad Driburg","Street":"Geroweg","HouseNumber":"5","PostalCode":"33014","AdditionalData":[{"value":"Deutschland","key":"CountryName"},{"value":"Nordrhein-Westfalen","key":"StateName"},{"value":"Höxter","key":"CountyName"}]},"MapReference":{"ReferenceId":"74820088","Spot":0.6,"SideOfStreet":"left","CountryId":"20147700","StateId":"20157369","CountyId":"20159695","CityId":"20159696","DistrictId":"20159706","AddressId":"193701422","RoadLinkId":"35260295"}}}]}]}}