{"Response":{"MetaInfo":{"Timestamp":"2020-03-28T10:08:07.621+0000","NextPageInformation":"2"},"View":[{"_type":"SearchResultsViewType","ViewId":0,"Result":[{"Relevance":1.0,"Distance":0.0,"Direction":0.0,"MatchLevel":"district","MatchQuality":{"Country":1.0,"State":1.0,"County":1.0,"City":1.0,"District":1.0,"PostalCode":1.0},"Location":{"LocationId":"NT_iztDhKaZjMCpwG8sfjnr0D","LocationType":"point","DisplayPosition":{"Latitude":51.7909977,"Longitude":1.1558943},"MapView":{"TopLeft":{"Latitude":51.82087,"Longitude":1.09731},"BottomRight":{"Latitude":51.77839,"Longitude":1.20975}},"Address":{"Label":"Clacton-on-Sea, England, United Kingdom","Country":"GBR","State":"England","County":"Essex","City":"Clacton-on-Sea","District":"Clacton-on-Sea","PostalCode":"CO15 3","AdditionalData":[{"value":"United Kingdom","key":"CountryName"},{"value":"England","key":"StateName"},{"value":"Essex","key":"CountyName"}]},"MapReference":{"ReferenceId":"781741341","SideOfStreet":"neither","StateId":"20248595","CountyId":"20335385","CityId":"20335510","DistrictId":"20335511"}}},{"Relevance":1.0,"Distance":6.5,"MatchLevel":"houseNumber","MatchQuality":{"Country":1.0,"State":1.0,"County":1.0,"City":1.0,"District":1.0,"Street":[1.0],"HouseNumber":1.0,"PostalCode":1.0},"MatchType":"interpolated","Location":{"LocationId":"NT_pbZghOE7.TDvASjlEZ0K8A_l_25898854_L_2ED","LocationType":"point","DisplayPosition":{"Latitude":51.7908292,"Longitude":1.15602},"MapView":{"TopLeft":{"Latitude":51.7919533,"Longitude":1.1542026},"BottomRight":{"Latitude":51.789705,"Longitude":1.1578375}},"Address":{"Label":"61 High Street, Clacton-on-Sea, CO15 1UQ, United Kingdom","Country":"GBR","State":"England","County":"Essex","City":"Clacton-on-Sea","District":"Clacton-on-Sea","Street":"High Street","HouseNumber":"61","PostalCode":"CO15 1UQ","AdditionalData":[{"value":"United Kingdom","key":"CountryName"},{"value":"England","key":"StateName"},{"value":"Essex","key":"CountyName"}]},"MapReference":{"ReferenceId":"25898854","Spot":0.75,"SideOfStreet":"left","StateId":"20248595","CountyId":"20335385","CityId":"20335510","DistrictId":"20335511"}}},{"Relevance":1.0,"Distance":7.3,"MatchLevel":"houseNumber","MatchQuality":{"Country":1.0,"State":1.0,"County":1.0,"City":1.0,"District":1.0,"Street":[1.0],"HouseNumber":1.0,"PostalCode":1.0},"MatchType":"interpolated","Location":{"LocationId":"NT_PJo45xCwdiAGVuldJ6hhPA_l_719877829_L_ycD","LocationType":"point","DisplayPosition":{"Latitude":51.791085,"Longitude":1.156085},"MapView":{"TopLeft":{"Latitude":51.7922092,"Longitude":1.1542675},"BottomRight":{"Latitude":51.7899609,"Longitude":1.1579024}},"Address":{"Label":"27 Carnarvon Road, Clacton-on-Sea, CO15 6QF, United Kingdom","Country":"GBR","State":"England","County":"Essex","City":"Clacton-on-Sea","District":"Clacton-on-Sea","Street":"Carnarvon Road","HouseNumber":"27","PostalCode":"CO15 6QF","AdditionalData":[{"value":"United Kingdom","key":"CountryName"},{"value":"England","key":"StateName"},{"value":"Essex","key":"CountyName"}]},"MapReference":{"ReferenceId":"719877829","Spot":0.5,"SideOfStreet":"left","StateId":"20248595","CountyId":"20335385","CityId":"20335510","DistrictId":"20335511"}}},{"Relevance":1.0,"Distance":28.0,"MatchLevel":"postalCode","MatchQuality":{"PostalCode":1.0},"MatchType":"interpolated","Location":{"LocationId":"NT_pbZghOE7.TDvASjlEZ0K8A_l_25898854_L_2ED","LocationType":"point","DisplayPosition":{"Latitude":51.79075,"Longitude":1.15597},"MapView":{"TopLeft":{"Latitude":51.7997432,"Longitude":1.1414305},"BottomRight":{"Latitude":51.7817568,"Longitude":1.1705095}},"Address":{"Label":"CO15 1UQ, Clacton-on-Sea, England, United Kingdom","Country":"GBR","State":"England","County":"Essex","City":"Clacton-on-Sea","PostalCode":"CO15 1UQ","AdditionalData":[{"value":"United Kingdom","key":"CountryName"},{"value":"England","key":"StateName"},{"value":"Essex","key":"CountyName"}]},"MapReference":{"ReferenceId":"25898854","Spot":0.75,"SideOfStreet":"neither","StateId":"20248595","CountyId":"20335385","CityId":"20335510"}}},{"Relevance":1.0,"Distance":31.0,"MatchLevel":"houseNumber","MatchQuality":{"Country":1.0,"State":1.0,"County":1.0,"City":1.0,"District":1.0,"Street":[1.0],"HouseNumber":1.0,"PostalCode":1.0},"MatchType":"interpolated","Location":{"LocationId":"NT_PJo45xCwdiAGVuldJ6hhPA_l_1007134985_L_ykD","LocationType":"point","DisplayPosition":{"Latitude":51.7913601,"Longitude":1.1557899},"MapView":{"TopLeft":{"Latitude":51.7924842,"Longitude":1.1539724},"BottomRight":{"Latitude":51.7902359,"Longitude":1.1576074}},"Address":{"Label":"29 Carnarvon Road, Clacton-on-Sea, CO15 6EE, United Kingdom","Country":"GBR","State":"England","County":"Essex","City":"Clacton-on-Sea","District":"Clacton-on-Sea","Street":"Carnarvon Road","HouseNumber":"29","PostalCode":"CO15 6EE","AdditionalData":[{"value":"United Kingdom","key":"CountryName"},{"value":"England","key":"StateName"},{"value":"Essex","key":"CountyName"}]},"MapReference":{"ReferenceId":"1007134985","Spot":0.09,"SideOfStreet":"left","StateId":"20248595","CountyId":"20335385","CityId":"20335510","DistrictId":"20335511"}}},{"Relevance":1.0,"Distance":50.0,"MatchLevel":"houseNumber","MatchQuality":{"Country":1.0,"State":1.0,"County":1.0,"City":1.0,"District":1.0,"Street":[1.0],"HouseNumber":1.0,"PostalCode":1.0},"MatchType":"interpolated","Location":{"LocationId":"NT_PJo45xCwdiAGVuldJ6hhPA_l_25898877_L_yMD","LocationType":"point","DisplayPosition":{"Latitude":51.7907258,"Longitude":1.1564725},"MapView":{"TopLeft":{"Latitude":51.79185,"Longitude":1.1546551},"BottomRight":{"Latitude":51.7896017,"Longitude":1.1582899}},"Address":{"Label":"23 Carnarvon Road, Clacton-on-Sea, CO15 6PH, United Kingdom","Country":"GBR","State":"England","County":"Essex","City":"Clacton-on-Sea","District":"Clacton-on-Sea","Street":"Carnarvon Road","HouseNumber":"23","PostalCode":"CO15 6PH","AdditionalData":[{"value":"United Kingdom","key":"CountryName"},{"value":"England","key":"StateName"},{"value":"Essex","key":"CountyName"}]},"MapReference":{"ReferenceId":"25898877","Spot":0.84,"SideOfStreet":"left","StateId":"20248595","CountyId":"20335385","CityId":"20335510","DistrictId":"20335511"}}},{"Relevance":1.0,"Distance":50.9,"MatchLevel":"postalCode","MatchQuality":{"PostalCode":1.0},"MatchType":"interpolated","Location":{"LocationId":"NT_PJo45xCwdiAGVuldJ6hhPA_l_1007134985_L_ykD","LocationType":"point","DisplayPosition":{"Latitude":51.79143,"Longitude":1.15565},"MapView":{"TopLeft":{"Latitude":51.8004232,"Longitude":1.1411102},"BottomRight":{"Latitude":51.7824368,"Longitude":1.1701898}},"Address":{"Label":"CO15 6QF, Clacton-on-Sea, England, United Kingdom","Country":"GBR","State":"England","County":"Essex","City":"Clacton-on-Sea","PostalCode":"CO15 6QF","AdditionalData":[{"value":"United Kingdom","key":"CountryName"},{"value":"England","key":"StateName"},{"value":"Essex","key":"CountyName"}]},"MapReference":{"ReferenceId":"1007134985","Spot":0.09,"SideOfStreet":"neither","StateId":"20248595","CountyId":"20335385","CityId":"20335510"}}},{"Relevance":1.0,"Distance":56.1,"MatchLevel":"houseNumber","MatchQuality":{"Country":1.0,"State":1.0,"County":1.0,"City":1.0,"District":1.0,"Street":[1.0],"HouseNumber":1.0,"PostalCode":1.0},"MatchType":"interpolated","Location":{"LocationId":"NT_pbZghOE7.TDvASjlEZ0K8A_l_25900536_L_2MD","LocationType":"point","DisplayPosition":{"Latitude":51.791109,"Longitude":1.1566894},"MapView":{"TopLeft":{"Latitude":51.7922331,"Longitude":1.154872},"BottomRight":{"Latitude":51.7899848,"Longitude":1.1585069}},"Address":{"Label":"63 High Street, Clacton-on-Sea, CO15 1, United Kingdom","Country":"GBR","State":"England","County":"Essex","City":"Clacton-on-Sea","District":"Clacton-on-Sea","Street":"High Street","HouseNumber":"63","PostalCode":"CO15 1","AdditionalData":[{"value":"United Kingdom","key":"CountryName"},{"value":"England","key":"StateName"},{"value":"Essex","key":"CountyName"}]},"MapReference":{"ReferenceId":"25900536","Spot":0.5,"SideOfStreet":"left","StateId":"20248595","CountyId":"20335385","CityId":"20335510","DistrictId":"20335511"}}},{"Relevance":1.0,"Distance":59.6,"MatchLevel":"postalCode","MatchQuality":{"PostalCode":1.0},"MatchType":"interpolated","Location":{"LocationId":"NT_pbZghOE7.TDvASjlEZ0K8A_l_25900536_L_2MD","LocationType":"point","DisplayPosition":{"Latitude":51.79108,"Longitude":1.15675},"MapView":{"TopLeft":{"Latitude":51.8000732,"Longitude":1.1422104},"BottomRight":{"Latitude":51.7820868,"Longitude":1.1712896}},"Address":{"Label":"CO15 6PJ, Clacton-on-Sea, England, United Kingdom","Country":"GBR","State":"England","County":"Essex","City":"Clacton-on-Sea","PostalCode":"CO15 6PJ","AdditionalData":[{"value":"United Kingdom","key":"CountryName"},{"value":"England","key":"StateName"},{"value":"Essex","key":"CountyName"}]},"MapReference":{"ReferenceId":"25900536","Spot":0.5,"SideOfStreet":"neither","StateId":"20248595","CountyId":"20335385","CityId":"20335510"}}},{"Relevance":1.0,"Distance":66.7,"MatchLevel":"postalCode","MatchQuality":{"PostalCode":1.0},"MatchType":"interpolated","Location":{"LocationId":"NT_PJo45xCwdiAGVuldJ6hhPA_l_25898877_L_yMD","LocationType":"point","DisplayPosition":{"Latitude":51.79063,"Longitude":1.15666},"MapView":{"TopLeft":{"Latitude":51.7996232,"Longitude":1.1421205},"BottomRight":{"Latitude":51.7816368,"Longitude":1.1711995}},"Address":{"Label":"CO15 6EE, Clacton-on-Sea, England, United Kingdom","Country":"GBR","State":"England","County":"Essex","City":"Clacton-on-Sea","PostalCode":"CO15 6EE","AdditionalData":[{"value":"United Kingdom","key":"CountryName"},{"value":"England","key":"StateName"},{"value":"Essex","key":"CountyName"}]},"MapReference":{"ReferenceId":"25898877","Spot":0.84,"SideOfStreet":"neither","StateId":"20248595","CountyId":"20335385","CityId":"20335510"}}}]}]}}