{"Response":{"MetaInfo":{"Timestamp":"2020-03-28T10:03:25.365+0000","NextPageInformation":"2"},"View":[{"_type":"SearchResultsViewType","ViewId":0,"Result":[{"Relevance":1.0,"Distance":0.0,"Direction":0.0,"MatchLevel":"district","MatchQuality":{"Country":1.0,"State":1.0,"County":1.0,"City":1.0,"District":1.0,"PostalCode":1.0},"Location":{"LocationId":"NT_U7NJLr9H8nWPRtIGbjSOeB","LocationType":"point","DisplayPosition":{"Latitude":51.7265055,"Longitude":6.6784325},"MapView":{"TopLeft":{"Latitude":51.7331,"Longitude":6.67335},"BottomRight":{"Latitude":51.72145,"Longitude":6.69312}},"Address":{"Label":"Brünen, Hamminkeln, Nordrhein-Westfalen, Deutschland","Country":"DEU","State":"Nordrhein-Westfalen","County":"Wesel","City":"Hamminkeln","District":"Brünen","PostalCode":"46499","AdditionalData":[{"value":"Deutschland","key":"CountryName"},{"value":"Nordrhein-Westfalen","key":"StateName"},{"value":"Wesel","key":"CountyName"}]},"MapReference":{"ReferenceId":"51182458","SideOfStreet":"neither","CountryId":"20147700","StateId":"20157369","CountyId":"20157875","CityId":"20157889","DistrictId":"20157892"}}},{"Relevance":1.0,"Distance":11.8,"MatchLevel":"houseNumber","MatchQuality":{"Country":1.0,"State":1.0,"County":1.0,"City":1.0,"District":1.0,"Street":[1.0],"HouseNumber":1.0,"PostalCode":1.0},"MatchType":"interpolated","Location":{"LocationId":"NT_f25RsUCsIEwBfKuSafiLXD_4A","LocationType":"point","DisplayPosition":{"Latitude":51.72629,"Longitude":6.6784},"MapView":{"TopLeft":{"Latitude":51.7274142,"Longitude":6.6765852},"BottomRight":{"Latitude":51.7251658,"Longitude":6.6802148}},"Address":{"Label":"Hamminkelner Straße 8, 46499 Hamminkeln, Deutschland","Country":"DEU","State":"Nordrhein-Westfalen","County":"Wesel","City":"Hamminkeln","District":"Brünen","Street":"Hamminkelner Straße","HouseNumber":"8","PostalCode":"46499","AdditionalData":[{"value":"Deutschland","key":"CountryName"},{"value":"Nordrhein-Westfalen","key":"StateName"},{"value":"Wesel","key":"CountyName"}]},"MapReference":{"ReferenceId":"51511134","Spot":0.48,"SideOfStreet":"right","CountryId":"20147700","StateId":"20157369","CountyId":"20157875","CityId":"20157889","DistrictId":"20157892","AddressId":"195205885","RoadLinkId":"35089516"}}},{"Relevance":1.0,"Distance":27.6,"MatchLevel":"houseNumber","MatchQuality":{"Country":1.0,"State":1.0,"County":1.0,"City":1.0,"District":1.0,"Street":[1.0],"HouseNumber":1.0,"PostalCode":1.0},"MatchType":"interpolated","Location":{"LocationId":"NT_4CAluedrTUlYVfAuYd-lYD_xA","LocationType":"point","DisplayPosition":{"Latitude":51.7267,"Longitude":6.67879},"MapView":{"TopLeft":{"Latitude":51.7278242,"Longitude":6.6769751},"BottomRight":{"Latitude":51.7255758,"Longitude":6.6806049}},"Address":{"Label":"Schmidtskamp 1, 46499 Hamminkeln, Deutschland","Country":"DEU","State":"Nordrhein-Westfalen","County":"Wesel","City":"Hamminkeln","District":"Brünen","Street":"Schmidtskamp","HouseNumber":"1","PostalCode":"46499","AdditionalData":[{"value":"Deutschland","key":"CountryName"},{"value":"Nordrhein-Westfalen","key":"StateName"},{"value":"Wesel","key":"CountyName"}]},"MapReference":{"ReferenceId":"51182503","Spot":0.46,"SideOfStreet":"left","CountryId":"20147700","StateId":"20157369","CountyId":"20157875","CityId":"20157889","DistrictId":"20157892","AddressId":"192743886","RoadLinkId":"35661117"}}},{"Relevance":1.0,"Distance":44.3,"MatchLevel":"houseNumber","MatchQuality":{"Country":1.0,"State":1.0,"County":1.0,"City":1.0,"District":1.0,"Street":[1.0],"HouseNumber":1.0,"PostalCode":1.0},"MatchType":"interpolated","Location":{"LocationId":"NT_f25RsUCsIEwBfKuSafiLXD_yAD","LocationType":"point","DisplayPosition":{"Latitude":51.72642,"Longitude":6.67774},"MapView":{"TopLeft":{"Latitude":51.7275442,"Longitude":6.6759251},"BottomRight":{"Latitude":51.7252958,"Longitude":6.6795549}},"Address":{"Label":"Hamminkelner Straße 20, 46499 Hamminkeln, Deutschland","Country":"DEU","State":"Nordrhein-Westfalen","County":"Wesel","City":"Hamminkeln","District":"Brünen","Street":"Hamminkelner Straße","HouseNumber":"20","PostalCode":"46499","AdditionalData":[{"value":"Deutschland","key":"CountryName"},{"value":"Nordrhein-Westfalen","key":"StateName"},{"value":"Wesel","key":"CountyName"}]},"MapReference":{"ReferenceId":"836170538","Spot":0.49,"SideOfStreet":"right","CountryId":"20147700","StateId":"20157369","CountyId":"20157875","CityId":"20157889","DistrictId":"20157892","AddressId":"195810773","RoadLinkId":"219373229"}}},{"Relevance":1.0,"Distance":45.9,"MatchLevel":"houseNumber","MatchQuality":{"Country":1.0,"State":1.0,"County":1.0,"City":1.0,"District":1.0,"Street":[1.0],"HouseNumber":1.0,"PostalCode":1.0},"MatchType":"interpolated","Location":{"LocationId":"NT_crSDH58qVasxBaSv3KZwgD_yA","LocationType":"point","DisplayPosition":{"Latitude":51.72686,"Longitude":6.67794},"MapView":{"TopLeft":{"Latitude":51.7279842,"Longitude":6.6761251},"BottomRight":{"Latitude":51.7257358,"Longitude":6.6797549}},"Address":{"Label":"Bögerskamp 2, 46499 Hamminkeln, Deutschland","Country":"DEU","State":"Nordrhein-Westfalen","County":"Wesel","City":"Hamminkeln","District":"Brünen","Street":"Bögerskamp","HouseNumber":"2","PostalCode":"46499","AdditionalData":[{"value":"Deutschland","key":"CountryName"},{"value":"Nordrhein-Westfalen","key":"StateName"},{"value":"Wesel","key":"CountyName"}]},"MapReference":{"ReferenceId":"51511165","Spot":0.52,"SideOfStreet":"right","CountryId":"20147700","StateId":"20157369","CountyId":"20157875","CityId":"20157889","DistrictId":"20157892","AddressId":"195351092","RoadLinkId":"35730562"}}},{"Relevance":1.0,"Distance":60.3,"MatchLevel":"houseNumber","MatchQuality":{"Country":1.0,"State":1.0,"County":1.0,"City":1.0,"District":1.0,"Street":[1.0],"HouseNumber":1.0,"PostalCode":1.0},"MatchType":"interpolated","Location":{"LocationId":"NT_f25RsUCsIEwBfKuSafiLXD_0A","LocationType":"point","DisplayPosition":{"Latitude":51.72617,"Longitude":6.67912},"MapView":{"TopLeft":{"Latitude":51.7272942,"Longitude":6.6773052},"BottomRight":{"Latitude":51.7250458,"Longitude":6.6809348}},"Address":{"Label":"Hamminkelner Straße 4, 46499 Hamminkeln, Deutschland","Country":"DEU","State":"Nordrhein-Westfalen","County":"Wesel","City":"Hamminkeln","District":"Brünen","Street":"Hamminkelner Straße","HouseNumber":"4","PostalCode":"46499","AdditionalData":[{"value":"Deutschland","key":"CountryName"},{"value":"Nordrhein-Westfalen","key":"StateName"},{"value":"Wesel","key":"CountyName"}]},"MapReference":{"ReferenceId":"51182458","Spot":0.72,"SideOfStreet":"right","CountryId":"20147700","StateId":"20157369","CountyId":"20157875","CityId":"20157889","DistrictId":"20157892","AddressId":"195205459","RoadLinkId":"35214682"}}},{"Relevance":1.0,"Distance":66.3,"MatchLevel":"houseNumber","MatchQuality":{"Country":1.0,"State":1.0,"County":1.0,"City":1.0,"District":1.0,"Street":[1.0],"HouseNumber":1.0,"PostalCode":1.0},"MatchType":"interpolated","Location":{"LocationId":"NT_5gdizpXDEcGdjwqkFfIgBA_yEE","LocationType":"point","DisplayPosition":{"Latitude":51.72553,"Longitude":6.67811},"MapView":{"TopLeft":{"Latitude":51.7266542,"Longitude":6.6762952},"BottomRight":{"Latitude":51.7244058,"Longitude":6.6799248}},"Address":{"Label":"Bergstraße 2A, 46499 Hamminkeln, Deutschland","Country":"DEU","State":"Nordrhein-Westfalen","County":"Wesel","City":"Hamminkeln","District":"Brünen","Street":"Bergstraße","HouseNumber":"2A","PostalCode":"46499","AdditionalData":[{"value":"Deutschland","key":"CountryName"},{"value":"Nordrhein-Westfalen","key":"StateName"},{"value":"Wesel","key":"CountyName"}]},"MapReference":{"ReferenceId":"51182437","Spot":1.0,"SideOfStreet":"left","CountryId":"20147700","StateId":"20157369","CountyId":"20157875","CityId":"20157889","DistrictId":"20157892","AddressId":"249471957","RoadLinkId":"35380057"}}},{"Relevance":1.0,"Distance":67.5,"MatchLevel":"houseNumber","MatchQuality":{"Country":1.0,"State":1.0,"County":1.0,"City":1.0,"District":1.0,"Street":[1.0],"HouseNumber":1.0,"PostalCode":1.0},"MatchType":"interpolated","Location":{"LocationId":"NT_f25RsUCsIEwBfKuSafiLXD_yID","LocationType":"point","DisplayPosition":{"Latitude":51.72649,"Longitude":6.67741},"MapView":{"TopLeft":{"Latitude":51.7276142,"Longitude":6.6755951},"BottomRight":{"Latitude":51.7253658,"Longitude":6.6792249}},"Address":{"Label":"Hamminkelner Straße 22, 46499 Hamminkeln, Deutschland","Country":"DEU","State":"Nordrhein-Westfalen","County":"Wesel","City":"Hamminkeln","District":"Brünen","Street":"Hamminkelner Straße","HouseNumber":"22","PostalCode":"46499","AdditionalData":[{"value":"Deutschland","key":"CountryName"},{"value":"Nordrhein-Westfalen","key":"StateName"},{"value":"Wesel","key":"CountyName"}]},"MapReference":{"ReferenceId":"836170539","Spot":0.35,"SideOfStreet":"right","CountryId":"20147700","StateId":"20157369","CountyId":"20157875","CityId":"20157889","DistrictId":"20157892","AddressId":"195992363","RoadLinkId":"219373230"}}},{"Relevance":1.0,"Distance":74.4,"MatchLevel":"houseNumber","MatchQuality":{"Country":1.0,"State":1.0,"County":1.0,"City":1.0,"District":1.0,"Street":[1.0],"HouseNumber":1.0,"PostalCode":1.0},"MatchType":"interpolated","Location":{"LocationId":"NT_zF0pCzpnDyX8dAdKzAvGoC_xADMBB","LocationType":"point","DisplayPosition":{"Latitude":51.72563,"Longitude":6.67872},"MapView":{"TopLeft":{"Latitude":51.7267542,"Longitude":6.6769052},"BottomRight":{"Latitude":51.7245058,"Longitude":6.6805348}},"Address":{"Label":"Weseler Straße 100A, 46499 Hamminkeln, Deutschland","Country":"DEU","State":"Nordrhein-Westfalen","County":"Wesel","City":"Hamminkeln","District":"Brünen","Street":"Weseler Straße","HouseNumber":"100A","PostalCode":"46499","AdditionalData":[{"value":"Deutschland","key":"CountryName"},{"value":"Nordrhein-Westfalen","key":"StateName"},{"value":"Wesel","key":"CountyName"}]},"MapReference":{"ReferenceId":"954794168","Spot":0.42,"SideOfStreet":"left","CountryId":"20147700","StateId":"20157369","CountyId":"20157875","CityId":"20157889","DistrictId":"20157892","AddressId":"743376161","RoadLinkId":"298032167"}}},{"Relevance":1.0,"Distance":81.5,"MatchLevel":"houseNumber","MatchQuality":{"Country":1.0,"State":1.0,"County":1.0,"City":1.0,"District":1.0,"Street":[1.0],"HouseNumber":1.0,"PostalCode":1.0},"MatchType":"interpolated","Location":{"LocationId":"NT_kFzZihSnUxZEJKP-UpxPsB_2A","LocationType":"point","DisplayPosition":{"Latitude":51.72696,"Longitude":6.67965},"MapView":{"TopLeft":{"Latitude":51.7280842,"Longitude":6.6778351},"BottomRight":{"Latitude":51.7258358,"Longitude":6.6814649}},"Address":{"Label":"Jonas-Elkan-Weg 6, 46499 Hamminkeln, Deutschland","Country":"DEU","State":"Nordrhein-Westfalen","County":"Wesel","City":"Hamminkeln","District":"Brünen","Street":"Jonas-Elkan-Weg","HouseNumber":"6","PostalCode":"46499","AdditionalData":[{"value":"Deutschland","key":"CountryName"},{"value":"Nordrhein-Westfalen","key":"StateName"},{"value":"Wesel","key":"CountyName"}]},"MapReference":{"ReferenceId":"51511163","Spot":0.0,"SideOfStreet":"left","CountryId":"20147700","StateId":"20157369","CountyId":"20157875","CityId":"20157889","DistrictId":"20157892","AddressId":"249412191","RoadLinkId":"35260365"}}}]}]}}