{"Response":{"MetaInfo":{"Timestamp":"2020-03-28T10:32:57.490+0000","NextPageInformation":"2"},"View":[{"_type":"SearchResultsViewType","ViewId":0,"Result":[{"Relevance":1.0,"Distance":0.0,"Direction":0.0,"MatchLevel":"city","MatchQuality":{"Country":1.0,"State":1.0,"County":1.0,"City":1.0,"PostalCode":1.0},"Location":{"LocationId":"NT_kw8uL8iO6FKSGpYKg6NaQB","LocationType":"point","DisplayPosition":{"Latitude":51.7631708,"Longitude":-2.8503848},"MapView":{"TopLeft":{"Latitude":51.77814,"Longitude":-2.87473},"BottomRight":{"Latitude":51.75116,"Longitude":-2.83113}},"Address":{"Label":"Raglan, Wales, United Kingdom","Country":"GBR","State":"Wales","County":"Gwent","City":"Raglan","PostalCode":"NP15 2","AdditionalData":[{"value":"United Kingdom","key":"CountryName"},{"value":"Wales","key":"StateName"},{"value":"Gwent","key":"CountyName"}]},"MapReference":{"ReferenceId":"17353224","SideOfStreet":"neither","StateId":"20287683","CountyId":"20341601","CityId":"20341842"}}},{"Relevance":1.0,"Distance":14.7,"MatchLevel":"street","MatchQuality":{"Country":1.0,"State":1.0,"County":1.0,"City":1.0,"District":1.0,"Street":[1.0],"PostalCode":1.0},"Location":{"LocationId":"NT_-60Hn-PLc-oIRS5aiPFlAA_l_1180089302_R","LocationType":"point","DisplayPosition":{"Latitude":51.7630702,"Longitude":-2.8505226},"MapView":{"TopLeft":{"Latitude":51.76319,"Longitude":-2.85061},"BottomRight":{"Latitude":51.76282,"Longitude":-2.85034}},"Address":{"Label":"Chepstow Road, Raglan, NP15 2, United Kingdom","Country":"GBR","State":"Wales","County":"Gwent","City":"Raglan","District":"Raglan","Street":"Chepstow Road","PostalCode":"NP15 2","AdditionalData":[{"value":"United Kingdom","key":"CountryName"},{"value":"Wales","key":"StateName"},{"value":"Gwent","key":"CountyName"}]},"MapReference":{"ReferenceId":"1180089302","Spot":0.68,"SideOfStreet":"right","StateId":"20287683","CountyId":"20341601","CityId":"20341842","DistrictId":"20341843"}}},{"Relevance":1.0,"Distance":15.6,"MatchLevel":"street","MatchQuality":{"Country":1.0,"State":1.0,"County":1.0,"City":1.0,"District":1.0,"Street":[1.0],"PostalCode":1.0},"Location":{"LocationId":"NT_rsq39SbRZJPIo6mmYUxISA_l_17353376_R","LocationType":"point","DisplayPosition":{"Latitude":51.76319,"Longitude":-2.85061},"MapView":{"TopLeft":{"Latitude":51.76319,"Longitude":-2.85157},"BottomRight":{"Latitude":51.76297,"Longitude":-2.85061}},"Address":{"Label":"Fayre Oaks, Raglan, NP15 2, United Kingdom","Country":"GBR","State":"Wales","County":"Gwent","City":"Raglan","District":"Raglan","Street":"Fayre Oaks","PostalCode":"NP15 2","AdditionalData":[{"value":"United Kingdom","key":"CountryName"},{"value":"Wales","key":"StateName"},{"value":"Gwent","key":"CountyName"}]},"MapReference":{"ReferenceId":"17353376","Spot":1.0,"SideOfStreet":"right","StateId":"20287683","CountyId":"20341601","CityId":"20341842","DistrictId":"20341843"}}},{"Relevance":1.0,"Distance":15.6,"MatchLevel":"street","MatchQuality":{"Country":1.0,"State":1.0,"County":1.0,"City":1.0,"District":1.0,"Street":[1.0],"PostalCode":1.0},"Location":{"LocationId":"NT_-60Hn-PLc-oIRS5aiPFlAA_l_17353359_R","LocationType":"point","DisplayPosition":{"Latitude":51.76319,"Longitude":-2.85061},"MapView":{"TopLeft":{"Latitude":51.76482,"Longitude":-2.8521},"BottomRight":{"Latitude":51.76319,"Longitude":-2.85061}},"Address":{"Label":"Chepstow Road, Raglan, NP15 2, United Kingdom","Country":"GBR","State":"Wales","County":"Gwent","City":"Raglan","District":"Raglan","Street":"Chepstow Road","PostalCode":"NP15 2","AdditionalData":[{"value":"United Kingdom","key":"CountryName"},{"value":"Wales","key":"StateName"},{"value":"Gwent","key":"CountyName"}]},"MapReference":{"ReferenceId":"17353359","Spot":0.0,"SideOfStreet":"right","StateId":"20287683","CountyId":"20341601","CityId":"20341842","DistrictId":"20341843"}}},{"Relevance":1.0,"Distance":39.1,"MatchLevel":"street","MatchQuality":{"Country":1.0,"State":1.0,"County":1.0,"City":1.0,"District":1.0,"Street":[1.0],"PostalCode":1.0},"Location":{"LocationId":"NT_-60Hn-PLc-oIRS5aiPFlAA_l_1180089304_R","LocationType":"point","DisplayPosition":{"Latitude":51.76282,"Longitude":-2.85034},"MapView":{"TopLeft":{"Latitude":51.76282,"Longitude":-2.85034},"BottomRight":{"Latitude":51.76161,"Longitude":-2.84978}},"Address":{"Label":"Chepstow Road, Raglan, NP15 2, United Kingdom","Country":"GBR","State":"Wales","County":"Gwent","City":"Raglan","District":"Raglan","Street":"Chepstow Road","PostalCode":"NP15 2","AdditionalData":[{"value":"United Kingdom","key":"CountryName"},{"value":"Wales","key":"StateName"},{"value":"Gwent","key":"CountyName"}]},"MapReference":{"ReferenceId":"1180089304","Spot":1.0,"SideOfStreet":"right","StateId":"20287683","CountyId":"20341601","CityId":"20341842","DistrictId":"20341843"}}},{"Relevance":1.0,"Distance":50.8,"MatchLevel":"postalCode","MatchQuality":{"PostalCode":1.0},"Location":{"LocationId":"NT_-60Hn-PLc-oIRS5aiPFlAA_l_17353359_R","LocationType":"point","DisplayPosition":{"Latitude":51.76352,"Longitude":-2.85086},"MapView":{"TopLeft":{"Latitude":51.7725132,"Longitude":-2.8653908},"BottomRight":{"Latitude":51.7545268,"Longitude":-2.8363292}},"Address":{"Label":"NP15 2EN, Raglan, Wales, United Kingdom","Country":"GBR","State":"Wales","County":"Gwent","City":"Raglan","PostalCode":"NP15 2EN","AdditionalData":[{"value":"United Kingdom","key":"CountryName"},{"value":"Wales","key":"StateName"},{"value":"Gwent","key":"CountyName"}]},"MapReference":{"ReferenceId":"17353359","Spot":0.0,"SideOfStreet":"neither","StateId":"20287683","CountyId":"20341601","CityId":"20341842"}}},{"Relevance":1.0,"Distance":84.6,"MatchLevel":"street","MatchQuality":{"Country":1.0,"State":1.0,"County":1.0,"City":1.0,"District":1.0,"Street":[1.0],"PostalCode":1.0},"Location":{"LocationId":"NT_Sjr.6Ut2m.UFKgJQ0M8myA_l_17353377_R","LocationType":"point","DisplayPosition":{"Latitude":51.76297,"Longitude":-2.85157},"MapView":{"TopLeft":{"Latitude":51.76347,"Longitude":-2.85197},"BottomRight":{"Latitude":51.76297,"Longitude":-2.85157}},"Address":{"Label":"The Beeches, Raglan, NP15 2, United Kingdom","Country":"GBR","State":"Wales","County":"Gwent","City":"Raglan","District":"Raglan","Street":"The Beeches","PostalCode":"NP15 2","AdditionalData":[{"value":"United Kingdom","key":"CountryName"},{"value":"Wales","key":"StateName"},{"value":"Gwent","key":"CountyName"}]},"MapReference":{"ReferenceId":"17353377","Spot":0.0,"SideOfStreet":"right","StateId":"20287683","CountyId":"20341601","CityId":"20341842","DistrictId":"20341843"}}},{"Relevance":1.0,"Distance":95.7,"MatchLevel":"postalCode","MatchQuality":{"PostalCode":1.0},"Location":{"LocationId":"NT_Sjr.6Ut2m.UFKgJQ0M8myA_l_17353377_R","LocationType":"point","DisplayPosition":{"Latitude":51.7633,"Longitude":-2.85176},"MapView":{"TopLeft":{"Latitude":51.7722932,"Longitude":-2.8662907},"BottomRight":{"Latitude":51.7543068,"Longitude":-2.8372293}},"Address":{"Label":"NP15 2HE, Raglan, Wales, United Kingdom","Country":"GBR","State":"Wales","County":"Gwent","City":"Raglan","PostalCode":"NP15 2HE","AdditionalData":[{"value":"United Kingdom","key":"CountryName"},{"value":"Wales","key":"StateName"},{"value":"Gwent","key":"CountyName"}]},"MapReference":{"ReferenceId":"17353377","Spot":0.0,"SideOfStreet":"neither","StateId":"20287683","CountyId":"20341601","CityId":"20341842"}}},{"Relevance":1.0,"Distance":98.2,"MatchLevel":"houseNumber","MatchQuality":{"Country":1.0,"State":1.0,"County":1.0,"City":1.0,"District":1.0,"Street":[1.0],"HouseNumber":1.0,"PostalCode":1.0},"MatchType":"interpolated","Location":{"LocationId":"NT_seMIFSFyrREIoLpEL5Q4XC_l_1039547820_R_zYD","LocationType":"point","DisplayPosition":{"Latitude":51.762875,"Longitude":-2.85173},"MapView":{"TopLeft":{"Latitude":51.7639992,"Longitude":-2.8535463},"BottomRight":{"Latitude":51.7617509,"Longitude":-2.8499137}},"Address":{"Label":"36 Fayre Oaks, Raglan, NP15 2HA, United Kingdom","Country":"GBR","State":"Wales","County":"Gwent","City":"Raglan","District":"Raglan","Street":"Fayre Oaks","HouseNumber":"36","PostalCode":"NP15 2HA","AdditionalData":[{"value":"United Kingdom","key":"CountryName"},{"value":"Wales","key":"StateName"},{"value":"Gwent","key":"CountyName"}]},"MapReference":{"ReferenceId":"1039547820","Spot":0.5,"SideOfStreet":"right","StateId":"20287683","CountyId":"20341601","CityId":"20341842","DistrictId":"20341843"}}},{"Relevance":1.0,"Distance":108.8,"MatchLevel":"houseNumber","MatchQuality":{"Country":1.0,"State":1.0,"County":1.0,"City":1.0,"District":1.0,"Street":[1.0],"HouseNumber":1.0,"PostalCode":1.0},"MatchType":"interpolated","Location":{"LocationId":"NT_JeF5bEZkBhXFkT83aAjd4D_l_1039547821_R_yA","LocationType":"point","DisplayPosition":{"Latitude":51.76288,"Longitude":-2.8520301},"MapView":{"TopLeft":{"Latitude":51.7640042,"Longitude":-2.8538464},"BottomRight":{"Latitude":51.7617559,"Longitude":-2.8502137}},"Address":{"Label":"2 The Hawthorns, Raglan, NP15 2HF, United Kingdom","Country":"GBR","State":"Wales","County":"Gwent","City":"Raglan","District":"Raglan","Street":"The Hawthorns","HouseNumber":"2","PostalCode":"NP15 2HF","AdditionalData":[{"value":"United Kingdom","key":"CountryName"},{"value":"Wales","key":"StateName"},{"value":"Gwent","key":"CountyName"}]},"MapReference":{"ReferenceId":"1039547821","Spot":0.25,"SideOfStreet":"right","StateId":"20287683","CountyId":"20341601","CityId":"20341842","DistrictId":"20341843"}}}]}]}}