{"Response":{"MetaInfo":{"Timestamp":"2020-03-28T10:24:37.098+0000","NextPageInformation":"2"},"View":[{"_type":"SearchResultsViewType","ViewId":0,"Result":[{"Relevance":1.0,"Distance":0.0,"Direction":0.0,"MatchLevel":"district","MatchQuality":{"Country":1.0,"State":1.0,"County":1.0,"City":1.0,"District":1.0,"PostalCode":1.0},"Location":{"LocationId":"NT_DSnz-qSURiQX3jjUFAIjMB","LocationType":"point","DisplayPosition":{"Latitude":51.7881236,"Longitude":6.0118275},"MapView":{"TopLeft":{"Latitude":51.79274,"Longitude":5.9945},"BottomRight":{"Latitude":51.77295,"Longitude":6.02845}},"Address":{"Label":"Kranenburg, Nordrhein-Westfalen, Deutschland","Country":"DEU","State":"Nordrhein-Westfalen","County":"Kleve","City":"Kranenburg","District":"Kranenburg","PostalCode":"47559","AdditionalData":[{"value":"Deutschland","key":"CountryName"},{"value":"Nordrhein-Westfalen","key":"StateName"},{"value":"Kleve","key":"CountyName"}]},"MapReference":{"ReferenceId":"74586098","SideOfStreet":"neither","CountryId":"20147700","StateId":"20157369","CountyId":"20157516","CityId":"20157590","DistrictId":"20157594"}}},{"Relevance":1.0,"Distance":8.7,"MatchLevel":"houseNumber","MatchQuality":{"Country":1.0,"State":1.0,"County":1.0,"City":1.0,"District":1.0,"Street":[1.0],"HouseNumber":1.0,"PostalCode":1.0},"MatchType":"interpolated","Location":{"LocationId":"NT_mWN7DKuD0FaCUt9919mnmD_xAD","LocationType":"point","DisplayPosition":{"Latitude":51.78829,"Longitude":6.01206},"MapView":{"TopLeft":{"Latitude":51.7894142,"Longitude":6.0102427},"BottomRight":{"Latitude":51.7871658,"Longitude":6.0138773}},"Address":{"Label":"Klever Straße 10, 47559 Kranenburg, Deutschland","Country":"DEU","State":"Nordrhein-Westfalen","County":"Kleve","City":"Kranenburg","District":"Kranenburg","Street":"Klever Straße","HouseNumber":"10","PostalCode":"47559","AdditionalData":[{"value":"Deutschland","key":"CountryName"},{"value":"Nordrhein-Westfalen","key":"StateName"},{"value":"Kleve","key":"CountyName"}]},"MapReference":{"ReferenceId":"1195520942","Spot":0.95,"SideOfStreet":"left","CountryId":"20147700","StateId":"20157369","CountyId":"20157516","CityId":"20157590","DistrictId":"20157594","AddressId":"192868248","RoadLinkId":"505768897"}}},{"Relevance":1.0,"Distance":12.8,"MatchLevel":"houseNumber","MatchQuality":{"Country":1.0,"State":1.0,"County":1.0,"City":1.0,"District":1.0,"Street":[1.0],"HouseNumber":1.0,"PostalCode":1.0},"MatchType":"interpolated","Location":{"LocationId":"NT_phKGREDWQTnQXLQ6CmfTkA_yA","LocationType":"point","DisplayPosition":{"Latitude":51.78803,"Longitude":6.01213},"MapView":{"TopLeft":{"Latitude":51.7891542,"Longitude":6.0103127},"BottomRight":{"Latitude":51.7869058,"Longitude":6.0139473}},"Address":{"Label":"Paulistraße 2, 47559 Kranenburg, Deutschland","Country":"DEU","State":"Nordrhein-Westfalen","County":"Kleve","City":"Kranenburg","District":"Kranenburg","Street":"Paulistraße","HouseNumber":"2","PostalCode":"47559","AdditionalData":[{"value":"Deutschland","key":"CountryName"},{"value":"Nordrhein-Westfalen","key":"StateName"},{"value":"Kleve","key":"CountyName"}]},"MapReference":{"ReferenceId":"76189370","Spot":0.74,"SideOfStreet":"left","CountryId":"20147700","StateId":"20157369","CountyId":"20157516","CityId":"20157590","DistrictId":"20157594","AddressId":"192789118","RoadLinkId":"35029206"}}},{"Relevance":1.0,"Distance":17.2,"MatchLevel":"houseNumber","MatchQuality":{"Country":1.0,"State":1.0,"County":1.0,"City":1.0,"District":1.0,"Street":[1.0],"HouseNumber":1.0,"PostalCode":1.0},"MatchType":"interpolated","Location":{"LocationId":"NT_mWN7DKuD0FaCUt9919mnmD_4A","LocationType":"point","DisplayPosition":{"Latitude":51.78838,"Longitude":6.01185},"MapView":{"TopLeft":{"Latitude":51.7895042,"Longitude":6.0100327},"BottomRight":{"Latitude":51.7872558,"Longitude":6.0136673}},"Address":{"Label":"Klever Straße 8, 47559 Kranenburg, Deutschland","Country":"DEU","State":"Nordrhein-Westfalen","County":"Kleve","City":"Kranenburg","District":"Kranenburg","Street":"Klever Straße","HouseNumber":"8","PostalCode":"47559","AdditionalData":[{"value":"Deutschland","key":"CountryName"},{"value":"Nordrhein-Westfalen","key":"StateName"},{"value":"Kleve","key":"CountyName"}]},"MapReference":{"ReferenceId":"1195520943","Spot":0.27,"SideOfStreet":"left","CountryId":"20147700","StateId":"20157369","CountyId":"20157516","CityId":"20157590","DistrictId":"20157594","AddressId":"195248683","RoadLinkId":"505768898"}}},{"Relevance":1.0,"Distance":55.3,"MatchLevel":"houseNumber","MatchQuality":{"Country":1.0,"State":1.0,"County":1.0,"City":1.0,"District":1.0,"Street":[1.0],"HouseNumber":1.0,"PostalCode":1.0},"MatchType":"interpolated","Location":{"LocationId":"NT_mWN7DKuD0FaCUt9919mnmD_xED","LocationType":"point","DisplayPosition":{"Latitude":51.78804,"Longitude":6.01262},"MapView":{"TopLeft":{"Latitude":51.7891642,"Longitude":6.0108027},"BottomRight":{"Latitude":51.7869158,"Longitude":6.0144373}},"Address":{"Label":"Klever Straße 11, 47559 Kranenburg, Deutschland","Country":"DEU","State":"Nordrhein-Westfalen","County":"Kleve","City":"Kranenburg","District":"Kranenburg","Street":"Klever Straße","HouseNumber":"11","PostalCode":"47559","AdditionalData":[{"value":"Deutschland","key":"CountryName"},{"value":"Nordrhein-Westfalen","key":"StateName"},{"value":"Kleve","key":"CountyName"}]},"MapReference":{"ReferenceId":"74584704","Spot":0.54,"SideOfStreet":"right","CountryId":"20147700","StateId":"20157369","CountyId":"20157516","CityId":"20157590","DistrictId":"20157594","AddressId":"193476929","RoadLinkId":"35146255"}}},{"Relevance":1.0,"Distance":62.2,"MatchLevel":"street","MatchQuality":{"Country":1.0,"State":1.0,"County":1.0,"City":1.0,"District":1.0,"Street":[1.0],"PostalCode":1.0},"Location":{"LocationId":"NT_Hs3ldPSabZveJRw1WDxLWD_l_76189371_R","LocationType":"point","DisplayPosition":{"Latitude":51.7875814,"Longitude":6.0116072},"MapView":{"TopLeft":{"Latitude":51.78782,"Longitude":6.01102},"BottomRight":{"Latitude":51.78756,"Longitude":6.01166}},"Address":{"Label":"Dechant-Brey-Straße, 47559 Kranenburg, Deutschland","Country":"DEU","State":"Nordrhein-Westfalen","County":"Kleve","City":"Kranenburg","District":"Kranenburg","Street":"Dechant-Brey-Straße","PostalCode":"47559","AdditionalData":[{"value":"Deutschland","key":"CountryName"},{"value":"Nordrhein-Westfalen","key":"StateName"},{"value":"Kleve","key":"CountyName"}]},"MapReference":{"ReferenceId":"76189371","Spot":0.08,"SideOfStreet":"right","CountryId":"20147700","StateId":"20157369","CountyId":"20157516","CityId":"20157590","DistrictId":"20157594"}}},{"Relevance":1.0,"Distance":65.7,"MatchLevel":"street","MatchQuality":{"Country":1.0,"State":1.0,"County":1.0,"City":1.0,"District":1.0,"PostalCode":1.0},"Location":{"LocationId":"NT_X7T8jeZVe4IhcvdHB6iFSD_l_76189376_L","LocationType":"point","DisplayPosition":{"Latitude":51.78862,"Longitude":6.01131},"MapView":{"TopLeft":{"Latitude":51.78872,"Longitude":6.0111},"BottomRight":{"Latitude":51.7886,"Longitude":6.01131}},"Address":{"Label":"47559 Kranenburg, Deutschland","Country":"DEU","State":"Nordrhein-Westfalen","County":"Kleve","City":"Kranenburg","District":"Kranenburg","PostalCode":"47559","AdditionalData":[{"value":"Deutschland","key":"CountryName"},{"value":"Nordrhein-Westfalen","key":"StateName"},{"value":"Kleve","key":"CountyName"}]},"MapReference":{"ReferenceId":"76189376","Spot":0.0,"SideOfStreet":"left","CountryId":"20147700","StateId":"20157369","CountyId":"20157516","CityId":"20157590","DistrictId":"20157594"}}},{"Relevance":1.0,"Distance":65.7,"MatchLevel":"street","MatchQuality":{"Country":1.0,"State":1.0,"County":1.0,"City":1.0,"District":1.0,"PostalCode":1.0},"Location":{"LocationId":"NT_X7T8jeZVe4IhcvdHB6iFSD_l_76189377_R","LocationType":"point","DisplayPosition":{"Latitude":51.78862,"Longitude":6.01131},"MapView":{"TopLeft":{"Latitude":51.78875,"Longitude":6.01127},"BottomRight":{"Latitude":51.78862,"Longitude":6.01134}},"Address":{"Label":"47559 Kranenburg, Deutschland","Country":"DEU","State":"Nordrhein-Westfalen","County":"Kleve","City":"Kranenburg","District":"Kranenburg","PostalCode":"47559","AdditionalData":[{"value":"Deutschland","key":"CountryName"},{"value":"Nordrhein-Westfalen","key":"StateName"},{"value":"Kleve","key":"CountyName"}]},"MapReference":{"ReferenceId":"76189377","Spot":0.0,"SideOfStreet":"right","CountryId":"20147700","StateId":"20157369","CountyId":"20157516","CityId":"20157590","DistrictId":"20157594"}}},{"Relevance":1.0,"Distance":69.9,"MatchLevel":"houseNumber","MatchQuality":{"Country":1.0,"State":1.0,"County":1.0,"City":1.0,"District":1.0,"Street":[1.0],"HouseNumber":1.0,"PostalCode":1.0},"MatchType":"interpolated","Location":{"LocationId":"NT_phKGREDWQTnQXLQ6CmfTkA_4A","LocationType":"point","DisplayPosition":{"Latitude":51.78751,"Longitude":6.01161},"MapView":{"TopLeft":{"Latitude":51.7886342,"Longitude":6.0097927},"BottomRight":{"Latitude":51.7863858,"Longitude":6.0134273}},"Address":{"Label":"Paulistraße 8, 47559 Kranenburg, Deutschland","Country":"DEU","State":"Nordrhein-Westfalen","County":"Kleve","City":"Kranenburg","District":"Kranenburg","Street":"Paulistraße","HouseNumber":"8","PostalCode":"47559","AdditionalData":[{"value":"Deutschland","key":"CountryName"},{"value":"Nordrhein-Westfalen","key":"StateName"},{"value":"Kleve","key":"CountyName"}]},"MapReference":{"ReferenceId":"76189369","Spot":0.96,"SideOfStreet":"left","CountryId":"20147700","StateId":"20157369","CountyId":"20157516","CityId":"20157590","DistrictId":"20157594","AddressId":"193198079","RoadLinkId":"35498631"}}},{"Relevance":1.0,"Distance":70.2,"MatchLevel":"houseNumber","MatchQuality":{"Country":1.0,"State":1.0,"County":1.0,"City":1.0,"District":1.0,"Street":[1.0],"HouseNumber":1.0,"PostalCode":1.0},"MatchType":"interpolated","Location":{"LocationId":"NT_Hs3ldPSabZveJRw1WDxLWD_1A","LocationType":"point","DisplayPosition":{"Latitude":51.78791,"Longitude":6.01081},"MapView":{"TopLeft":{"Latitude":51.7890342,"Longitude":6.0089927},"BottomRight":{"Latitude":51.7867858,"Longitude":6.0126273}},"Address":{"Label":"Dechant-Brey-Straße 5, 47559 Kranenburg, Deutschland","Country":"DEU","State":"Nordrhein-Westfalen","County":"Kleve","City":"Kranenburg","District":"Kranenburg","Street":"Dechant-Brey-Straße","HouseNumber":"5","PostalCode":"47559","AdditionalData":[{"value":"Deutschland","key":"CountryName"},{"value":"Nordrhein-Westfalen","key":"StateName"},{"value":"Kleve","key":"CountyName"}]},"MapReference":{"ReferenceId":"76189372","Spot":1.0,"SideOfStreet":"right","CountryId":"20147700","StateId":"20157369","CountyId":"20157516","CityId":"20157590","DistrictId":"20157594","AddressId":"249415843","RoadLinkId":"34934131"}}}]}]}}