{"Response":{"MetaInfo":{"Timestamp":"2020-03-31T17:03:51.814+0000","NextPageInformation":"2"},"View":[{"_type":"SearchResultsViewType","ViewId":0,"Result":[{"Relevance":1.0,"Distance":0.0,"Direction":0.0,"MatchLevel":"district","MatchQuality":{"Country":1.0,"County":1.0,"City":1.0,"District":1.0,"PostalCode":1.0},"Location":{"LocationId":"NT_ExriiSSwNCkirs.biZdibD","LocationType":"point","DisplayPosition":{"Latitude":51.7075,"Longitude":-8.5306},"MapView":{"TopLeft":{"Latitude":51.71553,"Longitude":-8.54338},"BottomRight":{"Latitude":51.6942,"Longitude":-8.4907}},"Address":{"Label":"Kinsale, Ireland","Country":"IRL","County":"County Cork","City":"Kinsale","District":"Kinsale","AdditionalData":[{"value":"Ireland","key":"CountryName"},{"value":"County Cork","key":"CountyName"}]},"MapReference":{"ReferenceId":"589030855","SideOfStreet":"neither","CountryId":"20403667","CountyId":"20411183","CityId":"20514491","DistrictId":"20514642"}}},{"Relevance":1.0,"Distance":24.8,"MatchLevel":"houseNumber","MatchQuality":{"Country":1.0,"County":1.0,"City":1.0,"District":1.0,"Street":[1.0],"HouseNumber":1.0,"PostalCode":1.0},"MatchType":"interpolated","Location":{"LocationId":"NT_mOkMf2CdTZq0-E9YMZWGrC_yUD","LocationType":"point","DisplayPosition":{"Latitude":51.70759,"Longitude":-8.53112},"MapView":{"TopLeft":{"Latitude":51.7087142,"Longitude":-8.5329341},"BottomRight":{"Latitude":51.7064658,"Longitude":-8.5293059}},"Address":{"Label":"25 Abbeycourt, Kinsale, County Cork, P17 V046, Ireland","Country":"IRL","County":"County Cork","City":"Kinsale","District":"Kinsale","Street":"Abbeycourt","HouseNumber":"25","PostalCode":"P17 V046","AdditionalData":[{"value":"Ireland","key":"CountryName"},{"value":"County Cork","key":"CountyName"}]},"MapReference":{"ReferenceId":"589022425","Spot":1.0,"SideOfStreet":"right","CountryId":"20403667","CountyId":"20411183","CityId":"20514491","DistrictId":"20514642","AddressId":"214233974","RoadLinkId":"86610246"}}},{"Relevance":1.0,"Distance":35.6,"MatchLevel":"postalCode","MatchQuality":{"PostalCode":1.0},"MatchType":"interpolated","Location":{"LocationId":"NT_mOkMf2CdTZq0-E9YMZWGrC_yUD","LocationType":"point","DisplayPosition":{"Latitude":51.70745,"Longitude":-8.53111},"MapView":{"TopLeft":{"Latitude":51.7164432,"Longitude":-8.5456227},"BottomRight":{"Latitude":51.6984568,"Longitude":-8.5165973}},"Address":{"Label":"P17 X564, Kinsale, Ireland","Country":"IRL","County":"County Cork","City":"Kinsale","PostalCode":"P17 X564","AdditionalData":[{"value":"Ireland","key":"CountryName"},{"value":"County Cork","key":"CountyName"}]},"MapReference":{"ReferenceId":"589022425","Spot":1.0,"SideOfStreet":"neither","CountryId":"20403667","CountyId":"20411183","CityId":"20514491"}}},{"Relevance":1.0,"Distance":36.4,"MatchLevel":"houseNumber","MatchQuality":{"Country":1.0,"County":1.0,"City":1.0,"District":1.0,"Street":[1.0],"PostalCode":1.0},"MatchType":"interpolated","Location":{"LocationId":"NT_HuwBWJZDDByz6Ccy7Oew2B","LocationType":"point","DisplayPosition":{"Latitude":51.70793,"Longitude":-8.53024},"MapView":{"TopLeft":{"Latitude":51.7090542,"Longitude":-8.5320541},"BottomRight":{"Latitude":51.7068058,"Longitude":-8.5284259}},"Address":{"Label":"\"Tara\" Bandon Road, Kinsale, County Cork, P17 YA29, Ireland","Country":"IRL","County":"County Cork","City":"Kinsale","District":"Kinsale","Street":"Bandon Road","PostalCode":"P17 YA29","AdditionalData":[{"value":"Ireland","key":"CountryName"},{"value":"County Cork","key":"CountyName"}],"Building":"Tara"},"MapReference":{"ReferenceId":"850372238","Spot":0.13,"SideOfStreet":"left","CountryId":"20403667","CountyId":"20411183","CityId":"20514491","DistrictId":"20514642","AddressId":"743664525","RoadLinkId":"229835096"}}},{"Relevance":1.0,"Distance":40.9,"MatchLevel":"houseNumber","MatchQuality":{"Country":1.0,"County":1.0,"City":1.0,"District":1.0,"Street":[1.0],"HouseNumber":1.0,"PostalCode":1.0},"MatchType":"interpolated","Location":{"LocationId":"NT_mOkMf2CdTZq0-E9YMZWGrC_yQD","LocationType":"point","DisplayPosition":{"Latitude":51.70703,"Longitude":-8.53081},"MapView":{"TopLeft":{"Latitude":51.7081542,"Longitude":-8.5326241},"BottomRight":{"Latitude":51.7059058,"Longitude":-8.5289959}},"Address":{"Label":"24 Abbeycourt, Kinsale, County Cork, P17 KR99, Ireland","Country":"IRL","County":"County Cork","City":"Kinsale","District":"Kinsale","Street":"Abbeycourt","HouseNumber":"24","PostalCode":"P17 KR99","AdditionalData":[{"value":"Ireland","key":"CountryName"},{"value":"County Cork","key":"CountyName"}]},"MapReference":{"ReferenceId":"589022428","Spot":0.06,"SideOfStreet":"right","CountryId":"20403667","CountyId":"20411183","CityId":"20514491","DistrictId":"20514642","AddressId":"214150823","RoadLinkId":"86527943"}}},{"Relevance":1.0,"Distance":47.7,"MatchLevel":"street","MatchQuality":{"Country":1.0,"County":1.0,"City":1.0,"District":1.0,"Street":[1.0],"PostalCode":1.0},"Location":{"LocationId":"NT_Y9V-Ggqsi9Zhptc2ljlr9B_l_850372239_L","LocationType":"point","DisplayPosition":{"Latitude":51.70763,"Longitude":-8.52994},"MapView":{"TopLeft":{"Latitude":51.70793,"Longitude":-8.52994},"BottomRight":{"Latitude":51.70748,"Longitude":-8.52991}},"Address":{"Label":"Westwood Gardens, Kinsale, County Cork, P17, Ireland","Country":"IRL","County":"County Cork","City":"Kinsale","District":"Kinsale","Street":"Westwood Gardens","PostalCode":"P17","AdditionalData":[{"value":"Ireland","key":"CountryName"},{"value":"County Cork","key":"CountyName"}]},"MapReference":{"ReferenceId":"850372239","Spot":0.34,"SideOfStreet":"left","CountryId":"20403667","CountyId":"20411183","CityId":"20514491","DistrictId":"20514642"}}},{"Relevance":1.0,"Distance":66.9,"MatchLevel":"street","MatchQuality":{"Country":1.0,"County":1.0,"City":1.0,"District":1.0,"Street":[1.0],"PostalCode":1.0},"Location":{"LocationId":"NT_HuwBWJZDDByz6Ccy7Oew2B_l_850372237_L","LocationType":"point","DisplayPosition":{"Latitude":51.70793,"Longitude":-8.52992},"MapView":{"TopLeft":{"Latitude":51.70793,"Longitude":-8.52992},"BottomRight":{"Latitude":51.70792,"Longitude":-8.52945}},"Address":{"Label":"Bandon Road, Kinsale, County Cork, P17, Ireland","Country":"IRL","County":"County Cork","City":"Kinsale","District":"Kinsale","Street":"Bandon Road","PostalCode":"P17","AdditionalData":[{"value":"Ireland","key":"CountryName"},{"value":"County Cork","key":"CountyName"}]},"MapReference":{"ReferenceId":"850372237","Spot":1.0,"SideOfStreet":"left","CountryId":"20403667","CountyId":"20411183","CityId":"20514491","DistrictId":"20514642"}}},{"Relevance":1.0,"Distance":68.9,"MatchLevel":"postalCode","MatchQuality":{"PostalCode":1.0},"MatchType":"interpolated","Location":{"LocationId":"NT_mOkMf2CdTZq0-E9YMZWGrC_yQD","LocationType":"point","DisplayPosition":{"Latitude":51.70709,"Longitude":-8.53135},"MapView":{"TopLeft":{"Latitude":51.7160832,"Longitude":-8.5458626},"BottomRight":{"Latitude":51.6980968,"Longitude":-8.5168374}},"Address":{"Label":"P17 VW52, Kinsale, Ireland","Country":"IRL","County":"County Cork","City":"Kinsale","PostalCode":"P17 VW52","AdditionalData":[{"value":"Ireland","key":"CountryName"},{"value":"County Cork","key":"CountyName"}]},"MapReference":{"ReferenceId":"589022428","Spot":0.06,"SideOfStreet":"neither","CountryId":"20403667","CountyId":"20411183","CityId":"20514491"}}},{"Relevance":1.0,"Distance":74.6,"MatchLevel":"houseNumber","MatchQuality":{"Country":1.0,"County":1.0,"City":1.0,"District":1.0,"Street":[1.0],"HouseNumber":1.0,"PostalCode":1.0},"MatchType":"interpolated","Location":{"LocationId":"NT_I54fw9WnIYGtEOHzgp5LcB_1UD","LocationType":"point","DisplayPosition":{"Latitude":51.7069,"Longitude":-8.53027},"MapView":{"TopLeft":{"Latitude":51.7080242,"Longitude":-8.5320841},"BottomRight":{"Latitude":51.7057758,"Longitude":-8.5284559}},"Address":{"Label":"55 Abbey View, Kinsale, County Cork, P17 HA21, Ireland","Country":"IRL","County":"County Cork","City":"Kinsale","District":"Kinsale","Street":"Abbey View","HouseNumber":"55","PostalCode":"P17 HA21","AdditionalData":[{"value":"Ireland","key":"CountryName"},{"value":"County Cork","key":"CountyName"}]},"MapReference":{"ReferenceId":"589022429","Spot":0.99,"SideOfStreet":"left","CountryId":"20403667","CountyId":"20411183","CityId":"20514491","DistrictId":"20514642","AddressId":"214849266","RoadLinkId":"86755104"}}},{"Relevance":1.0,"Distance":75.4,"MatchLevel":"postalCode","MatchQuality":{"PostalCode":1.0},"MatchType":"interpolated","Location":{"LocationId":"NT_zMQPtuIeOtoh5lhS56h7KD_xA","LocationType":"point","DisplayPosition":{"Latitude":51.70739,"Longitude":-8.52952},"MapView":{"TopLeft":{"Latitude":51.7163832,"Longitude":-8.5440327},"BottomRight":{"Latitude":51.6983968,"Longitude":-8.5150073}},"Address":{"Label":"P17 CH73, Kinsale, Ireland","Country":"IRL","County":"County Cork","City":"Kinsale","PostalCode":"P17 CH73","AdditionalData":[{"value":"Ireland","key":"CountryName"},{"value":"County Cork","key":"CountyName"}]},"MapReference":{"ReferenceId":"589022430","Spot":0.43,"SideOfStreet":"neither","CountryId":"20403667","CountyId":"20411183","CityId":"20514491"}}}]}]}}