{"Response":{"MetaInfo":{"Timestamp":"2020-03-28T11:01:03.853+0000","NextPageInformation":"2"},"View":[{"_type":"SearchResultsViewType","ViewId":0,"Result":[{"Relevance":1.0,"Distance":0.0,"Direction":0.0,"MatchLevel":"district","MatchQuality":{"Country":1.0,"State":1.0,"County":1.0,"City":1.0,"District":1.0,"PostalCode":1.0},"Location":{"LocationId":"NT_yRyFQSj8XKk02osgFjUz2D","LocationType":"point","DisplayPosition":{"Latitude":51.7873403,"Longitude":11.7306174},"MapView":{"TopLeft":{"Latitude":51.81468,"Longitude":11.68645},"BottomRight":{"Latitude":51.76329,"Longitude":11.78501}},"Address":{"Label":"Bernburg (Saale), Sachsen-Anhalt, Deutschland","Country":"DEU","State":"Sachsen-Anhalt","County":"Salzlandkreis","City":"Bernburg (Saale)","District":"Bernburg (Saale)","PostalCode":"06406","AdditionalData":[{"value":"Deutschland","key":"CountryName"},{"value":"Sachsen-Anhalt","key":"StateName"},{"value":"Salzlandkreis","key":"CountyName"}]},"MapReference":{"ReferenceId":"541354626","SideOfStreet":"neither","CountryId":"20147700","StateId":"20194537","CountyId":"20195819","CityId":"20194652","DistrictId":"20194654"}}},{"Relevance":1.0,"Distance":3.2,"MatchLevel":"street","MatchQuality":{"Country":1.0,"State":1.0,"County":1.0,"City":1.0,"District":1.0,"Street":[1.0],"PostalCode":1.0},"Location":{"LocationId":"NT_CoSY2CPfcSuIOCUZ0qH9CC_l_541353839_L","LocationType":"point","DisplayPosition":{"Latitude":51.7873148,"Longitude":11.7306382},"MapView":{"TopLeft":{"Latitude":51.78769,"Longitude":11.73062},"BottomRight":{"Latitude":51.7873,"Longitude":11.7311}},"Address":{"Label":"Olga-Benario-Straße, 06406 Bernburg (Saale), Deutschland","Country":"DEU","State":"Sachsen-Anhalt","County":"Salzlandkreis","City":"Bernburg (Saale)","District":"Bernburg (Saale)","Street":"Olga-Benario-Straße","PostalCode":"06406","AdditionalData":[{"value":"Deutschland","key":"CountryName"},{"value":"Sachsen-Anhalt","key":"StateName"},{"value":"Salzlandkreis","key":"CountyName"}]},"MapReference":{"ReferenceId":"541353839","Spot":0.04,"SideOfStreet":"neither","CountryId":"20147700","StateId":"20194537","CountyId":"20195819","CityId":"20194652","DistrictId":"20194654"}}},{"Relevance":1.0,"Distance":4.5,"MatchLevel":"street","MatchQuality":{"Country":1.0,"State":1.0,"County":1.0,"City":1.0,"District":1.0,"Street":[1.0],"PostalCode":1.0},"Location":{"LocationId":"NT_CoSY2CPfcSuIOCUZ0qH9CC_l_541353838_L","LocationType":"point","DisplayPosition":{"Latitude":51.7873,"Longitude":11.73062},"MapView":{"TopLeft":{"Latitude":51.7873,"Longitude":11.72993},"BottomRight":{"Latitude":51.78674,"Longitude":11.73062}},"Address":{"Label":"Olga-Benario-Straße, 06406 Bernburg (Saale), Deutschland","Country":"DEU","State":"Sachsen-Anhalt","County":"Salzlandkreis","City":"Bernburg (Saale)","District":"Bernburg (Saale)","Street":"Olga-Benario-Straße","PostalCode":"06406","AdditionalData":[{"value":"Deutschland","key":"CountryName"},{"value":"Sachsen-Anhalt","key":"StateName"},{"value":"Salzlandkreis","key":"CountyName"}]},"MapReference":{"ReferenceId":"541353838","Spot":1.0,"SideOfStreet":"left","CountryId":"20147700","StateId":"20194537","CountyId":"20195819","CityId":"20194652","DistrictId":"20194654"}}},{"Relevance":1.0,"Distance":30.0,"MatchLevel":"houseNumber","MatchQuality":{"Country":1.0,"State":1.0,"County":1.0,"City":1.0,"District":1.0,"Street":[1.0],"HouseNumber":1.0,"PostalCode":1.0},"MatchType":"interpolated","Location":{"LocationId":"NT_bJGuUKwy6FXcM0VLRSK8PD_xED","LocationType":"point","DisplayPosition":{"Latitude":51.78768,"Longitude":11.73039},"MapView":{"TopLeft":{"Latitude":51.7888042,"Longitude":11.7285727},"BottomRight":{"Latitude":51.7865558,"Longitude":11.7322073}},"Address":{"Label":"Kirschberg 11, 06406 Bernburg (Saale), Deutschland","Country":"DEU","State":"Sachsen-Anhalt","County":"Salzlandkreis","City":"Bernburg (Saale)","District":"Bernburg (Saale)","Street":"Kirschberg","HouseNumber":"11","PostalCode":"06406","AdditionalData":[{"value":"Deutschland","key":"CountryName"},{"value":"Sachsen-Anhalt","key":"StateName"},{"value":"Salzlandkreis","key":"CountyName"}]},"MapReference":{"ReferenceId":"541351273","Spot":0.91,"SideOfStreet":"right","CountryId":"20147700","StateId":"20194537","CountyId":"20195819","CityId":"20194652","DistrictId":"20194654","AddressId":"185666469","RoadLinkId":"37792238"}}},{"Relevance":1.0,"Distance":49.2,"MatchLevel":"houseNumber","MatchQuality":{"Country":1.0,"State":1.0,"County":1.0,"City":1.0,"District":1.0,"Street":[1.0],"HouseNumber":1.0,"PostalCode":1.0},"MatchType":"interpolated","Location":{"LocationId":"NT_bJGuUKwy6FXcM0VLRSK8PD_xAD","LocationType":"point","DisplayPosition":{"Latitude":51.78786,"Longitude":11.73062},"MapView":{"TopLeft":{"Latitude":51.7889842,"Longitude":11.7288027},"BottomRight":{"Latitude":51.7867358,"Longitude":11.7324373}},"Address":{"Label":"Kirschberg 10, 06406 Bernburg (Saale), Deutschland","Country":"DEU","State":"Sachsen-Anhalt","County":"Salzlandkreis","City":"Bernburg (Saale)","District":"Bernburg (Saale)","Street":"Kirschberg","HouseNumber":"10","PostalCode":"06406","AdditionalData":[{"value":"Deutschland","key":"CountryName"},{"value":"Sachsen-Anhalt","key":"StateName"},{"value":"Salzlandkreis","key":"CountyName"}]},"MapReference":{"ReferenceId":"541351139","Spot":0.59,"SideOfStreet":"right","CountryId":"20147700","StateId":"20194537","CountyId":"20195819","CityId":"20194652","DistrictId":"20194654","AddressId":"185744314","RoadLinkId":"37879402"}}},{"Relevance":1.0,"Distance":50.1,"MatchLevel":"houseNumber","MatchQuality":{"Country":1.0,"State":1.0,"County":1.0,"City":1.0,"District":1.0,"Street":[1.0],"HouseNumber":1.0,"PostalCode":1.0},"MatchType":"interpolated","Location":{"LocationId":"NT_bJGuUKwy6FXcM0VLRSK8PD_zYD","LocationType":"point","DisplayPosition":{"Latitude":51.78778,"Longitude":11.73033},"MapView":{"TopLeft":{"Latitude":51.7889042,"Longitude":11.7285127},"BottomRight":{"Latitude":51.7866558,"Longitude":11.7321473}},"Address":{"Label":"Kirschberg 36, 06406 Bernburg (Saale), Deutschland","Country":"DEU","State":"Sachsen-Anhalt","County":"Salzlandkreis","City":"Bernburg (Saale)","District":"Bernburg (Saale)","Street":"Kirschberg","HouseNumber":"36","PostalCode":"06406","AdditionalData":[{"value":"Deutschland","key":"CountryName"},{"value":"Sachsen-Anhalt","key":"StateName"},{"value":"Salzlandkreis","key":"CountyName"}]},"MapReference":{"ReferenceId":"541351182","Spot":0.05,"SideOfStreet":"left","CountryId":"20147700","StateId":"20194537","CountyId":"20195819","CityId":"20194652","DistrictId":"20194654","AddressId":"185037005","RoadLinkId":"37946849"}}},{"Relevance":1.0,"Distance":71.0,"MatchLevel":"houseNumber","MatchQuality":{"Country":1.0,"State":1.0,"County":1.0,"City":1.0,"District":1.0,"Street":[1.0],"HouseNumber":1.0,"PostalCode":1.0},"MatchType":"interpolated","Location":{"LocationId":"NT_wM7.ZDjIXU3-qriKUzDqQA_0MD","LocationType":"point","DisplayPosition":{"Latitude":51.78757,"Longitude":11.73158},"MapView":{"TopLeft":{"Latitude":51.7886942,"Longitude":11.7297627},"BottomRight":{"Latitude":51.7864458,"Longitude":11.7333973}},"Address":{"Label":"Bruno-Hinz-Straße 43, 06406 Bernburg (Saale), Deutschland","Country":"DEU","State":"Sachsen-Anhalt","County":"Salzlandkreis","City":"Bernburg (Saale)","District":"Bernburg (Saale)","Street":"Bruno-Hinz-Straße","HouseNumber":"43","PostalCode":"06406","AdditionalData":[{"value":"Deutschland","key":"CountryName"},{"value":"Sachsen-Anhalt","key":"StateName"},{"value":"Salzlandkreis","key":"CountyName"}]},"MapReference":{"ReferenceId":"1221870614","Spot":0.38,"SideOfStreet":"right","CountryId":"20147700","StateId":"20194537","CountyId":"20195819","CityId":"20194652","DistrictId":"20194654","AddressId":"185602094","RoadLinkId":"539364290"}}},{"Relevance":1.0,"Distance":75.4,"MatchLevel":"houseNumber","MatchQuality":{"Country":1.0,"State":1.0,"County":1.0,"City":1.0,"District":1.0,"Street":[1.0],"HouseNumber":1.0,"PostalCode":1.0},"MatchType":"interpolated","Location":{"LocationId":"NT_bJGuUKwy6FXcM0VLRSK8PD_5A","LocationType":"point","DisplayPosition":{"Latitude":51.78801,"Longitude":11.73079},"MapView":{"TopLeft":{"Latitude":51.7891342,"Longitude":11.7289727},"BottomRight":{"Latitude":51.7868858,"Longitude":11.7326073}},"Address":{"Label":"Kirschberg 9, 06406 Bernburg (Saale), Deutschland","Country":"DEU","State":"Sachsen-Anhalt","County":"Salzlandkreis","City":"Bernburg (Saale)","District":"Bernburg (Saale)","Street":"Kirschberg","HouseNumber":"9","PostalCode":"06406","AdditionalData":[{"value":"Deutschland","key":"CountryName"},{"value":"Sachsen-Anhalt","key":"StateName"},{"value":"Salzlandkreis","key":"CountyName"}]},"MapReference":{"ReferenceId":"541351140","Spot":0.06,"SideOfStreet":"right","CountryId":"20147700","StateId":"20194537","CountyId":"20195819","CityId":"20194652","DistrictId":"20194654","AddressId":"185729672","RoadLinkId":"37700197"}}},{"Relevance":1.0,"Distance":80.6,"MatchLevel":"street","MatchQuality":{"Country":1.0,"State":1.0,"County":1.0,"City":1.0,"District":1.0,"Street":[1.0],"PostalCode":1.0},"Location":{"LocationId":"NT_V89H5PglqeyMkcP94OA8dD_l_544585143_R","LocationType":"point","DisplayPosition":{"Latitude":51.7866179,"Longitude":11.7305204},"MapView":{"TopLeft":{"Latitude":51.78674,"Longitude":11.72993},"BottomRight":{"Latitude":51.78632,"Longitude":11.73208}},"Address":{"Label":"Robert-Koch-Straße, 06406 Bernburg (Saale), Deutschland","Country":"DEU","State":"Sachsen-Anhalt","County":"Salzlandkreis","City":"Bernburg (Saale)","District":"Bernburg (Saale)","Street":"Robert-Koch-Straße","PostalCode":"06406","AdditionalData":[{"value":"Deutschland","key":"CountryName"},{"value":"Sachsen-Anhalt","key":"StateName"},{"value":"Salzlandkreis","key":"CountyName"}]},"MapReference":{"ReferenceId":"544585143","Spot":0.72,"SideOfStreet":"right","CountryId":"20147700","StateId":"20194537","CountyId":"20195819","CityId":"20194652","DistrictId":"20194654"}}},{"Relevance":1.0,"Distance":82.3,"MatchLevel":"houseNumber","MatchQuality":{"Country":1.0,"State":1.0,"County":1.0,"City":1.0,"District":1.0,"Street":[1.0],"HouseNumber":1.0,"PostalCode":1.0},"MatchType":"interpolated","Location":{"LocationId":"NT_bJGuUKwy6FXcM0VLRSK8PD_ykD","LocationType":"point","DisplayPosition":{"Latitude":51.7881,"Longitude":11.73061},"MapView":{"TopLeft":{"Latitude":51.7892242,"Longitude":11.7287927},"BottomRight":{"Latitude":51.7869758,"Longitude":11.7324273}},"Address":{"Label":"Kirschberg 29, 06406 Bernburg (Saale), Deutschland","Country":"DEU","State":"Sachsen-Anhalt","County":"Salzlandkreis","City":"Bernburg (Saale)","District":"Bernburg (Saale)","Street":"Kirschberg","HouseNumber":"29","PostalCode":"06406","AdditionalData":[{"value":"Deutschland","key":"CountryName"},{"value":"Sachsen-Anhalt","key":"StateName"},{"value":"Salzlandkreis","key":"CountyName"}]},"MapReference":{"ReferenceId":"541351183","Spot":0.19,"SideOfStreet":"left","CountryId":"20147700","StateId":"20194537","CountyId":"20195819","CityId":"20194652","DistrictId":"20194654","AddressId":"208173779","RoadLinkId":"37564291"}}}]}]}}