{"Response":{"MetaInfo":{"Timestamp":"2020-03-28T10:57:35.669+0000","NextPageInformation":"2"},"View":[{"_type":"SearchResultsViewType","ViewId":0,"Result":[{"Relevance":1.0,"Distance":0.0,"Direction":0.0,"MatchLevel":"district","MatchQuality":{"Country":1.0,"State":1.0,"County":1.0,"City":1.0,"District":1.0,"PostalCode":1.0},"Location":{"LocationId":"NT_v9W7rotsk2k6tf.zl.9EBA","LocationType":"point","DisplayPosition":{"Latitude":51.7684029,"Longitude":7.8841763},"MapView":{"TopLeft":{"Latitude":51.78052,"Longitude":7.86258},"BottomRight":{"Latitude":51.73542,"Longitude":7.94762}},"Address":{"Label":"Ahlen, Nordrhein-Westfalen, Deutschland","Country":"DEU","State":"Nordrhein-Westfalen","County":"Warendorf","City":"Ahlen","District":"Ahlen","PostalCode":"59227","AdditionalData":[{"value":"Deutschland","key":"CountryName"},{"value":"Nordrhein-Westfalen","key":"StateName"},{"value":"Warendorf","key":"CountyName"}]},"MapReference":{"ReferenceId":"52692885","SideOfStreet":"neither","CountryId":"20147700","StateId":"20157369","CountyId":"20159464","CityId":"20159465","DistrictId":"20159471"}}},{"Relevance":1.0,"Distance":33.3,"MatchLevel":"street","MatchQuality":{"Country":1.0,"State":1.0,"County":1.0,"City":1.0,"District":1.0,"PostalCode":1.0},"Location":{"LocationId":"NT_gVe.d6Mbvu3i3pGfa62wDA_l_587016622_L","LocationType":"point","DisplayPosition":{"Latitude":51.76818,"Longitude":7.8845},"MapView":{"TopLeft":{"Latitude":51.76836,"Longitude":7.8845},"BottomRight":{"Latitude":51.76818,"Longitude":7.88487}},"Address":{"Label":"59227 Ahlen, Deutschland","Country":"DEU","State":"Nordrhein-Westfalen","County":"Warendorf","City":"Ahlen","District":"Ahlen","PostalCode":"59227","AdditionalData":[{"value":"Deutschland","key":"CountryName"},{"value":"Nordrhein-Westfalen","key":"StateName"},{"value":"Warendorf","key":"CountyName"}]},"MapReference":{"ReferenceId":"587016622","Spot":0.0,"SideOfStreet":"left","CountryId":"20147700","StateId":"20157369","CountyId":"20159464","CityId":"20159465","DistrictId":"20159471"}}},{"Relevance":1.0,"Distance":43.1,"MatchLevel":"landmark","MatchQuality":{"Country":1.0,"State":1.0,"County":1.0,"City":1.0,"District":1.0,"Street":[1.0],"PostalCode":1.0,"Name":1.0},"Location":{"LocationId":"NT_6Mn-S83dxygdnZMtDk5imB_p_ka-iJMW-3Mc5E-GieZ1BKB","LocationType":"cemetery","Name":"Westfriedhof","DisplayPosition":{"Latitude":51.77093,"Longitude":7.88884},"MapView":{"TopLeft":{"Latitude":51.77176,"Longitude":7.88342},"BottomRight":{"Latitude":51.76864,"Longitude":7.88896}},"Address":{"Label":"Sedanstraße, 59227 Ahlen, Deutschland","Country":"DEU","State":"Nordrhein-Westfalen","County":"Warendorf","City":"Ahlen","District":"Ahlen","Street":"Sedanstraße","PostalCode":"59227","AdditionalData":[{"value":"Deutschland","key":"CountryName"},{"value":"Nordrhein-Westfalen","key":"StateName"},{"value":"Warendorf","key":"CountyName"}]},"MapReference":{"CountryId":"20147700","StateId":"20157369","CountyId":"20159464","CityId":"20159465","DistrictId":"20159471","PlaceId":"801752902"}}},{"Relevance":1.0,"Distance":46.4,"MatchLevel":"houseNumber","MatchQuality":{"Country":1.0,"State":1.0,"County":1.0,"City":1.0,"District":1.0,"Street":[1.0],"HouseNumber":1.0,"PostalCode":1.0},"MatchType":"interpolated","Location":{"LocationId":"NT_Muy4VVrOtUhVn7knqEP7VD_1ID","LocationType":"point","DisplayPosition":{"Latitude":51.76839,"Longitude":7.88485},"MapView":{"TopLeft":{"Latitude":51.7695142,"Longitude":7.8830335},"BottomRight":{"Latitude":51.7672658,"Longitude":7.8866665}},"Address":{"Label":"Parkstraße 52, 59227 Ahlen, Deutschland","Country":"DEU","State":"Nordrhein-Westfalen","County":"Warendorf","City":"Ahlen","District":"Ahlen","Street":"Parkstraße","HouseNumber":"52","PostalCode":"59227","AdditionalData":[{"value":"Deutschland","key":"CountryName"},{"value":"Nordrhein-Westfalen","key":"StateName"},{"value":"Warendorf","key":"CountyName"}]},"MapReference":{"ReferenceId":"587016621","Spot":0.1,"SideOfStreet":"right","CountryId":"20147700","StateId":"20157369","CountyId":"20159464","CityId":"20159465","DistrictId":"20159471","AddressId":"194885826","RoadLinkId":"35507348"}}},{"Relevance":1.0,"Distance":56.1,"MatchLevel":"houseNumber","MatchQuality":{"Country":1.0,"State":1.0,"County":1.0,"City":1.0,"District":1.0,"Street":[1.0],"HouseNumber":1.0,"PostalCode":1.0},"MatchType":"interpolated","Location":{"LocationId":"NT_Muy4VVrOtUhVn7knqEP7VD_0UD","LocationType":"point","DisplayPosition":{"Latitude":51.76886,"Longitude":7.88452},"MapView":{"TopLeft":{"Latitude":51.7699842,"Longitude":7.8827034},"BottomRight":{"Latitude":51.7677358,"Longitude":7.8863366}},"Address":{"Label":"Parkstraße 45, 59227 Ahlen, Deutschland","Country":"DEU","State":"Nordrhein-Westfalen","County":"Warendorf","City":"Ahlen","District":"Ahlen","Street":"Parkstraße","HouseNumber":"45","PostalCode":"59227","AdditionalData":[{"value":"Deutschland","key":"CountryName"},{"value":"Nordrhein-Westfalen","key":"StateName"},{"value":"Warendorf","key":"CountyName"}]},"MapReference":{"ReferenceId":"1215367964","Spot":0.18,"SideOfStreet":"left","CountryId":"20147700","StateId":"20157369","CountyId":"20159464","CityId":"20159465","DistrictId":"20159471","AddressId":"193169258","RoadLinkId":"531474569"}}},{"Relevance":1.0,"Distance":64.4,"MatchLevel":"houseNumber","MatchQuality":{"Country":1.0,"State":1.0,"County":1.0,"City":1.0,"District":1.0,"Street":[1.0],"HouseNumber":1.0,"PostalCode":1.0},"MatchType":"interpolated","Location":{"LocationId":"NT_GurmlyDqtUotBKHqoG3EiA_3UD","LocationType":"point","DisplayPosition":{"Latitude":51.7687,"Longitude":7.88498},"MapView":{"TopLeft":{"Latitude":51.7698242,"Longitude":7.8831634},"BottomRight":{"Latitude":51.7675758,"Longitude":7.8867966}},"Address":{"Label":"Schlütingstraße 75, 59227 Ahlen, Deutschland","Country":"DEU","State":"Nordrhein-Westfalen","County":"Warendorf","City":"Ahlen","District":"Ahlen","Street":"Schlütingstraße","HouseNumber":"75","PostalCode":"59227","AdditionalData":[{"value":"Deutschland","key":"CountryName"},{"value":"Nordrhein-Westfalen","key":"StateName"},{"value":"Warendorf","key":"CountyName"}]},"MapReference":{"ReferenceId":"52692537","Spot":0.1,"SideOfStreet":"right","CountryId":"20147700","StateId":"20157369","CountyId":"20159464","CityId":"20159465","DistrictId":"20159471","AddressId":"194285021","RoadLinkId":"35766252"}}},{"Relevance":1.0,"Distance":89.3,"MatchLevel":"street","MatchQuality":{"Country":1.0,"State":1.0,"County":1.0,"City":1.0,"District":1.0,"PostalCode":1.0},"Location":{"LocationId":"NT_gVe.d6Mbvu3i3pGfa62wDA_l_587016619_R","LocationType":"point","DisplayPosition":{"Latitude":51.76769,"Longitude":7.88358},"MapView":{"TopLeft":{"Latitude":51.76769,"Longitude":7.88358},"BottomRight":{"Latitude":51.76659,"Longitude":7.88418}},"Address":{"Label":"59227 Ahlen, Deutschland","Country":"DEU","State":"Nordrhein-Westfalen","County":"Warendorf","City":"Ahlen","District":"Ahlen","PostalCode":"59227","AdditionalData":[{"value":"Deutschland","key":"CountryName"},{"value":"Nordrhein-Westfalen","key":"StateName"},{"value":"Warendorf","key":"CountyName"}]},"MapReference":{"ReferenceId":"587016619","Spot":1.0,"SideOfStreet":"right","CountryId":"20147700","StateId":"20157369","CountyId":"20159464","CityId":"20159465","DistrictId":"20159471"}}},{"Relevance":1.0,"Distance":97.6,"MatchLevel":"landmark","MatchQuality":{"Country":1.0,"State":1.0,"Name":1.0},"Location":{"LocationId":"NT_EhWhO7wXwp61XLdQjkMUhC","LocationType":"river","Name":"Werse","DisplayPosition":{"Latitude":51.79307,"Longitude":7.81041},"MapView":{"TopLeft":{"Latitude":52.03479,"Longitude":7.68163},"BottomRight":{"Latitude":51.74311,"Longitude":8.04478}},"Address":{"Label":"Deutschland","Country":"DEU","State":"Nordrhein-Westfalen","AdditionalData":[{"value":"Deutschland","key":"CountryName"},{"value":"Nordrhein-Westfalen","key":"StateName"}]},"MapReference":{"CountryId":"20147700","StateId":"20157369","PlaceId":"750398479"}}},{"Relevance":1.0,"Distance":131.2,"MatchLevel":"houseNumber","MatchQuality":{"Country":1.0,"State":1.0,"County":1.0,"City":1.0,"District":1.0,"Street":[1.0],"HouseNumber":1.0,"PostalCode":1.0},"MatchType":"interpolated","Location":{"LocationId":"NT_Muy4VVrOtUhVn7knqEP7VD_0ED","LocationType":"point","DisplayPosition":{"Latitude":51.76762,"Longitude":7.88565},"MapView":{"TopLeft":{"Latitude":51.7687442,"Longitude":7.8838335},"BottomRight":{"Latitude":51.7664958,"Longitude":7.8874665}},"Address":{"Label":"Parkstraße 41, 59227 Ahlen, Deutschland","Country":"DEU","State":"Nordrhein-Westfalen","County":"Warendorf","City":"Ahlen","District":"Ahlen","Street":"Parkstraße","HouseNumber":"41","PostalCode":"59227","AdditionalData":[{"value":"Deutschland","key":"CountryName"},{"value":"Nordrhein-Westfalen","key":"StateName"},{"value":"Warendorf","key":"CountyName"}]},"MapReference":{"ReferenceId":"587016620","Spot":0.44,"SideOfStreet":"left","CountryId":"20147700","StateId":"20157369","CountyId":"20159464","CityId":"20159465","DistrictId":"20159471","AddressId":"622094630","RoadLinkId":"35552034"}}},{"Relevance":1.0,"Distance":163.1,"MatchLevel":"houseNumber","MatchQuality":{"Country":1.0,"State":1.0,"County":1.0,"City":1.0,"District":1.0,"Street":[1.0],"HouseNumber":1.0,"PostalCode":1.0},"MatchType":"interpolated","Location":{"LocationId":"NT_YemOKAatD4t34Y5mW5VWnC_yAD","LocationType":"point","DisplayPosition":{"Latitude":51.76832,"Longitude":7.88181},"MapView":{"TopLeft":{"Latitude":51.7694442,"Longitude":7.8799935},"BottomRight":{"Latitude":51.7671958,"Longitude":7.8836265}},"Address":{"Label":"Josef-Lanner-Straße 20, 59227 Ahlen, Deutschland","Country":"DEU","State":"Nordrhein-Westfalen","County":"Warendorf","City":"Ahlen","District":"Ahlen","Street":"Josef-Lanner-Straße","HouseNumber":"20","PostalCode":"59227","AdditionalData":[{"value":"Deutschland","key":"CountryName"},{"value":"Nordrhein-Westfalen","key":"StateName"},{"value":"Warendorf","key":"CountyName"}]},"MapReference":{"ReferenceId":"1175727950","Spot":0.81,"SideOfStreet":"left","CountryId":"20147700","StateId":"20157369","CountyId":"20159464","CityId":"20159465","DistrictId":"20159471","AddressId":"249476998","RoadLinkId":"483231799"}}}]}]}}