{"Response":{"MetaInfo":{"Timestamp":"2020-03-28T11:16:03.743+0000","NextPageInformation":"2"},"View":[{"_type":"SearchResultsViewType","ViewId":0,"Result":[{"Relevance":1.0,"Distance":0.0,"Direction":0.0,"MatchLevel":"district","MatchQuality":{"Country":1.0,"State":1.0,"County":1.0,"City":1.0,"District":1.0,"PostalCode":1.0},"Location":{"LocationId":"NT_iztDhKaZjMCpwG8sfjnr0D","LocationType":"point","DisplayPosition":{"Latitude":51.7864668,"Longitude":1.1485663},"MapView":{"TopLeft":{"Latitude":51.82087,"Longitude":1.09731},"BottomRight":{"Latitude":51.77839,"Longitude":1.20975}},"Address":{"Label":"Clacton-on-Sea, England, United Kingdom","Country":"GBR","State":"England","County":"Essex","City":"Clacton-on-Sea","District":"Clacton-on-Sea","PostalCode":"CO15 3","AdditionalData":[{"value":"United Kingdom","key":"CountryName"},{"value":"England","key":"StateName"},{"value":"Essex","key":"CountyName"}]},"MapReference":{"ReferenceId":"781741341","SideOfStreet":"neither","StateId":"20248595","CountyId":"20335385","CityId":"20335510","DistrictId":"20335511"}}},{"Relevance":1.0,"Distance":24.0,"MatchLevel":"houseNumber","MatchQuality":{"Country":1.0,"State":1.0,"County":1.0,"City":1.0,"District":1.0,"Street":[1.0],"HouseNumber":1.0,"PostalCode":1.0},"MatchType":"interpolated","Location":{"LocationId":"NT_IVYLr8mOh8XIBgUR6lTrhB_l_25899009_L_yMD","LocationType":"point","DisplayPosition":{"Latitude":51.7863764,"Longitude":1.1488833},"MapView":{"TopLeft":{"Latitude":51.7875006,"Longitude":1.147066},"BottomRight":{"Latitude":51.7852523,"Longitude":1.1507006}},"Address":{"Label":"23 Tower Road, Clacton-on-Sea, CO15 1, United Kingdom","Country":"GBR","State":"England","County":"Essex","City":"Clacton-on-Sea","District":"Clacton-on-Sea","Street":"Tower Road","HouseNumber":"23","PostalCode":"CO15 1","AdditionalData":[{"value":"United Kingdom","key":"CountryName"},{"value":"England","key":"StateName"},{"value":"Essex","key":"CountyName"}]},"MapReference":{"ReferenceId":"25899009","Spot":0.5,"SideOfStreet":"left","StateId":"20248595","CountyId":"20335385","CityId":"20335510","DistrictId":"20335511"}}},{"Relevance":1.0,"Distance":28.9,"MatchLevel":"houseNumber","MatchQuality":{"Country":1.0,"State":1.0,"County":1.0,"City":1.0,"District":1.0,"Street":[1.0],"HouseNumber":1.0,"PostalCode":1.0},"MatchType":"interpolated","Location":{"LocationId":"NT_IVYLr8mOh8XIBgUR6lTrhB_l_25899003_R_0QD","LocationType":"point","DisplayPosition":{"Latitude":51.7867201,"Longitude":1.14866},"MapView":{"TopLeft":{"Latitude":51.7878442,"Longitude":1.1468427},"BottomRight":{"Latitude":51.7855959,"Longitude":1.1504773}},"Address":{"Label":"44 Tower Road, Clacton-on-Sea, CO15 1LE, United Kingdom","Country":"GBR","State":"England","County":"Essex","City":"Clacton-on-Sea","District":"Clacton-on-Sea","Street":"Tower Road","HouseNumber":"44","PostalCode":"CO15 1LE","AdditionalData":[{"value":"United Kingdom","key":"CountryName"},{"value":"England","key":"StateName"},{"value":"Essex","key":"CountyName"}]},"MapReference":{"ReferenceId":"25899003","Spot":0.14,"SideOfStreet":"right","StateId":"20248595","CountyId":"20335385","CityId":"20335510","DistrictId":"20335511"}}},{"Relevance":1.0,"Distance":43.0,"MatchLevel":"postalCode","MatchQuality":{"PostalCode":1.0},"MatchType":"interpolated","Location":{"LocationId":"NT_IVYLr8mOh8XIBgUR6lTrhB_l_25899003_R_0QD","LocationType":"point","DisplayPosition":{"Latitude":51.78684,"Longitude":1.14873},"MapView":{"TopLeft":{"Latitude":51.7958332,"Longitude":1.1341917},"BottomRight":{"Latitude":51.7778468,"Longitude":1.1632683}},"Address":{"Label":"CO15 1LE, Clacton-on-Sea, England, United Kingdom","Country":"GBR","State":"England","County":"Essex","City":"Clacton-on-Sea","PostalCode":"CO15 1LE","AdditionalData":[{"value":"United Kingdom","key":"CountryName"},{"value":"England","key":"StateName"},{"value":"Essex","key":"CountyName"}]},"MapReference":{"ReferenceId":"25899003","Spot":0.14,"SideOfStreet":"neither","StateId":"20248595","CountyId":"20335385","CityId":"20335510"}}},{"Relevance":1.0,"Distance":47.6,"MatchLevel":"postalCode","MatchQuality":{"PostalCode":1.0},"MatchType":"interpolated","Location":{"LocationId":"NT_pXIFApAkuiLwX6aw9zLVjB_l_25899025_R_zkD","LocationType":"point","DisplayPosition":{"Latitude":51.78626,"Longitude":1.14796},"MapView":{"TopLeft":{"Latitude":51.7952532,"Longitude":1.1334219},"BottomRight":{"Latitude":51.7772668,"Longitude":1.1624981}},"Address":{"Label":"CO15 1LH, Clacton-on-Sea, England, United Kingdom","Country":"GBR","State":"England","County":"Essex","City":"Clacton-on-Sea","PostalCode":"CO15 1LH","AdditionalData":[{"value":"United Kingdom","key":"CountryName"},{"value":"England","key":"StateName"},{"value":"Essex","key":"CountyName"}]},"MapReference":{"ReferenceId":"25899025","Spot":0.5,"SideOfStreet":"neither","StateId":"20248595","CountyId":"20335385","CityId":"20335510"}}},{"Relevance":1.0,"Distance":52.2,"MatchLevel":"street","MatchQuality":{"Country":1.0,"State":1.0,"County":1.0,"City":1.0,"District":1.0,"PostalCode":1.0},"Location":{"LocationId":"NT_SS5tiWeS8AsyVaYvSilDHB_l_25899022_L","LocationType":"point","DisplayPosition":{"Latitude":51.7860129,"Longitude":1.1487579},"MapView":{"TopLeft":{"Latitude":51.78617,"Longitude":1.14868},"BottomRight":{"Latitude":51.78598,"Longitude":1.14913}},"Address":{"Label":"Clacton-on-Sea, CO15 1, United Kingdom","Country":"GBR","State":"England","County":"Essex","City":"Clacton-on-Sea","District":"Clacton-on-Sea","PostalCode":"CO15 1","AdditionalData":[{"value":"United Kingdom","key":"CountryName"},{"value":"England","key":"StateName"},{"value":"Essex","key":"CountyName"}]},"MapReference":{"ReferenceId":"25899022","Spot":0.17,"SideOfStreet":"left","StateId":"20248595","CountyId":"20335385","CityId":"20335510","DistrictId":"20335511"}}},{"Relevance":1.0,"Distance":54.7,"MatchLevel":"street","MatchQuality":{"Country":1.0,"State":1.0,"County":1.0,"City":1.0,"District":1.0,"PostalCode":1.0},"Location":{"LocationId":"NT_SS5tiWeS8AsyVaYvSilDHB_l_586295796_L","LocationType":"point","DisplayPosition":{"Latitude":51.78598,"Longitude":1.14868},"MapView":{"TopLeft":{"Latitude":51.78598,"Longitude":1.14792},"BottomRight":{"Latitude":51.78448,"Longitude":1.14868}},"Address":{"Label":"Clacton-on-Sea, CO15 1, United Kingdom","Country":"GBR","State":"England","County":"Essex","City":"Clacton-on-Sea","District":"Clacton-on-Sea","PostalCode":"CO15 1","AdditionalData":[{"value":"United Kingdom","key":"CountryName"},{"value":"England","key":"StateName"},{"value":"Essex","key":"CountyName"}]},"MapReference":{"ReferenceId":"586295796","Spot":1.0,"SideOfStreet":"left","StateId":"20248595","CountyId":"20335385","CityId":"20335510","DistrictId":"20335511"}}},{"Relevance":1.0,"Distance":55.2,"MatchLevel":"postalCode","MatchQuality":{"PostalCode":1.0},"MatchType":"interpolated","Location":{"LocationId":"NT_IVYLr8mOh8XIBgUR6lTrhB_l_25899031_L_1A","LocationType":"point","DisplayPosition":{"Latitude":51.78617,"Longitude":1.14921},"MapView":{"TopLeft":{"Latitude":51.7951632,"Longitude":1.1346719},"BottomRight":{"Latitude":51.7771768,"Longitude":1.1637481}},"Address":{"Label":"CO15 1LF, Clacton-on-Sea, England, United Kingdom","Country":"GBR","State":"England","County":"Essex","City":"Clacton-on-Sea","PostalCode":"CO15 1LF","AdditionalData":[{"value":"United Kingdom","key":"CountryName"},{"value":"England","key":"StateName"},{"value":"Essex","key":"CountyName"}]},"MapReference":{"ReferenceId":"25899031","Spot":0.62,"SideOfStreet":"neither","StateId":"20248595","CountyId":"20335385","CityId":"20335510"}}},{"Relevance":1.0,"Distance":70.3,"MatchLevel":"houseNumber","MatchQuality":{"Country":1.0,"State":1.0,"County":1.0,"City":1.0,"District":1.0,"Street":[1.0],"HouseNumber":1.0,"PostalCode":1.0},"MatchType":"interpolated","Location":{"LocationId":"NT_tK8fvSXVzeu9eJcyBzqGKB_l_25899020_L_1cD","LocationType":"point","DisplayPosition":{"Latitude":51.7869493,"Longitude":1.149507},"MapView":{"TopLeft":{"Latitude":51.7880734,"Longitude":1.1476897},"BottomRight":{"Latitude":51.7858251,"Longitude":1.1513242}},"Address":{"Label":"57 Alton Road, Clacton-on-Sea, CO15 1LB, United Kingdom","Country":"GBR","State":"England","County":"Essex","City":"Clacton-on-Sea","District":"Clacton-on-Sea","Street":"Alton Road","HouseNumber":"57","PostalCode":"CO15 1LB","AdditionalData":[{"value":"United Kingdom","key":"CountryName"},{"value":"England","key":"StateName"},{"value":"Essex","key":"CountyName"}]},"MapReference":{"ReferenceId":"25899020","Spot":0.72,"SideOfStreet":"left","StateId":"20248595","CountyId":"20335385","CityId":"20335510","DistrictId":"20335511"}}},{"Relevance":1.0,"Distance":83.6,"MatchLevel":"postalCode","MatchQuality":{"PostalCode":1.0},"MatchType":"interpolated","Location":{"LocationId":"NT_tK8fvSXVzeu9eJcyBzqGKB_l_25899020_L_1cD","LocationType":"point","DisplayPosition":{"Latitude":51.78672,"Longitude":1.14971},"MapView":{"TopLeft":{"Latitude":51.7957132,"Longitude":1.1351718},"BottomRight":{"Latitude":51.7777268,"Longitude":1.1642482}},"Address":{"Label":"CO15 1LB, Clacton-on-Sea, England, United Kingdom","Country":"GBR","State":"England","County":"Essex","City":"Clacton-on-Sea","PostalCode":"CO15 1LB","AdditionalData":[{"value":"United Kingdom","key":"CountryName"},{"value":"England","key":"StateName"},{"value":"Essex","key":"CountyName"}]},"MapReference":{"ReferenceId":"25899020","Spot":0.72,"SideOfStreet":"neither","StateId":"20248595","CountyId":"20335385","CityId":"20335510"}}}]}]}}