{"Response":{"MetaInfo":{"Timestamp":"2020-03-28T10:47:53.112+0000","NextPageInformation":"2"},"View":[{"_type":"SearchResultsViewType","ViewId":0,"Result":[{"Relevance":1.0,"Distance":0.0,"Direction":0.0,"MatchLevel":"district","MatchQuality":{"Country":1.0,"State":1.0,"County":1.0,"City":1.0,"District":1.0,"PostalCode":1.0},"Location":{"LocationId":"NT_6Af4dVKe9s6FyC5yfGpiLD","LocationType":"point","DisplayPosition":{"Latitude":51.7695601,"Longitude":17.9459497},"MapView":{"TopLeft":{"Latitude":51.77253,"Longitude":17.93936},"BottomRight":{"Latitude":51.7641,"Longitude":17.9519}},"Address":{"Label":"Kotowiecko, Nowe Skalmierzyce, Woj. Wielkopolskie, Polska","Country":"POL","State":"Woj. Wielkopolskie","County":"Powiat Ostrowski","City":"Nowe Skalmierzyce","District":"Kotowiecko","PostalCode":"63-460","AdditionalData":[{"value":"Polska","key":"CountryName"},{"value":"Woj. Wielkopolskie","key":"StateName"},{"value":"Powiat Ostrowski","key":"CountyName"}]},"MapReference":{"ReferenceId":"1088597068","SideOfStreet":"neither","CountryId":"20624059","StateId":"20629915","CountyId":"20631642","CityId":"20631643","DistrictId":"20696787"}}},{"Relevance":1.0,"Distance":12.8,"MatchLevel":"houseNumber","MatchQuality":{"Country":1.0,"State":1.0,"County":1.0,"City":1.0,"District":1.0,"Street":[1.0],"HouseNumber":1.0,"PostalCode":1.0},"MatchType":"interpolated","Location":{"LocationId":"NT_0XnW8k0-Ssc6eKfVFfGgsB_4A","LocationType":"point","DisplayPosition":{"Latitude":51.7691,"Longitude":17.9462},"MapView":{"TopLeft":{"Latitude":51.7702242,"Longitude":17.9443834},"BottomRight":{"Latitude":51.7679758,"Longitude":17.9480166}},"Address":{"Label":"ulica Kaliska 8, 63-460 Kotowiecko, Polska","Country":"POL","State":"Woj. Wielkopolskie","County":"Powiat Ostrowski","City":"Nowe Skalmierzyce","District":"Kotowiecko","Street":"ulica Kaliska","HouseNumber":"8","PostalCode":"63-460","AdditionalData":[{"value":"Polska","key":"CountryName"},{"value":"Woj. Wielkopolskie","key":"StateName"},{"value":"Powiat Ostrowski","key":"CountyName"}]},"MapReference":{"ReferenceId":"1088597068","Spot":0.75,"SideOfStreet":"left","CountryId":"20624059","StateId":"20629915","CountyId":"20631642","CityId":"20631643","DistrictId":"20696787","AddressId":"702064540","RoadLinkId":"403674854"}}},{"Relevance":1.0,"Distance":23.8,"MatchLevel":"street","MatchQuality":{"Country":1.0,"State":1.0,"County":1.0,"City":1.0,"District":1.0,"PostalCode":1.0},"Location":{"LocationId":"NT_ZdxjvjeW99Jz9D3FiOm-MD_l_1166504740_L","LocationType":"point","DisplayPosition":{"Latitude":51.76952,"Longitude":17.94629},"MapView":{"TopLeft":{"Latitude":51.76952,"Longitude":17.94629},"BottomRight":{"Latitude":51.76921,"Longitude":17.94631}},"Address":{"Label":"63-460 Kotowiecko, Polska","Country":"POL","State":"Woj. Wielkopolskie","County":"Powiat Ostrowski","City":"Nowe Skalmierzyce","District":"Kotowiecko","PostalCode":"63-460","AdditionalData":[{"value":"Polska","key":"CountryName"},{"value":"Woj. Wielkopolskie","key":"StateName"},{"value":"Powiat Ostrowski","key":"CountyName"}]},"MapReference":{"ReferenceId":"1166504740","Spot":1.0,"SideOfStreet":"left","CountryId":"20624059","StateId":"20629915","CountyId":"20631642","CityId":"20631643","DistrictId":"20696787"}}},{"Relevance":1.0,"Distance":40.9,"MatchLevel":"street","MatchQuality":{"Country":1.0,"State":1.0,"County":1.0,"City":1.0,"District":1.0,"PostalCode":1.0},"Location":{"LocationId":"NT_ZdxjvjeW99Jz9D3FiOm-MD_l_1166504738_L","LocationType":"point","DisplayPosition":{"Latitude":51.7691924,"Longitude":17.9459686},"MapView":{"TopLeft":{"Latitude":51.76921,"Longitude":17.94431},"BottomRight":{"Latitude":51.76914,"Longitude":17.94631}},"Address":{"Label":"63-460 Kotowiecko, Polska","Country":"POL","State":"Woj. Wielkopolskie","County":"Powiat Ostrowski","City":"Nowe Skalmierzyce","District":"Kotowiecko","PostalCode":"63-460","AdditionalData":[{"value":"Polska","key":"CountryName"},{"value":"Woj. Wielkopolskie","key":"StateName"},{"value":"Powiat Ostrowski","key":"CountyName"}]},"MapReference":{"ReferenceId":"1166504738","Spot":0.83,"SideOfStreet":"left","CountryId":"20624059","StateId":"20629915","CountyId":"20631642","CityId":"20631643","DistrictId":"20696787"}}},{"Relevance":1.0,"Distance":46.2,"MatchLevel":"street","MatchQuality":{"Country":1.0,"State":1.0,"County":1.0,"City":1.0,"District":1.0,"PostalCode":1.0},"Location":{"LocationId":"NT_ZdxjvjeW99Jz9D3FiOm-MD_l_1166504739_L","LocationType":"point","DisplayPosition":{"Latitude":51.76921,"Longitude":17.94631},"MapView":{"TopLeft":{"Latitude":51.76995,"Longitude":17.94631},"BottomRight":{"Latitude":51.76921,"Longitude":17.94991}},"Address":{"Label":"63-460 Kotowiecko, Polska","Country":"POL","State":"Woj. Wielkopolskie","County":"Powiat Ostrowski","City":"Nowe Skalmierzyce","District":"Kotowiecko","PostalCode":"63-460","AdditionalData":[{"value":"Polska","key":"CountryName"},{"value":"Woj. Wielkopolskie","key":"StateName"},{"value":"Powiat Ostrowski","key":"CountyName"}]},"MapReference":{"ReferenceId":"1166504739","Spot":0.0,"SideOfStreet":"left","CountryId":"20624059","StateId":"20629915","CountyId":"20631642","CityId":"20631643","DistrictId":"20696787"}}},{"Relevance":1.0,"Distance":73.5,"MatchLevel":"houseNumber","MatchQuality":{"Country":1.0,"State":1.0,"County":1.0,"City":1.0,"District":1.0,"Street":[1.0],"HouseNumber":1.0,"PostalCode":1.0},"MatchType":"interpolated","Location":{"LocationId":"NT_0XnW8k0-Ssc6eKfVFfGgsB_5A","LocationType":"point","DisplayPosition":{"Latitude":51.76913,"Longitude":17.94676},"MapView":{"TopLeft":{"Latitude":51.7702542,"Longitude":17.9449434},"BottomRight":{"Latitude":51.7680058,"Longitude":17.9485766}},"Address":{"Label":"ulica Kaliska 9, 63-460 Kotowiecko, Polska","Country":"POL","State":"Woj. Wielkopolskie","County":"Powiat Ostrowski","City":"Nowe Skalmierzyce","District":"Kotowiecko","Street":"ulica Kaliska","HouseNumber":"9","PostalCode":"63-460","AdditionalData":[{"value":"Polska","key":"CountryName"},{"value":"Woj. Wielkopolskie","key":"StateName"},{"value":"Powiat Ostrowski","key":"CountyName"}]},"MapReference":{"ReferenceId":"595360984","Spot":0.2,"SideOfStreet":"right","CountryId":"20624059","StateId":"20629915","CountyId":"20631642","CityId":"20631643","DistrictId":"20696787","AddressId":"267694871","RoadLinkId":"145948966"}}},{"Relevance":1.0,"Distance":91.0,"MatchLevel":"houseNumber","MatchQuality":{"Country":1.0,"State":1.0,"County":1.0,"City":1.0,"District":1.0,"Street":[1.0],"HouseNumber":1.0,"PostalCode":1.0},"MatchType":"interpolated","Location":{"LocationId":"NT_0XnW8k0-Ssc6eKfVFfGgsB_xMTQ","LocationType":"point","DisplayPosition":{"Latitude":51.76907,"Longitude":17.94489},"MapView":{"TopLeft":{"Latitude":51.7701942,"Longitude":17.9430734},"BottomRight":{"Latitude":51.7679458,"Longitude":17.9467066}},"Address":{"Label":"ulica Kaliska 13A, 63-460 Kotowiecko, Polska","Country":"POL","State":"Woj. Wielkopolskie","County":"Powiat Ostrowski","City":"Nowe Skalmierzyce","District":"Kotowiecko","Street":"ulica Kaliska","HouseNumber":"13A","PostalCode":"63-460","AdditionalData":[{"value":"Polska","key":"CountryName"},{"value":"Woj. Wielkopolskie","key":"StateName"},{"value":"Powiat Ostrowski","key":"CountyName"}]},"MapReference":{"ReferenceId":"1088597067","Spot":0.62,"SideOfStreet":"right","CountryId":"20624059","StateId":"20629915","CountyId":"20631642","CityId":"20631643","DistrictId":"20696787","AddressId":"702064539","RoadLinkId":"403674853"}}},{"Relevance":1.0,"Distance":119.7,"MatchLevel":"street","MatchQuality":{"Country":1.0,"State":1.0,"County":1.0,"City":1.0,"District":1.0,"Street":[1.0],"PostalCode":1.0},"Location":{"LocationId":"NT_5lX.xUigFGyf71mMpDM3hA_l_1166504737_R","LocationType":"point","DisplayPosition":{"Latitude":51.7692,"Longitude":17.94431},"MapView":{"TopLeft":{"Latitude":51.7692,"Longitude":17.94431},"BottomRight":{"Latitude":51.76907,"Longitude":17.94431}},"Address":{"Label":"ulica Kasztanowa, 63-460 Kotowiecko, Polska","Country":"POL","State":"Woj. Wielkopolskie","County":"Powiat Ostrowski","City":"Nowe Skalmierzyce","District":"Kotowiecko","Street":"ulica Kasztanowa","PostalCode":"63-460","AdditionalData":[{"value":"Polska","key":"CountryName"},{"value":"Woj. Wielkopolskie","key":"StateName"},{"value":"Powiat Ostrowski","key":"CountyName"}]},"MapReference":{"ReferenceId":"1166504737","Spot":1.0,"SideOfStreet":"right","CountryId":"20624059","StateId":"20629915","CountyId":"20631642","CityId":"20631643","DistrictId":"20696787"}}},{"Relevance":1.0,"Distance":136.2,"MatchLevel":"houseNumber","MatchQuality":{"Country":1.0,"State":1.0,"County":1.0,"City":1.0,"District":1.0,"Street":[1.0],"HouseNumber":1.0,"PostalCode":1.0},"MatchType":"interpolated","Location":{"LocationId":"NT_X.aRP82z-Y.UNqsjfGLsjD_xA","LocationType":"point","DisplayPosition":{"Latitude":51.76841,"Longitude":17.94663},"MapView":{"TopLeft":{"Latitude":51.7695342,"Longitude":17.9448135},"BottomRight":{"Latitude":51.7672858,"Longitude":17.9484465}},"Address":{"Label":"ulica Polna 1, 63-460 Kotowiecko, Polska","Country":"POL","State":"Woj. Wielkopolskie","County":"Powiat Ostrowski","City":"Nowe Skalmierzyce","District":"Kotowiecko","Street":"ulica Polna","HouseNumber":"1","PostalCode":"63-460","AdditionalData":[{"value":"Polska","key":"CountryName"},{"value":"Woj. Wielkopolskie","key":"StateName"},{"value":"Powiat Ostrowski","key":"CountyName"}]},"MapReference":{"ReferenceId":"769194872","Spot":0.59,"SideOfStreet":"right","CountryId":"20624059","StateId":"20629915","CountyId":"20631642","CityId":"20631643","DistrictId":"20696787","AddressId":"702049771","RoadLinkId":"162762868"}}},{"Relevance":1.0,"Distance":139.5,"MatchLevel":"houseNumber","MatchQuality":{"Country":1.0,"State":1.0,"County":1.0,"City":1.0,"District":1.0,"Street":[1.0],"HouseNumber":1.0,"PostalCode":1.0},"MatchType":"interpolated","Location":{"LocationId":"NT_0XnW8k0-Ssc6eKfVFfGgsB_xID","LocationType":"point","DisplayPosition":{"Latitude":51.76907,"Longitude":17.94396},"MapView":{"TopLeft":{"Latitude":51.7701942,"Longitude":17.9421434},"BottomRight":{"Latitude":51.7679458,"Longitude":17.9457766}},"Address":{"Label":"ulica Kaliska 12, 63-460 Kotowiecko, Polska","Country":"POL","State":"Woj. Wielkopolskie","County":"Powiat Ostrowski","City":"Nowe Skalmierzyce","District":"Kotowiecko","Street":"ulica Kaliska","HouseNumber":"12","PostalCode":"63-460","AdditionalData":[{"value":"Polska","key":"CountryName"},{"value":"Woj. Wielkopolskie","key":"StateName"},{"value":"Powiat Ostrowski","key":"CountyName"}]},"MapReference":{"ReferenceId":"595360972","Spot":0.16,"SideOfStreet":"right","CountryId":"20624059","StateId":"20629915","CountyId":"20631642","CityId":"20631643","DistrictId":"20696787","AddressId":"267861577","RoadLinkId":"95249711"}}}]}]}}