{"Response":{"MetaInfo":{"Timestamp":"2020-03-28T10:22:26.441+0000","NextPageInformation":"2"},"View":[{"_type":"SearchResultsViewType","ViewId":0,"Result":[{"Relevance":1.0,"Distance":0.0,"Direction":0.0,"MatchLevel":"district","MatchQuality":{"Country":1.0,"State":1.0,"County":1.0,"City":1.0,"District":1.0,"PostalCode":1.0},"Location":{"LocationId":"NT_J-xLtbhN2CY3fRBS3ibj3B","LocationType":"point","DisplayPosition":{"Latitude":51.764438,"Longitude":8.9405789},"MapView":{"TopLeft":{"Latitude":51.77926,"Longitude":8.92704},"BottomRight":{"Latitude":51.74958,"Longitude":8.96059}},"Address":{"Label":"Altenbeken, Nordrhein-Westfalen, Deutschland","Country":"DEU","State":"Nordrhein-Westfalen","County":"Paderborn","City":"Altenbeken","District":"Altenbeken","PostalCode":"33184","AdditionalData":[{"value":"Deutschland","key":"CountryName"},{"value":"Nordrhein-Westfalen","key":"StateName"},{"value":"Paderborn","key":"CountyName"}]},"MapReference":{"ReferenceId":"842379504","SideOfStreet":"neither","CountryId":"20147700","StateId":"20157369","CountyId":"20160071","CityId":"20160072","DistrictId":"20160076"}}},{"Relevance":1.0,"Distance":5.1,"MatchLevel":"houseNumber","MatchQuality":{"Country":1.0,"State":1.0,"County":1.0,"City":1.0,"District":1.0,"Street":[1.0],"HouseNumber":1.0,"PostalCode":1.0},"MatchType":"interpolated","Location":{"LocationId":"NT_GPVVwzQo3pCW2N4NuBsEKB_1A","LocationType":"point","DisplayPosition":{"Latitude":51.76449,"Longitude":8.94049},"MapView":{"TopLeft":{"Latitude":51.7656142,"Longitude":8.9386736},"BottomRight":{"Latitude":51.7633658,"Longitude":8.9423064}},"Address":{"Label":"Ortwaldstraße 5, 33184 Altenbeken, Deutschland","Country":"DEU","State":"Nordrhein-Westfalen","County":"Paderborn","City":"Altenbeken","District":"Altenbeken","Street":"Ortwaldstraße","HouseNumber":"5","PostalCode":"33184","AdditionalData":[{"value":"Deutschland","key":"CountryName"},{"value":"Nordrhein-Westfalen","key":"StateName"},{"value":"Paderborn","key":"CountyName"}]},"MapReference":{"ReferenceId":"74867705","Spot":0.32,"SideOfStreet":"right","CountryId":"20147700","StateId":"20157369","CountyId":"20160071","CityId":"20160072","DistrictId":"20160076","AddressId":"193500935","RoadLinkId":"34964554"}}},{"Relevance":1.0,"Distance":54.0,"MatchLevel":"houseNumber","MatchQuality":{"Country":1.0,"State":1.0,"County":1.0,"City":1.0,"District":1.0,"Street":[1.0],"HouseNumber":1.0,"PostalCode":1.0},"MatchType":"interpolated","Location":{"LocationId":"NT_VTX8ofk9.SLb-hWdOBehcB_1UTQ","LocationType":"point","DisplayPosition":{"Latitude":51.76346,"Longitude":8.94091},"MapView":{"TopLeft":{"Latitude":51.7645842,"Longitude":8.9390937},"BottomRight":{"Latitude":51.7623358,"Longitude":8.9427263}},"Address":{"Label":"Adenauerstraße 55A, 33184 Altenbeken, Deutschland","Country":"DEU","State":"Nordrhein-Westfalen","County":"Paderborn","City":"Altenbeken","District":"Altenbeken","Street":"Adenauerstraße","HouseNumber":"55A","PostalCode":"33184","AdditionalData":[{"value":"Deutschland","key":"CountryName"},{"value":"Nordrhein-Westfalen","key":"StateName"},{"value":"Paderborn","key":"CountyName"}]},"MapReference":{"ReferenceId":"1199848921","Spot":0.68,"SideOfStreet":"left","CountryId":"20147700","StateId":"20157369","CountyId":"20160071","CityId":"20160072","DistrictId":"20160076","AddressId":"196552546","RoadLinkId":"511960867"}}},{"Relevance":1.0,"Distance":67.1,"MatchLevel":"houseNumber","MatchQuality":{"Country":1.0,"State":1.0,"County":1.0,"City":1.0,"District":1.0,"Street":[1.0],"HouseNumber":1.0,"PostalCode":1.0},"MatchType":"interpolated","Location":{"LocationId":"NT_uN3OZ-24PZWOaiTITHUmMB_xME","LocationType":"point","DisplayPosition":{"Latitude":51.764,"Longitude":8.94192},"MapView":{"TopLeft":{"Latitude":51.7651242,"Longitude":8.9401036},"BottomRight":{"Latitude":51.7628758,"Longitude":8.9437364}},"Address":{"Label":"Bahnhofstraße 1C, 33184 Altenbeken, Deutschland","Country":"DEU","State":"Nordrhein-Westfalen","County":"Paderborn","City":"Altenbeken","District":"Altenbeken","Street":"Bahnhofstraße","HouseNumber":"1C","PostalCode":"33184","AdditionalData":[{"value":"Deutschland","key":"CountryName"},{"value":"Nordrhein-Westfalen","key":"StateName"},{"value":"Paderborn","key":"CountyName"}]},"MapReference":{"ReferenceId":"74867719","Spot":0.34,"SideOfStreet":"left","CountryId":"20147700","StateId":"20157369","CountyId":"20160071","CityId":"20160072","DistrictId":"20160076","AddressId":"622079665","RoadLinkId":"239805992"}}},{"Relevance":1.0,"Distance":68.0,"MatchLevel":"houseNumber","MatchQuality":{"Country":1.0,"State":1.0,"County":1.0,"City":1.0,"District":1.0,"Street":[1.0],"HouseNumber":1.0,"PostalCode":1.0},"MatchType":"interpolated","Location":{"LocationId":"NT_GPVVwzQo3pCW2N4NuBsEKB_xED","LocationType":"point","DisplayPosition":{"Latitude":51.76439,"Longitude":8.93959},"MapView":{"TopLeft":{"Latitude":51.7655142,"Longitude":8.9377736},"BottomRight":{"Latitude":51.7632658,"Longitude":8.9414064}},"Address":{"Label":"Ortwaldstraße 11, 33184 Altenbeken, Deutschland","Country":"DEU","State":"Nordrhein-Westfalen","County":"Paderborn","City":"Altenbeken","District":"Altenbeken","Street":"Ortwaldstraße","HouseNumber":"11","PostalCode":"33184","AdditionalData":[{"value":"Deutschland","key":"CountryName"},{"value":"Nordrhein-Westfalen","key":"StateName"},{"value":"Paderborn","key":"CountyName"}]},"MapReference":{"ReferenceId":"74867706","Spot":0.83,"SideOfStreet":"right","CountryId":"20147700","StateId":"20157369","CountyId":"20160071","CityId":"20160072","DistrictId":"20160076","AddressId":"195344021","RoadLinkId":"35506801"}}},{"Relevance":1.0,"Distance":82.6,"MatchLevel":"houseNumber","MatchQuality":{"Country":1.0,"State":1.0,"County":1.0,"City":1.0,"District":1.0,"Street":[1.0],"HouseNumber":1.0,"PostalCode":1.0},"MatchType":"interpolated","Location":{"LocationId":"NT_BF3JIZfPGbY.l6o4Bff6FD_xMD","LocationType":"point","DisplayPosition":{"Latitude":51.76376,"Longitude":8.93978},"MapView":{"TopLeft":{"Latitude":51.7648842,"Longitude":8.9379636},"BottomRight":{"Latitude":51.7626358,"Longitude":8.9415964}},"Address":{"Label":"Bokelweg 13, 33184 Altenbeken, Deutschland","Country":"DEU","State":"Nordrhein-Westfalen","County":"Paderborn","City":"Altenbeken","District":"Altenbeken","Street":"Bokelweg","HouseNumber":"13","PostalCode":"33184","AdditionalData":[{"value":"Deutschland","key":"CountryName"},{"value":"Nordrhein-Westfalen","key":"StateName"},{"value":"Paderborn","key":"CountyName"}]},"MapReference":{"ReferenceId":"74867710","Spot":0.42,"SideOfStreet":"right","CountryId":"20147700","StateId":"20157369","CountyId":"20160071","CityId":"20160072","DistrictId":"20160076","AddressId":"622079667","RoadLinkId":"35221364"}}},{"Relevance":1.0,"Distance":91.0,"MatchLevel":"houseNumber","MatchQuality":{"Country":1.0,"State":1.0,"County":1.0,"City":1.0,"District":1.0,"Street":[1.0],"HouseNumber":1.0,"PostalCode":1.0},"MatchType":"interpolated","Location":{"LocationId":"NT_ThVOPxbfDewPBxeu3Oe.OA_xUD","LocationType":"point","DisplayPosition":{"Latitude":51.76541,"Longitude":8.94041},"MapView":{"TopLeft":{"Latitude":51.7665342,"Longitude":8.9385936},"BottomRight":{"Latitude":51.7642858,"Longitude":8.9422264}},"Address":{"Label":"Eichendorffstraße 15, 33184 Altenbeken, Deutschland","Country":"DEU","State":"Nordrhein-Westfalen","County":"Paderborn","City":"Altenbeken","District":"Altenbeken","Street":"Eichendorffstraße","HouseNumber":"15","PostalCode":"33184","AdditionalData":[{"value":"Deutschland","key":"CountryName"},{"value":"Nordrhein-Westfalen","key":"StateName"},{"value":"Paderborn","key":"CountyName"}]},"MapReference":{"ReferenceId":"75404878","Spot":0.98,"SideOfStreet":"right","CountryId":"20147700","StateId":"20157369","CountyId":"20160071","CityId":"20160072","DistrictId":"20160076","AddressId":"209326709","RoadLinkId":"35305860"}}},{"Relevance":1.0,"Distance":97.4,"MatchLevel":"houseNumber","MatchQuality":{"Country":1.0,"State":1.0,"County":1.0,"City":1.0,"District":1.0,"Street":[1.0],"HouseNumber":1.0,"PostalCode":1.0},"MatchType":"interpolated","Location":{"LocationId":"NT_ThVOPxbfDewPBxeu3Oe.OA_xMD","LocationType":"point","DisplayPosition":{"Latitude":51.76541,"Longitude":8.94071},"MapView":{"TopLeft":{"Latitude":51.7665342,"Longitude":8.9388936},"BottomRight":{"Latitude":51.7642858,"Longitude":8.9425264}},"Address":{"Label":"Eichendorffstraße 13, 33184 Altenbeken, Deutschland","Country":"DEU","State":"Nordrhein-Westfalen","County":"Paderborn","City":"Altenbeken","District":"Altenbeken","Street":"Eichendorffstraße","HouseNumber":"13","PostalCode":"33184","AdditionalData":[{"value":"Deutschland","key":"CountryName"},{"value":"Nordrhein-Westfalen","key":"StateName"},{"value":"Paderborn","key":"CountyName"}]},"MapReference":{"ReferenceId":"75404879","Spot":0.12,"SideOfStreet":"right","CountryId":"20147700","StateId":"20157369","CountyId":"20160071","CityId":"20160072","DistrictId":"20160076","AddressId":"209359019","RoadLinkId":"35143100"}}},{"Relevance":1.0,"Distance":103.1,"MatchLevel":"houseNumber","MatchQuality":{"Country":1.0,"State":1.0,"County":1.0,"City":1.0,"District":1.0,"Street":[1.0],"HouseNumber":1.0,"PostalCode":1.0},"MatchType":"interpolated","Location":{"LocationId":"NT_VTX8ofk9.SLb-hWdOBehcB_1cD","LocationType":"point","DisplayPosition":{"Latitude":51.76353,"Longitude":8.94126},"MapView":{"TopLeft":{"Latitude":51.7646542,"Longitude":8.9394437},"BottomRight":{"Latitude":51.7624058,"Longitude":8.9430763}},"Address":{"Label":"Adenauerstraße 57, 33184 Altenbeken, Deutschland","Country":"DEU","State":"Nordrhein-Westfalen","County":"Paderborn","City":"Altenbeken","District":"Altenbeken","Street":"Adenauerstraße","HouseNumber":"57","PostalCode":"33184","AdditionalData":[{"value":"Deutschland","key":"CountryName"},{"value":"Nordrhein-Westfalen","key":"StateName"},{"value":"Paderborn","key":"CountyName"}]},"MapReference":{"ReferenceId":"842378595","Spot":0.3,"SideOfStreet":"left","CountryId":"20147700","StateId":"20157369","CountyId":"20160071","CityId":"20160072","DistrictId":"20160076","AddressId":"196417207","RoadLinkId":"224340786"}}},{"Relevance":1.0,"Distance":110.9,"MatchLevel":"houseNumber","MatchQuality":{"Country":1.0,"State":1.0,"County":1.0,"City":1.0,"District":1.0,"Street":[1.0],"HouseNumber":1.0,"PostalCode":1.0},"MatchType":"interpolated","Location":{"LocationId":"NT_VTX8ofk9.SLb-hWdOBehcB_1kD","LocationType":"point","DisplayPosition":{"Latitude":51.76362,"Longitude":8.94172},"MapView":{"TopLeft":{"Latitude":51.7647442,"Longitude":8.9399037},"BottomRight":{"Latitude":51.7624958,"Longitude":8.9435363}},"Address":{"Label":"Adenauerstraße 59, 33184 Altenbeken, Deutschland","Country":"DEU","State":"Nordrhein-Westfalen","County":"Paderborn","City":"Altenbeken","District":"Altenbeken","Street":"Adenauerstraße","HouseNumber":"59","PostalCode":"33184","AdditionalData":[{"value":"Deutschland","key":"CountryName"},{"value":"Nordrhein-Westfalen","key":"StateName"},{"value":"Paderborn","key":"CountyName"}]},"MapReference":{"ReferenceId":"842378596","Spot":0.15,"SideOfStreet":"left","CountryId":"20147700","StateId":"20157369","CountyId":"20160071","CityId":"20160072","DistrictId":"20160076","AddressId":"195720570","RoadLinkId":"224340787"}}}]}]}}