{"Response":{"MetaInfo":{"Timestamp":"2020-03-28T11:54:32.727+0000","NextPageInformation":"2"},"View":[{"_type":"SearchResultsViewType","ViewId":0,"Result":[{"Relevance":1.0,"Distance":0.0,"Direction":0.0,"MatchLevel":"district","MatchQuality":{"Country":1.0,"State":1.0,"County":1.0,"City":1.0,"District":1.0,"PostalCode":1.0},"Location":{"LocationId":"NT_-KZLl7.OYbibPqeqGSrRIB","LocationType":"point","DisplayPosition":{"Latitude":51.7613965,"Longitude":-0.5673644},"MapView":{"TopLeft":{"Latitude":51.77774,"Longitude":-0.60339},"BottomRight":{"Latitude":51.74955,"Longitude":-0.54331}},"Address":{"Label":"Berkhamsted, England, United Kingdom","Country":"GBR","State":"England","County":"Hertfordshire","City":"Berkhamsted","District":"Berkhamsted","PostalCode":"HP4 3","AdditionalData":[{"value":"United Kingdom","key":"CountryName"},{"value":"England","key":"StateName"},{"value":"Hertfordshire","key":"CountyName"}]},"MapReference":{"ReferenceId":"25784878","SideOfStreet":"neither","StateId":"20248595","CountyId":"20336428","CityId":"20336450","DistrictId":"20336451"}}},{"Relevance":1.0,"Distance":7.3,"MatchLevel":"houseNumber","MatchQuality":{"Country":1.0,"State":1.0,"County":1.0,"City":1.0,"District":1.0,"Street":[1.0],"HouseNumber":1.0,"PostalCode":1.0},"MatchType":"interpolated","Location":{"LocationId":"NT_UynYn1KahQppPiNvjMmwCD_l_25784685_R_yYDM","LocationType":"point","DisplayPosition":{"Latitude":51.7612819,"Longitude":-0.5673057},"MapView":{"TopLeft":{"Latitude":51.7624061,"Longitude":-0.569122},"BottomRight":{"Latitude":51.7601577,"Longitude":-0.5654894}},"Address":{"Label":"260 High Street, Berkhamsted, HP4 1AQ, United Kingdom","Country":"GBR","State":"England","County":"Hertfordshire","City":"Berkhamsted","District":"Berkhamsted","Street":"High Street","HouseNumber":"260","PostalCode":"HP4 1AQ","AdditionalData":[{"value":"United Kingdom","key":"CountryName"},{"value":"England","key":"StateName"},{"value":"Hertfordshire","key":"CountyName"}]},"MapReference":{"ReferenceId":"25784685","Spot":0.85,"SideOfStreet":"right","StateId":"20248595","CountyId":"20336428","CityId":"20336450","DistrictId":"20336451"}}},{"Relevance":1.0,"Distance":16.1,"MatchLevel":"postalCode","MatchQuality":{"PostalCode":1.0},"MatchType":"interpolated","Location":{"LocationId":"NT_UynYn1KahQppPiNvjMmwCD_l_25784685_R_yYDM","LocationType":"point","DisplayPosition":{"Latitude":51.7613,"Longitude":-0.56719},"MapView":{"TopLeft":{"Latitude":51.7702932,"Longitude":-0.5817201},"BottomRight":{"Latitude":51.7523068,"Longitude":-0.5526599}},"Address":{"Label":"HP4 1BE, Berkhamsted, England, United Kingdom","Country":"GBR","State":"England","County":"Hertfordshire","City":"Berkhamsted","PostalCode":"HP4 1BE","AdditionalData":[{"value":"United Kingdom","key":"CountryName"},{"value":"England","key":"StateName"},{"value":"Hertfordshire","key":"CountyName"}]},"MapReference":{"ReferenceId":"25784685","Spot":0.85,"SideOfStreet":"neither","StateId":"20248595","CountyId":"20336428","CityId":"20336450"}}},{"Relevance":1.0,"Distance":17.3,"MatchLevel":"postalCode","MatchQuality":{"PostalCode":1.0},"MatchType":"interpolated","Location":{"LocationId":"NT_UynYn1KahQppPiNvjMmwCD_l_836728523_R_yYjM","LocationType":"point","DisplayPosition":{"Latitude":51.76145,"Longitude":-0.5676},"MapView":{"TopLeft":{"Latitude":51.7704432,"Longitude":-0.5821301},"BottomRight":{"Latitude":51.7524568,"Longitude":-0.5530699}},"Address":{"Label":"HP4 1AQ, Berkhamsted, England, United Kingdom","Country":"GBR","State":"England","County":"Hertfordshire","City":"Berkhamsted","PostalCode":"HP4 1AQ","AdditionalData":[{"value":"United Kingdom","key":"CountryName"},{"value":"England","key":"StateName"},{"value":"Hertfordshire","key":"CountyName"}]},"MapReference":{"ReferenceId":"836728523","Spot":0.38,"SideOfStreet":"neither","StateId":"20248595","CountyId":"20336428","CityId":"20336450"}}},{"Relevance":1.0,"Distance":26.8,"MatchLevel":"houseNumber","MatchQuality":{"Country":1.0,"State":1.0,"County":1.0,"City":1.0,"District":1.0,"Street":[1.0],"HouseNumber":1.0,"PostalCode":1.0},"MatchType":"interpolated","Location":{"LocationId":"NT_UynYn1KahQppPiNvjMmwCD_l_836728523_R_yYjM","LocationType":"point","DisplayPosition":{"Latitude":51.76143,"Longitude":-0.5677501},"MapView":{"TopLeft":{"Latitude":51.7625542,"Longitude":-0.5695663},"BottomRight":{"Latitude":51.7603059,"Longitude":-0.5659338}},"Address":{"Label":"262 High Street, Berkhamsted, HP4 1AQ, United Kingdom","Country":"GBR","State":"England","County":"Hertfordshire","City":"Berkhamsted","District":"Berkhamsted","Street":"High Street","HouseNumber":"262","PostalCode":"HP4 1AQ","AdditionalData":[{"value":"United Kingdom","key":"CountryName"},{"value":"England","key":"StateName"},{"value":"Hertfordshire","key":"CountyName"}]},"MapReference":{"ReferenceId":"836728523","Spot":0.38,"SideOfStreet":"right","StateId":"20248595","CountyId":"20336428","CityId":"20336450","DistrictId":"20336451"}}},{"Relevance":1.0,"Distance":45.4,"MatchLevel":"houseNumber","MatchQuality":{"Country":1.0,"State":1.0,"County":1.0,"City":1.0,"District":1.0,"Street":[1.0],"HouseNumber":1.0,"PostalCode":1.0},"MatchType":"interpolated","Location":{"LocationId":"NT_e.9b.VdzQpQcLYwxj78PCA_l_833410537_R_yYD","LocationType":"point","DisplayPosition":{"Latitude":51.7611444,"Longitude":-0.5678831},"MapView":{"TopLeft":{"Latitude":51.7622685,"Longitude":-0.5696993},"BottomRight":{"Latitude":51.7600202,"Longitude":-0.5660668}},"Address":{"Label":"26 Cowper Road, Berkhamsted, HP4 1FD, United Kingdom","Country":"GBR","State":"England","County":"Hertfordshire","City":"Berkhamsted","District":"Berkhamsted","Street":"Cowper Road","HouseNumber":"26","PostalCode":"HP4 1FD","AdditionalData":[{"value":"United Kingdom","key":"CountryName"},{"value":"England","key":"StateName"},{"value":"Hertfordshire","key":"CountyName"}]},"MapReference":{"ReferenceId":"833410537","Spot":0.47,"SideOfStreet":"right","StateId":"20248595","CountyId":"20336428","CityId":"20336450","DistrictId":"20336451"}}},{"Relevance":1.0,"Distance":64.4,"MatchLevel":"houseNumber","MatchQuality":{"Country":1.0,"State":1.0,"County":1.0,"City":1.0,"District":1.0,"Street":[1.0],"HouseNumber":1.0,"PostalCode":1.0},"MatchType":"interpolated","Location":{"LocationId":"NT_5UZLsvD2GCISv6ohVnzuMB_l_836728524_R_ycDN","LocationType":"point","DisplayPosition":{"Latitude":51.7616001,"Longitude":-0.5682402},"MapView":{"TopLeft":{"Latitude":51.7627242,"Longitude":-0.5700564},"BottomRight":{"Latitude":51.7604759,"Longitude":-0.5664239}},"Address":{"Label":"274 High Street, Berkhamsted, HP4 1, United Kingdom","Country":"GBR","State":"England","County":"Hertfordshire","City":"Berkhamsted","District":"Berkhamsted","Street":"High Street","HouseNumber":"274","PostalCode":"HP4 1","AdditionalData":[{"value":"United Kingdom","key":"CountryName"},{"value":"England","key":"StateName"},{"value":"Hertfordshire","key":"CountyName"}]},"MapReference":{"ReferenceId":"836728524","Spot":0.2,"SideOfStreet":"right","StateId":"20248595","CountyId":"20336428","CityId":"20336450","DistrictId":"20336451"}}},{"Relevance":1.0,"Distance":76.9,"MatchLevel":"street","MatchQuality":{"Country":1.0,"State":1.0,"County":1.0,"City":1.0,"District":1.0,"Street":[1.0],"PostalCode":1.0},"Location":{"LocationId":"NT_TeM.YNm-nFCgB7hNj-c6pC_l_833410538_R","LocationType":"point","DisplayPosition":{"Latitude":51.76087,"Longitude":-0.56809},"MapView":{"TopLeft":{"Latitude":51.76101,"Longitude":-0.56889},"BottomRight":{"Latitude":51.76087,"Longitude":-0.56809}},"Address":{"Label":"York Court, Berkhamsted, HP4 3, United Kingdom","Country":"GBR","State":"England","County":"Hertfordshire","City":"Berkhamsted","District":"Berkhamsted","Street":"York Court","PostalCode":"HP4 3","AdditionalData":[{"value":"United Kingdom","key":"CountryName"},{"value":"England","key":"StateName"},{"value":"Hertfordshire","key":"CountyName"}]},"MapReference":{"ReferenceId":"833410538","Spot":0.0,"SideOfStreet":"right","StateId":"20248595","CountyId":"20336428","CityId":"20336450","DistrictId":"20336451"}}},{"Relevance":1.0,"Distance":85.7,"MatchLevel":"postalCode","MatchQuality":{"PostalCode":1.0},"MatchType":"interpolated","Location":{"LocationId":"NT_5UZLsvD2GCISv6ohVnzuMB_l_836728524_R_ycDN","LocationType":"point","DisplayPosition":{"Latitude":51.76165,"Longitude":-0.56854},"MapView":{"TopLeft":{"Latitude":51.7706432,"Longitude":-0.5830702},"BottomRight":{"Latitude":51.7526568,"Longitude":-0.5540098}},"Address":{"Label":"HP4 1AB, Berkhamsted, England, United Kingdom","Country":"GBR","State":"England","County":"Hertfordshire","City":"Berkhamsted","PostalCode":"HP4 1AB","AdditionalData":[{"value":"United Kingdom","key":"CountryName"},{"value":"England","key":"StateName"},{"value":"Hertfordshire","key":"CountyName"}]},"MapReference":{"ReferenceId":"836728524","Spot":0.2,"SideOfStreet":"neither","StateId":"20248595","CountyId":"20336428","CityId":"20336450"}}},{"Relevance":1.0,"Distance":90.8,"MatchLevel":"postalCode","MatchQuality":{"PostalCode":1.0},"MatchType":"interpolated","Location":{"LocationId":"NT_8N7fq9hHh-KMevbhWsmFYC_l_833410536_R_yYD","LocationType":"point","DisplayPosition":{"Latitude":51.76077,"Longitude":-0.56821},"MapView":{"TopLeft":{"Latitude":51.7697632,"Longitude":-0.5827399},"BottomRight":{"Latitude":51.7517768,"Longitude":-0.5536801}},"Address":{"Label":"HP4 3DA, Berkhamsted, England, United Kingdom","Country":"GBR","State":"England","County":"Hertfordshire","City":"Berkhamsted","PostalCode":"HP4 3DA","AdditionalData":[{"value":"United Kingdom","key":"CountryName"},{"value":"England","key":"StateName"},{"value":"Hertfordshire","key":"CountyName"}]},"MapReference":{"ReferenceId":"833410536","Spot":0.5,"SideOfStreet":"neither","StateId":"20248595","CountyId":"20336428","CityId":"20336450"}}}]}]}}