{"Response":{"MetaInfo":{"Timestamp":"2020-03-28T10:38:43.403+0000","NextPageInformation":"2"},"View":[{"_type":"SearchResultsViewType","ViewId":0,"Result":[{"Relevance":1.0,"Distance":0.0,"Direction":0.0,"MatchLevel":"district","MatchQuality":{"Country":1.0,"State":1.0,"County":1.0,"City":1.0,"District":1.0,"PostalCode":1.0},"Location":{"LocationId":"NT_yUoxHSQ2sUTLBQVLfXDhrB","LocationType":"point","DisplayPosition":{"Latitude":51.7458497,"Longitude":-2.2194697},"MapView":{"TopLeft":{"Latitude":51.76875,"Longitude":-2.26089},"BottomRight":{"Latitude":51.72088,"Longitude":-2.18962}},"Address":{"Label":"Stroud, England, United Kingdom","Country":"GBR","State":"England","County":"Gloucestershire","City":"Stroud","District":"Stroud","PostalCode":"GL5 4","AdditionalData":[{"value":"United Kingdom","key":"CountryName"},{"value":"England","key":"StateName"},{"value":"Gloucestershire","key":"CountyName"}]},"MapReference":{"ReferenceId":"26602854","SideOfStreet":"neither","StateId":"20248595","CountyId":"20334235","CityId":"20348698","DistrictId":"20348699"}}},{"Relevance":1.0,"Distance":20.6,"MatchLevel":"landmark","MatchQuality":{"Country":1.0,"State":1.0,"County":1.0,"City":1.0,"District":1.0,"Street":[1.0],"PostalCode":1.0,"Name":1.0},"Location":{"LocationId":"NT_nsN5fglfTFi38SCiVt5W5B_p_k2iGT-o8wtv5Uq3yShU4IA","LocationType":"shoppingCentre","Name":"Merrywalks Shopping Centre","DisplayPosition":{"Latitude":51.74678,"Longitude":-2.21878},"MapView":{"TopLeft":{"Latitude":51.74703,"Longitude":-2.2198},"BottomRight":{"Latitude":51.74541,"Longitude":-2.21758}},"Address":{"Label":"Merrywalks, Stroud, GL5 1, United Kingdom","Country":"GBR","State":"England","County":"Gloucestershire","City":"Stroud","District":"Stroud","Street":"Merrywalks","PostalCode":"GL5 1","AdditionalData":[{"value":"United Kingdom","key":"CountryName"},{"value":"England","key":"StateName"},{"value":"Gloucestershire","key":"CountyName"}]},"MapReference":{"StateId":"20248595","CountyId":"20334235","CityId":"20348698","DistrictId":"20348699","PlaceId":"1096837933"}}},{"Relevance":1.0,"Distance":20.6,"MatchLevel":"street","MatchQuality":{"Country":1.0,"State":1.0,"County":1.0,"City":1.0,"District":1.0,"Street":[1.0],"PostalCode":1.0},"Location":{"LocationId":"NT_C5aGD7FAKZX2wx-4uCFRHB_l_26859963_L","LocationType":"point","DisplayPosition":{"Latitude":51.7460177,"Longitude":-2.2193437},"MapView":{"TopLeft":{"Latitude":51.74631,"Longitude":-2.2198},"BottomRight":{"Latitude":51.74573,"Longitude":-2.21896}},"Address":{"Label":"Rowcroft Retreat, Stroud, GL5 3, United Kingdom","Country":"GBR","State":"England","County":"Gloucestershire","City":"Stroud","District":"Stroud","Street":"Rowcroft Retreat","PostalCode":"GL5 3","AdditionalData":[{"value":"United Kingdom","key":"CountryName"},{"value":"England","key":"StateName"},{"value":"Gloucestershire","key":"CountyName"}]},"MapReference":{"ReferenceId":"26859963","Spot":0.47,"SideOfStreet":"left","StateId":"20248595","CountyId":"20334235","CityId":"20348698","DistrictId":"20348699"}}},{"Relevance":1.0,"Distance":21.6,"MatchLevel":"postalCode","MatchQuality":{"PostalCode":1.0},"Location":{"LocationId":"NT_C5aGD7FAKZX2wx-4uCFRHB_l_26859963_L","LocationType":"point","DisplayPosition":{"Latitude":51.74582,"Longitude":-2.21916},"MapView":{"TopLeft":{"Latitude":51.7548132,"Longitude":-2.2336851},"BottomRight":{"Latitude":51.7368268,"Longitude":-2.2046349}},"Address":{"Label":"GL5 3BE, Stroud, England, United Kingdom","Country":"GBR","State":"England","County":"Gloucestershire","City":"Stroud","PostalCode":"GL5 3BE","AdditionalData":[{"value":"United Kingdom","key":"CountryName"},{"value":"England","key":"StateName"},{"value":"Gloucestershire","key":"CountyName"}]},"MapReference":{"ReferenceId":"26859963","Spot":0.47,"SideOfStreet":"neither","StateId":"20248595","CountyId":"20334235","CityId":"20348698"}}},{"Relevance":1.0,"Distance":37.5,"MatchLevel":"street","MatchQuality":{"Country":1.0,"State":1.0,"County":1.0,"City":1.0,"District":1.0,"Street":[1.0],"PostalCode":1.0},"Location":{"LocationId":"NT_C5aGD7FAKZX2wx-4uCFRHB_l_26859964_L","LocationType":"point","DisplayPosition":{"Latitude":51.74573,"Longitude":-2.21896},"MapView":{"TopLeft":{"Latitude":51.74573,"Longitude":-2.21896},"BottomRight":{"Latitude":51.74541,"Longitude":-2.2186}},"Address":{"Label":"Rowcroft Retreat, Stroud, GL5 3, United Kingdom","Country":"GBR","State":"England","County":"Gloucestershire","City":"Stroud","District":"Stroud","Street":"Rowcroft Retreat","PostalCode":"GL5 3","AdditionalData":[{"value":"United Kingdom","key":"CountryName"},{"value":"England","key":"StateName"},{"value":"Gloucestershire","key":"CountyName"}]},"MapReference":{"ReferenceId":"26859964","Spot":1.0,"SideOfStreet":"left","StateId":"20248595","CountyId":"20334235","CityId":"20348698","DistrictId":"20348699"}}},{"Relevance":1.0,"Distance":55.8,"MatchLevel":"postalCode","MatchQuality":{"PostalCode":1.0},"Location":{"LocationId":"NT_C5aGD7FAKZX2wx-4uCFRHB_l_26859964_L","LocationType":"point","DisplayPosition":{"Latitude":51.74555,"Longitude":-2.21882},"MapView":{"TopLeft":{"Latitude":51.7545432,"Longitude":-2.233345},"BottomRight":{"Latitude":51.7365568,"Longitude":-2.204295}},"Address":{"Label":"GL5 3BD, Stroud, England, United Kingdom","Country":"GBR","State":"England","County":"Gloucestershire","City":"Stroud","PostalCode":"GL5 3BD","AdditionalData":[{"value":"United Kingdom","key":"CountryName"},{"value":"England","key":"StateName"},{"value":"Gloucestershire","key":"CountyName"}]},"MapReference":{"ReferenceId":"26859964","Spot":1.0,"SideOfStreet":"neither","StateId":"20248595","CountyId":"20334235","CityId":"20348698"}}},{"Relevance":1.0,"Distance":56.0,"MatchLevel":"street","MatchQuality":{"Country":1.0,"State":1.0,"County":1.0,"City":1.0,"District":1.0,"Street":[1.0],"PostalCode":1.0},"Location":{"LocationId":"NT_xh19txirJ4Oh8MiTwnz18A_l_839619393_R","LocationType":"point","DisplayPosition":{"Latitude":51.74631,"Longitude":-2.2198},"MapView":{"TopLeft":{"Latitude":51.74631,"Longitude":-2.22058},"BottomRight":{"Latitude":51.74576,"Longitude":-2.2198}},"Address":{"Label":"Merrywalks, Stroud, GL5 4, United Kingdom","Country":"GBR","State":"England","County":"Gloucestershire","City":"Stroud","District":"Stroud","Street":"Merrywalks","PostalCode":"GL5 4","AdditionalData":[{"value":"United Kingdom","key":"CountryName"},{"value":"England","key":"StateName"},{"value":"Gloucestershire","key":"CountyName"}]},"MapReference":{"ReferenceId":"839619393","Spot":1.0,"SideOfStreet":"right","StateId":"20248595","CountyId":"20334235","CityId":"20348698","DistrictId":"20348699"}}},{"Relevance":1.0,"Distance":56.4,"MatchLevel":"street","MatchQuality":{"Country":1.0,"State":1.0,"County":1.0,"City":1.0,"District":1.0,"Street":[1.0],"PostalCode":1.0},"Location":{"LocationId":"NT_Syur1WGPC1d4qcZ-n3.abB_l_839619394_R","LocationType":"point","DisplayPosition":{"Latitude":51.7463165,"Longitude":-2.2197906},"MapView":{"TopLeft":{"Latitude":51.74663,"Longitude":-2.2198},"BottomRight":{"Latitude":51.74631,"Longitude":-2.2192}},"Address":{"Label":"Merrywalks, Stroud, GL5 1, United Kingdom","Country":"GBR","State":"England","County":"Gloucestershire","City":"Stroud","District":"Stroud","Street":"Merrywalks","PostalCode":"GL5 1","AdditionalData":[{"value":"United Kingdom","key":"CountryName"},{"value":"England","key":"StateName"},{"value":"Gloucestershire","key":"CountyName"}]},"MapReference":{"ReferenceId":"839619394","Spot":0.02,"SideOfStreet":"right","StateId":"20248595","CountyId":"20334235","CityId":"20348698","DistrictId":"20348699"}}},{"Relevance":1.0,"Distance":59.7,"MatchLevel":"postalCode","MatchQuality":{"PostalCode":1.0},"MatchType":"interpolated","Location":{"LocationId":"NT_VUSkRBwVL8zqX2pC.HjGEA_l_26602791_L_xA","LocationType":"point","DisplayPosition":{"Latitude":51.74559,"Longitude":-2.21871},"MapView":{"TopLeft":{"Latitude":51.7545832,"Longitude":-2.233235},"BottomRight":{"Latitude":51.7365968,"Longitude":-2.204185}},"Address":{"Label":"GL5 3BS, Stroud, England, United Kingdom","Country":"GBR","State":"England","County":"Gloucestershire","City":"Stroud","PostalCode":"GL5 3BS","AdditionalData":[{"value":"United Kingdom","key":"CountryName"},{"value":"England","key":"StateName"},{"value":"Gloucestershire","key":"CountyName"}]},"MapReference":{"ReferenceId":"26602791","Spot":0.46,"SideOfStreet":"neither","StateId":"20248595","CountyId":"20334235","CityId":"20348698"}}},{"Relevance":1.0,"Distance":61.9,"MatchLevel":"houseNumber","MatchQuality":{"Country":1.0,"State":1.0,"County":1.0,"City":1.0,"District":1.0,"Street":[1.0],"HouseNumber":1.0,"PostalCode":1.0},"MatchType":"interpolated","Location":{"LocationId":"NT_xTysDFVKcKshjuguvJQ.QC_l_26644603_L_xID","LocationType":"point","DisplayPosition":{"Latitude":51.745357,"Longitude":-2.2187349},"MapView":{"TopLeft":{"Latitude":51.7464812,"Longitude":-2.2205505},"BottomRight":{"Latitude":51.7442328,"Longitude":-2.2169193}},"Address":{"Label":"12 King Street, Stroud, GL5 3, United Kingdom","Country":"GBR","State":"England","County":"Gloucestershire","City":"Stroud","District":"Stroud","Street":"King Street","HouseNumber":"12","PostalCode":"GL5 3","AdditionalData":[{"value":"United Kingdom","key":"CountryName"},{"value":"England","key":"StateName"},{"value":"Gloucestershire","key":"CountyName"}]},"MapReference":{"ReferenceId":"26644603","Spot":0.52,"SideOfStreet":"left","StateId":"20248595","CountyId":"20334235","CityId":"20348698","DistrictId":"20348699"}}}]}]}}