{"Response":{"MetaInfo":{"Timestamp":"2020-03-28T10:44:51.366+0000","NextPageInformation":"2"},"View":[{"_type":"SearchResultsViewType","ViewId":0,"Result":[{"Relevance":1.0,"Distance":0.0,"Direction":0.0,"MatchLevel":"district","MatchQuality":{"Country":1.0,"State":1.0,"County":1.0,"City":1.0,"District":1.0,"PostalCode":1.0},"Location":{"LocationId":"NT_uVR3ndWuCMadtX8znyY96B","LocationType":"point","DisplayPosition":{"Latitude":51.8858285,"Longitude":4.4870382},"MapView":{"TopLeft":{"Latitude":51.90127,"Longitude":4.41545},"BottomRight":{"Latitude":51.86155,"Longitude":4.51513}},"Address":{"Label":"Charlois, Rotterdam, Zuid-Holland, Nederland","Country":"NLD","State":"Zuid-Holland","County":"Rotterdam","City":"Rotterdam","District":"Charlois","PostalCode":"3085","AdditionalData":[{"value":"Nederland","key":"CountryName"},{"value":"Zuid-Holland","key":"StateName"},{"value":"Rotterdam","key":"CountyName"}]},"MapReference":{"ReferenceId":"54841781","SideOfStreet":"neither","CountryId":"23055544","StateId":"23055596","CountyId":"23055877","CityId":"20202239"}}},{"Relevance":1.0,"Distance":15.1,"MatchLevel":"street","MatchQuality":{"Country":1.0,"State":1.0,"County":1.0,"City":1.0,"District":1.0,"Street":[1.0],"PostalCode":1.0},"Location":{"LocationId":"NT_VS1P-GBfTYLeLPJR-.cnaD_l_54843260_L","LocationType":"point","DisplayPosition":{"Latitude":51.8857641,"Longitude":4.4872314},"MapView":{"TopLeft":{"Latitude":51.88619,"Longitude":4.48718},"BottomRight":{"Latitude":51.88532,"Longitude":4.48742}},"Address":{"Label":"Gooilandsingel, 3083 Rotterdam, Nederland","Country":"NLD","State":"Zuid-Holland","County":"Rotterdam","City":"Rotterdam","District":"Charlois","Street":"Gooilandsingel","PostalCode":"3083","AdditionalData":[{"value":"Nederland","key":"CountryName"},{"value":"Zuid-Holland","key":"StateName"},{"value":"Rotterdam","key":"CountyName"}]},"MapReference":{"ReferenceId":"54843260","Spot":0.49,"SideOfStreet":"left","CountryId":"23055544","StateId":"23055596","CountyId":"23055877","CityId":"20202239"}}},{"Relevance":1.0,"Distance":29.5,"MatchLevel":"street","MatchQuality":{"Country":1.0,"State":1.0,"County":1.0,"City":1.0,"District":1.0,"PostalCode":1.0},"Location":{"LocationId":"NT_VA-AGlp53Zgf8VW2IDghLA_l_54849196_L","LocationType":"point","DisplayPosition":{"Latitude":51.88572,"Longitude":4.48743},"MapView":{"TopLeft":{"Latitude":51.88793,"Longitude":4.48737},"BottomRight":{"Latitude":51.88532,"Longitude":4.48956}},"Address":{"Label":"3083 Rotterdam, Nederland","Country":"NLD","State":"Zuid-Holland","County":"Rotterdam","City":"Rotterdam","District":"Charlois","PostalCode":"3083","AdditionalData":[{"value":"Nederland","key":"CountryName"},{"value":"Zuid-Holland","key":"StateName"},{"value":"Rotterdam","key":"CountyName"}]},"MapReference":{"ReferenceId":"54849196","Spot":0.1,"SideOfStreet":"left","CountryId":"23055544","StateId":"23055596","CountyId":"23055877","CityId":"20202239"}}},{"Relevance":1.0,"Distance":39.3,"MatchLevel":"houseNumber","MatchQuality":{"Country":1.0,"State":1.0,"County":1.0,"City":1.0,"District":1.0,"Street":[1.0],"HouseNumber":1.0,"PostalCode":1.0},"MatchType":"interpolated","Location":{"LocationId":"NT_1.0sysY6c-lRXqqL1vqmgB_xAD","LocationType":"point","DisplayPosition":{"Latitude":51.88627,"Longitude":4.48703},"MapView":{"TopLeft":{"Latitude":51.8873942,"Longitude":4.4852087},"BottomRight":{"Latitude":51.8851458,"Longitude":4.4888513}},"Address":{"Label":"Boerhaavestraat 10, 3083 DA Rotterdam, Nederland","Country":"NLD","State":"Zuid-Holland","County":"Rotterdam","City":"Rotterdam","District":"Charlois","Street":"Boerhaavestraat","HouseNumber":"10","PostalCode":"3083 DA","AdditionalData":[{"value":"Nederland","key":"CountryName"},{"value":"Zuid-Holland","key":"StateName"},{"value":"Rotterdam","key":"CountyName"}]},"MapReference":{"ReferenceId":"591828576","Spot":0.58,"SideOfStreet":"left","CountryId":"23055544","StateId":"23055596","CountyId":"23055877","CityId":"20202239","AddressId":"614994104","RoadLinkId":"31833488"}}},{"Relevance":1.0,"Distance":56.7,"MatchLevel":"houseNumber","MatchQuality":{"Country":1.0,"State":1.0,"County":1.0,"City":1.0,"District":1.0,"Street":[1.0],"HouseNumber":1.0,"PostalCode":1.0},"MatchType":"interpolated","Location":{"LocationId":"NT_xU4eCUc4.SKVGxG.9c-AZD_xEDM","LocationType":"point","DisplayPosition":{"Latitude":51.88617,"Longitude":4.48779},"MapView":{"TopLeft":{"Latitude":51.8872942,"Longitude":4.4859687},"BottomRight":{"Latitude":51.8850458,"Longitude":4.4896113}},"Address":{"Label":"Metroplein 110, 3083 BB Rotterdam, Nederland","Country":"NLD","State":"Zuid-Holland","County":"Rotterdam","City":"Rotterdam","District":"Charlois","Street":"Metroplein","HouseNumber":"110","PostalCode":"3083 BB","AdditionalData":[{"value":"Nederland","key":"CountryName"},{"value":"Zuid-Holland","key":"StateName"},{"value":"Rotterdam","key":"CountyName"}]},"MapReference":{"ReferenceId":"54844978","Spot":0.27,"SideOfStreet":"left","CountryId":"23055544","StateId":"23055596","CountyId":"23055877","CityId":"20202239","AddressId":"614566993","RoadLinkId":"31883386"}}},{"Relevance":1.0,"Distance":57.4,"MatchLevel":"houseNumber","MatchQuality":{"Country":1.0,"State":1.0,"County":1.0,"City":1.0,"District":1.0,"Street":[1.0],"HouseNumber":1.0,"PostalCode":1.0},"MatchType":"interpolated","Location":{"LocationId":"NT_2ZYJ82x3qYoUSqoHDZR3WD_1A","LocationType":"point","DisplayPosition":{"Latitude":51.88532,"Longitude":4.48718},"MapView":{"TopLeft":{"Latitude":51.8864442,"Longitude":4.4853587},"BottomRight":{"Latitude":51.8841958,"Longitude":4.4890013}},"Address":{"Label":"Carnissesingel 11, 3083 JA Rotterdam, Nederland","Country":"NLD","State":"Zuid-Holland","County":"Rotterdam","City":"Rotterdam","District":"Charlois","Street":"Carnissesingel","HouseNumber":"11","PostalCode":"3083 JA","AdditionalData":[{"value":"Nederland","key":"CountryName"},{"value":"Zuid-Holland","key":"StateName"},{"value":"Rotterdam","key":"CountyName"}]},"MapReference":{"ReferenceId":"1265853646","Spot":0.0,"SideOfStreet":"right","CountryId":"23055544","StateId":"23055596","CountyId":"23055877","CityId":"20202239","AddressId":"614776357","RoadLinkId":"592244294"}}},{"Relevance":1.0,"Distance":57.4,"MatchLevel":"street","MatchQuality":{"Country":1.0,"State":1.0,"County":1.0,"City":1.0,"District":1.0,"Street":[1.0],"PostalCode":1.0},"Location":{"LocationId":"NT_4Py9pbIpguT14D3gY14vRD_l_54843259_L","LocationType":"point","DisplayPosition":{"Latitude":51.88532,"Longitude":4.48718},"MapView":{"TopLeft":{"Latitude":51.88532,"Longitude":4.48718},"BottomRight":{"Latitude":51.8846,"Longitude":4.48719}},"Address":{"Label":"Gooilandsingel, 3084 Rotterdam, Nederland","Country":"NLD","State":"Zuid-Holland","County":"Rotterdam","City":"Rotterdam","District":"Charlois","Street":"Gooilandsingel","PostalCode":"3084","AdditionalData":[{"value":"Nederland","key":"CountryName"},{"value":"Zuid-Holland","key":"StateName"},{"value":"Rotterdam","key":"CountyName"}]},"MapReference":{"ReferenceId":"54843259","Spot":1.0,"SideOfStreet":"left","CountryId":"23055544","StateId":"23055596","CountyId":"23055877","CityId":"20202239"}}},{"Relevance":1.0,"Distance":57.4,"MatchLevel":"street","MatchQuality":{"Country":1.0,"State":1.0,"County":1.0,"City":1.0,"District":1.0,"Street":[1.0],"PostalCode":1.0},"Location":{"LocationId":"NT_VS1P-GBfTYLeLPJR-.cnaD_l_54843257_L","LocationType":"point","DisplayPosition":{"Latitude":51.88532,"Longitude":4.48718},"MapView":{"TopLeft":{"Latitude":51.88532,"Longitude":4.48718},"BottomRight":{"Latitude":51.88532,"Longitude":4.48737}},"Address":{"Label":"Gooilandsingel, 3083 Rotterdam, Nederland","Country":"NLD","State":"Zuid-Holland","County":"Rotterdam","City":"Rotterdam","District":"Charlois","Street":"Gooilandsingel","PostalCode":"3083","AdditionalData":[{"value":"Nederland","key":"CountryName"},{"value":"Zuid-Holland","key":"StateName"},{"value":"Rotterdam","key":"CountyName"}]},"MapReference":{"ReferenceId":"54843257","Spot":0.0,"SideOfStreet":"left","CountryId":"23055544","StateId":"23055596","CountyId":"23055877","CityId":"20202239"}}},{"Relevance":1.0,"Distance":59.2,"MatchLevel":"street","MatchQuality":{"Country":1.0,"State":1.0,"County":1.0,"City":1.0,"District":1.0,"Street":[1.0],"PostalCode":1.0},"Location":{"LocationId":"NT_4XeK5gAPjb7YEBWwl.w8qB_l_591828577_L","LocationType":"point","DisplayPosition":{"Latitude":51.88633,"Longitude":4.48675},"MapView":{"TopLeft":{"Latitude":51.88634,"Longitude":4.48666},"BottomRight":{"Latitude":51.88633,"Longitude":4.48675}},"Address":{"Label":"Boerhaavestraat, 3083 Rotterdam, Nederland","Country":"NLD","State":"Zuid-Holland","County":"Rotterdam","City":"Rotterdam","District":"Charlois","Street":"Boerhaavestraat","PostalCode":"3083","AdditionalData":[{"value":"Nederland","key":"CountryName"},{"value":"Zuid-Holland","key":"StateName"},{"value":"Rotterdam","key":"CountyName"}]},"MapReference":{"ReferenceId":"591828577","Spot":0.0,"SideOfStreet":"left","CountryId":"23055544","StateId":"23055596","CountyId":"23055877","CityId":"20202239"}}},{"Relevance":1.0,"Distance":60.9,"MatchLevel":"houseNumber","MatchQuality":{"Country":1.0,"State":1.0,"County":1.0,"City":1.0,"District":1.0,"Street":[1.0],"HouseNumber":1.0,"PostalCode":1.0},"MatchType":"interpolated","Location":{"LocationId":"NT_LGVxlMid16bBNL9OY9xvzA_xEzM","LocationType":"point","DisplayPosition":{"Latitude":51.88631,"Longitude":4.48749},"MapView":{"TopLeft":{"Latitude":51.8874342,"Longitude":4.4856687},"BottomRight":{"Latitude":51.8851858,"Longitude":4.4893113}},"Address":{"Label":"Gooilandsingel 113, 3083 DP Rotterdam, Nederland","Country":"NLD","State":"Zuid-Holland","County":"Rotterdam","City":"Rotterdam","District":"Charlois","Street":"Gooilandsingel","HouseNumber":"113","PostalCode":"3083 DP","AdditionalData":[{"value":"Nederland","key":"CountryName"},{"value":"Zuid-Holland","key":"StateName"},{"value":"Rotterdam","key":"CountyName"}]},"MapReference":{"ReferenceId":"54855719","Spot":0.86,"SideOfStreet":"left","CountryId":"23055544","StateId":"23055596","CountyId":"23055877","CityId":"20202239","AddressId":"759453875","RoadLinkId":"31780590"}}}]}]}}