{"Response":{"MetaInfo":{"Timestamp":"2020-03-28T10:33:06.947+0000","NextPageInformation":"2"},"View":[{"_type":"SearchResultsViewType","ViewId":0,"Result":[{"Relevance":1.0,"Distance":0.0,"Direction":0.0,"MatchLevel":"district","MatchQuality":{"Country":1.0,"State":1.0,"County":1.0,"City":1.0,"District":1.0,"PostalCode":1.0},"Location":{"LocationId":"NT_E3IP0jiYz4rguinWffXCbC","LocationType":"point","DisplayPosition":{"Latitude":51.8739926,"Longitude":-1.4811711},"MapView":{"TopLeft":{"Latitude":51.87854,"Longitude":-1.48741},"BottomRight":{"Latitude":51.86505,"Longitude":-1.47033}},"Address":{"Label":"Charlbury, Chipping Norton, England, United Kingdom","Country":"GBR","State":"England","County":"Oxfordshire","City":"Chipping Norton","District":"Charlbury","PostalCode":"OX7 3","AdditionalData":[{"value":"United Kingdom","key":"CountryName"},{"value":"England","key":"StateName"},{"value":"Oxfordshire","key":"CountyName"}]},"MapReference":{"ReferenceId":"836633259","SideOfStreet":"neither","StateId":"20248595","CountyId":"20337811","CityId":"20338000","DistrictId":"20338007"}}},{"Relevance":1.0,"Distance":9.2,"MatchLevel":"houseNumber","MatchQuality":{"Country":1.0,"State":1.0,"County":1.0,"City":1.0,"District":1.0,"Street":[1.0],"HouseNumber":1.0,"PostalCode":1.0},"MatchType":"interpolated","Location":{"LocationId":"NT_B2U1EKw3PmsVpyL21DdBfD_l_1067329085_L_yA","LocationType":"point","DisplayPosition":{"Latitude":51.8739,"Longitude":-1.48097},"MapView":{"TopLeft":{"Latitude":51.8750242,"Longitude":-1.4827908},"BottomRight":{"Latitude":51.8727759,"Longitude":-1.4791492}},"Address":{"Label":"2 Enstone Road, Chipping Norton, OX7 3QR, United Kingdom","Country":"GBR","State":"England","County":"Oxfordshire","City":"Chipping Norton","District":"Charlbury","Street":"Enstone Road","HouseNumber":"2","PostalCode":"OX7 3QR","AdditionalData":[{"value":"United Kingdom","key":"CountryName"},{"value":"England","key":"StateName"},{"value":"Oxfordshire","key":"CountyName"}]},"MapReference":{"ReferenceId":"1067329085","Spot":0.33,"SideOfStreet":"left","StateId":"20248595","CountyId":"20337811","CityId":"20338000","DistrictId":"20338007"}}},{"Relevance":1.0,"Distance":21.7,"MatchLevel":"street","MatchQuality":{"Country":1.0,"State":1.0,"County":1.0,"City":1.0,"District":1.0,"Street":[1.0],"PostalCode":1.0},"Location":{"LocationId":"NT_VT6t4yYYl8qRVuTvuCxiVA_l_566004366_R","LocationType":"point","DisplayPosition":{"Latitude":51.8738,"Longitude":-1.48112},"MapView":{"TopLeft":{"Latitude":51.8738,"Longitude":-1.48112},"BottomRight":{"Latitude":51.87304,"Longitude":-1.48002}},"Address":{"Label":"The Playing Close, Chipping Norton, OX7 3, United Kingdom","Country":"GBR","State":"England","County":"Oxfordshire","City":"Chipping Norton","District":"Charlbury","Street":"The Playing Close","PostalCode":"OX7 3","AdditionalData":[{"value":"United Kingdom","key":"CountryName"},{"value":"England","key":"StateName"},{"value":"Oxfordshire","key":"CountyName"}]},"MapReference":{"ReferenceId":"566004366","Spot":1.0,"SideOfStreet":"right","StateId":"20248595","CountyId":"20337811","CityId":"20338000","DistrictId":"20338007"}}},{"Relevance":1.0,"Distance":24.5,"MatchLevel":"houseNumber","MatchQuality":{"Country":1.0,"State":1.0,"County":1.0,"City":1.0,"District":1.0,"Street":[1.0],"HouseNumber":1.0,"PostalCode":1.0},"MatchType":"interpolated","Location":{"LocationId":"NT_B2U1EKw3PmsVpyL21DdBfD_l_566004368_L_xA","LocationType":"point","DisplayPosition":{"Latitude":51.8736775,"Longitude":-1.4812809},"MapView":{"TopLeft":{"Latitude":51.8748016,"Longitude":-1.4831017},"BottomRight":{"Latitude":51.8725533,"Longitude":-1.4794601}},"Address":{"Label":"1 Enstone Road, Chipping Norton, OX7 3QR, United Kingdom","Country":"GBR","State":"England","County":"Oxfordshire","City":"Chipping Norton","District":"Charlbury","Street":"Enstone Road","HouseNumber":"1","PostalCode":"OX7 3QR","AdditionalData":[{"value":"United Kingdom","key":"CountryName"},{"value":"England","key":"StateName"},{"value":"Oxfordshire","key":"CountyName"}]},"MapReference":{"ReferenceId":"566004368","Spot":0.51,"SideOfStreet":"left","StateId":"20248595","CountyId":"20337811","CityId":"20338000","DistrictId":"20338007"}}},{"Relevance":1.0,"Distance":39.1,"MatchLevel":"street","MatchQuality":{"Country":1.0,"State":1.0,"County":1.0,"City":1.0,"District":1.0,"PostalCode":1.0},"Location":{"LocationId":"NT_-1Wg51pHPNTbmwOoA1QbjB_l_1067329087_L","LocationType":"point","DisplayPosition":{"Latitude":51.8743086,"Longitude":-1.4809218},"MapView":{"TopLeft":{"Latitude":51.87559,"Longitude":-1.48297},"BottomRight":{"Latitude":51.87411,"Longitude":-1.48067}},"Address":{"Label":"Chipping Norton, OX7 3, United Kingdom","Country":"GBR","State":"England","County":"Oxfordshire","City":"Chipping Norton","District":"Charlbury","PostalCode":"OX7 3","AdditionalData":[{"value":"United Kingdom","key":"CountryName"},{"value":"England","key":"StateName"},{"value":"Oxfordshire","key":"CountyName"}]},"MapReference":{"ReferenceId":"1067329087","Spot":0.11,"SideOfStreet":"left","StateId":"20248595","CountyId":"20337811","CityId":"20338000","DistrictId":"20338007"}}},{"Relevance":1.0,"Distance":50.2,"MatchLevel":"houseNumber","MatchQuality":{"Country":1.0,"State":1.0,"County":1.0,"City":1.0,"District":1.0,"Street":[1.0],"HouseNumber":1.0,"PostalCode":1.0},"MatchType":"interpolated","Location":{"LocationId":"NT_B2U1EKw3PmsVpyL21DdBfD_l_1067329086_L_0A","LocationType":"point","DisplayPosition":{"Latitude":51.87421,"Longitude":-1.48053},"MapView":{"TopLeft":{"Latitude":51.8753342,"Longitude":-1.4823508},"BottomRight":{"Latitude":51.8730859,"Longitude":-1.4787092}},"Address":{"Label":"4 Enstone Road, Chipping Norton, OX7 3QR, United Kingdom","Country":"GBR","State":"England","County":"Oxfordshire","City":"Chipping Norton","District":"Charlbury","Street":"Enstone Road","HouseNumber":"4","PostalCode":"OX7 3QR","AdditionalData":[{"value":"United Kingdom","key":"CountryName"},{"value":"England","key":"StateName"},{"value":"Oxfordshire","key":"CountyName"}]},"MapReference":{"ReferenceId":"1067329086","Spot":0.11,"SideOfStreet":"left","StateId":"20248595","CountyId":"20337811","CityId":"20338000","DistrictId":"20338007"}}},{"Relevance":1.0,"Distance":52.9,"MatchLevel":"street","MatchQuality":{"Country":1.0,"State":1.0,"County":1.0,"City":1.0,"District":1.0,"Street":[1.0],"PostalCode":1.0},"Location":{"LocationId":"NT_.RVm9qG0v102dF7qC6I1LC_l_565969447_R","LocationType":"point","DisplayPosition":{"Latitude":51.8735457,"Longitude":-1.4814359},"MapView":{"TopLeft":{"Latitude":51.87356,"Longitude":-1.48146},"BottomRight":{"Latitude":51.8734,"Longitude":-1.48119}},"Address":{"Label":"Pooles Lane, Chipping Norton, OX7 3, United Kingdom","Country":"GBR","State":"England","County":"Oxfordshire","City":"Chipping Norton","District":"Charlbury","Street":"Pooles Lane","PostalCode":"OX7 3","AdditionalData":[{"value":"United Kingdom","key":"CountryName"},{"value":"England","key":"StateName"},{"value":"Oxfordshire","key":"CountyName"}]},"MapReference":{"ReferenceId":"565969447","Spot":0.91,"SideOfStreet":"right","StateId":"20248595","CountyId":"20337811","CityId":"20338000","DistrictId":"20338007"}}},{"Relevance":1.0,"Distance":65.9,"MatchLevel":"street","MatchQuality":{"Country":1.0,"State":1.0,"County":1.0,"City":1.0,"District":1.0,"Street":[1.0],"PostalCode":1.0},"Location":{"LocationId":"NT_.RVm9qG0v102dF7qC6I1LC_l_565969446_R","LocationType":"point","DisplayPosition":{"Latitude":51.8734,"Longitude":-1.48119},"MapView":{"TopLeft":{"Latitude":51.8734,"Longitude":-1.48119},"BottomRight":{"Latitude":51.87292,"Longitude":-1.48046}},"Address":{"Label":"Pooles Lane, Chipping Norton, OX7 3, United Kingdom","Country":"GBR","State":"England","County":"Oxfordshire","City":"Chipping Norton","District":"Charlbury","Street":"Pooles Lane","PostalCode":"OX7 3","AdditionalData":[{"value":"United Kingdom","key":"CountryName"},{"value":"England","key":"StateName"},{"value":"Oxfordshire","key":"CountyName"}]},"MapReference":{"ReferenceId":"565969446","Spot":1.0,"SideOfStreet":"right","StateId":"20248595","CountyId":"20337811","CityId":"20338000","DistrictId":"20338007"}}},{"Relevance":1.0,"Distance":65.9,"MatchLevel":"street","MatchQuality":{"Country":1.0,"State":1.0,"County":1.0,"City":1.0,"District":1.0,"PostalCode":1.0},"Location":{"LocationId":"NT_-1Wg51pHPNTbmwOoA1QbjB_l_565969448_L","LocationType":"point","DisplayPosition":{"Latitude":51.8734,"Longitude":-1.48119},"MapView":{"TopLeft":{"Latitude":51.8734,"Longitude":-1.48147},"BottomRight":{"Latitude":51.87296,"Longitude":-1.48119}},"Address":{"Label":"Chipping Norton, OX7 3, United Kingdom","Country":"GBR","State":"England","County":"Oxfordshire","City":"Chipping Norton","District":"Charlbury","PostalCode":"OX7 3","AdditionalData":[{"value":"United Kingdom","key":"CountryName"},{"value":"England","key":"StateName"},{"value":"Oxfordshire","key":"CountyName"}]},"MapReference":{"ReferenceId":"565969448","Spot":1.0,"SideOfStreet":"left","StateId":"20248595","CountyId":"20337811","CityId":"20338000","DistrictId":"20338007"}}},{"Relevance":1.0,"Distance":69.5,"MatchLevel":"postalCode","MatchQuality":{"PostalCode":1.0},"Location":{"LocationId":"NT_-1Wg51pHPNTbmwOoA1QbjB_l_1067329087_L","LocationType":"point","DisplayPosition":{"Latitude":51.87451,"Longitude":-1.48174},"MapView":{"TopLeft":{"Latitude":51.8835032,"Longitude":-1.4963066},"BottomRight":{"Latitude":51.8655168,"Longitude":-1.4671734}},"Address":{"Label":"OX7 3PQ, Chipping Norton, England, United Kingdom","Country":"GBR","State":"England","County":"Oxfordshire","City":"Chipping Norton","PostalCode":"OX7 3PQ","AdditionalData":[{"value":"United Kingdom","key":"CountryName"},{"value":"England","key":"StateName"},{"value":"Oxfordshire","key":"CountyName"}]},"MapReference":{"ReferenceId":"1067329087","Spot":0.11,"SideOfStreet":"neither","StateId":"20248595","CountyId":"20337811","CityId":"20338000"}}}]}]}}