{"Response":{"MetaInfo":{"Timestamp":"2020-03-31T17:04:02.429+0000","NextPageInformation":"2"},"View":[{"_type":"SearchResultsViewType","ViewId":0,"Result":[{"Relevance":1.0,"Distance":0.0,"Direction":0.0,"MatchLevel":"district","MatchQuality":{"Country":1.0,"County":1.0,"City":1.0,"District":1.0,"PostalCode":1.0},"Location":{"LocationId":"NT_k5XQ-vcv8M0XGR5rHS6NzD","LocationType":"point","DisplayPosition":{"Latitude":51.8833,"Longitude":-9.5833},"MapView":{"TopLeft":{"Latitude":51.89193,"Longitude":-9.60365},"BottomRight":{"Latitude":51.87134,"Longitude":-9.5593}},"Address":{"Label":"Kenmare, Killarney, Ireland","Country":"IRL","County":"County Kerry","City":"Killarney","District":"Kenmare","AdditionalData":[{"value":"Ireland","key":"CountryName"},{"value":"County Kerry","key":"CountyName"}]},"MapReference":{"ReferenceId":"590498393","SideOfStreet":"neither","CountryId":"20403667","CountyId":"20411192","CityId":"20425005","DistrictId":"20425018"}}},{"Relevance":1.0,"Distance":70.2,"MatchLevel":"houseNumber","MatchQuality":{"Country":1.0,"County":1.0,"City":1.0,"District":1.0,"Street":[1.0],"PostalCode":1.0},"MatchType":"interpolated","Location":{"LocationId":"NT_Lf.71XlIgc-29eyXR.6sfC","LocationType":"point","DisplayPosition":{"Latitude":51.88306,"Longitude":-9.58192},"MapView":{"TopLeft":{"Latitude":51.8841842,"Longitude":-9.5837412},"BottomRight":{"Latitude":51.8819358,"Longitude":-9.5800988}},"Address":{"Label":"\"Willow Lodge\" Railway Road, Killarney, County Kerry, V93 YH05, Ireland","Country":"IRL","County":"County Kerry","City":"Killarney","District":"Kenmare","Street":"Railway Road","PostalCode":"V93 YH05","AdditionalData":[{"value":"Ireland","key":"CountryName"},{"value":"County Kerry","key":"CountyName"}],"Building":"Willow Lodge"},"MapReference":{"ReferenceId":"1233914194","Spot":0.48,"SideOfStreet":"left","CountryId":"20403667","CountyId":"20411192","CityId":"20425005","DistrictId":"20425018","AddressId":"359985928","RoadLinkId":"554211758"}}},{"Relevance":1.0,"Distance":87.1,"MatchLevel":"postalCode","MatchQuality":{"PostalCode":1.0},"MatchType":"interpolated","Location":{"LocationId":"NT_Lf.71XlIgc-29eyXR.6sfC","LocationType":"point","DisplayPosition":{"Latitude":51.88273,"Longitude":-9.58243},"MapView":{"TopLeft":{"Latitude":51.8917232,"Longitude":-9.5969993},"BottomRight":{"Latitude":51.8737368,"Longitude":-9.5678607}},"Address":{"Label":"V93 K580, Killarney, Ireland","Country":"IRL","County":"County Kerry","City":"Killarney","PostalCode":"V93 K580","AdditionalData":[{"value":"Ireland","key":"CountryName"},{"value":"County Kerry","key":"CountyName"}]},"MapReference":{"ReferenceId":"1233914194","Spot":0.48,"SideOfStreet":"neither","CountryId":"20403667","CountyId":"20411192","CityId":"20425005"}}},{"Relevance":1.0,"Distance":105.6,"MatchLevel":"houseNumber","MatchQuality":{"Country":1.0,"County":1.0,"City":1.0,"District":1.0,"Street":[1.0],"PostalCode":1.0},"MatchType":"interpolated","Location":{"LocationId":"NT_Lf.71XlIgc-29eyXR.6sfC","LocationType":"point","DisplayPosition":{"Latitude":51.88391,"Longitude":-9.58163},"MapView":{"TopLeft":{"Latitude":51.8850342,"Longitude":-9.5834512},"BottomRight":{"Latitude":51.8827858,"Longitude":-9.5798088}},"Address":{"Label":"\"Saint Clare's National School\" Railway Road, Killarney, County Kerry, V93, Ireland","Country":"IRL","County":"County Kerry","City":"Killarney","District":"Kenmare","Street":"Railway Road","PostalCode":"V93","AdditionalData":[{"value":"Ireland","key":"CountryName"},{"value":"County Kerry","key":"CountyName"}],"Building":"Saint Clare's National School"},"MapReference":{"ReferenceId":"1233914195","Spot":0.33,"SideOfStreet":"left","CountryId":"20403667","CountyId":"20411192","CityId":"20425005","DistrictId":"20425018","AddressId":"359985927","RoadLinkId":"554211759"}}},{"Relevance":1.0,"Distance":110.2,"MatchLevel":"street","MatchQuality":{"Country":1.0,"County":1.0,"City":1.0,"District":1.0,"Street":[1.0],"PostalCode":1.0},"Location":{"LocationId":"NT_Lf.71XlIgc-29eyXR.6sfC_l_1235137603_L","LocationType":"point","DisplayPosition":{"Latitude":51.88375,"Longitude":-9.58187},"MapView":{"TopLeft":{"Latitude":51.88437,"Longitude":-9.58187},"BottomRight":{"Latitude":51.8837,"Longitude":-9.58148}},"Address":{"Label":"Railway Road, Killarney, County Kerry, V93, Ireland","Country":"IRL","County":"County Kerry","City":"Killarney","District":"Kenmare","Street":"Railway Road","PostalCode":"V93","AdditionalData":[{"value":"Ireland","key":"CountryName"},{"value":"County Kerry","key":"CountyName"}]},"MapReference":{"ReferenceId":"1235137603","Spot":0.13,"SideOfStreet":"left","CountryId":"20403667","CountyId":"20411192","CityId":"20425005","DistrictId":"20425018"}}},{"Relevance":1.0,"Distance":117.3,"MatchLevel":"houseNumber","MatchQuality":{"Country":1.0,"County":1.0,"City":1.0,"District":1.0,"Street":[1.0],"HouseNumber":1.0,"PostalCode":1.0},"MatchType":"interpolated","Location":{"LocationId":"NT_LI7XLpiRaNZceRYWOkBDDD_4A","LocationType":"point","DisplayPosition":{"Latitude":51.88269,"Longitude":-9.58176},"MapView":{"TopLeft":{"Latitude":51.8838142,"Longitude":-9.5835812},"BottomRight":{"Latitude":51.8815658,"Longitude":-9.5799388}},"Address":{"Label":"8 Railway Crescent, Killarney, County Kerry, V93 FW62, Ireland","Country":"IRL","County":"County Kerry","City":"Killarney","District":"Kenmare","Street":"Railway Crescent","HouseNumber":"8","PostalCode":"V93 FW62","AdditionalData":[{"value":"Ireland","key":"CountryName"},{"value":"County Kerry","key":"CountyName"}]},"MapReference":{"ReferenceId":"868805760","Spot":1.0,"SideOfStreet":"left","CountryId":"20403667","CountyId":"20411192","CityId":"20425005","DistrictId":"20425018","AddressId":"359947203","RoadLinkId":"241408140"}}},{"Relevance":1.0,"Distance":125.3,"MatchLevel":"postalCode","MatchQuality":{"PostalCode":1.0},"MatchType":"interpolated","Location":{"LocationId":"NT_LI7XLpiRaNZceRYWOkBDDD_4A","LocationType":"point","DisplayPosition":{"Latitude":51.88278,"Longitude":-9.58168},"MapView":{"TopLeft":{"Latitude":51.8917732,"Longitude":-9.5962493},"BottomRight":{"Latitude":51.8737868,"Longitude":-9.5671107}},"Address":{"Label":"V93 YY88, Killarney, Ireland","Country":"IRL","County":"County Kerry","City":"Killarney","PostalCode":"V93 YY88","AdditionalData":[{"value":"Ireland","key":"CountryName"},{"value":"County Kerry","key":"CountyName"}]},"MapReference":{"ReferenceId":"868805760","Spot":1.0,"SideOfStreet":"neither","CountryId":"20403667","CountyId":"20411192","CityId":"20425005"}}},{"Relevance":1.0,"Distance":126.9,"MatchLevel":"houseNumber","MatchQuality":{"Country":1.0,"County":1.0,"City":1.0,"District":1.0,"Street":[1.0],"PostalCode":1.0},"MatchType":"interpolated","Location":{"LocationId":"NT_jhw1P361plB6lpIhfPODPD","LocationType":"point","DisplayPosition":{"Latitude":51.88326,"Longitude":-9.58577},"MapView":{"TopLeft":{"Latitude":51.8843842,"Longitude":-9.5875912},"BottomRight":{"Latitude":51.8821358,"Longitude":-9.5839488}},"Address":{"Label":"\"Saint Clare's Convent\" Killarney Road, Killarney, County Kerry, V93 EV83, Ireland","Country":"IRL","County":"County Kerry","City":"Killarney","District":"Kenmare","Street":"Killarney Road","PostalCode":"V93 EV83","AdditionalData":[{"value":"Ireland","key":"CountryName"},{"value":"County Kerry","key":"CountyName"}],"Building":"Saint Clare's Convent"},"MapReference":{"ReferenceId":"590510705","Spot":0.15,"SideOfStreet":"right","CountryId":"20403667","CountyId":"20411192","CityId":"20425005","DistrictId":"20425018","AddressId":"359982840","RoadLinkId":"241408168"}}},{"Relevance":1.0,"Distance":136.8,"MatchLevel":"houseNumber","MatchQuality":{"Country":1.0,"County":1.0,"City":1.0,"District":1.0,"Street":[1.0],"PostalCode":1.0},"MatchType":"interpolated","Location":{"LocationId":"NT_Lf.71XlIgc-29eyXR.6sfC","LocationType":"point","DisplayPosition":{"Latitude":51.88227,"Longitude":-9.58221},"MapView":{"TopLeft":{"Latitude":51.8833942,"Longitude":-9.5840311},"BottomRight":{"Latitude":51.8811458,"Longitude":-9.5803889}},"Address":{"Label":"\"Station House\" Railway Road, Killarney, County Kerry, V93 PF96, Ireland","Country":"IRL","County":"County Kerry","City":"Killarney","District":"Kenmare","Street":"Railway Road","PostalCode":"V93 PF96","AdditionalData":[{"value":"Ireland","key":"CountryName"},{"value":"County Kerry","key":"CountyName"}],"Building":"Station House"},"MapReference":{"ReferenceId":"868805758","Spot":0.2,"SideOfStreet":"right","CountryId":"20403667","CountyId":"20411192","CityId":"20425005","DistrictId":"20425018","AddressId":"359984440","RoadLinkId":"241408138"}}},{"Relevance":1.0,"Distance":137.3,"MatchLevel":"houseNumber","MatchQuality":{"Country":1.0,"County":1.0,"City":1.0,"District":1.0,"Street":[1.0],"PostalCode":1.0},"MatchType":"interpolated","Location":{"LocationId":"NT_Lf.71XlIgc-29eyXR.6sfC","LocationType":"point","DisplayPosition":{"Latitude":51.8821,"Longitude":-9.58229},"MapView":{"TopLeft":{"Latitude":51.8832242,"Longitude":-9.5841111},"BottomRight":{"Latitude":51.8809758,"Longitude":-9.5804689}},"Address":{"Label":"\"Pobalscoil Inbhear Scéine\" Railway Road, Killarney, County Kerry, V93 PC60, Ireland","Country":"IRL","County":"County Kerry","City":"Killarney","District":"Kenmare","Street":"Railway Road","PostalCode":"V93 PC60","AdditionalData":[{"value":"Ireland","key":"CountryName"},{"value":"County Kerry","key":"CountyName"}],"Building":"Pobalscoil Inbhear Scéine"},"MapReference":{"ReferenceId":"590510721","Spot":0.81,"SideOfStreet":"left","CountryId":"20403667","CountyId":"20411192","CityId":"20425005","DistrictId":"20425018","AddressId":"358856497","RoadLinkId":"86735467"}}}]}]}}