{"Response":{"MetaInfo":{"Timestamp":"2020-03-28T10:41:17.868+0000","NextPageInformation":"2"},"View":[{"_type":"SearchResultsViewType","ViewId":0,"Result":[{"Relevance":1.0,"Distance":0.0,"Direction":0.0,"MatchLevel":"district","MatchQuality":{"Country":1.0,"State":1.0,"County":1.0,"City":1.0,"District":1.0,"PostalCode":1.0},"Location":{"LocationId":"NT_Km4Vhj63wkRL4fTm8p-2zB","LocationType":"point","DisplayPosition":{"Latitude":51.8499309,"Longitude":1.2717933},"MapView":{"TopLeft":{"Latitude":51.86658,"Longitude":1.26273},"BottomRight":{"Latitude":51.84167,"Longitude":1.28775}},"Address":{"Label":"Walton on the Naze, England, United Kingdom","Country":"GBR","State":"England","County":"Essex","City":"Walton on the Naze","District":"Walton on the Naze","PostalCode":"CO14 8","AdditionalData":[{"value":"United Kingdom","key":"CountryName"},{"value":"England","key":"StateName"},{"value":"Essex","key":"CountyName"}]},"MapReference":{"ReferenceId":"25761102","SideOfStreet":"neither","StateId":"20248595","CountyId":"20335385","CityId":"20335842","DistrictId":"20335843"}}},{"Relevance":1.0,"Distance":13.6,"MatchLevel":"houseNumber","MatchQuality":{"Country":1.0,"State":1.0,"County":1.0,"City":1.0,"District":1.0,"Street":[1.0],"HouseNumber":1.0,"PostalCode":1.0},"MatchType":"interpolated","Location":{"LocationId":"NT_EeOGCpjdiSuQgOM0U0SLqB_l_25761072_L_2A","LocationType":"point","DisplayPosition":{"Latitude":51.84991,"Longitude":1.2715983},"MapView":{"TopLeft":{"Latitude":51.8510342,"Longitude":1.2697785},"BottomRight":{"Latitude":51.8487859,"Longitude":1.2734182}},"Address":{"Label":"6 Vicarage Lane, Walton on the Naze, CO14 8PA, United Kingdom","Country":"GBR","State":"England","County":"Essex","City":"Walton on the Naze","District":"Walton on the Naze","Street":"Vicarage Lane","HouseNumber":"6","PostalCode":"CO14 8PA","AdditionalData":[{"value":"United Kingdom","key":"CountryName"},{"value":"England","key":"StateName"},{"value":"Essex","key":"CountyName"}]},"MapReference":{"ReferenceId":"25761072","Spot":0.71,"SideOfStreet":"left","StateId":"20248595","CountyId":"20335385","CityId":"20335842","DistrictId":"20335843"}}},{"Relevance":1.0,"Distance":33.5,"MatchLevel":"street","MatchQuality":{"Country":1.0,"State":1.0,"County":1.0,"City":1.0,"District":1.0,"PostalCode":1.0},"Location":{"LocationId":"NT_BErsnmpV6p3ajTMcLiDPoB_l_25761049_R","LocationType":"point","DisplayPosition":{"Latitude":51.85008,"Longitude":1.27137},"MapView":{"TopLeft":{"Latitude":51.85008,"Longitude":1.27124},"BottomRight":{"Latitude":51.85003,"Longitude":1.27137}},"Address":{"Label":"Walton on the Naze, CO14 8, United Kingdom","Country":"GBR","State":"England","County":"Essex","City":"Walton on the Naze","District":"Walton on the Naze","PostalCode":"CO14 8","AdditionalData":[{"value":"United Kingdom","key":"CountryName"},{"value":"England","key":"StateName"},{"value":"Essex","key":"CountyName"}]},"MapReference":{"ReferenceId":"25761049","Spot":1.0,"SideOfStreet":"right","StateId":"20248595","CountyId":"20335385","CityId":"20335842","DistrictId":"20335843"}}},{"Relevance":1.0,"Distance":37.7,"MatchLevel":"postalCode","MatchQuality":{"PostalCode":1.0},"MatchType":"interpolated","Location":{"LocationId":"NT_EeOGCpjdiSuQgOM0U0SLqB_l_25761072_L_2A","LocationType":"point","DisplayPosition":{"Latitude":51.84998,"Longitude":1.27125},"MapView":{"TopLeft":{"Latitude":51.8589732,"Longitude":1.2566913},"BottomRight":{"Latitude":51.8409868,"Longitude":1.2858087}},"Address":{"Label":"CO14 8PA, Walton on the Naze, England, United Kingdom","Country":"GBR","State":"England","County":"Essex","City":"Walton on the Naze","PostalCode":"CO14 8PA","AdditionalData":[{"value":"United Kingdom","key":"CountryName"},{"value":"England","key":"StateName"},{"value":"Essex","key":"CountyName"}]},"MapReference":{"ReferenceId":"25761072","Spot":0.71,"SideOfStreet":"neither","StateId":"20248595","CountyId":"20335385","CityId":"20335842"}}},{"Relevance":1.0,"Distance":38.9,"MatchLevel":"houseNumber","MatchQuality":{"Country":1.0,"State":1.0,"County":1.0,"City":1.0,"District":1.0,"Street":[1.0],"HouseNumber":1.0,"PostalCode":1.0},"MatchType":"interpolated","Location":{"LocationId":"NT_dH5v7DPsbZiRDP.VomvJXC_l_25761064_L_zA","LocationType":"point","DisplayPosition":{"Latitude":51.85016,"Longitude":1.27247},"MapView":{"TopLeft":{"Latitude":51.8512842,"Longitude":1.2706501},"BottomRight":{"Latitude":51.8490359,"Longitude":1.2742898}},"Address":{"Label":"3 North Street, Walton on the Naze, CO14 8PH, United Kingdom","Country":"GBR","State":"England","County":"Essex","City":"Walton on the Naze","District":"Walton on the Naze","Street":"North Street","HouseNumber":"3","PostalCode":"CO14 8PH","AdditionalData":[{"value":"United Kingdom","key":"CountryName"},{"value":"England","key":"StateName"},{"value":"Essex","key":"CountyName"}]},"MapReference":{"ReferenceId":"25761064","Spot":0.62,"SideOfStreet":"left","StateId":"20248595","CountyId":"20335385","CityId":"20335842","DistrictId":"20335843"}}},{"Relevance":1.0,"Distance":39.6,"MatchLevel":"street","MatchQuality":{"Country":1.0,"State":1.0,"County":1.0,"City":1.0,"District":1.0,"Street":[1.0],"PostalCode":1.0},"Location":{"LocationId":"NT_WfvowRzzisKf6s.KOGOP2A_l_25761050_R","LocationType":"point","DisplayPosition":{"Latitude":51.85003,"Longitude":1.27124},"MapView":{"TopLeft":{"Latitude":51.85031,"Longitude":1.271},"BottomRight":{"Latitude":51.85003,"Longitude":1.27124}},"Address":{"Label":"Orlando Court, Walton on the Naze, CO14 8, United Kingdom","Country":"GBR","State":"England","County":"Essex","City":"Walton on the Naze","District":"Walton on the Naze","Street":"Orlando Court","PostalCode":"CO14 8","AdditionalData":[{"value":"United Kingdom","key":"CountryName"},{"value":"England","key":"StateName"},{"value":"Essex","key":"CountyName"}]},"MapReference":{"ReferenceId":"25761050","Spot":0.0,"SideOfStreet":"right","StateId":"20248595","CountyId":"20335385","CityId":"20335842","DistrictId":"20335843"}}},{"Relevance":1.0,"Distance":39.6,"MatchLevel":"street","MatchQuality":{"Country":1.0,"State":1.0,"County":1.0,"City":1.0,"District":1.0,"PostalCode":1.0},"Location":{"LocationId":"NT_BErsnmpV6p3ajTMcLiDPoB_l_25761056_R","LocationType":"point","DisplayPosition":{"Latitude":51.85003,"Longitude":1.27124},"MapView":{"TopLeft":{"Latitude":51.85003,"Longitude":1.27078},"BottomRight":{"Latitude":51.84988,"Longitude":1.27124}},"Address":{"Label":"Walton on the Naze, CO14 8, United Kingdom","Country":"GBR","State":"England","County":"Essex","City":"Walton on the Naze","District":"Walton on the Naze","PostalCode":"CO14 8","AdditionalData":[{"value":"United Kingdom","key":"CountryName"},{"value":"England","key":"StateName"},{"value":"Essex","key":"CountyName"}]},"MapReference":{"ReferenceId":"25761056","Spot":1.0,"SideOfStreet":"right","StateId":"20248595","CountyId":"20335385","CityId":"20335842","DistrictId":"20335843"}}},{"Relevance":1.0,"Distance":52.4,"MatchLevel":"houseNumber","MatchQuality":{"Country":1.0,"State":1.0,"County":1.0,"City":1.0,"District":1.0,"Street":[1.0],"HouseNumber":1.0,"PostalCode":1.0},"MatchType":"interpolated","Location":{"LocationId":"NT_.NbjRNXneaHhOz4Lq2YYRD_l_25761065_R_0AD","LocationType":"point","DisplayPosition":{"Latitude":51.8497101,"Longitude":1.27092},"MapView":{"TopLeft":{"Latitude":51.8508342,"Longitude":1.2691001},"BottomRight":{"Latitude":51.8485859,"Longitude":1.2727398}},"Address":{"Label":"40 Alfred Terrace, Walton on the Naze, CO14 8PB, United Kingdom","Country":"GBR","State":"England","County":"Essex","City":"Walton on the Naze","District":"Walton on the Naze","Street":"Alfred Terrace","HouseNumber":"40","PostalCode":"CO14 8PB","AdditionalData":[{"value":"United Kingdom","key":"CountryName"},{"value":"England","key":"StateName"},{"value":"Essex","key":"CountyName"}]},"MapReference":{"ReferenceId":"25761065","Spot":0.41,"SideOfStreet":"right","StateId":"20248595","CountyId":"20335385","CityId":"20335842","DistrictId":"20335843"}}},{"Relevance":1.0,"Distance":54.2,"MatchLevel":"houseNumber","MatchQuality":{"Country":1.0,"State":1.0,"County":1.0,"City":1.0,"District":1.0,"Street":[1.0],"HouseNumber":1.0,"PostalCode":1.0},"MatchType":"interpolated","Location":{"LocationId":"NT_.NbjRNXneaHhOz4Lq2YYRD_l_25761078_R_0ID","LocationType":"point","DisplayPosition":{"Latitude":51.8494488,"Longitude":1.2711562},"MapView":{"TopLeft":{"Latitude":51.8505729,"Longitude":1.2693364},"BottomRight":{"Latitude":51.8483246,"Longitude":1.2729761}},"Address":{"Label":"42 Alfred Terrace, Walton on the Naze, CO14 8PB, United Kingdom","Country":"GBR","State":"England","County":"Essex","City":"Walton on the Naze","District":"Walton on the Naze","Street":"Alfred Terrace","HouseNumber":"42","PostalCode":"CO14 8PB","AdditionalData":[{"value":"United Kingdom","key":"CountryName"},{"value":"England","key":"StateName"},{"value":"Essex","key":"CountyName"}]},"MapReference":{"ReferenceId":"25761078","Spot":0.69,"SideOfStreet":"right","StateId":"20248595","CountyId":"20335385","CityId":"20335842","DistrictId":"20335843"}}},{"Relevance":1.0,"Distance":54.4,"MatchLevel":"houseNumber","MatchQuality":{"Country":1.0,"State":1.0,"County":1.0,"City":1.0,"District":1.0,"Street":[1.0],"HouseNumber":1.0,"PostalCode":1.0},"MatchType":"interpolated","Location":{"LocationId":"NT_BGfoGxMDoQXxneY79i9miA_l_25761071_L_5kD","LocationType":"point","DisplayPosition":{"Latitude":51.8494,"Longitude":1.2722901},"MapView":{"TopLeft":{"Latitude":51.8505242,"Longitude":1.2704703},"BottomRight":{"Latitude":51.8482759,"Longitude":1.2741099}},"Address":{"Label":"99 High Street, Walton on the Naze, CO14 8, United Kingdom","Country":"GBR","State":"England","County":"Essex","City":"Walton on the Naze","District":"Walton on the Naze","Street":"High Street","HouseNumber":"99","PostalCode":"CO14 8","AdditionalData":[{"value":"United Kingdom","key":"CountryName"},{"value":"England","key":"StateName"},{"value":"Essex","key":"CountyName"}]},"MapReference":{"ReferenceId":"25761071","Spot":0.25,"SideOfStreet":"left","StateId":"20248595","CountyId":"20335385","CityId":"20335842","DistrictId":"20335843"}}}]}]}}