{"Response":{"MetaInfo":{"Timestamp":"2020-03-31T17:03:59.071+0000","NextPageInformation":"2"},"View":[{"_type":"SearchResultsViewType","ViewId":0,"Result":[{"Relevance":1.0,"Distance":-0.9,"MatchLevel":"landmark","MatchQuality":{"Country":1.0,"County":1.0,"City":1.0,"District":1.0,"Name":1.0},"Location":{"LocationId":"NT_ayf2z1llzuhyg8LtQo2TGB","LocationType":"industrialComplex","Name":"Pouladuff Industrial Estate","DisplayPosition":{"Latitude":51.87403,"Longitude":-8.48859},"MapView":{"TopLeft":{"Latitude":51.87528,"Longitude":-8.49164},"BottomRight":{"Latitude":51.87277,"Longitude":-8.48495}},"Address":{"Label":"Cork, County Cork, Ireland","Country":"IRL","County":"County Cork","City":"Cork","District":"Cork","AdditionalData":[{"value":"Ireland","key":"CountryName"},{"value":"County Cork","key":"CountyName"}]},"MapReference":{"CountryId":"20403667","CountyId":"20411183","CityId":"20426532","DistrictId":"20426533","PlaceId":"540999736"}}},{"Relevance":1.0,"Distance":0.0,"Direction":0.0,"MatchLevel":"district","MatchQuality":{"Country":1.0,"County":1.0,"City":1.0,"District":1.0,"PostalCode":1.0},"Location":{"LocationId":"NT_BbePNCKDW63tevHjCgV4OC","LocationType":"point","DisplayPosition":{"Latitude":51.8728,"Longitude":-8.4902},"MapView":{"TopLeft":{"Latitude":51.9294,"Longitude":-8.55131},"BottomRight":{"Latitude":51.85383,"Longitude":-8.38143}},"Address":{"Label":"Cork, Ireland","Country":"IRL","County":"County Cork","City":"Cork","District":"Cork","AdditionalData":[{"value":"Ireland","key":"CountryName"},{"value":"County Cork","key":"CountyName"}]},"MapReference":{"ReferenceId":"559745804","SideOfStreet":"neither","CountryId":"20403667","CountyId":"20411183","CityId":"20426532","DistrictId":"20426533"}}},{"Relevance":1.0,"Distance":1.0,"MatchLevel":"landmark","MatchQuality":{"Country":1.0,"County":1.0,"City":1.0,"District":1.0,"Name":1.0},"Location":{"LocationId":"NT_XJ25NYflQUc5BgMdJBRNOA","LocationType":"industrialComplex","Name":"Southside Industrial Estate","DisplayPosition":{"Latitude":51.87174,"Longitude":-8.49001},"MapView":{"TopLeft":{"Latitude":51.8728,"Longitude":-8.49145},"BottomRight":{"Latitude":51.87068,"Longitude":-8.48711}},"Address":{"Label":"Cork, County Cork, Ireland","Country":"IRL","County":"County Cork","City":"Cork","District":"Cork","AdditionalData":[{"value":"Ireland","key":"CountryName"},{"value":"County Cork","key":"CountyName"}]},"MapReference":{"CountryId":"20403667","CountyId":"20411183","CityId":"20426532","DistrictId":"20426533","PlaceId":"1433894524"}}},{"Relevance":1.0,"Distance":31.4,"MatchLevel":"street","MatchQuality":{"Country":1.0,"County":1.0,"City":1.0,"District":1.0,"PostalCode":1.0},"Location":{"LocationId":"NT_vw.aD03UggTmmRlyuvkTNB_l_918206756_R","LocationType":"point","DisplayPosition":{"Latitude":51.87256,"Longitude":-8.49044},"MapView":{"TopLeft":{"Latitude":51.87256,"Longitude":-8.49061},"BottomRight":{"Latitude":51.87228,"Longitude":-8.48967}},"Address":{"Label":"Cork, County Cork, T12, Ireland","Country":"IRL","County":"County Cork","City":"Cork","District":"Cork","PostalCode":"T12","AdditionalData":[{"value":"Ireland","key":"CountryName"},{"value":"County Cork","key":"CountyName"}]},"MapReference":{"ReferenceId":"918206756","Spot":0.85,"SideOfStreet":"right","CountryId":"20403667","CountyId":"20411183","CityId":"20426532","DistrictId":"20426533"}}},{"Relevance":1.0,"Distance":33.5,"MatchLevel":"street","MatchQuality":{"Country":1.0,"County":1.0,"City":1.0,"District":1.0,"PostalCode":1.0},"Location":{"LocationId":"NT_vw.aD03UggTmmRlyuvkTNB_l_918201464_L","LocationType":"point","DisplayPosition":{"Latitude":51.8731,"Longitude":-8.49015},"MapView":{"TopLeft":{"Latitude":51.87393,"Longitude":-8.49015},"BottomRight":{"Latitude":51.8731,"Longitude":-8.49012}},"Address":{"Label":"Cork, County Cork, T12, Ireland","Country":"IRL","County":"County Cork","City":"Cork","District":"Cork","PostalCode":"T12","AdditionalData":[{"value":"Ireland","key":"CountryName"},{"value":"County Cork","key":"CountyName"}]},"MapReference":{"ReferenceId":"918201464","Spot":0.0,"SideOfStreet":"left","CountryId":"20403667","CountyId":"20411183","CityId":"20426532","DistrictId":"20426533"}}},{"Relevance":1.0,"Distance":34.4,"MatchLevel":"street","MatchQuality":{"Country":1.0,"County":1.0,"City":1.0,"District":1.0,"Street":[1.0],"PostalCode":1.0},"Location":{"LocationId":"NT_epn2CGvcf87EXLVI.4fIMB_l_918206758_R","LocationType":"point","DisplayPosition":{"Latitude":51.872653,"Longitude":-8.490641},"MapView":{"TopLeft":{"Latitude":51.87271,"Longitude":-8.49066},"BottomRight":{"Latitude":51.87256,"Longitude":-8.49061}},"Address":{"Label":"Pouladuff Road, Cork, County Cork, T12, Ireland","Country":"IRL","County":"County Cork","City":"Cork","District":"Cork","Street":"Pouladuff Road","PostalCode":"T12","AdditionalData":[{"value":"Ireland","key":"CountryName"},{"value":"County Cork","key":"CountyName"}]},"MapReference":{"ReferenceId":"918206758","Spot":0.62,"SideOfStreet":"right","CountryId":"20403667","CountyId":"20411183","CityId":"20426532","DistrictId":"20426533"}}},{"Relevance":1.0,"Distance":38.8,"MatchLevel":"street","MatchQuality":{"Country":1.0,"County":1.0,"City":1.0,"District":1.0,"Street":[1.0],"PostalCode":1.0},"Location":{"LocationId":"NT_epn2CGvcf87EXLVI.4fIMB_l_918206755_R","LocationType":"point","DisplayPosition":{"Latitude":51.87256,"Longitude":-8.49061},"MapView":{"TopLeft":{"Latitude":51.87256,"Longitude":-8.49061},"BottomRight":{"Latitude":51.87218,"Longitude":-8.49041}},"Address":{"Label":"Pouladuff Road, Cork, County Cork, T12, Ireland","Country":"IRL","County":"County Cork","City":"Cork","District":"Cork","Street":"Pouladuff Road","PostalCode":"T12","AdditionalData":[{"value":"Ireland","key":"CountryName"},{"value":"County Cork","key":"CountyName"}]},"MapReference":{"ReferenceId":"918206755","Spot":1.0,"SideOfStreet":"right","CountryId":"20403667","CountyId":"20411183","CityId":"20426532","DistrictId":"20426533"}}},{"Relevance":1.0,"Distance":38.8,"MatchLevel":"street","MatchQuality":{"Country":1.0,"County":1.0,"City":1.0,"District":1.0,"PostalCode":1.0},"Location":{"LocationId":"NT_vw.aD03UggTmmRlyuvkTNB_l_918206757_L","LocationType":"point","DisplayPosition":{"Latitude":51.87256,"Longitude":-8.49061},"MapView":{"TopLeft":{"Latitude":51.87256,"Longitude":-8.4908},"BottomRight":{"Latitude":51.87229,"Longitude":-8.49061}},"Address":{"Label":"Cork, County Cork, T12, Ireland","Country":"IRL","County":"County Cork","City":"Cork","District":"Cork","PostalCode":"T12","AdditionalData":[{"value":"Ireland","key":"CountryName"},{"value":"County Cork","key":"CountyName"}]},"MapReference":{"ReferenceId":"918206757","Spot":1.0,"SideOfStreet":"left","CountryId":"20403667","CountyId":"20411183","CityId":"20426532","DistrictId":"20426533"}}},{"Relevance":1.0,"Distance":45.8,"MatchLevel":"street","MatchQuality":{"Country":1.0,"County":1.0,"City":1.0,"District":1.0,"PostalCode":1.0},"Location":{"LocationId":"NT_vw.aD03UggTmmRlyuvkTNB_l_918206739_L","LocationType":"point","DisplayPosition":{"Latitude":51.87262,"Longitude":-8.4896},"MapView":{"TopLeft":{"Latitude":51.87262,"Longitude":-8.4896},"BottomRight":{"Latitude":51.87222,"Longitude":-8.48871}},"Address":{"Label":"Cork, County Cork, T12, Ireland","Country":"IRL","County":"County Cork","City":"Cork","District":"Cork","PostalCode":"T12","AdditionalData":[{"value":"Ireland","key":"CountryName"},{"value":"County Cork","key":"CountyName"}]},"MapReference":{"ReferenceId":"918206739","Spot":1.0,"SideOfStreet":"left","CountryId":"20403667","CountyId":"20411183","CityId":"20426532","DistrictId":"20426533"}}},{"Relevance":1.0,"Distance":54.4,"MatchLevel":"postalCode","MatchQuality":{"PostalCode":1.0},"Location":{"LocationId":"NT_vw.aD03UggTmmRlyuvkTNB_l_918206757_L","LocationType":"point","DisplayPosition":{"Latitude":51.87248,"Longitude":-8.4908},"MapView":{"TopLeft":{"Latitude":51.8814732,"Longitude":-8.5053659},"BottomRight":{"Latitude":51.8634868,"Longitude":-8.4762341}},"Address":{"Label":"T12 KW26, Cork, Ireland","Country":"IRL","County":"County Cork","City":"Cork","PostalCode":"T12 KW26","AdditionalData":[{"value":"Ireland","key":"CountryName"},{"value":"County Cork","key":"CountyName"}]},"MapReference":{"ReferenceId":"918206757","Spot":1.0,"SideOfStreet":"neither","CountryId":"20403667","CountyId":"20411183","CityId":"20426532"}}}]}]}}