{"Response":{"MetaInfo":{"Timestamp":"2020-03-28T10:05:20.964+0000","NextPageInformation":"2"},"View":[{"_type":"SearchResultsViewType","ViewId":0,"Result":[{"Relevance":1.0,"Distance":0.0,"Direction":0.0,"MatchLevel":"district","MatchQuality":{"Country":1.0,"State":1.0,"County":1.0,"City":1.0,"District":1.0,"PostalCode":1.0},"Location":{"LocationId":"NT_pzssWDRp1PGJ2-FrhQKEQA","LocationType":"point","DisplayPosition":{"Latitude":51.8291795,"Longitude":10.7691701},"MapView":{"TopLeft":{"Latitude":51.85455,"Longitude":10.73738},"BottomRight":{"Latitude":51.81609,"Longitude":10.82401}},"Address":{"Label":"Wernigerode, Sachsen-Anhalt, Deutschland","Country":"DEU","State":"Sachsen-Anhalt","County":"Harz","City":"Wernigerode","District":"Wernigerode","PostalCode":"38855","AdditionalData":[{"value":"Deutschland","key":"CountryName"},{"value":"Sachsen-Anhalt","key":"StateName"},{"value":"Harz","key":"CountyName"}]},"MapReference":{"ReferenceId":"1207367151","SideOfStreet":"neither","CountryId":"20147700","StateId":"20194537","CountyId":"20196727","CityId":"20196815","DistrictId":"20196817"}}},{"Relevance":1.0,"Distance":5.5,"MatchLevel":"houseNumber","MatchQuality":{"Country":1.0,"State":1.0,"County":1.0,"City":1.0,"District":1.0,"Street":[1.0],"HouseNumber":1.0,"PostalCode":1.0},"MatchType":"interpolated","Location":{"LocationId":"NT_kibqiY69hy2wzrbBzQnpQD_xA","LocationType":"point","DisplayPosition":{"Latitude":51.8292,"Longitude":10.76931},"MapView":{"TopLeft":{"Latitude":51.8303242,"Longitude":10.767491},"BottomRight":{"Latitude":51.8280758,"Longitude":10.771129}},"Address":{"Label":"Schillerstraße 1, 38855 Wernigerode, Deutschland","Country":"DEU","State":"Sachsen-Anhalt","County":"Harz","City":"Wernigerode","District":"Wernigerode","Street":"Schillerstraße","HouseNumber":"1","PostalCode":"38855","AdditionalData":[{"value":"Deutschland","key":"CountryName"},{"value":"Sachsen-Anhalt","key":"StateName"},{"value":"Harz","key":"CountyName"}]},"MapReference":{"ReferenceId":"541340665","Spot":0.26,"SideOfStreet":"left","CountryId":"20147700","StateId":"20194537","CountyId":"20196727","CityId":"20196815","DistrictId":"20196817","AddressId":"185720869","RoadLinkId":"37966496"}}},{"Relevance":1.0,"Distance":37.1,"MatchLevel":"street","MatchQuality":{"Country":1.0,"State":1.0,"County":1.0,"City":1.0,"District":1.0,"PostalCode":1.0},"Location":{"LocationId":"NT_9-YwNvdPFPnw7dTDt6hbxD_l_1241995798_L","LocationType":"point","DisplayPosition":{"Latitude":51.82897,"Longitude":10.76959},"MapView":{"TopLeft":{"Latitude":51.82897,"Longitude":10.76959},"BottomRight":{"Latitude":51.82845,"Longitude":10.76992}},"Address":{"Label":"38855 Wernigerode, Deutschland","Country":"DEU","State":"Sachsen-Anhalt","County":"Harz","City":"Wernigerode","District":"Wernigerode","PostalCode":"38855","AdditionalData":[{"value":"Deutschland","key":"CountryName"},{"value":"Sachsen-Anhalt","key":"StateName"},{"value":"Harz","key":"CountyName"}]},"MapReference":{"ReferenceId":"1241995798","Spot":1.0,"SideOfStreet":"left","CountryId":"20147700","StateId":"20194537","CountyId":"20196727","CityId":"20196815","DistrictId":"20196817"}}},{"Relevance":1.0,"Distance":46.0,"MatchLevel":"houseNumber","MatchQuality":{"Country":1.0,"State":1.0,"County":1.0,"City":1.0,"District":1.0,"Street":[1.0],"HouseNumber":1.0,"PostalCode":1.0},"MatchType":"interpolated","Location":{"LocationId":"NT_6JIQ6yFIaqpNpL2g2qhrGB_yYD","LocationType":"point","DisplayPosition":{"Latitude":51.82899,"Longitude":10.76981},"MapView":{"TopLeft":{"Latitude":51.8301142,"Longitude":10.767991},"BottomRight":{"Latitude":51.8278658,"Longitude":10.771629}},"Address":{"Label":"Lüttgenfeldstraße 26, 38855 Wernigerode, Deutschland","Country":"DEU","State":"Sachsen-Anhalt","County":"Harz","City":"Wernigerode","District":"Wernigerode","Street":"Lüttgenfeldstraße","HouseNumber":"26","PostalCode":"38855","AdditionalData":[{"value":"Deutschland","key":"CountryName"},{"value":"Sachsen-Anhalt","key":"StateName"},{"value":"Harz","key":"CountyName"}]},"MapReference":{"ReferenceId":"1241995795","Spot":0.22,"SideOfStreet":"left","CountryId":"20147700","StateId":"20194537","CountyId":"20196727","CityId":"20196815","DistrictId":"20196817","AddressId":"185038763","RoadLinkId":"563001853"}}},{"Relevance":1.0,"Distance":56.2,"MatchLevel":"houseNumber","MatchQuality":{"Country":1.0,"State":1.0,"County":1.0,"City":1.0,"District":1.0,"Street":[1.0],"HouseNumber":1.0,"PostalCode":1.0},"MatchType":"interpolated","Location":{"LocationId":"NT_6JIQ6yFIaqpNpL2g2qhrGB_ygDR","LocationType":"point","DisplayPosition":{"Latitude":51.82953,"Longitude":10.77002},"MapView":{"TopLeft":{"Latitude":51.8306542,"Longitude":10.768201},"BottomRight":{"Latitude":51.8284058,"Longitude":10.771839}},"Address":{"Label":"Lüttgenfeldstraße 28D, 38855 Wernigerode, Deutschland","Country":"DEU","State":"Sachsen-Anhalt","County":"Harz","City":"Wernigerode","District":"Wernigerode","Street":"Lüttgenfeldstraße","HouseNumber":"28D","PostalCode":"38855","AdditionalData":[{"value":"Deutschland","key":"CountryName"},{"value":"Sachsen-Anhalt","key":"StateName"},{"value":"Harz","key":"CountyName"}]},"MapReference":{"ReferenceId":"541340670","Spot":1.0,"SideOfStreet":"left","CountryId":"20147700","StateId":"20194537","CountyId":"20196727","CityId":"20196815","DistrictId":"20196817","AddressId":"185038760","RoadLinkId":"467869162"}}},{"Relevance":1.0,"Distance":60.9,"MatchLevel":"landmark","MatchQuality":{"Country":1.0,"State":1.0,"County":1.0,"Name":1.0},"Location":{"LocationId":"NT_9yvg6VahVOvFs5TZe-S5HA","LocationType":"river","Name":"Holtemme","DisplayPosition":{"Latitude":51.86636,"Longitude":10.89105},"MapView":{"TopLeft":{"Latitude":51.92753,"Longitude":10.66662},"BottomRight":{"Latitude":51.79617,"Longitude":11.12426}},"Address":{"Label":"Deutschland","Country":"DEU","State":"Sachsen-Anhalt","County":"Harz","AdditionalData":[{"value":"Deutschland","key":"CountryName"},{"value":"Sachsen-Anhalt","key":"StateName"},{"value":"Harz","key":"CountyName"}]},"MapReference":{"CountryId":"20147700","StateId":"20194537","CountyId":"20196727","PlaceId":"756510884"}}},{"Relevance":1.0,"Distance":66.5,"MatchLevel":"houseNumber","MatchQuality":{"Country":1.0,"State":1.0,"County":1.0,"City":1.0,"District":1.0,"Street":[1.0],"HouseNumber":1.0,"PostalCode":1.0},"MatchType":"interpolated","Location":{"LocationId":"NT_6JIQ6yFIaqpNpL2g2qhrGB_yQD","LocationType":"point","DisplayPosition":{"Latitude":51.82889,"Longitude":10.76829},"MapView":{"TopLeft":{"Latitude":51.8300142,"Longitude":10.766471},"BottomRight":{"Latitude":51.8277658,"Longitude":10.770109}},"Address":{"Label":"Lüttgenfeldstraße 24, 38855 Wernigerode, Deutschland","Country":"DEU","State":"Sachsen-Anhalt","County":"Harz","City":"Wernigerode","District":"Wernigerode","Street":"Lüttgenfeldstraße","HouseNumber":"24","PostalCode":"38855","AdditionalData":[{"value":"Deutschland","key":"CountryName"},{"value":"Sachsen-Anhalt","key":"StateName"},{"value":"Harz","key":"CountyName"}]},"MapReference":{"ReferenceId":"541340889","Spot":0.44,"SideOfStreet":"left","CountryId":"20147700","StateId":"20194537","CountyId":"20196727","CityId":"20196815","DistrictId":"20196817","AddressId":"185219489","RoadLinkId":"37870798"}}},{"Relevance":1.0,"Distance":74.1,"MatchLevel":"houseNumber","MatchQuality":{"Country":1.0,"State":1.0,"County":1.0,"City":1.0,"District":1.0,"Street":[1.0],"HouseNumber":1.0,"PostalCode":1.0},"MatchType":"interpolated","Location":{"LocationId":"NT_TCV8Y1d-l4rK.YpY3TVCeB_ykTQ","LocationType":"point","DisplayPosition":{"Latitude":51.82974,"Longitude":10.76834},"MapView":{"TopLeft":{"Latitude":51.8308642,"Longitude":10.766521},"BottomRight":{"Latitude":51.8286158,"Longitude":10.770159}},"Address":{"Label":"Unterm Ratskopf 29A, 38855 Wernigerode, Deutschland","Country":"DEU","State":"Sachsen-Anhalt","County":"Harz","City":"Wernigerode","District":"Wernigerode","Street":"Unterm Ratskopf","HouseNumber":"29A","PostalCode":"38855","AdditionalData":[{"value":"Deutschland","key":"CountryName"},{"value":"Sachsen-Anhalt","key":"StateName"},{"value":"Harz","key":"CountyName"}]},"MapReference":{"ReferenceId":"544591737","Spot":0.89,"SideOfStreet":"right","CountryId":"20147700","StateId":"20194537","CountyId":"20196727","CityId":"20196815","DistrictId":"20196817","AddressId":"185104658","RoadLinkId":"37382875"}}},{"Relevance":1.0,"Distance":77.1,"MatchLevel":"houseNumber","MatchQuality":{"Country":1.0,"State":1.0,"County":1.0,"City":1.0,"District":1.0,"Street":[1.0],"HouseNumber":1.0,"PostalCode":1.0},"MatchType":"interpolated","Location":{"LocationId":"NT_TCV8Y1d-l4rK.YpY3TVCeB_ycD","LocationType":"point","DisplayPosition":{"Latitude":51.83007,"Longitude":10.76898},"MapView":{"TopLeft":{"Latitude":51.8311942,"Longitude":10.767161},"BottomRight":{"Latitude":51.8289458,"Longitude":10.770799}},"Address":{"Label":"Unterm Ratskopf 27, 38855 Wernigerode, Deutschland","Country":"DEU","State":"Sachsen-Anhalt","County":"Harz","City":"Wernigerode","District":"Wernigerode","Street":"Unterm Ratskopf","HouseNumber":"27","PostalCode":"38855","AdditionalData":[{"value":"Deutschland","key":"CountryName"},{"value":"Sachsen-Anhalt","key":"StateName"},{"value":"Harz","key":"CountyName"}]},"MapReference":{"ReferenceId":"541340650","Spot":0.17,"SideOfStreet":"right","CountryId":"20147700","StateId":"20194537","CountyId":"20196727","CityId":"20196815","DistrictId":"20196817","AddressId":"185016102","RoadLinkId":"37695005"}}},{"Relevance":1.0,"Distance":86.7,"MatchLevel":"houseNumber","MatchQuality":{"Country":1.0,"State":1.0,"County":1.0,"City":1.0,"District":1.0,"Street":[1.0],"HouseNumber":1.0,"PostalCode":1.0},"MatchType":"interpolated","Location":{"LocationId":"NT_gOOTNnc2MZMff4bEBgIBTA_xIDO","LocationType":"point","DisplayPosition":{"Latitude":51.82832,"Longitude":10.76924},"MapView":{"TopLeft":{"Latitude":51.8294442,"Longitude":10.767421},"BottomRight":{"Latitude":51.8271958,"Longitude":10.771059}},"Address":{"Label":"Friedrichstraße 128, 38855 Wernigerode, Deutschland","Country":"DEU","State":"Sachsen-Anhalt","County":"Harz","City":"Wernigerode","District":"Wernigerode","Street":"Friedrichstraße","HouseNumber":"128","PostalCode":"38855","AdditionalData":[{"value":"Deutschland","key":"CountryName"},{"value":"Sachsen-Anhalt","key":"StateName"},{"value":"Harz","key":"CountyName"}]},"MapReference":{"ReferenceId":"1241995796","Spot":0.76,"SideOfStreet":"left","CountryId":"20147700","StateId":"20194537","CountyId":"20196727","CityId":"20196815","DistrictId":"20196817","AddressId":"185098831","RoadLinkId":"563001856"}}}]}]}}