{"Response":{"MetaInfo":{"Timestamp":"2020-03-28T09:57:02.994+0000","NextPageInformation":"2"},"View":[{"_type":"SearchResultsViewType","ViewId":0,"Result":[{"Relevance":1.0,"Distance":0.0,"Direction":0.0,"MatchLevel":"city","MatchQuality":{"Country":1.0,"State":1.0,"County":1.0,"City":1.0,"PostalCode":1.0},"Location":{"LocationId":"NT_q0n1lZEQAuaQD-kHbalkHD","LocationType":"point","DisplayPosition":{"Latitude":51.8307503,"Longitude":5.2618704},"MapView":{"TopLeft":{"Latitude":51.83729,"Longitude":5.24131},"BottomRight":{"Latitude":51.82565,"Longitude":5.26641}},"Address":{"Label":"Waardenburg, Gelderland, Nederland","Country":"NLD","State":"Gelderland","County":"West Betuwe","City":"Waardenburg","PostalCode":"4181","AdditionalData":[{"value":"Nederland","key":"CountryName"},{"value":"Gelderland","key":"StateName"},{"value":"West Betuwe","key":"CountyName"}]},"MapReference":{"ReferenceId":"831812010","SideOfStreet":"neither","CountryId":"23055544","StateId":"23055652","CountyId":"28253620","CityId":"20201459"}}},{"Relevance":1.0,"Distance":15.4,"MatchLevel":"houseNumber","MatchQuality":{"Country":1.0,"State":1.0,"County":1.0,"City":1.0,"Street":[1.0],"HouseNumber":1.0,"PostalCode":1.0},"MatchType":"interpolated","Location":{"LocationId":"NT_zs-sj6IZjmmSLUP8GhTDaC_xQTQ","LocationType":"point","DisplayPosition":{"Latitude":51.83077,"Longitude":5.2624},"MapView":{"TopLeft":{"Latitude":51.8318942,"Longitude":5.2605809},"BottomRight":{"Latitude":51.8296458,"Longitude":5.2642191}},"Address":{"Label":"Gasthuisstraat 14A, 4181 AP Waardenburg, Nederland","Country":"NLD","State":"Gelderland","County":"West Betuwe","City":"Waardenburg","Street":"Gasthuisstraat","HouseNumber":"14A","PostalCode":"4181 AP","AdditionalData":[{"value":"Nederland","key":"CountryName"},{"value":"Gelderland","key":"StateName"},{"value":"West Betuwe","key":"CountyName"}]},"MapReference":{"ReferenceId":"1175163643","Spot":0.7,"SideOfStreet":"left","CountryId":"23055544","StateId":"23055652","CountyId":"28253620","CityId":"20201459","AddressId":"617207251","RoadLinkId":"482584194"}}},{"Relevance":1.0,"Distance":68.0,"MatchLevel":"houseNumber","MatchQuality":{"Country":1.0,"State":1.0,"County":1.0,"City":1.0,"Street":[1.0],"HouseNumber":1.0,"PostalCode":1.0},"MatchType":"interpolated","Location":{"LocationId":"NT_8l6tWlv3GnZVK8xJCTzJDD_0A","LocationType":"point","DisplayPosition":{"Latitude":51.83089,"Longitude":5.26073},"MapView":{"TopLeft":{"Latitude":51.8320142,"Longitude":5.2589109},"BottomRight":{"Latitude":51.8297658,"Longitude":5.2625491}},"Address":{"Label":"De Griend 4, 4181 AZ Waardenburg, Nederland","Country":"NLD","State":"Gelderland","County":"West Betuwe","City":"Waardenburg","Street":"De Griend","HouseNumber":"4","PostalCode":"4181 AZ","AdditionalData":[{"value":"Nederland","key":"CountryName"},{"value":"Gelderland","key":"StateName"},{"value":"West Betuwe","key":"CountyName"}]},"MapReference":{"ReferenceId":"54971830","Spot":0.14,"SideOfStreet":"right","CountryId":"23055544","StateId":"23055652","CountyId":"28253620","CityId":"20201459","AddressId":"690072168","RoadLinkId":"31262839"}}},{"Relevance":1.0,"Distance":86.4,"MatchLevel":"houseNumber","MatchQuality":{"Country":1.0,"State":1.0,"County":1.0,"City":1.0,"Street":[1.0],"HouseNumber":1.0,"PostalCode":1.0},"MatchType":"interpolated","Location":{"LocationId":"NT_AO5KDkKn3yRgWk5h6uDxFD_xID","LocationType":"point","DisplayPosition":{"Latitude":51.83002,"Longitude":5.2623},"MapView":{"TopLeft":{"Latitude":51.8311442,"Longitude":5.260481},"BottomRight":{"Latitude":51.8288958,"Longitude":5.264119}},"Address":{"Label":"Waalbandijk 12, 4181 AN Waardenburg, Nederland","Country":"NLD","State":"Gelderland","County":"West Betuwe","City":"Waardenburg","Street":"Waalbandijk","HouseNumber":"12","PostalCode":"4181 AN","AdditionalData":[{"value":"Nederland","key":"CountryName"},{"value":"Gelderland","key":"StateName"},{"value":"West Betuwe","key":"CountyName"}]},"MapReference":{"ReferenceId":"80142786","Spot":0.43,"SideOfStreet":"right","CountryId":"23055544","StateId":"23055652","CountyId":"28253620","CityId":"20201459","AddressId":"617403385","RoadLinkId":"32279718"}}},{"Relevance":1.0,"Distance":111.3,"MatchLevel":"houseNumber","MatchQuality":{"Country":1.0,"State":1.0,"County":1.0,"City":1.0,"Street":[1.0],"HouseNumber":1.0,"PostalCode":1.0},"MatchType":"interpolated","Location":{"LocationId":"NT_zs-sj6IZjmmSLUP8GhTDaC_1A","LocationType":"point","DisplayPosition":{"Latitude":51.83186,"Longitude":5.26154},"MapView":{"TopLeft":{"Latitude":51.8329842,"Longitude":5.2597209},"BottomRight":{"Latitude":51.8307358,"Longitude":5.2633591}},"Address":{"Label":"Gasthuisstraat 5, 4181 AP Waardenburg, Nederland","Country":"NLD","State":"Gelderland","County":"West Betuwe","City":"Waardenburg","Street":"Gasthuisstraat","HouseNumber":"5","PostalCode":"4181 AP","AdditionalData":[{"value":"Nederland","key":"CountryName"},{"value":"Gelderland","key":"StateName"},{"value":"West Betuwe","key":"CountyName"}]},"MapReference":{"ReferenceId":"1175163644","Spot":0.53,"SideOfStreet":"left","CountryId":"23055544","StateId":"23055652","CountyId":"28253620","CityId":"20201459","AddressId":"617207231","RoadLinkId":"482584195"}}},{"Relevance":1.0,"Distance":121.4,"MatchLevel":"houseNumber","MatchQuality":{"Country":1.0,"State":1.0,"County":1.0,"City":1.0,"Street":[1.0],"HouseNumber":1.0,"PostalCode":1.0},"MatchType":"interpolated","Location":{"LocationId":"NT_7GmRCGzEYko8SdEc4ScMlA_2A","LocationType":"point","DisplayPosition":{"Latitude":51.83175,"Longitude":5.26258},"MapView":{"TopLeft":{"Latitude":51.8328742,"Longitude":5.2607609},"BottomRight":{"Latitude":51.8306258,"Longitude":5.2643991}},"Address":{"Label":"G.E.H. Tutein Noltheniuslaan 6, 4181 AS Waardenburg, Nederland","Country":"NLD","State":"Gelderland","County":"West Betuwe","City":"Waardenburg","Street":"G.E.H. Tutein Noltheniuslaan","HouseNumber":"6","PostalCode":"4181 AS","AdditionalData":[{"value":"Nederland","key":"CountryName"},{"value":"Gelderland","key":"StateName"},{"value":"West Betuwe","key":"CountyName"}]},"MapReference":{"ReferenceId":"54971746","Spot":1.0,"SideOfStreet":"left","CountryId":"23055544","StateId":"23055652","CountyId":"28253620","CityId":"20201459","AddressId":"617186778","RoadLinkId":"32395345"}}},{"Relevance":1.0,"Distance":130.7,"MatchLevel":"houseNumber","MatchQuality":{"Country":1.0,"State":1.0,"County":1.0,"City":1.0,"Street":[1.0],"HouseNumber":1.0,"PostalCode":1.0},"MatchType":"interpolated","Location":{"LocationId":"NT_7GmRCGzEYko8SdEc4ScMlA_1A","LocationType":"point","DisplayPosition":{"Latitude":51.83175,"Longitude":5.26287},"MapView":{"TopLeft":{"Latitude":51.8328742,"Longitude":5.2610509},"BottomRight":{"Latitude":51.8306258,"Longitude":5.2646891}},"Address":{"Label":"G.E.H. Tutein Noltheniuslaan 5, 4181 AS Waardenburg, Nederland","Country":"NLD","State":"Gelderland","County":"West Betuwe","City":"Waardenburg","Street":"G.E.H. Tutein Noltheniuslaan","HouseNumber":"5","PostalCode":"4181 AS","AdditionalData":[{"value":"Nederland","key":"CountryName"},{"value":"Gelderland","key":"StateName"},{"value":"West Betuwe","key":"CountyName"}]},"MapReference":{"ReferenceId":"1207455260","Spot":0.15,"SideOfStreet":"left","CountryId":"23055544","StateId":"23055652","CountyId":"28253620","CityId":"20201459","AddressId":"617179523","RoadLinkId":"521658068"}}},{"Relevance":1.0,"Distance":131.4,"MatchLevel":"houseNumber","MatchQuality":{"Country":1.0,"State":1.0,"County":1.0,"City":1.0,"Street":[1.0],"HouseNumber":1.0,"PostalCode":1.0},"MatchType":"interpolated","Location":{"LocationId":"NT_9LCSPvo2SWN5sN.CzoDMlA_xA","LocationType":"point","DisplayPosition":{"Latitude":51.83182,"Longitude":5.26059},"MapView":{"TopLeft":{"Latitude":51.8329442,"Longitude":5.2587709},"BottomRight":{"Latitude":51.8306958,"Longitude":5.2624091}},"Address":{"Label":"Pompstraat 1, 4181 AR Waardenburg, Nederland","Country":"NLD","State":"Gelderland","County":"West Betuwe","City":"Waardenburg","Street":"Pompstraat","HouseNumber":"1","PostalCode":"4181 AR","AdditionalData":[{"value":"Nederland","key":"CountryName"},{"value":"Gelderland","key":"StateName"},{"value":"West Betuwe","key":"CountyName"}]},"MapReference":{"ReferenceId":"54971728","Spot":0.37,"SideOfStreet":"right","CountryId":"23055544","StateId":"23055652","CountyId":"28253620","CityId":"20201459","AddressId":"617108773","RoadLinkId":"31881394"}}},{"Relevance":1.0,"Distance":143.9,"MatchLevel":"houseNumber","MatchQuality":{"Country":1.0,"State":1.0,"County":1.0,"City":1.0,"Street":[1.0],"HouseNumber":1.0,"PostalCode":1.0},"MatchType":"interpolated","Location":{"LocationId":"NT_9LCSPvo2SWN5sN.CzoDMlA_zA","LocationType":"point","DisplayPosition":{"Latitude":51.83175,"Longitude":5.26022},"MapView":{"TopLeft":{"Latitude":51.8328742,"Longitude":5.2584009},"BottomRight":{"Latitude":51.8306258,"Longitude":5.2620391}},"Address":{"Label":"Pompstraat 3, 4181 AR Waardenburg, Nederland","Country":"NLD","State":"Gelderland","County":"West Betuwe","City":"Waardenburg","Street":"Pompstraat","HouseNumber":"3","PostalCode":"4181 AR","AdditionalData":[{"value":"Nederland","key":"CountryName"},{"value":"Gelderland","key":"StateName"},{"value":"West Betuwe","key":"CountyName"}]},"MapReference":{"ReferenceId":"54971744","Spot":0.85,"SideOfStreet":"right","CountryId":"23055544","StateId":"23055652","CountyId":"28253620","CityId":"20201459","AddressId":"616981646","RoadLinkId":"31240939"}}},{"Relevance":1.0,"Distance":148.5,"MatchLevel":"houseNumber","MatchQuality":{"Country":1.0,"State":1.0,"County":1.0,"City":1.0,"Street":[1.0],"HouseNumber":1.0,"PostalCode":1.0},"MatchType":"interpolated","Location":{"LocationId":"NT_zs-sj6IZjmmSLUP8GhTDaC_yA","LocationType":"point","DisplayPosition":{"Latitude":51.83194,"Longitude":5.26089},"MapView":{"TopLeft":{"Latitude":51.8330642,"Longitude":5.2590709},"BottomRight":{"Latitude":51.8308158,"Longitude":5.2627091}},"Address":{"Label":"Gasthuisstraat 2, 4181 AP Waardenburg, Nederland","Country":"NLD","State":"Gelderland","County":"West Betuwe","City":"Waardenburg","Street":"Gasthuisstraat","HouseNumber":"2","PostalCode":"4181 AP","AdditionalData":[{"value":"Nederland","key":"CountryName"},{"value":"Gelderland","key":"StateName"},{"value":"West Betuwe","key":"CountyName"}]},"MapReference":{"ReferenceId":"831808619","Spot":0.11,"SideOfStreet":"left","CountryId":"23055544","StateId":"23055652","CountyId":"28253620","CityId":"20201459","AddressId":"616946924","RoadLinkId":"215224351"}}}]}]}}