{"Response":{"MetaInfo":{"Timestamp":"2020-03-28T11:18:11.357+0000","NextPageInformation":"2"},"View":[{"_type":"SearchResultsViewType","ViewId":0,"Result":[{"Relevance":1.0,"Distance":0.0,"Direction":0.0,"MatchLevel":"district","MatchQuality":{"Country":1.0,"State":1.0,"County":1.0,"City":1.0,"District":1.0,"PostalCode":1.0},"Location":{"LocationId":"NT_GSSfCAqiPyh3jMWXg1EBxC","LocationType":"point","DisplayPosition":{"Latitude":51.8913236,"Longitude":0.8631952},"MapView":{"TopLeft":{"Latitude":51.92561,"Longitude":0.81813},"BottomRight":{"Latitude":51.85328,"Longitude":0.95288}},"Address":{"Label":"Colchester, England, United Kingdom","Country":"GBR","State":"England","County":"Essex","City":"Colchester","District":"Colchester","PostalCode":"CO2 7","AdditionalData":[{"value":"United Kingdom","key":"CountryName"},{"value":"England","key":"StateName"},{"value":"Essex","key":"CountyName"}]},"MapReference":{"ReferenceId":"25759867","SideOfStreet":"neither","StateId":"20248595","CountyId":"20335385","CityId":"20335523","DistrictId":"20335524"}}},{"Relevance":1.0,"Distance":7.3,"MatchLevel":"houseNumber","MatchQuality":{"Country":1.0,"State":1.0,"County":1.0,"City":1.0,"District":1.0,"Street":[1.0],"HouseNumber":1.0,"PostalCode":1.0},"MatchType":"interpolated","Location":{"LocationId":"NT_QOOd9lL20h6N99V1AXvmYD_l_1155038412_R_4A","LocationType":"point","DisplayPosition":{"Latitude":51.89126,"Longitude":0.86317},"MapView":{"TopLeft":{"Latitude":51.8923842,"Longitude":0.8613485},"BottomRight":{"Latitude":51.8901359,"Longitude":0.8649915}},"Address":{"Label":"8 Spring Lane, Colchester, CO3 4AN, United Kingdom","Country":"GBR","State":"England","County":"Essex","City":"Colchester","District":"Colchester","Street":"Spring Lane","HouseNumber":"8","PostalCode":"CO3 4AN","AdditionalData":[{"value":"United Kingdom","key":"CountryName"},{"value":"England","key":"StateName"},{"value":"Essex","key":"CountyName"}]},"MapReference":{"ReferenceId":"1155038412","Spot":0.12,"SideOfStreet":"right","StateId":"20248595","CountyId":"20335385","CityId":"20335523","DistrictId":"20335524"}}},{"Relevance":1.0,"Distance":49.1,"MatchLevel":"postalCode","MatchQuality":{"PostalCode":1.0},"MatchType":"interpolated","Location":{"LocationId":"NT_QOOd9lL20h6N99V1AXvmYD_l_1155038411_R_3A","LocationType":"point","DisplayPosition":{"Latitude":51.89093,"Longitude":0.86352},"MapView":{"TopLeft":{"Latitude":51.8999232,"Longitude":0.8489481},"BottomRight":{"Latitude":51.8819368,"Longitude":0.8780919}},"Address":{"Label":"CO3 4AN, Colchester, England, United Kingdom","Country":"GBR","State":"England","County":"Essex","City":"Colchester","PostalCode":"CO3 4AN","AdditionalData":[{"value":"United Kingdom","key":"CountryName"},{"value":"England","key":"StateName"},{"value":"Essex","key":"CountyName"}]},"MapReference":{"ReferenceId":"1155038411","Spot":0.59,"SideOfStreet":"neither","StateId":"20248595","CountyId":"20335385","CityId":"20335523"}}},{"Relevance":1.0,"Distance":59.0,"MatchLevel":"houseNumber","MatchQuality":{"Country":1.0,"State":1.0,"County":1.0,"City":1.0,"District":1.0,"Street":[1.0],"HouseNumber":1.0,"PostalCode":1.0},"MatchType":"interpolated","Location":{"LocationId":"NT_QOOd9lL20h6N99V1AXvmYD_l_1155038411_R_3A","LocationType":"point","DisplayPosition":{"Latitude":51.8908159,"Longitude":0.8635633},"MapView":{"TopLeft":{"Latitude":51.89194,"Longitude":0.8617419},"BottomRight":{"Latitude":51.8896917,"Longitude":0.8653848}},"Address":{"Label":"7 Spring Lane, Colchester, CO3 4AN, United Kingdom","Country":"GBR","State":"England","County":"Essex","City":"Colchester","District":"Colchester","Street":"Spring Lane","HouseNumber":"7","PostalCode":"CO3 4AN","AdditionalData":[{"value":"United Kingdom","key":"CountryName"},{"value":"England","key":"StateName"},{"value":"Essex","key":"CountyName"}]},"MapReference":{"ReferenceId":"1155038411","Spot":0.59,"SideOfStreet":"right","StateId":"20248595","CountyId":"20335385","CityId":"20335523","DistrictId":"20335524"}}},{"Relevance":1.0,"Distance":86.4,"MatchLevel":"postalCode","MatchQuality":{"PostalCode":1.0},"Location":{"LocationId":"NT_gUzkk4aVEbou1oksynyN5C_l_25759458_L","LocationType":"point","DisplayPosition":{"Latitude":51.89062,"Longitude":0.86373},"MapView":{"TopLeft":{"Latitude":51.8996132,"Longitude":0.8491582},"BottomRight":{"Latitude":51.8816268,"Longitude":0.8783018}},"Address":{"Label":"CO3 3TF, Colchester, England, United Kingdom","Country":"GBR","State":"England","County":"Essex","City":"Colchester","PostalCode":"CO3 3TF","AdditionalData":[{"value":"United Kingdom","key":"CountryName"},{"value":"England","key":"StateName"},{"value":"Essex","key":"CountyName"}]},"MapReference":{"ReferenceId":"25759458","Spot":0.0,"SideOfStreet":"neither","StateId":"20248595","CountyId":"20335385","CityId":"20335523"}}},{"Relevance":1.0,"Distance":116.7,"MatchLevel":"houseNumber","MatchQuality":{"Country":1.0,"State":1.0,"County":1.0,"City":1.0,"District":1.0,"Street":[1.0],"HouseNumber":1.0,"PostalCode":1.0},"MatchType":"interpolated","Location":{"LocationId":"NT_aL6I1yUAdnam4Dp-WCaH2B_l_1155038414_L_xkzM","LocationType":"point","DisplayPosition":{"Latitude":51.8901408,"Longitude":0.8632929},"MapView":{"TopLeft":{"Latitude":51.891265,"Longitude":0.8614715},"BottomRight":{"Latitude":51.8890167,"Longitude":0.8651144}},"Address":{"Label":"193 Lexden Road, Colchester, CO3 4BH, United Kingdom","Country":"GBR","State":"England","County":"Essex","City":"Colchester","District":"Colchester","Street":"Lexden Road","HouseNumber":"193","PostalCode":"CO3 4BH","AdditionalData":[{"value":"United Kingdom","key":"CountryName"},{"value":"England","key":"StateName"},{"value":"Essex","key":"CountyName"}]},"MapReference":{"ReferenceId":"1155038414","Spot":0.73,"SideOfStreet":"left","StateId":"20248595","CountyId":"20335385","CityId":"20335523","DistrictId":"20335524"}}},{"Relevance":1.0,"Distance":120.0,"MatchLevel":"houseNumber","MatchQuality":{"Country":1.0,"State":1.0,"County":1.0,"City":1.0,"District":1.0,"Street":[1.0],"HouseNumber":1.0,"PostalCode":1.0},"MatchType":"interpolated","Location":{"LocationId":"NT_hS0hTPDLFcc7vbfBdc1-1D_l_756020047_L_xkTM","LocationType":"point","DisplayPosition":{"Latitude":51.8902852,"Longitude":0.8641622},"MapView":{"TopLeft":{"Latitude":51.8914093,"Longitude":0.8623408},"BottomRight":{"Latitude":51.889161,"Longitude":0.8659837}},"Address":{"Label":"191 Lexden Road, Colchester, CO3 3TE, United Kingdom","Country":"GBR","State":"England","County":"Essex","City":"Colchester","District":"Colchester","Street":"Lexden Road","HouseNumber":"191","PostalCode":"CO3 3TE","AdditionalData":[{"value":"United Kingdom","key":"CountryName"},{"value":"England","key":"StateName"},{"value":"Essex","key":"CountyName"}]},"MapReference":{"ReferenceId":"756020047","Spot":0.49,"SideOfStreet":"left","StateId":"20248595","CountyId":"20335385","CityId":"20335523","DistrictId":"20335524"}}},{"Relevance":1.0,"Distance":125.9,"MatchLevel":"street","MatchQuality":{"Country":1.0,"State":1.0,"County":1.0,"City":1.0,"District":1.0,"Street":[1.0],"PostalCode":1.0},"Location":{"LocationId":"NT_ikVL6EAOPghp0vVYN4SH6A_l_1155038423_R","LocationType":"point","DisplayPosition":{"Latitude":51.8924496,"Longitude":0.8630075},"MapView":{"TopLeft":{"Latitude":51.89246,"Longitude":0.85781},"BottomRight":{"Latitude":51.89083,"Longitude":0.86307}},"Address":{"Label":"Cymbeline Way, Colchester, CO3 4, United Kingdom","Country":"GBR","State":"England","County":"Essex","City":"Colchester","District":"Colchester","Street":"Cymbeline Way","PostalCode":"CO3 4","AdditionalData":[{"value":"United Kingdom","key":"CountryName"},{"value":"England","key":"StateName"},{"value":"Essex","key":"CountyName"}]},"MapReference":{"ReferenceId":"1155038423","Spot":0.99,"SideOfStreet":"right","StateId":"20248595","CountyId":"20335385","CityId":"20335523","DistrictId":"20335524"}}},{"Relevance":1.0,"Distance":126.7,"MatchLevel":"street","MatchQuality":{"Country":1.0,"State":1.0,"County":1.0,"City":1.0,"District":1.0,"Street":[1.0],"PostalCode":1.0},"Location":{"LocationId":"NT_ikVL6EAOPghp0vVYN4SH6A_l_25759231_R","LocationType":"point","DisplayPosition":{"Latitude":51.89246,"Longitude":0.86307},"MapView":{"TopLeft":{"Latitude":51.89289,"Longitude":0.86307},"BottomRight":{"Latitude":51.89246,"Longitude":0.86355}},"Address":{"Label":"Cymbeline Way, Colchester, CO3 4, United Kingdom","Country":"GBR","State":"England","County":"Essex","City":"Colchester","District":"Colchester","Street":"Cymbeline Way","PostalCode":"CO3 4","AdditionalData":[{"value":"United Kingdom","key":"CountryName"},{"value":"England","key":"StateName"},{"value":"Essex","key":"CountyName"}]},"MapReference":{"ReferenceId":"25759231","Spot":0.0,"SideOfStreet":"right","StateId":"20248595","CountyId":"20335385","CityId":"20335523","DistrictId":"20335524"}}},{"Relevance":1.0,"Distance":126.7,"MatchLevel":"street","MatchQuality":{"Country":1.0,"State":1.0,"County":1.0,"City":1.0,"District":1.0,"Street":[1.0],"PostalCode":1.0},"Location":{"LocationId":"NT_ikVL6EAOPghp0vVYN4SH6A_l_25759230_R","LocationType":"point","DisplayPosition":{"Latitude":51.8924628,"Longitude":0.8631596},"MapView":{"TopLeft":{"Latitude":51.89253,"Longitude":0.86307},"BottomRight":{"Latitude":51.89246,"Longitude":0.8642}},"Address":{"Label":"Cymbeline Way, Colchester, CO3 4, United Kingdom","Country":"GBR","State":"England","County":"Essex","City":"Colchester","District":"Colchester","Street":"Cymbeline Way","PostalCode":"CO3 4","AdditionalData":[{"value":"United Kingdom","key":"CountryName"},{"value":"England","key":"StateName"},{"value":"Essex","key":"CountyName"}]},"MapReference":{"ReferenceId":"25759230","Spot":0.08,"SideOfStreet":"right","StateId":"20248595","CountyId":"20335385","CityId":"20335523","DistrictId":"20335524"}}}]}]}}