{"Response":{"MetaInfo":{"Timestamp":"2020-03-28T11:18:37.157+0000","NextPageInformation":"2"},"View":[{"_type":"SearchResultsViewType","ViewId":0,"Result":[{"Relevance":1.0,"Distance":0.0,"Direction":0.0,"MatchLevel":"district","MatchQuality":{"Country":1.0,"State":1.0,"County":1.0,"City":1.0,"District":1.0,"PostalCode":1.0},"Location":{"LocationId":"NT_zmAXJ9EYuhfU-bnVmBMKEA","LocationType":"point","DisplayPosition":{"Latitude":51.8609577,"Longitude":-2.2449909},"MapView":{"TopLeft":{"Latitude":51.88962,"Longitude":-2.27705},"BottomRight":{"Latitude":51.82187,"Longitude":-2.17657}},"Address":{"Label":"Gloucester, England, United Kingdom","Country":"GBR","State":"England","County":"Gloucestershire","City":"Gloucester","District":"Gloucester","PostalCode":"GL1 2","AdditionalData":[{"value":"United Kingdom","key":"CountryName"},{"value":"England","key":"StateName"},{"value":"Gloucestershire","key":"CountyName"}]},"MapReference":{"ReferenceId":"26594696","SideOfStreet":"neither","StateId":"20248595","CountyId":"20334235","CityId":"20348533","DistrictId":"20348534"}}},{"Relevance":1.0,"Distance":1.3,"MatchLevel":"street","MatchQuality":{"Country":1.0,"State":1.0,"County":1.0,"City":1.0,"District":1.0,"Street":[1.0],"PostalCode":1.0},"Location":{"LocationId":"NT_yq33S3X62crxr7qgw.x.ZD_l_792904323_L","LocationType":"point","DisplayPosition":{"Latitude":51.86096,"Longitude":-2.24501},"MapView":{"TopLeft":{"Latitude":51.86096,"Longitude":-2.24536},"BottomRight":{"Latitude":51.86054,"Longitude":-2.24501}},"Address":{"Label":"Montpellier, Gloucester, GL1 1, United Kingdom","Country":"GBR","State":"England","County":"Gloucestershire","City":"Gloucester","District":"Gloucester","Street":"Montpellier","PostalCode":"GL1 1","AdditionalData":[{"value":"United Kingdom","key":"CountryName"},{"value":"England","key":"StateName"},{"value":"Gloucestershire","key":"CountyName"}]},"MapReference":{"ReferenceId":"792904323","Spot":1.0,"SideOfStreet":"neither","StateId":"20248595","CountyId":"20334235","CityId":"20348533","DistrictId":"20348534"}}},{"Relevance":1.0,"Distance":7.8,"MatchLevel":"postalCode","MatchQuality":{"PostalCode":1.0},"MatchType":"interpolated","Location":{"LocationId":"NT_QznVJksiSEYITydBhrLcZA_l_26594934_R_xkD","LocationType":"point","DisplayPosition":{"Latitude":51.861,"Longitude":-2.2449},"MapView":{"TopLeft":{"Latitude":51.8699932,"Longitude":-2.2594622},"BottomRight":{"Latitude":51.8520068,"Longitude":-2.2303378}},"Address":{"Label":"GL1 1LH, Gloucester, England, United Kingdom","Country":"GBR","State":"England","County":"Gloucestershire","City":"Gloucester","PostalCode":"GL1 1LH","AdditionalData":[{"value":"United Kingdom","key":"CountryName"},{"value":"England","key":"StateName"},{"value":"Gloucestershire","key":"CountyName"}]},"MapReference":{"ReferenceId":"26594934","Spot":0.67,"SideOfStreet":"neither","StateId":"20248595","CountyId":"20334235","CityId":"20348533"}}},{"Relevance":1.0,"Distance":16.1,"MatchLevel":"houseNumber","MatchQuality":{"Country":1.0,"State":1.0,"County":1.0,"City":1.0,"District":1.0,"Street":[1.0],"HouseNumber":1.0,"PostalCode":1.0},"MatchType":"interpolated","Location":{"LocationId":"NT_QznVJksiSEYITydBhrLcZA_l_26594927_L_xAD","LocationType":"point","DisplayPosition":{"Latitude":51.86101,"Longitude":-2.2452101},"MapView":{"TopLeft":{"Latitude":51.8621342,"Longitude":-2.2470303},"BottomRight":{"Latitude":51.8598859,"Longitude":-2.2433898}},"Address":{"Label":"10 Park Road, Gloucester, GL1 1LQ, United Kingdom","Country":"GBR","State":"England","County":"Gloucestershire","City":"Gloucester","District":"Gloucester","Street":"Park Road","HouseNumber":"10","PostalCode":"GL1 1LQ","AdditionalData":[{"value":"United Kingdom","key":"CountryName"},{"value":"England","key":"StateName"},{"value":"Gloucestershire","key":"CountyName"}]},"MapReference":{"ReferenceId":"26594927","Spot":0.14,"SideOfStreet":"left","StateId":"20248595","CountyId":"20334235","CityId":"20348533","DistrictId":"20348534"}}},{"Relevance":1.0,"Distance":16.7,"MatchLevel":"postalCode","MatchQuality":{"PostalCode":1.0},"Location":{"LocationId":"NT_yq33S3X62crxr7qgw.x.ZD_l_792904323_L","LocationType":"point","DisplayPosition":{"Latitude":51.86085,"Longitude":-2.24516},"MapView":{"TopLeft":{"Latitude":51.8698432,"Longitude":-2.2597222},"BottomRight":{"Latitude":51.8518568,"Longitude":-2.2305978}},"Address":{"Label":"GL1 1LW, Gloucester, England, United Kingdom","Country":"GBR","State":"England","County":"Gloucestershire","City":"Gloucester","PostalCode":"GL1 1LW","AdditionalData":[{"value":"United Kingdom","key":"CountryName"},{"value":"England","key":"StateName"},{"value":"Gloucestershire","key":"CountyName"}]},"MapReference":{"ReferenceId":"792904323","Spot":1.0,"SideOfStreet":"neither","StateId":"20248595","CountyId":"20334235","CityId":"20348533"}}},{"Relevance":1.0,"Distance":18.0,"MatchLevel":"houseNumber","MatchQuality":{"Country":1.0,"State":1.0,"County":1.0,"City":1.0,"District":1.0,"Street":[1.0],"HouseNumber":1.0,"PostalCode":1.0},"MatchType":"interpolated","Location":{"LocationId":"NT_QznVJksiSEYITydBhrLcZA_l_26594934_R_xkD","LocationType":"point","DisplayPosition":{"Latitude":51.8609343,"Longitude":-2.2447314},"MapView":{"TopLeft":{"Latitude":51.8620584,"Longitude":-2.2465517},"BottomRight":{"Latitude":51.8598101,"Longitude":-2.2429112}},"Address":{"Label":"19 Park Road, Gloucester, GL1 1LH, United Kingdom","Country":"GBR","State":"England","County":"Gloucestershire","City":"Gloucester","District":"Gloucester","Street":"Park Road","HouseNumber":"19","PostalCode":"GL1 1LH","AdditionalData":[{"value":"United Kingdom","key":"CountryName"},{"value":"England","key":"StateName"},{"value":"Gloucestershire","key":"CountyName"}]},"MapReference":{"ReferenceId":"26594934","Spot":0.67,"SideOfStreet":"right","StateId":"20248595","CountyId":"20334235","CityId":"20348533","DistrictId":"20348534"}}},{"Relevance":1.0,"Distance":39.0,"MatchLevel":"houseNumber","MatchQuality":{"Country":1.0,"State":1.0,"County":1.0,"City":1.0,"District":1.0,"Street":[1.0],"HouseNumber":1.0,"PostalCode":1.0},"MatchType":"interpolated","Location":{"LocationId":"NT_m1bqVDb0vvVRzQ4Fb31paD_l_26594890_L_ycD","LocationType":"point","DisplayPosition":{"Latitude":51.86139,"Longitude":-2.2446476},"MapView":{"TopLeft":{"Latitude":51.8625142,"Longitude":-2.2464679},"BottomRight":{"Latitude":51.8602659,"Longitude":-2.2428273}},"Address":{"Label":"27 St Michael's Square, Gloucester, GL1 1HX, United Kingdom","Country":"GBR","State":"England","County":"Gloucestershire","City":"Gloucester","District":"Gloucester","Street":"St Michael's Square","HouseNumber":"27","PostalCode":"GL1 1HX","AdditionalData":[{"value":"United Kingdom","key":"CountryName"},{"value":"England","key":"StateName"},{"value":"Gloucestershire","key":"CountyName"}]},"MapReference":{"ReferenceId":"26594890","Spot":0.38,"SideOfStreet":"left","StateId":"20248595","CountyId":"20334235","CityId":"20348533","DistrictId":"20348534"}}},{"Relevance":1.0,"Distance":50.0,"MatchLevel":"postalCode","MatchQuality":{"PostalCode":1.0},"Location":{"LocationId":"NT_MpuSwKEMSilrWF9A1pGr0C_l_792904325_R","LocationType":"point","DisplayPosition":{"Latitude":51.86063,"Longitude":-2.24549},"MapView":{"TopLeft":{"Latitude":51.8696232,"Longitude":-2.2600521},"BottomRight":{"Latitude":51.8516368,"Longitude":-2.2309279}},"Address":{"Label":"GL1 1LT, Gloucester, England, United Kingdom","Country":"GBR","State":"England","County":"Gloucestershire","City":"Gloucester","PostalCode":"GL1 1LT","AdditionalData":[{"value":"United Kingdom","key":"CountryName"},{"value":"England","key":"StateName"},{"value":"Gloucestershire","key":"CountyName"}]},"MapReference":{"ReferenceId":"792904325","Spot":0.0,"SideOfStreet":"neither","StateId":"20248595","CountyId":"20334235","CityId":"20348533"}}},{"Relevance":1.0,"Distance":51.9,"MatchLevel":"postalCode","MatchQuality":{"PostalCode":1.0},"MatchType":"interpolated","Location":{"LocationId":"NT_QznVJksiSEYITydBhrLcZA_l_26594927_L_xAD","LocationType":"point","DisplayPosition":{"Latitude":51.8611,"Longitude":-2.24571},"MapView":{"TopLeft":{"Latitude":51.8700932,"Longitude":-2.2602723},"BottomRight":{"Latitude":51.8521068,"Longitude":-2.2311477}},"Address":{"Label":"GL1 1LQ, Gloucester, England, United Kingdom","Country":"GBR","State":"England","County":"Gloucestershire","City":"Gloucester","PostalCode":"GL1 1LQ","AdditionalData":[{"value":"United Kingdom","key":"CountryName"},{"value":"England","key":"StateName"},{"value":"Gloucestershire","key":"CountyName"}]},"MapReference":{"ReferenceId":"26594927","Spot":0.14,"SideOfStreet":"neither","StateId":"20248595","CountyId":"20334235","CityId":"20348533"}}},{"Relevance":1.0,"Distance":52.9,"MatchLevel":"street","MatchQuality":{"Country":1.0,"State":1.0,"County":1.0,"City":1.0,"District":1.0,"Street":[1.0],"PostalCode":1.0},"Location":{"LocationId":"NT_yq33S3X62crxr7qgw.x.ZD_l_792904322_L","LocationType":"point","DisplayPosition":{"Latitude":51.86054,"Longitude":-2.24536},"MapView":{"TopLeft":{"Latitude":51.86054,"Longitude":-2.24555},"BottomRight":{"Latitude":51.86033,"Longitude":-2.24536}},"Address":{"Label":"Montpellier, Gloucester, GL1 1, United Kingdom","Country":"GBR","State":"England","County":"Gloucestershire","City":"Gloucester","District":"Gloucester","Street":"Montpellier","PostalCode":"GL1 1","AdditionalData":[{"value":"United Kingdom","key":"CountryName"},{"value":"England","key":"StateName"},{"value":"Gloucestershire","key":"CountyName"}]},"MapReference":{"ReferenceId":"792904322","Spot":1.0,"SideOfStreet":"left","StateId":"20248595","CountyId":"20334235","CityId":"20348533","DistrictId":"20348534"}}}]}]}}