{"Response":{"MetaInfo":{"Timestamp":"2020-03-28T12:01:06.147+0000","NextPageInformation":"2"},"View":[{"_type":"SearchResultsViewType","ViewId":0,"Result":[{"Relevance":1.0,"Distance":0.0,"Direction":0.0,"MatchLevel":"district","MatchQuality":{"Country":1.0,"State":1.0,"County":1.0,"City":1.0,"District":1.0,"PostalCode":1.0},"Location":{"LocationId":"NT_njoDv1z4IhdMy2UeWhAOhC","LocationType":"point","DisplayPosition":{"Latitude":51.8267481,"Longitude":1.1419591},"MapView":{"TopLeft":{"Latitude":51.83143,"Longitude":1.13014},"BottomRight":{"Latitude":51.81992,"Longitude":1.15505}},"Address":{"Label":"Little Clacton, Clacton-on-Sea, England, United Kingdom","Country":"GBR","State":"England","County":"Essex","City":"Clacton-on-Sea","District":"Little Clacton","PostalCode":"CO16 9","AdditionalData":[{"value":"United Kingdom","key":"CountryName"},{"value":"England","key":"StateName"},{"value":"Essex","key":"CountyName"}]},"MapReference":{"ReferenceId":"865184071","SideOfStreet":"neither","StateId":"20248595","CountyId":"20335385","CityId":"20335510","DistrictId":"20335516"}}},{"Relevance":1.0,"Distance":8.4,"MatchLevel":"houseNumber","MatchQuality":{"Country":1.0,"State":1.0,"County":1.0,"City":1.0,"District":1.0,"Street":[1.0],"HouseNumber":1.0,"PostalCode":1.0},"MatchType":"interpolated","Location":{"LocationId":"NT_FcJi.ey4wUAvdZuXUWHKOD_l_865184070_L_zED","LocationType":"point","DisplayPosition":{"Latitude":51.8268795,"Longitude":1.1422133},"MapView":{"TopLeft":{"Latitude":51.8280037,"Longitude":1.1403944},"BottomRight":{"Latitude":51.8257554,"Longitude":1.1440322}},"Address":{"Label":"31 The Street, Clacton-on-Sea, CO16 9LQ, United Kingdom","Country":"GBR","State":"England","County":"Essex","City":"Clacton-on-Sea","District":"Little Clacton","Street":"The Street","HouseNumber":"31","PostalCode":"CO16 9LQ","AdditionalData":[{"value":"United Kingdom","key":"CountryName"},{"value":"England","key":"StateName"},{"value":"Essex","key":"CountyName"}]},"MapReference":{"ReferenceId":"865184070","Spot":0.43,"SideOfStreet":"left","StateId":"20248595","CountyId":"20335385","CityId":"20335510","DistrictId":"20335516"}}},{"Relevance":1.0,"Distance":52.4,"MatchLevel":"street","MatchQuality":{"Country":1.0,"State":1.0,"County":1.0,"City":1.0,"District":1.0,"Street":[1.0],"PostalCode":1.0},"Location":{"LocationId":"NT_yqosYA9.IICLQVWqq7hv6D_l_767042024_R","LocationType":"point","DisplayPosition":{"Latitude":51.82656,"Longitude":1.14126},"MapView":{"TopLeft":{"Latitude":51.82697,"Longitude":1.14055},"BottomRight":{"Latitude":51.82647,"Longitude":1.14126}},"Address":{"Label":"Green Lawns Park, Clacton-on-Sea, CO16 9, United Kingdom","Country":"GBR","State":"England","County":"Essex","City":"Clacton-on-Sea","District":"Little Clacton","Street":"Green Lawns Park","PostalCode":"CO16 9","AdditionalData":[{"value":"United Kingdom","key":"CountryName"},{"value":"England","key":"StateName"},{"value":"Essex","key":"CountyName"}]},"MapReference":{"ReferenceId":"767042024","Spot":0.61,"SideOfStreet":"right","StateId":"20248595","CountyId":"20335385","CityId":"20335510","DistrictId":"20335516"}}},{"Relevance":1.0,"Distance":52.7,"MatchLevel":"houseNumber","MatchQuality":{"Country":1.0,"State":1.0,"County":1.0,"City":1.0,"District":1.0,"Street":[1.0],"HouseNumber":1.0,"PostalCode":1.0},"MatchType":"interpolated","Location":{"LocationId":"NT_FcJi.ey4wUAvdZuXUWHKOD_l_781673596_R_xgD","LocationType":"point","DisplayPosition":{"Latitude":51.8264152,"Longitude":1.1425049},"MapView":{"TopLeft":{"Latitude":51.8275393,"Longitude":1.140686},"BottomRight":{"Latitude":51.825291,"Longitude":1.1443238}},"Address":{"Label":"18 The Street, Clacton-on-Sea, CO16 9LQ, United Kingdom","Country":"GBR","State":"England","County":"Essex","City":"Clacton-on-Sea","District":"Little Clacton","Street":"The Street","HouseNumber":"18","PostalCode":"CO16 9LQ","AdditionalData":[{"value":"United Kingdom","key":"CountryName"},{"value":"England","key":"StateName"},{"value":"Essex","key":"CountyName"}]},"MapReference":{"ReferenceId":"781673596","Spot":0.7,"SideOfStreet":"right","StateId":"20248595","CountyId":"20335385","CityId":"20335510","DistrictId":"20335516"}}},{"Relevance":1.0,"Distance":54.4,"MatchLevel":"postalCode","MatchQuality":{"PostalCode":1.0},"MatchType":"interpolated","Location":{"LocationId":"NT_FcJi.ey4wUAvdZuXUWHKOD_l_781673596_R_xgD","LocationType":"point","DisplayPosition":{"Latitude":51.82643,"Longitude":1.14256},"MapView":{"TopLeft":{"Latitude":51.8354232,"Longitude":1.1280089},"BottomRight":{"Latitude":51.8174368,"Longitude":1.1571111}},"Address":{"Label":"CO16 9LQ, Clacton-on-Sea, England, United Kingdom","Country":"GBR","State":"England","County":"Essex","City":"Clacton-on-Sea","PostalCode":"CO16 9LQ","AdditionalData":[{"value":"United Kingdom","key":"CountryName"},{"value":"England","key":"StateName"},{"value":"Essex","key":"CountyName"}]},"MapReference":{"ReferenceId":"781673596","Spot":0.7,"SideOfStreet":"neither","StateId":"20248595","CountyId":"20335385","CityId":"20335510"}}},{"Relevance":1.0,"Distance":56.9,"MatchLevel":"street","MatchQuality":{"Country":1.0,"State":1.0,"County":1.0,"City":1.0,"District":1.0,"Street":[1.0],"PostalCode":1.0},"Location":{"LocationId":"NT_FcJi.ey4wUAvdZuXUWHKOD_l_865184072_L","LocationType":"point","DisplayPosition":{"Latitude":51.82726,"Longitude":1.14195},"MapView":{"TopLeft":{"Latitude":51.82793,"Longitude":1.14005},"BottomRight":{"Latitude":51.82726,"Longitude":1.14195}},"Address":{"Label":"The Street, Clacton-on-Sea, CO16 9, United Kingdom","Country":"GBR","State":"England","County":"Essex","City":"Clacton-on-Sea","District":"Little Clacton","Street":"The Street","PostalCode":"CO16 9","AdditionalData":[{"value":"United Kingdom","key":"CountryName"},{"value":"England","key":"StateName"},{"value":"Essex","key":"CountyName"}]},"MapReference":{"ReferenceId":"865184072","Spot":0.0,"SideOfStreet":"left","StateId":"20248595","CountyId":"20335385","CityId":"20335510","DistrictId":"20335516"}}},{"Relevance":1.0,"Distance":68.5,"MatchLevel":"street","MatchQuality":{"Country":1.0,"State":1.0,"County":1.0,"City":1.0,"District":1.0,"Street":[1.0],"PostalCode":1.0},"Location":{"LocationId":"NT_yqosYA9.IICLQVWqq7hv6D_l_767042025_R","LocationType":"point","DisplayPosition":{"Latitude":51.82697,"Longitude":1.14103},"MapView":{"TopLeft":{"Latitude":51.82697,"Longitude":1.14042},"BottomRight":{"Latitude":51.82685,"Longitude":1.14103}},"Address":{"Label":"Green Lawns Park, Clacton-on-Sea, CO16 9, United Kingdom","Country":"GBR","State":"England","County":"Essex","City":"Clacton-on-Sea","District":"Little Clacton","Street":"Green Lawns Park","PostalCode":"CO16 9","AdditionalData":[{"value":"United Kingdom","key":"CountryName"},{"value":"England","key":"StateName"},{"value":"Essex","key":"CountyName"}]},"MapReference":{"ReferenceId":"767042025","Spot":1.0,"SideOfStreet":"right","StateId":"20248595","CountyId":"20335385","CityId":"20335510","DistrictId":"20335516"}}},{"Relevance":1.0,"Distance":69.8,"MatchLevel":"postalCode","MatchQuality":{"PostalCode":1.0},"MatchType":"interpolated","Location":{"LocationId":"NT_FcJi.ey4wUAvdZuXUWHKOD_l_865184070_L_zED","LocationType":"point","DisplayPosition":{"Latitude":51.82734,"Longitude":1.14162},"MapView":{"TopLeft":{"Latitude":51.8363332,"Longitude":1.1270687},"BottomRight":{"Latitude":51.8183468,"Longitude":1.1561713}},"Address":{"Label":"CO16 9LD, Clacton-on-Sea, England, United Kingdom","Country":"GBR","State":"England","County":"Essex","City":"Clacton-on-Sea","PostalCode":"CO16 9LD","AdditionalData":[{"value":"United Kingdom","key":"CountryName"},{"value":"England","key":"StateName"},{"value":"Essex","key":"CountyName"}]},"MapReference":{"ReferenceId":"865184070","Spot":0.43,"SideOfStreet":"neither","StateId":"20248595","CountyId":"20335385","CityId":"20335510"}}},{"Relevance":1.0,"Distance":95.9,"MatchLevel":"houseNumber","MatchQuality":{"Country":1.0,"State":1.0,"County":1.0,"City":1.0,"District":1.0,"Street":[1.0],"HouseNumber":1.0,"PostalCode":1.0},"MatchType":"interpolated","Location":{"LocationId":"NT_FcJi.ey4wUAvdZuXUWHKOD_l_25896912_L_xUD","LocationType":"point","DisplayPosition":{"Latitude":51.8258094,"Longitude":1.1424973},"MapView":{"TopLeft":{"Latitude":51.8269336,"Longitude":1.1406785},"BottomRight":{"Latitude":51.8246853,"Longitude":1.1443162}},"Address":{"Label":"15 The Street, Clacton-on-Sea, CO16 9, United Kingdom","Country":"GBR","State":"England","County":"Essex","City":"Clacton-on-Sea","District":"Little Clacton","Street":"The Street","HouseNumber":"15","PostalCode":"CO16 9","AdditionalData":[{"value":"United Kingdom","key":"CountryName"},{"value":"England","key":"StateName"},{"value":"Essex","key":"CountyName"}]},"MapReference":{"ReferenceId":"25896912","Spot":0.63,"SideOfStreet":"left","StateId":"20248595","CountyId":"20335385","CityId":"20335510","DistrictId":"20335516"}}},{"Relevance":1.0,"Distance":101.7,"MatchLevel":"houseNumber","MatchQuality":{"Country":1.0,"State":1.0,"County":1.0,"City":1.0,"District":1.0,"Street":[1.0],"HouseNumber":1.0,"PostalCode":1.0},"MatchType":"interpolated","Location":{"LocationId":"NT_FcJi.ey4wUAvdZuXUWHKOD_l_1007144273_R_0A","LocationType":"point","DisplayPosition":{"Latitude":51.8259114,"Longitude":1.1426672},"MapView":{"TopLeft":{"Latitude":51.8270356,"Longitude":1.1408483},"BottomRight":{"Latitude":51.8247873,"Longitude":1.144486}},"Address":{"Label":"4 The Street, Clacton-on-Sea, CO16 9LQ, United Kingdom","Country":"GBR","State":"England","County":"Essex","City":"Clacton-on-Sea","District":"Little Clacton","Street":"The Street","HouseNumber":"4","PostalCode":"CO16 9LQ","AdditionalData":[{"value":"United Kingdom","key":"CountryName"},{"value":"England","key":"StateName"},{"value":"Essex","key":"CountyName"}]},"MapReference":{"ReferenceId":"1007144273","Spot":0.5,"SideOfStreet":"right","StateId":"20248595","CountyId":"20335385","CityId":"20335510","DistrictId":"20335516"}}}]}]}}