{"Response":{"MetaInfo":{"Timestamp":"2020-03-28T10:41:12.740+0000","NextPageInformation":"2"},"View":[{"_type":"SearchResultsViewType","ViewId":0,"Result":[{"Relevance":1.0,"Distance":-3.4,"MatchLevel":"landmark","MatchQuality":{"Country":1.0,"State":1.0,"County":1.0,"City":1.0,"District":1.0,"PostalCode":1.0,"Name":1.0},"Location":{"LocationId":"NT_nsPXJrPHDDguMzb7N-DVnA","LocationType":"industrialComplex","Name":"Gibbs Industrial Estate","DisplayPosition":{"Latitude":51.90745,"Longitude":-1.15072},"MapView":{"TopLeft":{"Latitude":51.9081,"Longitude":-1.15141},"BottomRight":{"Latitude":51.90679,"Longitude":-1.14981}},"Address":{"Label":"Bicester, OX26 6, United Kingdom","Country":"GBR","State":"England","County":"Oxfordshire","City":"Bicester","District":"Bicester","PostalCode":"OX26 6","AdditionalData":[{"value":"United Kingdom","key":"CountryName"},{"value":"England","key":"StateName"},{"value":"Oxfordshire","key":"CountyName"}]},"MapReference":{"StateId":"20248595","CountyId":"20337811","CityId":"20337930","DistrictId":"20337931","PlaceId":"1407322367"}}},{"Relevance":1.0,"Distance":0.0,"Direction":0.0,"MatchLevel":"district","MatchQuality":{"Country":1.0,"State":1.0,"County":1.0,"City":1.0,"District":1.0,"PostalCode":1.0},"Location":{"LocationId":"NT_l8mwQHISUxydwRbsUGof4B","LocationType":"point","DisplayPosition":{"Latitude":51.9080218,"Longitude":-1.1506382},"MapView":{"TopLeft":{"Latitude":51.92429,"Longitude":-1.18332},"BottomRight":{"Latitude":51.87029,"Longitude":-1.12654}},"Address":{"Label":"Bicester, England, United Kingdom","Country":"GBR","State":"England","County":"Oxfordshire","City":"Bicester","District":"Bicester","PostalCode":"OX26 6","AdditionalData":[{"value":"United Kingdom","key":"CountryName"},{"value":"England","key":"StateName"},{"value":"Oxfordshire","key":"CountyName"}]},"MapReference":{"ReferenceId":"25878479","SideOfStreet":"neither","StateId":"20248595","CountyId":"20337811","CityId":"20337930","DistrictId":"20337931"}}},{"Relevance":1.0,"Distance":24.7,"MatchLevel":"postalCode","MatchQuality":{"PostalCode":1.0},"MatchType":"interpolated","Location":{"LocationId":"NT_bcaoUIV.EL7a1r678508zA_l_802526389_R_yMjM","LocationType":"point","DisplayPosition":{"Latitude":51.9078,"Longitude":-1.15065},"MapView":{"TopLeft":{"Latitude":51.9167932,"Longitude":-1.1652274},"BottomRight":{"Latitude":51.8988068,"Longitude":-1.1360726}},"Address":{"Label":"OX26 3EU, Bicester, England, United Kingdom","Country":"GBR","State":"England","County":"Oxfordshire","City":"Bicester","PostalCode":"OX26 3EU","AdditionalData":[{"value":"United Kingdom","key":"CountryName"},{"value":"England","key":"StateName"},{"value":"Oxfordshire","key":"CountyName"}]},"MapReference":{"ReferenceId":"802526389","Spot":0.54,"SideOfStreet":"neither","StateId":"20248595","CountyId":"20337811","CityId":"20337930"}}},{"Relevance":1.0,"Distance":25.8,"MatchLevel":"street","MatchQuality":{"Country":1.0,"State":1.0,"County":1.0,"City":1.0,"District":1.0,"PostalCode":1.0},"Location":{"LocationId":"NT_ykMgGocyrqGNELm2RMzdGC_l_802526376_R","LocationType":"point","DisplayPosition":{"Latitude":51.90788,"Longitude":-1.15034},"MapView":{"TopLeft":{"Latitude":51.90788,"Longitude":-1.15034},"BottomRight":{"Latitude":51.90783,"Longitude":-1.15017}},"Address":{"Label":"Bicester, OX26 3, United Kingdom","Country":"GBR","State":"England","County":"Oxfordshire","City":"Bicester","District":"Bicester","PostalCode":"OX26 3","AdditionalData":[{"value":"United Kingdom","key":"CountryName"},{"value":"England","key":"StateName"},{"value":"Oxfordshire","key":"CountyName"}]},"MapReference":{"ReferenceId":"802526376","Spot":1.0,"SideOfStreet":"right","StateId":"20248595","CountyId":"20337811","CityId":"20337930","DistrictId":"20337931"}}},{"Relevance":1.0,"Distance":29.2,"MatchLevel":"street","MatchQuality":{"Country":1.0,"State":1.0,"County":1.0,"City":1.0,"District":1.0,"PostalCode":1.0},"Location":{"LocationId":"NT_ykMgGocyrqGNELm2RMzdGC_l_802526386_R","LocationType":"point","DisplayPosition":{"Latitude":51.9077628,"Longitude":-1.1507081},"MapView":{"TopLeft":{"Latitude":51.90782,"Longitude":-1.15092},"BottomRight":{"Latitude":51.90765,"Longitude":-1.15029}},"Address":{"Label":"Bicester, OX26 3, United Kingdom","Country":"GBR","State":"England","County":"Oxfordshire","City":"Bicester","District":"Bicester","PostalCode":"OX26 3","AdditionalData":[{"value":"United Kingdom","key":"CountryName"},{"value":"England","key":"StateName"},{"value":"Oxfordshire","key":"CountyName"}]},"MapReference":{"ReferenceId":"802526386","Spot":0.66,"SideOfStreet":"right","StateId":"20248595","CountyId":"20337811","CityId":"20337930","DistrictId":"20337931"}}},{"Relevance":1.0,"Distance":33.6,"MatchLevel":"houseNumber","MatchQuality":{"Country":1.0,"State":1.0,"County":1.0,"City":1.0,"District":1.0,"Street":[1.0],"HouseNumber":1.0,"PostalCode":1.0},"MatchType":"interpolated","Location":{"LocationId":"NT_ke87g6riJxFnHDAuz-W4EA_l_25877944_L_1A","LocationType":"point","DisplayPosition":{"Latitude":51.908457,"Longitude":-1.1506176},"MapView":{"TopLeft":{"Latitude":51.9095812,"Longitude":-1.1524398},"BottomRight":{"Latitude":51.9073329,"Longitude":-1.1487954}},"Address":{"Label":"5 Brashfield Road, Bicester, OX26 3HF, United Kingdom","Country":"GBR","State":"England","County":"Oxfordshire","City":"Bicester","District":"Bicester","Street":"Brashfield Road","HouseNumber":"5","PostalCode":"OX26 3HF","AdditionalData":[{"value":"United Kingdom","key":"CountryName"},{"value":"England","key":"StateName"},{"value":"Oxfordshire","key":"CountyName"}]},"MapReference":{"ReferenceId":"25877944","Spot":0.62,"SideOfStreet":"left","StateId":"20248595","CountyId":"20337811","CityId":"20337930","DistrictId":"20337931"}}},{"Relevance":1.0,"Distance":38.6,"MatchLevel":"street","MatchQuality":{"Country":1.0,"State":1.0,"County":1.0,"City":1.0,"District":1.0,"PostalCode":1.0},"Location":{"LocationId":"NT_F8f7jSDb5EyyGPZ0gTeS4C_l_802526378_R","LocationType":"point","DisplayPosition":{"Latitude":51.90783,"Longitude":-1.15017},"MapView":{"TopLeft":{"Latitude":51.90783,"Longitude":-1.15017},"BottomRight":{"Latitude":51.90777,"Longitude":-1.14987}},"Address":{"Label":"Bicester, OX26 4, United Kingdom","Country":"GBR","State":"England","County":"Oxfordshire","City":"Bicester","District":"Bicester","PostalCode":"OX26 4","AdditionalData":[{"value":"United Kingdom","key":"CountryName"},{"value":"England","key":"StateName"},{"value":"Oxfordshire","key":"CountyName"}]},"MapReference":{"ReferenceId":"802526378","Spot":1.0,"SideOfStreet":"right","StateId":"20248595","CountyId":"20337811","CityId":"20337930","DistrictId":"20337931"}}},{"Relevance":1.0,"Distance":40.3,"MatchLevel":"street","MatchQuality":{"Country":1.0,"State":1.0,"County":1.0,"City":1.0,"District":1.0,"PostalCode":1.0},"Location":{"LocationId":"NT_ykMgGocyrqGNELm2RMzdGC_l_802526377_L","LocationType":"point","DisplayPosition":{"Latitude":51.9077832,"Longitude":-1.1501952},"MapView":{"TopLeft":{"Latitude":51.90783,"Longitude":-1.15024},"BottomRight":{"Latitude":51.9077,"Longitude":-1.15017}},"Address":{"Label":"Bicester, OX26 3, United Kingdom","Country":"GBR","State":"England","County":"Oxfordshire","City":"Bicester","District":"Bicester","PostalCode":"OX26 3","AdditionalData":[{"value":"United Kingdom","key":"CountryName"},{"value":"England","key":"StateName"},{"value":"Oxfordshire","key":"CountyName"}]},"MapReference":{"ReferenceId":"802526377","Spot":0.64,"SideOfStreet":"left","StateId":"20248595","CountyId":"20337811","CityId":"20337930","DistrictId":"20337931"}}},{"Relevance":1.0,"Distance":44.0,"MatchLevel":"houseNumber","MatchQuality":{"Country":1.0,"State":1.0,"County":1.0,"City":1.0,"District":1.0,"Street":[1.0],"HouseNumber":1.0,"PostalCode":1.0},"MatchType":"interpolated","Location":{"LocationId":"NT_eYy8JQJVTNx8UQSbjq2MTD_l_25878003_R_1A","LocationType":"point","DisplayPosition":{"Latitude":51.9081999,"Longitude":-1.1514365},"MapView":{"TopLeft":{"Latitude":51.9093241,"Longitude":-1.1532587},"BottomRight":{"Latitude":51.9070758,"Longitude":-1.1496143}},"Address":{"Label":"5 Blake Road, Bicester, OX26 3HG, United Kingdom","Country":"GBR","State":"England","County":"Oxfordshire","City":"Bicester","District":"Bicester","Street":"Blake Road","HouseNumber":"5","PostalCode":"OX26 3HG","AdditionalData":[{"value":"United Kingdom","key":"CountryName"},{"value":"England","key":"StateName"},{"value":"Oxfordshire","key":"CountyName"}]},"MapReference":{"ReferenceId":"25878003","Spot":0.79,"SideOfStreet":"right","StateId":"20248595","CountyId":"20337811","CityId":"20337930","DistrictId":"20337931"}}},{"Relevance":1.0,"Distance":47.7,"MatchLevel":"street","MatchQuality":{"Country":1.0,"State":1.0,"County":1.0,"City":1.0,"District":1.0,"PostalCode":1.0},"Location":{"LocationId":"NT_ykMgGocyrqGNELm2RMzdGC_l_802526387_L","LocationType":"point","DisplayPosition":{"Latitude":51.90765,"Longitude":-1.15029},"MapView":{"TopLeft":{"Latitude":51.90765,"Longitude":-1.15041},"BottomRight":{"Latitude":51.90744,"Longitude":-1.15029}},"Address":{"Label":"Bicester, OX26 3, United Kingdom","Country":"GBR","State":"England","County":"Oxfordshire","City":"Bicester","District":"Bicester","PostalCode":"OX26 3","AdditionalData":[{"value":"United Kingdom","key":"CountryName"},{"value":"England","key":"StateName"},{"value":"Oxfordshire","key":"CountyName"}]},"MapReference":{"ReferenceId":"802526387","Spot":1.0,"SideOfStreet":"left","StateId":"20248595","CountyId":"20337811","CityId":"20337930","DistrictId":"20337931"}}}]}]}}