{"Response":{"MetaInfo":{"Timestamp":"2020-03-28T10:45:09.872+0000","NextPageInformation":"2"},"View":[{"_type":"SearchResultsViewType","ViewId":0,"Result":[{"Relevance":1.0,"Distance":0.0,"Direction":0.0,"MatchLevel":"city","MatchQuality":{"Country":1.0,"State":1.0,"County":1.0,"City":1.0,"PostalCode":1.0},"Location":{"LocationId":"NT_QM-PlM962Iw296avl7OuYA","LocationType":"point","DisplayPosition":{"Latitude":51.9964354,"Longitude":4.2084538},"MapView":{"TopLeft":{"Latitude":52.00559,"Longitude":4.19358},"BottomRight":{"Latitude":51.98488,"Longitude":4.2228}},"Address":{"Label":"Naaldwijk, Zuid-Holland, Nederland","Country":"NLD","State":"Zuid-Holland","County":"Westland","City":"Naaldwijk","PostalCode":"2671 JJ","AdditionalData":[{"value":"Nederland","key":"CountryName"},{"value":"Zuid-Holland","key":"StateName"},{"value":"Westland","key":"CountyName"}]},"MapReference":{"ReferenceId":"915294852","SideOfStreet":"neither","CountryId":"23055544","StateId":"23055596","CountyId":"20503520","CityId":"20503550"}}},{"Relevance":1.0,"Distance":11.5,"MatchLevel":"houseNumber","MatchQuality":{"Country":1.0,"State":1.0,"County":1.0,"City":1.0,"Street":[1.0],"HouseNumber":1.0,"PostalCode":1.0},"MatchType":"interpolated","Location":{"LocationId":"NT_DiG1jnDztjj.mdBvgicPDD_xME","LocationType":"point","DisplayPosition":{"Latitude":51.99607,"Longitude":4.20826},"MapView":{"TopLeft":{"Latitude":51.9971942,"Longitude":4.2064342},"BottomRight":{"Latitude":51.9949458,"Longitude":4.2100858}},"Address":{"Label":"Verdilaan 1C, 2671 VW Naaldwijk, Nederland","Country":"NLD","State":"Zuid-Holland","County":"Westland","City":"Naaldwijk","Street":"Verdilaan","HouseNumber":"1C","PostalCode":"2671 VW","AdditionalData":[{"value":"Nederland","key":"CountryName"},{"value":"Zuid-Holland","key":"StateName"},{"value":"Westland","key":"CountyName"}]},"MapReference":{"ReferenceId":"916159873","Spot":0.6,"SideOfStreet":"right","CountryId":"23055544","StateId":"23055596","CountyId":"20503520","CityId":"20503550","AddressId":"761873361","RoadLinkId":"273733958"}}},{"Relevance":1.0,"Distance":16.4,"MatchLevel":"houseNumber","MatchQuality":{"Country":1.0,"State":1.0,"County":1.0,"City":1.0,"Street":[1.0],"HouseNumber":1.0,"PostalCode":1.0},"MatchType":"interpolated","Location":{"LocationId":"NT_y0wetOjVTqOvJiaf.3L.xA_1A","LocationType":"point","DisplayPosition":{"Latitude":51.99667,"Longitude":4.20829},"MapView":{"TopLeft":{"Latitude":51.9977942,"Longitude":4.2064642},"BottomRight":{"Latitude":51.9955458,"Longitude":4.2101158}},"Address":{"Label":"Verspycklaan 5, 2671 CR Naaldwijk, Nederland","Country":"NLD","State":"Zuid-Holland","County":"Westland","City":"Naaldwijk","Street":"Verspycklaan","HouseNumber":"5","PostalCode":"2671 CR","AdditionalData":[{"value":"Nederland","key":"CountryName"},{"value":"Zuid-Holland","key":"StateName"},{"value":"Westland","key":"CountyName"}]},"MapReference":{"ReferenceId":"574902964","Spot":0.64,"SideOfStreet":"right","CountryId":"23055544","StateId":"23055596","CountyId":"20503520","CityId":"20503550","AddressId":"614913171","RoadLinkId":"31358885"}}},{"Relevance":1.0,"Distance":39.1,"MatchLevel":"houseNumber","MatchQuality":{"Country":1.0,"State":1.0,"County":1.0,"City":1.0,"Street":[1.0],"HouseNumber":1.0,"PostalCode":1.0},"MatchType":"interpolated","Location":{"LocationId":"NT_y0wetOjVTqOvJiaf.3L.xA_5A","LocationType":"point","DisplayPosition":{"Latitude":51.99683,"Longitude":4.2086},"MapView":{"TopLeft":{"Latitude":51.9979542,"Longitude":4.2067742},"BottomRight":{"Latitude":51.9957058,"Longitude":4.2104258}},"Address":{"Label":"Verspycklaan 9, 2671 CR Naaldwijk, Nederland","Country":"NLD","State":"Zuid-Holland","County":"Westland","City":"Naaldwijk","Street":"Verspycklaan","HouseNumber":"9","PostalCode":"2671 CR","AdditionalData":[{"value":"Nederland","key":"CountryName"},{"value":"Zuid-Holland","key":"StateName"},{"value":"Westland","key":"CountyName"}]},"MapReference":{"ReferenceId":"574902965","Spot":0.38,"SideOfStreet":"right","CountryId":"23055544","StateId":"23055596","CountyId":"20503520","CityId":"20503550","AddressId":"614913204","RoadLinkId":"32115511"}}},{"Relevance":1.0,"Distance":39.7,"MatchLevel":"street","MatchQuality":{"Country":1.0,"State":1.0,"County":1.0,"City":1.0,"Street":[1.0],"PostalCode":1.0},"Location":{"LocationId":"NT_Oclrkz0REFkec.e9yqmVAD_l_574902966_L","LocationType":"point","DisplayPosition":{"Latitude":51.99679,"Longitude":4.20852},"MapView":{"TopLeft":{"Latitude":51.99705,"Longitude":4.20833},"BottomRight":{"Latitude":51.99679,"Longitude":4.20852}},"Address":{"Label":"Verspycklaan, 2671 Naaldwijk, Nederland","Country":"NLD","State":"Zuid-Holland","County":"Westland","City":"Naaldwijk","Street":"Verspycklaan","PostalCode":"2671","AdditionalData":[{"value":"Nederland","key":"CountryName"},{"value":"Zuid-Holland","key":"StateName"},{"value":"Westland","key":"CountyName"}]},"MapReference":{"ReferenceId":"574902966","Spot":0.0,"SideOfStreet":"left","CountryId":"23055544","StateId":"23055596","CountyId":"20503520","CityId":"20503550"}}},{"Relevance":1.0,"Distance":46.3,"MatchLevel":"houseNumber","MatchQuality":{"Country":1.0,"State":1.0,"County":1.0,"City":1.0,"Street":[1.0],"HouseNumber":1.0,"PostalCode":1.0},"MatchType":"interpolated","Location":{"LocationId":"NT_y0wetOjVTqOvJiaf.3L.xA_xA","LocationType":"point","DisplayPosition":{"Latitude":51.99684,"Longitude":4.20787},"MapView":{"TopLeft":{"Latitude":51.9979642,"Longitude":4.2060442},"BottomRight":{"Latitude":51.9957158,"Longitude":4.2096958}},"Address":{"Label":"Verspycklaan 1, 2671 CR Naaldwijk, Nederland","Country":"NLD","State":"Zuid-Holland","County":"Westland","City":"Naaldwijk","Street":"Verspycklaan","HouseNumber":"1","PostalCode":"2671 CR","AdditionalData":[{"value":"Nederland","key":"CountryName"},{"value":"Zuid-Holland","key":"StateName"},{"value":"Westland","key":"CountyName"}]},"MapReference":{"ReferenceId":"574902960","Spot":0.34,"SideOfStreet":"right","CountryId":"23055544","StateId":"23055596","CountyId":"20503520","CityId":"20503550","AddressId":"614913180","RoadLinkId":"31519953"}}},{"Relevance":1.0,"Distance":47.8,"MatchLevel":"street","MatchQuality":{"Country":1.0,"State":1.0,"County":1.0,"City":1.0,"Street":[1.0],"PostalCode":1.0},"Location":{"LocationId":"NT_atF8.YzAET2gTUzfpLQ22A_l_54354184_R","LocationType":"point","DisplayPosition":{"Latitude":51.99619,"Longitude":4.20788},"MapView":{"TopLeft":{"Latitude":51.99619,"Longitude":4.20763},"BottomRight":{"Latitude":51.996,"Longitude":4.20788}},"Address":{"Label":"Kleine Woerdlaan, 2671 Naaldwijk, Nederland","Country":"NLD","State":"Zuid-Holland","County":"Westland","City":"Naaldwijk","Street":"Kleine Woerdlaan","PostalCode":"2671","AdditionalData":[{"value":"Nederland","key":"CountryName"},{"value":"Zuid-Holland","key":"StateName"},{"value":"Westland","key":"CountyName"}]},"MapReference":{"ReferenceId":"54354184","Spot":1.0,"SideOfStreet":"right","CountryId":"23055544","StateId":"23055596","CountyId":"20503520","CityId":"20503550"}}},{"Relevance":1.0,"Distance":47.8,"MatchLevel":"street","MatchQuality":{"Country":1.0,"State":1.0,"County":1.0,"City":1.0,"Street":[1.0],"PostalCode":1.0},"Location":{"LocationId":"NT_atF8.YzAET2gTUzfpLQ22A_l_916159845_R","LocationType":"point","DisplayPosition":{"Latitude":51.99619,"Longitude":4.20788},"MapView":{"TopLeft":{"Latitude":51.99637,"Longitude":4.20759},"BottomRight":{"Latitude":51.99619,"Longitude":4.20788}},"Address":{"Label":"Kleine Woerdlaan, 2671 Naaldwijk, Nederland","Country":"NLD","State":"Zuid-Holland","County":"Westland","City":"Naaldwijk","Street":"Kleine Woerdlaan","PostalCode":"2671","AdditionalData":[{"value":"Nederland","key":"CountryName"},{"value":"Zuid-Holland","key":"StateName"},{"value":"Westland","key":"CountyName"}]},"MapReference":{"ReferenceId":"916159845","Spot":0.0,"SideOfStreet":"right","CountryId":"23055544","StateId":"23055596","CountyId":"20503520","CityId":"20503550"}}},{"Relevance":1.0,"Distance":59.6,"MatchLevel":"street","MatchQuality":{"Country":1.0,"State":1.0,"County":1.0,"City":1.0,"Street":[1.0],"PostalCode":1.0},"Location":{"LocationId":"NT_atF8.YzAET2gTUzfpLQ22A_l_916159846_R","LocationType":"point","DisplayPosition":{"Latitude":51.99637,"Longitude":4.20759},"MapView":{"TopLeft":{"Latitude":51.99647,"Longitude":4.2075},"BottomRight":{"Latitude":51.99637,"Longitude":4.20759}},"Address":{"Label":"Kleine Woerdlaan, 2671 Naaldwijk, Nederland","Country":"NLD","State":"Zuid-Holland","County":"Westland","City":"Naaldwijk","Street":"Kleine Woerdlaan","PostalCode":"2671","AdditionalData":[{"value":"Nederland","key":"CountryName"},{"value":"Zuid-Holland","key":"StateName"},{"value":"Westland","key":"CountyName"}]},"MapReference":{"ReferenceId":"916159846","Spot":0.0,"SideOfStreet":"right","CountryId":"23055544","StateId":"23055596","CountyId":"20503520","CityId":"20503550"}}},{"Relevance":1.0,"Distance":61.4,"MatchLevel":"street","MatchQuality":{"Country":1.0,"State":1.0,"County":1.0,"City":1.0,"PostalCode":1.0},"Location":{"LocationId":"NT_ktljrZTv1fQmVPvtcacAfC_l_68377640_R","LocationType":"point","DisplayPosition":{"Latitude":51.99656,"Longitude":4.20758},"MapView":{"TopLeft":{"Latitude":51.99665,"Longitude":4.20753},"BottomRight":{"Latitude":51.99656,"Longitude":4.20758}},"Address":{"Label":"2671 Naaldwijk, Nederland","Country":"NLD","State":"Zuid-Holland","County":"Westland","City":"Naaldwijk","PostalCode":"2671","AdditionalData":[{"value":"Nederland","key":"CountryName"},{"value":"Zuid-Holland","key":"StateName"},{"value":"Westland","key":"CountyName"}]},"MapReference":{"ReferenceId":"68377640","Spot":0.0,"SideOfStreet":"right","CountryId":"23055544","StateId":"23055596","CountyId":"20503520","CityId":"20503550"}}}]}]}}