{"Response":{"MetaInfo":{"Timestamp":"2020-03-28T11:45:29.550+0000","NextPageInformation":"2"},"View":[{"_type":"SearchResultsViewType","ViewId":0,"Result":[{"Relevance":1.0,"Distance":0.0,"Direction":0.0,"MatchLevel":"district","MatchQuality":{"Country":1.0,"State":1.0,"County":1.0,"City":1.0,"District":1.0,"PostalCode":1.0},"Location":{"LocationId":"NT_ZD60fb3FjYnA1moQkzNRAA","LocationType":"point","DisplayPosition":{"Latitude":51.9451175,"Longitude":8.874944},"MapView":{"TopLeft":{"Latitude":51.96354,"Longitude":8.83965},"BottomRight":{"Latitude":51.91939,"Longitude":8.92192}},"Address":{"Label":"Detmold, Nordrhein-Westfalen, Deutschland","Country":"DEU","State":"Nordrhein-Westfalen","County":"Lippe","City":"Detmold","District":"Detmold","PostalCode":"32756","AdditionalData":[{"value":"Deutschland","key":"CountryName"},{"value":"Nordrhein-Westfalen","key":"StateName"},{"value":"Lippe","key":"CountyName"}]},"MapReference":{"ReferenceId":"75335557","SideOfStreet":"neither","CountryId":"20147700","StateId":"20157369","CountyId":"20159808","CityId":"20159839","DistrictId":"20159848"}}},{"Relevance":1.0,"Distance":12.2,"MatchLevel":"houseNumber","MatchQuality":{"Country":1.0,"State":1.0,"County":1.0,"City":1.0,"District":1.0,"Street":[1.0],"HouseNumber":1.0,"PostalCode":1.0},"MatchType":"interpolated","Location":{"LocationId":"NT_ZkTWGoKTVAhR3fIIxz8QbC_zED","LocationType":"point","DisplayPosition":{"Latitude":51.94492,"Longitude":8.8747},"MapView":{"TopLeft":{"Latitude":51.9460442,"Longitude":8.8728763},"BottomRight":{"Latitude":51.9437958,"Longitude":8.8765237}},"Address":{"Label":"Lagesche Straße 31, 32756 Detmold, Deutschland","Country":"DEU","State":"Nordrhein-Westfalen","County":"Lippe","City":"Detmold","District":"Detmold","Street":"Lagesche Straße","HouseNumber":"31","PostalCode":"32756","AdditionalData":[{"value":"Deutschland","key":"CountryName"},{"value":"Nordrhein-Westfalen","key":"StateName"},{"value":"Lippe","key":"CountyName"}]},"MapReference":{"ReferenceId":"61015686","Spot":0.46,"SideOfStreet":"right","CountryId":"20147700","StateId":"20157369","CountyId":"20159808","CityId":"20159839","DistrictId":"20159848","AddressId":"193437141","RoadLinkId":"35328991"}}},{"Relevance":1.0,"Distance":41.4,"MatchLevel":"houseNumber","MatchQuality":{"Country":1.0,"State":1.0,"County":1.0,"City":1.0,"District":1.0,"Street":[1.0],"HouseNumber":1.0,"PostalCode":1.0},"MatchType":"interpolated","Location":{"LocationId":"NT_ZkTWGoKTVAhR3fIIxz8QbC_zUD","LocationType":"point","DisplayPosition":{"Latitude":51.94528,"Longitude":8.8743},"MapView":{"TopLeft":{"Latitude":51.9464042,"Longitude":8.8724763},"BottomRight":{"Latitude":51.9441558,"Longitude":8.8761237}},"Address":{"Label":"Lagesche Straße 35, 32756 Detmold, Deutschland","Country":"DEU","State":"Nordrhein-Westfalen","County":"Lippe","City":"Detmold","District":"Detmold","Street":"Lagesche Straße","HouseNumber":"35","PostalCode":"32756","AdditionalData":[{"value":"Deutschland","key":"CountryName"},{"value":"Nordrhein-Westfalen","key":"StateName"},{"value":"Lippe","key":"CountyName"}]},"MapReference":{"ReferenceId":"61015665","Spot":0.59,"SideOfStreet":"right","CountryId":"20147700","StateId":"20157369","CountyId":"20159808","CityId":"20159839","DistrictId":"20159848","AddressId":"195531799","RoadLinkId":"35321686"}}},{"Relevance":1.0,"Distance":46.6,"MatchLevel":"houseNumber","MatchQuality":{"Country":1.0,"State":1.0,"County":1.0,"City":1.0,"District":1.0,"Street":[1.0],"HouseNumber":1.0,"PostalCode":1.0},"MatchType":"interpolated","Location":{"LocationId":"NT_p2In.chOGVVEfnUI6E84cB_2A","LocationType":"point","DisplayPosition":{"Latitude":51.94531,"Longitude":8.87561},"MapView":{"TopLeft":{"Latitude":51.9464342,"Longitude":8.8737863},"BottomRight":{"Latitude":51.9441858,"Longitude":8.8774337}},"Address":{"Label":"Südholzstraße 6, 32756 Detmold, Deutschland","Country":"DEU","State":"Nordrhein-Westfalen","County":"Lippe","City":"Detmold","District":"Detmold","Street":"Südholzstraße","HouseNumber":"6","PostalCode":"32756","AdditionalData":[{"value":"Deutschland","key":"CountryName"},{"value":"Nordrhein-Westfalen","key":"StateName"},{"value":"Lippe","key":"CountyName"}]},"MapReference":{"ReferenceId":"61015685","Spot":0.74,"SideOfStreet":"left","CountryId":"20147700","StateId":"20157369","CountyId":"20159808","CityId":"20159839","DistrictId":"20159848","AddressId":"196204899","RoadLinkId":"35238316"}}},{"Relevance":1.0,"Distance":56.0,"MatchLevel":"houseNumber","MatchQuality":{"Country":1.0,"State":1.0,"County":1.0,"City":1.0,"District":1.0,"Street":[1.0],"HouseNumber":1.0,"PostalCode":1.0},"MatchType":"interpolated","Location":{"LocationId":"NT_Yh3mo.ykv.5Xm31.1vc7-A_xA","LocationType":"point","DisplayPosition":{"Latitude":51.94566,"Longitude":8.87455},"MapView":{"TopLeft":{"Latitude":51.9467842,"Longitude":8.8727263},"BottomRight":{"Latitude":51.9445358,"Longitude":8.8763737}},"Address":{"Label":"Danziger Straße 1, 32756 Detmold, Deutschland","Country":"DEU","State":"Nordrhein-Westfalen","County":"Lippe","City":"Detmold","District":"Detmold","Street":"Danziger Straße","HouseNumber":"1","PostalCode":"32756","AdditionalData":[{"value":"Deutschland","key":"CountryName"},{"value":"Nordrhein-Westfalen","key":"StateName"},{"value":"Lippe","key":"CountyName"}]},"MapReference":{"ReferenceId":"61015661","Spot":0.18,"SideOfStreet":"right","CountryId":"20147700","StateId":"20157369","CountyId":"20159808","CityId":"20159839","DistrictId":"20159848","AddressId":"192880215","RoadLinkId":"35030584"}}},{"Relevance":1.0,"Distance":70.5,"MatchLevel":"houseNumber","MatchQuality":{"Country":1.0,"State":1.0,"County":1.0,"City":1.0,"District":1.0,"Street":[1.0],"HouseNumber":1.0,"PostalCode":1.0},"MatchType":"interpolated","Location":{"LocationId":"NT_ZkTWGoKTVAhR3fIIxz8QbC_ykD","LocationType":"point","DisplayPosition":{"Latitude":51.9445,"Longitude":8.87518},"MapView":{"TopLeft":{"Latitude":51.9456242,"Longitude":8.8733563},"BottomRight":{"Latitude":51.9433758,"Longitude":8.8770037}},"Address":{"Label":"Lagesche Straße 29, 32756 Detmold, Deutschland","Country":"DEU","State":"Nordrhein-Westfalen","County":"Lippe","City":"Detmold","District":"Detmold","Street":"Lagesche Straße","HouseNumber":"29","PostalCode":"32756","AdditionalData":[{"value":"Deutschland","key":"CountryName"},{"value":"Nordrhein-Westfalen","key":"StateName"},{"value":"Lippe","key":"CountyName"}]},"MapReference":{"ReferenceId":"61015718","Spot":0.73,"SideOfStreet":"right","CountryId":"20147700","StateId":"20157369","CountyId":"20159808","CityId":"20159839","DistrictId":"20159848","AddressId":"195211568","RoadLinkId":"35454919"}}},{"Relevance":1.0,"Distance":80.0,"MatchLevel":"houseNumber","MatchQuality":{"Country":1.0,"State":1.0,"County":1.0,"City":1.0,"District":1.0,"Street":[1.0],"HouseNumber":1.0,"PostalCode":1.0},"MatchType":"interpolated","Location":{"LocationId":"NT_p2In.chOGVVEfnUI6E84cB_4A","LocationType":"point","DisplayPosition":{"Latitude":51.94558,"Longitude":8.87589},"MapView":{"TopLeft":{"Latitude":51.9467042,"Longitude":8.8740663},"BottomRight":{"Latitude":51.9444558,"Longitude":8.8777137}},"Address":{"Label":"Südholzstraße 8, 32756 Detmold, Deutschland","Country":"DEU","State":"Nordrhein-Westfalen","County":"Lippe","City":"Detmold","District":"Detmold","Street":"Südholzstraße","HouseNumber":"8","PostalCode":"32756","AdditionalData":[{"value":"Deutschland","key":"CountryName"},{"value":"Nordrhein-Westfalen","key":"StateName"},{"value":"Lippe","key":"CountyName"}]},"MapReference":{"ReferenceId":"61014205","Spot":0.05,"SideOfStreet":"left","CountryId":"20147700","StateId":"20157369","CountyId":"20159808","CityId":"20159839","DistrictId":"20159848","AddressId":"192526100","RoadLinkId":"34958011"}}},{"Relevance":1.0,"Distance":83.8,"MatchLevel":"houseNumber","MatchQuality":{"Country":1.0,"State":1.0,"County":1.0,"City":1.0,"District":1.0,"Street":[1.0],"HouseNumber":1.0,"PostalCode":1.0},"MatchType":"interpolated","Location":{"LocationId":"NT_dxqKQwdWhXk6okq6Ka4LiC_0A","LocationType":"point","DisplayPosition":{"Latitude":51.94501,"Longitude":8.87371},"MapView":{"TopLeft":{"Latitude":51.9461342,"Longitude":8.8718863},"BottomRight":{"Latitude":51.9438858,"Longitude":8.8755337}},"Address":{"Label":"Hubertusstraße 4, 32756 Detmold, Deutschland","Country":"DEU","State":"Nordrhein-Westfalen","County":"Lippe","City":"Detmold","District":"Detmold","Street":"Hubertusstraße","HouseNumber":"4","PostalCode":"32756","AdditionalData":[{"value":"Deutschland","key":"CountryName"},{"value":"Nordrhein-Westfalen","key":"StateName"},{"value":"Lippe","key":"CountyName"}]},"MapReference":{"ReferenceId":"61015690","Spot":0.69,"SideOfStreet":"right","CountryId":"20147700","StateId":"20157369","CountyId":"20159808","CityId":"20159839","DistrictId":"20159848","AddressId":"192523181","RoadLinkId":"35689033"}}},{"Relevance":1.0,"Distance":84.8,"MatchLevel":"houseNumber","MatchQuality":{"Country":1.0,"State":1.0,"County":1.0,"City":1.0,"District":1.0,"Street":[1.0],"HouseNumber":1.0,"PostalCode":1.0},"MatchType":"interpolated","Location":{"LocationId":"NT_ZkTWGoKTVAhR3fIIxz8QbC_zQD","LocationType":"point","DisplayPosition":{"Latitude":51.94558,"Longitude":8.87396},"MapView":{"TopLeft":{"Latitude":51.9467042,"Longitude":8.8721363},"BottomRight":{"Latitude":51.9444558,"Longitude":8.8757837}},"Address":{"Label":"Lagesche Straße 34, 32756 Detmold, Deutschland","Country":"DEU","State":"Nordrhein-Westfalen","County":"Lippe","City":"Detmold","District":"Detmold","Street":"Lagesche Straße","HouseNumber":"34","PostalCode":"32756","AdditionalData":[{"value":"Deutschland","key":"CountryName"},{"value":"Nordrhein-Westfalen","key":"StateName"},{"value":"Lippe","key":"CountyName"}]},"MapReference":{"ReferenceId":"61015662","Spot":0.57,"SideOfStreet":"left","CountryId":"20147700","StateId":"20157369","CountyId":"20159808","CityId":"20159839","DistrictId":"20159848","AddressId":"193929974","RoadLinkId":"35320603"}}},{"Relevance":1.0,"Distance":98.4,"MatchLevel":"houseNumber","MatchQuality":{"Country":1.0,"State":1.0,"County":1.0,"City":1.0,"District":1.0,"Street":[1.0],"HouseNumber":1.0,"PostalCode":1.0},"MatchType":"interpolated","Location":{"LocationId":"NT_Ov7SHkxyj1ZURenBZ-tdiB_0A","LocationType":"point","DisplayPosition":{"Latitude":51.94461,"Longitude":8.87623},"MapView":{"TopLeft":{"Latitude":51.9457342,"Longitude":8.8744063},"BottomRight":{"Latitude":51.9434858,"Longitude":8.8780537}},"Address":{"Label":"Gustav-Friedrich-Weg 4, 32756 Detmold, Deutschland","Country":"DEU","State":"Nordrhein-Westfalen","County":"Lippe","City":"Detmold","District":"Detmold","Street":"Gustav-Friedrich-Weg","HouseNumber":"4","PostalCode":"32756","AdditionalData":[{"value":"Deutschland","key":"CountryName"},{"value":"Nordrhein-Westfalen","key":"StateName"},{"value":"Lippe","key":"CountyName"}]},"MapReference":{"ReferenceId":"61018206","Spot":0.65,"SideOfStreet":"left","CountryId":"20147700","StateId":"20157369","CountyId":"20159808","CityId":"20159839","DistrictId":"20159848","AddressId":"743386587","RoadLinkId":"460947222"}}}]}]}}