{"Response":{"MetaInfo":{"Timestamp":"2020-03-28T10:43:45.672+0000","NextPageInformation":"2"},"View":[{"_type":"SearchResultsViewType","ViewId":0,"Result":[{"Relevance":1.0,"Distance":0.0,"Direction":0.0,"MatchLevel":"district","MatchQuality":{"Country":1.0,"County":1.0,"City":1.0,"District":1.0,"PostalCode":1.0},"Location":{"LocationId":"NT_cQYCBt81GuFYWXHjHROP7C","LocationType":"point","DisplayPosition":{"Latitude":51.9259201,"Longitude":-8.6086947},"MapView":{"TopLeft":{"Latitude":51.92669,"Longitude":-8.60983},"BottomRight":{"Latitude":51.92453,"Longitude":-8.60626}},"Address":{"Label":"Tower Cross, Cork, Ireland","Country":"IRL","County":"County Cork","City":"Cork","District":"Tower Cross","AdditionalData":[{"value":"Ireland","key":"CountryName"},{"value":"County Cork","key":"CountyName"}]},"MapReference":{"ReferenceId":"559745804","SideOfStreet":"neither","CountryId":"20403667","CountyId":"20411183","CityId":"20426532","DistrictId":"20514169"}}},{"Relevance":1.0,"Distance":11.3,"MatchLevel":"houseNumber","MatchQuality":{"Country":1.0,"County":1.0,"City":1.0,"District":1.0,"Street":[1.0],"HouseNumber":1.0,"PostalCode":1.0},"MatchType":"interpolated","Location":{"LocationId":"NT_DgReJr9rPjO-SJIiVl11fB_xA","LocationType":"point","DisplayPosition":{"Latitude":51.92588,"Longitude":-8.60828},"MapView":{"TopLeft":{"Latitude":51.9270042,"Longitude":-8.6101029},"BottomRight":{"Latitude":51.9247558,"Longitude":-8.6064571}},"Address":{"Label":"1 Shournagh Valley, Cork, County Cork, T23 PX0H, Ireland","Country":"IRL","County":"County Cork","City":"Cork","District":"Tower Cross","Street":"Shournagh Valley","HouseNumber":"1","PostalCode":"T23 PX0H","AdditionalData":[{"value":"Ireland","key":"CountryName"},{"value":"County Cork","key":"CountyName"}]},"MapReference":{"ReferenceId":"589025421","Spot":0.24,"SideOfStreet":"left","CountryId":"20403667","CountyId":"20411183","CityId":"20426532","DistrictId":"20514169","AddressId":"214119488","RoadLinkId":"86594707"}}},{"Relevance":1.0,"Distance":16.4,"MatchLevel":"houseNumber","MatchQuality":{"Country":1.0,"County":1.0,"City":1.0,"District":1.0,"Street":[1.0],"PostalCode":1.0},"MatchType":"interpolated","Location":{"LocationId":"NT_RfzIctwZS5OviydET95JEB","LocationType":"point","DisplayPosition":{"Latitude":51.92568,"Longitude":-8.60918},"MapView":{"TopLeft":{"Latitude":51.9268042,"Longitude":-8.6110029},"BottomRight":{"Latitude":51.9245558,"Longitude":-8.6073571}},"Address":{"Label":"\"Saint Gobnaits\" Kerry Road, Cork, County Cork, T23 A030, Ireland","Country":"IRL","County":"County Cork","City":"Cork","District":"Tower","Street":"Kerry Road","PostalCode":"T23 A030","AdditionalData":[{"value":"Ireland","key":"CountryName"},{"value":"County Cork","key":"CountyName"}],"Building":"Saint Gobnaits"},"MapReference":{"ReferenceId":"559806844","Spot":0.32,"SideOfStreet":"right","CountryId":"20403667","CountyId":"20411183","CityId":"20426532","DistrictId":"20514168","AddressId":"359980699","RoadLinkId":"86741973"}}},{"Relevance":1.0,"Distance":24.6,"MatchLevel":"postalCode","MatchQuality":{"PostalCode":1.0},"MatchType":"interpolated","Location":{"LocationId":"NT_RfzIctwZS5OviydET95JEB","LocationType":"point","DisplayPosition":{"Latitude":51.92586,"Longitude":-8.60904},"MapView":{"TopLeft":{"Latitude":51.9348532,"Longitude":-8.6236233},"BottomRight":{"Latitude":51.9168668,"Longitude":-8.5944567}},"Address":{"Label":"T23 KF6W, Cork, Ireland","Country":"IRL","County":"County Cork","City":"Cork","PostalCode":"T23 KF6W","AdditionalData":[{"value":"Ireland","key":"CountryName"},{"value":"County Cork","key":"CountyName"}]},"MapReference":{"ReferenceId":"559806844","Spot":0.32,"SideOfStreet":"neither","CountryId":"20403667","CountyId":"20411183","CityId":"20426532"}}},{"Relevance":1.0,"Distance":38.0,"MatchLevel":"postalCode","MatchQuality":{"PostalCode":1.0},"MatchType":"interpolated","Location":{"LocationId":"NT_DgReJr9rPjO-SJIiVl11fB_xA","LocationType":"point","DisplayPosition":{"Latitude":51.92623,"Longitude":-8.60846},"MapView":{"TopLeft":{"Latitude":51.9352232,"Longitude":-8.6230434},"BottomRight":{"Latitude":51.9172368,"Longitude":-8.5938766}},"Address":{"Label":"T23 CF62, Cork, Ireland","Country":"IRL","County":"County Cork","City":"Cork","PostalCode":"T23 CF62","AdditionalData":[{"value":"Ireland","key":"CountryName"},{"value":"County Cork","key":"CountyName"}]},"MapReference":{"ReferenceId":"589025421","Spot":0.24,"SideOfStreet":"neither","CountryId":"20403667","CountyId":"20411183","CityId":"20426532"}}},{"Relevance":1.0,"Distance":45.7,"MatchLevel":"street","MatchQuality":{"Country":1.0,"County":1.0,"City":1.0,"District":1.0,"Street":[1.0],"PostalCode":1.0},"Location":{"LocationId":"NT_3jQwMP86f17vRc5E28DdFA_l_589025420_R","LocationType":"point","DisplayPosition":{"Latitude":51.92552,"Longitude":-8.60885},"MapView":{"TopLeft":{"Latitude":51.92558,"Longitude":-8.60912},"BottomRight":{"Latitude":51.92542,"Longitude":-8.60863}},"Address":{"Label":"R617, Cork, County Cork, T23, Ireland","Country":"IRL","County":"County Cork","City":"Cork","District":"Tower Cross","Street":"R617","PostalCode":"T23","AdditionalData":[{"value":"Ireland","key":"CountryName"},{"value":"County Cork","key":"CountyName"}]},"MapReference":{"ReferenceId":"589025420","Spot":0.47,"SideOfStreet":"right","CountryId":"20403667","CountyId":"20411183","CityId":"20426532","DistrictId":"20514169"}}},{"Relevance":1.0,"Distance":55.1,"MatchLevel":"houseNumber","MatchQuality":{"Country":1.0,"County":1.0,"City":1.0,"District":1.0,"Street":[1.0],"PostalCode":1.0},"MatchType":"interpolated","Location":{"LocationId":"NT_RfzIctwZS5OviydET95JEB","LocationType":"point","DisplayPosition":{"Latitude":51.92587,"Longitude":-8.60968},"MapView":{"TopLeft":{"Latitude":51.9269942,"Longitude":-8.6115029},"BottomRight":{"Latitude":51.9247458,"Longitude":-8.6078571}},"Address":{"Label":"\"Saint Josephs\" Kerry Road, Cork, County Cork, T23 TF64, Ireland","Country":"IRL","County":"County Cork","City":"Cork","District":"Tower","Street":"Kerry Road","PostalCode":"T23 TF64","AdditionalData":[{"value":"Ireland","key":"CountryName"},{"value":"County Cork","key":"CountyName"}],"Building":"Saint Josephs"},"MapReference":{"ReferenceId":"589025176","Spot":0.15,"SideOfStreet":"right","CountryId":"20403667","CountyId":"20411183","CityId":"20426532","DistrictId":"20514168","AddressId":"743672071","RoadLinkId":"86664027"}}},{"Relevance":1.0,"Distance":55.8,"MatchLevel":"street","MatchQuality":{"Country":1.0,"County":1.0,"City":1.0,"District":1.0,"Street":[1.0],"PostalCode":1.0},"Location":{"LocationId":"NT_IRR-cgrJrwF6fjDjWF6-bA_l_589025419_R","LocationType":"point","DisplayPosition":{"Latitude":51.92542,"Longitude":-8.60863},"MapView":{"TopLeft":{"Latitude":51.92542,"Longitude":-8.60863},"BottomRight":{"Latitude":51.9252,"Longitude":-8.60805}},"Address":{"Label":"R617, Cork, County Cork, T23, Ireland","Country":"IRL","County":"County Cork","City":"Cork","District":"Tower Cross","Street":"R617","PostalCode":"T23","AdditionalData":[{"value":"Ireland","key":"CountryName"},{"value":"County Cork","key":"CountyName"}]},"MapReference":{"ReferenceId":"589025419","Spot":1.0,"SideOfStreet":"right","CountryId":"20403667","CountyId":"20411183","CityId":"20426532","DistrictId":"20514169"}}},{"Relevance":1.0,"Distance":67.5,"MatchLevel":"postalCode","MatchQuality":{"PostalCode":1.0},"MatchType":"interpolated","Location":{"LocationId":"NT_RfzIctwZS5OviydET95JEB","LocationType":"point","DisplayPosition":{"Latitude":51.92611,"Longitude":-8.60963},"MapView":{"TopLeft":{"Latitude":51.9351032,"Longitude":-8.6242133},"BottomRight":{"Latitude":51.9171168,"Longitude":-8.5950467}},"Address":{"Label":"T23 TF80, Cork, Ireland","Country":"IRL","County":"County Cork","City":"Cork","PostalCode":"T23 TF80","AdditionalData":[{"value":"Ireland","key":"CountryName"},{"value":"County Cork","key":"CountyName"}]},"MapReference":{"ReferenceId":"589025176","Spot":0.15,"SideOfStreet":"neither","CountryId":"20403667","CountyId":"20411183","CityId":"20426532"}}},{"Relevance":1.0,"Distance":71.3,"MatchLevel":"postalCode","MatchQuality":{"PostalCode":1.0},"MatchType":"interpolated","Location":{"LocationId":"NT_3jQwMP86f17vRc5E28DdFA","LocationType":"point","DisplayPosition":{"Latitude":51.9255,"Longitude":-8.60948},"MapView":{"TopLeft":{"Latitude":51.9344932,"Longitude":-8.6240631},"BottomRight":{"Latitude":51.9165068,"Longitude":-8.5948969}},"Address":{"Label":"T23 KX70, Cork, Ireland","Country":"IRL","County":"County Cork","City":"Cork","PostalCode":"T23 KX70","AdditionalData":[{"value":"Ireland","key":"CountryName"},{"value":"County Cork","key":"CountyName"}]},"MapReference":{"ReferenceId":"578627791","Spot":0.28,"SideOfStreet":"neither","CountryId":"20403667","CountyId":"20411183","CityId":"20426532"}}}]}]}}