{"Response":{"MetaInfo":{"Timestamp":"2020-03-28T11:58:07.415+0000","NextPageInformation":"2"},"View":[{"_type":"SearchResultsViewType","ViewId":0,"Result":[{"Relevance":1.0,"Distance":0.0,"Direction":0.0,"MatchLevel":"district","MatchQuality":{"Country":1.0,"State":1.0,"County":1.0,"City":1.0,"District":1.0,"PostalCode":1.0},"Location":{"LocationId":"NT_3iFdb0bWhu3wV4G3sulsfD","LocationType":"point","DisplayPosition":{"Latitude":51.9702795,"Longitude":-0.2105253},"MapView":{"TopLeft":{"Latitude":51.99837,"Longitude":-0.25414},"BottomRight":{"Latitude":51.96063,"Longitude":-0.197}},"Address":{"Label":"Letchworth, England, United Kingdom","Country":"GBR","State":"England","County":"Hertfordshire","City":"Letchworth","District":"Letchworth","PostalCode":"SG6 2","AdditionalData":[{"value":"United Kingdom","key":"CountryName"},{"value":"England","key":"StateName"},{"value":"Hertfordshire","key":"CountyName"}]},"MapReference":{"ReferenceId":"25929512","SideOfStreet":"neither","StateId":"20248595","CountyId":"20336428","CityId":"20336588","DistrictId":"20336589"}}},{"Relevance":1.0,"Distance":56.5,"MatchLevel":"houseNumber","MatchQuality":{"Country":1.0,"State":1.0,"County":1.0,"City":1.0,"District":1.0,"Street":[1.0],"HouseNumber":1.0,"PostalCode":1.0},"MatchType":"interpolated","Location":{"LocationId":"NT_qVt78bzO2XPS5TsoK0Y6FD_l_866241339_R_yQD","LocationType":"point","DisplayPosition":{"Latitude":51.9707586,"Longitude":-0.2111961},"MapView":{"TopLeft":{"Latitude":51.9718827,"Longitude":-0.2130208},"BottomRight":{"Latitude":51.9696344,"Longitude":-0.2093714}},"Address":{"Label":"24 Ivel Court, Letchworth, SG6 2LS, United Kingdom","Country":"GBR","State":"England","County":"Hertfordshire","City":"Letchworth","District":"Letchworth","Street":"Ivel Court","HouseNumber":"24","PostalCode":"SG6 2LS","AdditionalData":[{"value":"United Kingdom","key":"CountryName"},{"value":"England","key":"StateName"},{"value":"Hertfordshire","key":"CountyName"}]},"MapReference":{"ReferenceId":"866241339","Spot":0.63,"SideOfStreet":"right","StateId":"20248595","CountyId":"20336428","CityId":"20336588","DistrictId":"20336589"}}},{"Relevance":1.0,"Distance":59.3,"MatchLevel":"postalCode","MatchQuality":{"PostalCode":1.0},"MatchType":"interpolated","Location":{"LocationId":"NT_qVt78bzO2XPS5TsoK0Y6FD_l_866241339_R_yQD","LocationType":"point","DisplayPosition":{"Latitude":51.96978,"Longitude":-0.21022},"MapView":{"TopLeft":{"Latitude":51.9787732,"Longitude":-0.2248176},"BottomRight":{"Latitude":51.9607868,"Longitude":-0.1956224}},"Address":{"Label":"SG6 2NH, Letchworth, England, United Kingdom","Country":"GBR","State":"England","County":"Hertfordshire","City":"Letchworth","PostalCode":"SG6 2NH","AdditionalData":[{"value":"United Kingdom","key":"CountryName"},{"value":"England","key":"StateName"},{"value":"Hertfordshire","key":"CountyName"}]},"MapReference":{"ReferenceId":"866241339","Spot":0.63,"SideOfStreet":"neither","StateId":"20248595","CountyId":"20336428","CityId":"20336588"}}},{"Relevance":1.0,"Distance":61.1,"MatchLevel":"street","MatchQuality":{"Country":1.0,"State":1.0,"County":1.0,"City":1.0,"District":1.0,"Street":[1.0],"PostalCode":1.0},"Location":{"LocationId":"NT_tXMdDYHp92KmEUYupQtXEB_l_25929643_L","LocationType":"point","DisplayPosition":{"Latitude":51.96973,"Longitude":-0.2105253},"MapView":{"TopLeft":{"Latitude":51.96981,"Longitude":-0.21109},"BottomRight":{"Latitude":51.96973,"Longitude":-0.20876}},"Address":{"Label":"Radburn Way, Letchworth, SG6 2, United Kingdom","Country":"GBR","State":"England","County":"Hertfordshire","City":"Letchworth","District":"Letchworth","Street":"Radburn Way","PostalCode":"SG6 2","AdditionalData":[{"value":"United Kingdom","key":"CountryName"},{"value":"England","key":"StateName"},{"value":"Hertfordshire","key":"CountyName"}]},"MapReference":{"ReferenceId":"25929643","Spot":0.24,"SideOfStreet":"left","StateId":"20248595","CountyId":"20336428","CityId":"20336588","DistrictId":"20336589"}}},{"Relevance":1.0,"Distance":70.1,"MatchLevel":"postalCode","MatchQuality":{"PostalCode":1.0},"MatchType":"interpolated","Location":{"LocationId":"NT_2TVD0NteR669yYDAJx8S.C_l_25929691_L_xgD","LocationType":"point","DisplayPosition":{"Latitude":51.96968,"Longitude":-0.21021},"MapView":{"TopLeft":{"Latitude":51.9786732,"Longitude":-0.2248075},"BottomRight":{"Latitude":51.9606868,"Longitude":-0.1956125}},"Address":{"Label":"SG6 2SR, Letchworth, England, United Kingdom","Country":"GBR","State":"England","County":"Hertfordshire","City":"Letchworth","PostalCode":"SG6 2SR","AdditionalData":[{"value":"United Kingdom","key":"CountryName"},{"value":"England","key":"StateName"},{"value":"Hertfordshire","key":"CountyName"}]},"MapReference":{"ReferenceId":"25929691","Spot":0.79,"SideOfStreet":"neither","StateId":"20248595","CountyId":"20336428","CityId":"20336588"}}},{"Relevance":1.0,"Distance":72.3,"MatchLevel":"street","MatchQuality":{"Country":1.0,"State":1.0,"County":1.0,"City":1.0,"District":1.0,"Street":[1.0],"PostalCode":1.0},"Location":{"LocationId":"NT_tXMdDYHp92KmEUYupQtXEB_l_25929644_R","LocationType":"point","DisplayPosition":{"Latitude":51.96973,"Longitude":-0.21109},"MapView":{"TopLeft":{"Latitude":51.96987,"Longitude":-0.21197},"BottomRight":{"Latitude":51.96973,"Longitude":-0.21109}},"Address":{"Label":"Radburn Way, Letchworth, SG6 2, United Kingdom","Country":"GBR","State":"England","County":"Hertfordshire","City":"Letchworth","District":"Letchworth","Street":"Radburn Way","PostalCode":"SG6 2","AdditionalData":[{"value":"United Kingdom","key":"CountryName"},{"value":"England","key":"StateName"},{"value":"Hertfordshire","key":"CountyName"}]},"MapReference":{"ReferenceId":"25929644","Spot":0.0,"SideOfStreet":"right","StateId":"20248595","CountyId":"20336428","CityId":"20336588","DistrictId":"20336589"}}},{"Relevance":1.0,"Distance":72.3,"MatchLevel":"street","MatchQuality":{"Country":1.0,"State":1.0,"County":1.0,"City":1.0,"District":1.0,"Street":[1.0],"PostalCode":1.0},"Location":{"LocationId":"NT_2TVD0NteR669yYDAJx8S.C_l_25929663_R","LocationType":"point","DisplayPosition":{"Latitude":51.96973,"Longitude":-0.21109},"MapView":{"TopLeft":{"Latitude":51.96973,"Longitude":-0.21113},"BottomRight":{"Latitude":51.96942,"Longitude":-0.21109}},"Address":{"Label":"Yardley, Letchworth, SG6 2, United Kingdom","Country":"GBR","State":"England","County":"Hertfordshire","City":"Letchworth","District":"Letchworth","Street":"Yardley","PostalCode":"SG6 2","AdditionalData":[{"value":"United Kingdom","key":"CountryName"},{"value":"England","key":"StateName"},{"value":"Hertfordshire","key":"CountyName"}]},"MapReference":{"ReferenceId":"25929663","Spot":1.0,"SideOfStreet":"right","StateId":"20248595","CountyId":"20336428","CityId":"20336588","DistrictId":"20336589"}}},{"Relevance":1.0,"Distance":104.8,"MatchLevel":"houseNumber","MatchQuality":{"Country":1.0,"State":1.0,"County":1.0,"City":1.0,"District":1.0,"Street":[1.0],"HouseNumber":1.0,"PostalCode":1.0},"MatchType":"interpolated","Location":{"LocationId":"NT_2TVD0NteR669yYDAJx8S.C_l_25929664_L_3QD","LocationType":"point","DisplayPosition":{"Latitude":51.9695262,"Longitude":-0.2114443},"MapView":{"TopLeft":{"Latitude":51.9706504,"Longitude":-0.2132689},"BottomRight":{"Latitude":51.9684021,"Longitude":-0.2096196}},"Address":{"Label":"74 Yardley, Letchworth, SG6 2ST, United Kingdom","Country":"GBR","State":"England","County":"Hertfordshire","City":"Letchworth","District":"Letchworth","Street":"Yardley","HouseNumber":"74","PostalCode":"SG6 2ST","AdditionalData":[{"value":"United Kingdom","key":"CountryName"},{"value":"England","key":"StateName"},{"value":"Hertfordshire","key":"CountyName"}]},"MapReference":{"ReferenceId":"25929664","Spot":0.64,"SideOfStreet":"left","StateId":"20248595","CountyId":"20336428","CityId":"20336588","DistrictId":"20336589"}}},{"Relevance":1.0,"Distance":108.9,"MatchLevel":"street","MatchQuality":{"Country":1.0,"State":1.0,"County":1.0,"City":1.0,"District":1.0,"Street":[1.0],"PostalCode":1.0},"Location":{"LocationId":"NT_tXMdDYHp92KmEUYupQtXEB_l_25929668_R","LocationType":"point","DisplayPosition":{"Latitude":51.96987,"Longitude":-0.21197},"MapView":{"TopLeft":{"Latitude":51.96987,"Longitude":-0.21244},"BottomRight":{"Latitude":51.96938,"Longitude":-0.21197}},"Address":{"Label":"Radburn Way, Letchworth, SG6 2, United Kingdom","Country":"GBR","State":"England","County":"Hertfordshire","City":"Letchworth","District":"Letchworth","Street":"Radburn Way","PostalCode":"SG6 2","AdditionalData":[{"value":"United Kingdom","key":"CountryName"},{"value":"England","key":"StateName"},{"value":"Hertfordshire","key":"CountyName"}]},"MapReference":{"ReferenceId":"25929668","Spot":1.0,"SideOfStreet":"right","StateId":"20248595","CountyId":"20336428","CityId":"20336588","DistrictId":"20336589"}}},{"Relevance":1.0,"Distance":108.9,"MatchLevel":"street","MatchQuality":{"Country":1.0,"State":1.0,"County":1.0,"City":1.0,"District":1.0,"Street":[1.0],"PostalCode":1.0},"Location":{"LocationId":"NT_tXMdDYHp92KmEUYupQtXEB_l_25929637_R","LocationType":"point","DisplayPosition":{"Latitude":51.96987,"Longitude":-0.21197},"MapView":{"TopLeft":{"Latitude":51.9699,"Longitude":-0.21209},"BottomRight":{"Latitude":51.96987,"Longitude":-0.21197}},"Address":{"Label":"Radburn Way, Letchworth, SG6 2, United Kingdom","Country":"GBR","State":"England","County":"Hertfordshire","City":"Letchworth","District":"Letchworth","Street":"Radburn Way","PostalCode":"SG6 2","AdditionalData":[{"value":"United Kingdom","key":"CountryName"},{"value":"England","key":"StateName"},{"value":"Hertfordshire","key":"CountyName"}]},"MapReference":{"ReferenceId":"25929637","Spot":0.0,"SideOfStreet":"right","StateId":"20248595","CountyId":"20336428","CityId":"20336588","DistrictId":"20336589"}}}]}]}}