{"Response":{"MetaInfo":{"Timestamp":"2020-03-28T11:40:57.496+0000","NextPageInformation":"2"},"View":[{"_type":"SearchResultsViewType","ViewId":0,"Result":[{"Relevance":1.0,"Distance":0.0,"Direction":0.0,"MatchLevel":"district","MatchQuality":{"Country":1.0,"State":1.0,"County":1.0,"City":1.0,"District":1.0,"PostalCode":1.0},"Location":{"LocationId":"NT_NSYNpARO5OAMz3WrG1-oEB","LocationType":"point","DisplayPosition":{"Latitude":51.9285659,"Longitude":10.3724762},"MapView":{"TopLeft":{"Latitude":51.93212,"Longitude":10.36002},"BottomRight":{"Latitude":51.92055,"Longitude":10.38807}},"Address":{"Label":"Astfeld, Langelsheim, Niedersachsen, Deutschland","Country":"DEU","State":"Niedersachsen","County":"Goslar","City":"Langelsheim","District":"Astfeld","PostalCode":"38685","AdditionalData":[{"value":"Deutschland","key":"CountryName"},{"value":"Niedersachsen","key":"StateName"},{"value":"Goslar","key":"CountyName"}]},"MapReference":{"ReferenceId":"906615737","SideOfStreet":"neither","CountryId":"20147700","StateId":"20151542","CountyId":"20152024","CityId":"20152056","DistrictId":"20152059"}}},{"Relevance":1.0,"Distance":4.0,"MatchLevel":"houseNumber","MatchQuality":{"Country":1.0,"State":1.0,"County":1.0,"City":1.0,"District":1.0,"Street":[1.0],"HouseNumber":1.0,"PostalCode":1.0},"MatchType":"interpolated","Location":{"LocationId":"NT_.7okDMC1u5NS3ATytgwBAC_zYD","LocationType":"point","DisplayPosition":{"Latitude":51.92866,"Longitude":10.37258},"MapView":{"TopLeft":{"Latitude":51.9297842,"Longitude":10.370757},"BottomRight":{"Latitude":51.9275358,"Longitude":10.374403}},"Address":{"Label":"Goslarsche Straße 36, 38685 Langelsheim, Deutschland","Country":"DEU","State":"Niedersachsen","County":"Goslar","City":"Langelsheim","District":"Astfeld","Street":"Goslarsche Straße","HouseNumber":"36","PostalCode":"38685","AdditionalData":[{"value":"Deutschland","key":"CountryName"},{"value":"Niedersachsen","key":"StateName"},{"value":"Goslar","key":"CountyName"}]},"MapReference":{"ReferenceId":"1250630615","Spot":0.77,"SideOfStreet":"left","CountryId":"20147700","StateId":"20151542","CountyId":"20152024","CityId":"20152056","DistrictId":"20152059","AddressId":"177191885","RoadLinkId":"573533969"}}},{"Relevance":1.0,"Distance":26.1,"MatchLevel":"street","MatchQuality":{"Country":1.0,"State":1.0,"County":1.0,"City":1.0,"PostalCode":1.0},"Location":{"LocationId":"NT_Dpr87Tchu3j8uVzHk1E0HD_l_1250796787_R","LocationType":"point","DisplayPosition":{"Latitude":51.92875,"Longitude":10.37224},"MapView":{"TopLeft":{"Latitude":51.93203,"Longitude":10.37224},"BottomRight":{"Latitude":51.92875,"Longitude":10.37334}},"Address":{"Label":"38685 Langelsheim, Deutschland","Country":"DEU","State":"Niedersachsen","County":"Goslar","City":"Langelsheim","PostalCode":"38685","AdditionalData":[{"value":"Deutschland","key":"CountryName"},{"value":"Niedersachsen","key":"StateName"},{"value":"Goslar","key":"CountyName"}]},"MapReference":{"ReferenceId":"1250796787","Spot":0.0,"SideOfStreet":"right","CountryId":"20147700","StateId":"20151542","CountyId":"20152024","CityId":"20152056"}}},{"Relevance":1.0,"Distance":45.5,"MatchLevel":"houseNumber","MatchQuality":{"Country":1.0,"State":1.0,"County":1.0,"City":1.0,"District":1.0,"Street":[1.0],"HouseNumber":1.0,"PostalCode":1.0},"MatchType":"interpolated","Location":{"LocationId":"NT_CSVc9A3sELROzwvEg-CABA_xED","LocationType":"point","DisplayPosition":{"Latitude":51.9281,"Longitude":10.37206},"MapView":{"TopLeft":{"Latitude":51.9292242,"Longitude":10.370237},"BottomRight":{"Latitude":51.9269758,"Longitude":10.373883}},"Address":{"Label":"Gartenstraße 11, 38685 Langelsheim, Deutschland","Country":"DEU","State":"Niedersachsen","County":"Goslar","City":"Langelsheim","District":"Astfeld","Street":"Gartenstraße","HouseNumber":"11","PostalCode":"38685","AdditionalData":[{"value":"Deutschland","key":"CountryName"},{"value":"Niedersachsen","key":"StateName"},{"value":"Goslar","key":"CountyName"}]},"MapReference":{"ReferenceId":"1250629706","Spot":0.52,"SideOfStreet":"right","CountryId":"20147700","StateId":"20151542","CountyId":"20152024","CityId":"20152056","DistrictId":"20152059","AddressId":"178366743","RoadLinkId":"573533034"}}},{"Relevance":1.0,"Distance":52.6,"MatchLevel":"houseNumber","MatchQuality":{"Country":1.0,"State":1.0,"County":1.0,"City":1.0,"District":1.0,"Street":[1.0],"HouseNumber":1.0,"PostalCode":1.0},"MatchType":"interpolated","Location":{"LocationId":"NT_.7okDMC1u5NS3ATytgwBAC_0AD","LocationType":"point","DisplayPosition":{"Latitude":51.92883,"Longitude":10.37184},"MapView":{"TopLeft":{"Latitude":51.9299542,"Longitude":10.370017},"BottomRight":{"Latitude":51.9277058,"Longitude":10.373663}},"Address":{"Label":"Goslarsche Straße 40, 38685 Langelsheim, Deutschland","Country":"DEU","State":"Niedersachsen","County":"Goslar","City":"Langelsheim","District":"Astfeld","Street":"Goslarsche Straße","HouseNumber":"40","PostalCode":"38685","AdditionalData":[{"value":"Deutschland","key":"CountryName"},{"value":"Niedersachsen","key":"StateName"},{"value":"Goslar","key":"CountyName"}]},"MapReference":{"ReferenceId":"1250630616","Spot":0.99,"SideOfStreet":"left","CountryId":"20147700","StateId":"20151542","CountyId":"20152024","CityId":"20152056","DistrictId":"20152059","AddressId":"181376173","RoadLinkId":"573533970"}}},{"Relevance":1.0,"Distance":85.3,"MatchLevel":"houseNumber","MatchQuality":{"Country":1.0,"State":1.0,"County":1.0,"City":1.0,"District":1.0,"Street":[1.0],"HouseNumber":1.0,"PostalCode":1.0},"MatchType":"interpolated","Location":{"LocationId":"NT_.7okDMC1u5NS3ATytgwBAC_0ID","LocationType":"point","DisplayPosition":{"Latitude":51.92894,"Longitude":10.37139},"MapView":{"TopLeft":{"Latitude":51.9300642,"Longitude":10.369567},"BottomRight":{"Latitude":51.9278158,"Longitude":10.373213}},"Address":{"Label":"Goslarsche Straße 42, 38685 Langelsheim, Deutschland","Country":"DEU","State":"Niedersachsen","County":"Goslar","City":"Langelsheim","District":"Astfeld","Street":"Goslarsche Straße","HouseNumber":"42","PostalCode":"38685","AdditionalData":[{"value":"Deutschland","key":"CountryName"},{"value":"Niedersachsen","key":"StateName"},{"value":"Goslar","key":"CountyName"}]},"MapReference":{"ReferenceId":"1073289448","Spot":0.35,"SideOfStreet":"left","CountryId":"20147700","StateId":"20151542","CountyId":"20152024","CityId":"20152056","DistrictId":"20152059","AddressId":"181618875","RoadLinkId":"393671730"}}},{"Relevance":1.0,"Distance":85.9,"MatchLevel":"street","MatchQuality":{"Country":1.0,"State":1.0,"County":1.0,"City":1.0,"District":1.0,"Street":[1.0],"PostalCode":1.0},"Location":{"LocationId":"NT_vdy2x-jQ3.KyxTCSXn.orB_l_1251312407_L","LocationType":"point","DisplayPosition":{"Latitude":51.9284,"Longitude":10.3737},"MapView":{"TopLeft":{"Latitude":51.9284,"Longitude":10.37369},"BottomRight":{"Latitude":51.92818,"Longitude":10.3737}},"Address":{"Label":"Hüttenweg, 38685 Langelsheim, Deutschland","Country":"DEU","State":"Niedersachsen","County":"Goslar","City":"Langelsheim","District":"Astfeld","Street":"Hüttenweg","PostalCode":"38685","AdditionalData":[{"value":"Deutschland","key":"CountryName"},{"value":"Niedersachsen","key":"StateName"},{"value":"Goslar","key":"CountyName"}]},"MapReference":{"ReferenceId":"1251312407","Spot":1.0,"SideOfStreet":"left","CountryId":"20147700","StateId":"20151542","CountyId":"20152024","CityId":"20152056","DistrictId":"20152059"}}},{"Relevance":1.0,"Distance":86.7,"MatchLevel":"street","MatchQuality":{"Country":1.0,"State":1.0,"County":1.0,"City":1.0,"District":1.0,"PostalCode":1.0},"Location":{"LocationId":"NT_r3hxddEMls6Uf9ZnKVZZeC_l_1250629705_R","LocationType":"point","DisplayPosition":{"Latitude":51.92848,"Longitude":10.37122},"MapView":{"TopLeft":{"Latitude":51.92868,"Longitude":10.3711},"BottomRight":{"Latitude":51.92828,"Longitude":10.37122}},"Address":{"Label":"38685 Langelsheim, Deutschland","Country":"DEU","State":"Niedersachsen","County":"Goslar","City":"Langelsheim","District":"Astfeld","PostalCode":"38685","AdditionalData":[{"value":"Deutschland","key":"CountryName"},{"value":"Niedersachsen","key":"StateName"},{"value":"Goslar","key":"CountyName"}]},"MapReference":{"ReferenceId":"1250629705","Spot":0.45,"SideOfStreet":"right","CountryId":"20147700","StateId":"20151542","CountyId":"20152024","CityId":"20152056","DistrictId":"20152059"}}},{"Relevance":1.0,"Distance":94.2,"MatchLevel":"street","MatchQuality":{"Country":1.0,"State":1.0,"County":1.0,"City":1.0,"District":1.0,"PostalCode":1.0},"Location":{"LocationId":"NT_r3hxddEMls6Uf9ZnKVZZeC_l_1251312408_R","LocationType":"point","DisplayPosition":{"Latitude":51.92818,"Longitude":10.3737},"MapView":{"TopLeft":{"Latitude":51.92818,"Longitude":10.3737},"BottomRight":{"Latitude":51.92762,"Longitude":10.37546}},"Address":{"Label":"38685 Langelsheim, Deutschland","Country":"DEU","State":"Niedersachsen","County":"Goslar","City":"Langelsheim","District":"Astfeld","PostalCode":"38685","AdditionalData":[{"value":"Deutschland","key":"CountryName"},{"value":"Niedersachsen","key":"StateName"},{"value":"Goslar","key":"CountyName"}]},"MapReference":{"ReferenceId":"1251312408","Spot":1.0,"SideOfStreet":"right","CountryId":"20147700","StateId":"20151542","CountyId":"20152024","CityId":"20152056","DistrictId":"20152059"}}},{"Relevance":1.0,"Distance":99.9,"MatchLevel":"houseNumber","MatchQuality":{"Country":1.0,"State":1.0,"County":1.0,"City":1.0,"District":1.0,"Street":[1.0],"HouseNumber":1.0,"PostalCode":1.0},"MatchType":"interpolated","Location":{"LocationId":"NT_.7okDMC1u5NS3ATytgwBAC_yYD","LocationType":"point","DisplayPosition":{"Latitude":51.92835,"Longitude":10.37389},"MapView":{"TopLeft":{"Latitude":51.9294742,"Longitude":10.372067},"BottomRight":{"Latitude":51.9272258,"Longitude":10.375713}},"Address":{"Label":"Goslarsche Straße 26, 38685 Langelsheim, Deutschland","Country":"DEU","State":"Niedersachsen","County":"Goslar","City":"Langelsheim","District":"Astfeld","Street":"Goslarsche Straße","HouseNumber":"26","PostalCode":"38685","AdditionalData":[{"value":"Deutschland","key":"CountryName"},{"value":"Niedersachsen","key":"StateName"},{"value":"Goslar","key":"CountyName"}]},"MapReference":{"ReferenceId":"79791507","Spot":0.86,"SideOfStreet":"right","CountryId":"20147700","StateId":"20151542","CountyId":"20152024","CityId":"20152056","DistrictId":"20152059","AddressId":"198747636","RoadLinkId":"36689819"}}}]}]}}