{"Response":{"MetaInfo":{"Timestamp":"2020-03-28T11:44:07.578+0000","NextPageInformation":"2"},"View":[{"_type":"SearchResultsViewType","ViewId":0,"Result":[{"Relevance":1.0,"Distance":0.0,"Direction":0.0,"MatchLevel":"district","MatchQuality":{"Country":1.0,"State":1.0,"County":1.0,"City":1.0,"District":1.0,"PostalCode":1.0},"Location":{"LocationId":"NT_u4v9b1pbZMctNU9bj8.6DB","LocationType":"point","DisplayPosition":{"Latitude":51.9089712,"Longitude":10.4198213},"MapView":{"TopLeft":{"Latitude":51.94184,"Longitude":10.40382},"BottomRight":{"Latitude":51.89032,"Longitude":10.47266}},"Address":{"Label":"Goslar, Niedersachsen, Deutschland","Country":"DEU","State":"Niedersachsen","County":"Goslar","City":"Goslar","District":"Goslar","PostalCode":"38640","AdditionalData":[{"value":"Deutschland","key":"CountryName"},{"value":"Niedersachsen","key":"StateName"},{"value":"Goslar","key":"CountyName"}]},"MapReference":{"ReferenceId":"539289280","SideOfStreet":"neither","CountryId":"20147700","StateId":"20151542","CountyId":"20152024","CityId":"20247723","DistrictId":"20247725"}}},{"Relevance":1.0,"Distance":5.7,"MatchLevel":"houseNumber","MatchQuality":{"Country":1.0,"State":1.0,"County":1.0,"City":1.0,"District":1.0,"Street":[1.0],"HouseNumber":1.0,"PostalCode":1.0},"MatchType":"interpolated","Location":{"LocationId":"NT_3z-OeUTGj1k.6XXMHB.AwA_0A","LocationType":"point","DisplayPosition":{"Latitude":51.90896,"Longitude":10.42007},"MapView":{"TopLeft":{"Latitude":51.9100842,"Longitude":10.4182478},"BottomRight":{"Latitude":51.9078358,"Longitude":10.4218922}},"Address":{"Label":"Astfelder Straße 4, 38640 Goslar, Deutschland","Country":"DEU","State":"Niedersachsen","County":"Goslar","City":"Goslar","District":"Goslar","Street":"Astfelder Straße","HouseNumber":"4","PostalCode":"38640","AdditionalData":[{"value":"Deutschland","key":"CountryName"},{"value":"Niedersachsen","key":"StateName"},{"value":"Goslar","key":"CountyName"}]},"MapReference":{"ReferenceId":"79803147","Spot":0.36,"SideOfStreet":"left","CountryId":"20147700","StateId":"20151542","CountyId":"20152024","CityId":"20247723","DistrictId":"20247725","AddressId":"178497387","RoadLinkId":"36741428"}}},{"Relevance":1.0,"Distance":50.1,"MatchLevel":"houseNumber","MatchQuality":{"Country":1.0,"State":1.0,"County":1.0,"City":1.0,"District":1.0,"Street":[1.0],"HouseNumber":1.0,"PostalCode":1.0},"MatchType":"interpolated","Location":{"LocationId":"NT_RXh3lvUWgDN.IWd0c9X8CA_5EE","LocationType":"point","DisplayPosition":{"Latitude":51.90971,"Longitude":10.4202},"MapView":{"TopLeft":{"Latitude":51.9108342,"Longitude":10.4183777},"BottomRight":{"Latitude":51.9085858,"Longitude":10.4220223}},"Address":{"Label":"Klubgartenstraße 9A, 38640 Goslar, Deutschland","Country":"DEU","State":"Niedersachsen","County":"Goslar","City":"Goslar","District":"Goslar","Street":"Klubgartenstraße","HouseNumber":"9A","PostalCode":"38640","AdditionalData":[{"value":"Deutschland","key":"CountryName"},{"value":"Niedersachsen","key":"StateName"},{"value":"Goslar","key":"CountyName"}]},"MapReference":{"ReferenceId":"539289494","Spot":0.16,"SideOfStreet":"right","CountryId":"20147700","StateId":"20151542","CountyId":"20152024","CityId":"20247723","DistrictId":"20247725","AddressId":"181225498","RoadLinkId":"36396851"}}},{"Relevance":1.0,"Distance":60.3,"MatchLevel":"houseNumber","MatchQuality":{"Country":1.0,"State":1.0,"County":1.0,"City":1.0,"District":1.0,"Street":[1.0],"HouseNumber":1.0,"PostalCode":1.0},"MatchType":"interpolated","Location":{"LocationId":"NT_MZyKhydVPQP3tVjKrRX4pC_xA","LocationType":"point","DisplayPosition":{"Latitude":51.90836,"Longitude":10.41997},"MapView":{"TopLeft":{"Latitude":51.9094842,"Longitude":10.4181478},"BottomRight":{"Latitude":51.9072358,"Longitude":10.4217922}},"Address":{"Label":"Claustorwall 1, 38640 Goslar, Deutschland","Country":"DEU","State":"Niedersachsen","County":"Goslar","City":"Goslar","District":"Goslar","Street":"Claustorwall","HouseNumber":"1","PostalCode":"38640","AdditionalData":[{"value":"Deutschland","key":"CountryName"},{"value":"Niedersachsen","key":"StateName"},{"value":"Goslar","key":"CountyName"}]},"MapReference":{"ReferenceId":"79803143","Spot":0.62,"SideOfStreet":"left","CountryId":"20147700","StateId":"20151542","CountyId":"20152024","CityId":"20247723","DistrictId":"20247725","AddressId":"180858443","RoadLinkId":"36381725"}}},{"Relevance":1.0,"Distance":63.4,"MatchLevel":"houseNumber","MatchQuality":{"Country":1.0,"State":1.0,"County":1.0,"City":1.0,"District":1.0,"Street":[1.0],"HouseNumber":1.0,"PostalCode":1.0},"MatchType":"interpolated","Location":{"LocationId":"NT_FG.kx4UeTBmQoOtd99.LnD_xAD","LocationType":"point","DisplayPosition":{"Latitude":51.9095,"Longitude":10.41911},"MapView":{"TopLeft":{"Latitude":51.9106242,"Longitude":10.4172878},"BottomRight":{"Latitude":51.9083758,"Longitude":10.4209322}},"Address":{"Label":"Am Heiligen Grabe 10, 38640 Goslar, Deutschland","Country":"DEU","State":"Niedersachsen","County":"Goslar","City":"Goslar","District":"Goslar","Street":"Am Heiligen Grabe","HouseNumber":"10","PostalCode":"38640","AdditionalData":[{"value":"Deutschland","key":"CountryName"},{"value":"Niedersachsen","key":"StateName"},{"value":"Goslar","key":"CountyName"}]},"MapReference":{"ReferenceId":"79817362","Spot":0.68,"SideOfStreet":"right","CountryId":"20147700","StateId":"20151542","CountyId":"20152024","CityId":"20247723","DistrictId":"20247725","AddressId":"180551944","RoadLinkId":"37308297"}}},{"Relevance":1.0,"Distance":66.4,"MatchLevel":"houseNumber","MatchQuality":{"Country":1.0,"State":1.0,"County":1.0,"City":1.0,"District":1.0,"Street":[1.0],"HouseNumber":1.0,"PostalCode":1.0},"MatchType":"interpolated","Location":{"LocationId":"NT_erjVhjUwogru0qWwoC9n9A_xQD","LocationType":"point","DisplayPosition":{"Latitude":51.90846,"Longitude":10.42065},"MapView":{"TopLeft":{"Latitude":51.9095842,"Longitude":10.4188278},"BottomRight":{"Latitude":51.9073358,"Longitude":10.4224722}},"Address":{"Label":"Vititorwall 14, 38640 Goslar, Deutschland","Country":"DEU","State":"Niedersachsen","County":"Goslar","City":"Goslar","District":"Goslar","Street":"Vititorwall","HouseNumber":"14","PostalCode":"38640","AdditionalData":[{"value":"Deutschland","key":"CountryName"},{"value":"Niedersachsen","key":"StateName"},{"value":"Goslar","key":"CountyName"}]},"MapReference":{"ReferenceId":"1250644774","Spot":0.07,"SideOfStreet":"left","CountryId":"20147700","StateId":"20151542","CountyId":"20152024","CityId":"20247723","DistrictId":"20247725","AddressId":"177188471","RoadLinkId":"573549846"}}},{"Relevance":1.0,"Distance":71.3,"MatchLevel":"houseNumber","MatchQuality":{"Country":1.0,"State":1.0,"County":1.0,"City":1.0,"District":1.0,"Street":[1.0],"HouseNumber":1.0,"PostalCode":1.0},"MatchType":"interpolated","Location":{"LocationId":"NT_STBhhHN19xrTDed6XXiCRB_yED","LocationType":"point","DisplayPosition":{"Latitude":51.90843,"Longitude":10.42036},"MapView":{"TopLeft":{"Latitude":51.9095542,"Longitude":10.4185378},"BottomRight":{"Latitude":51.9073058,"Longitude":10.4221822}},"Address":{"Label":"Bäringerstraße 21, 38640 Goslar, Deutschland","Country":"DEU","State":"Niedersachsen","County":"Goslar","City":"Goslar","District":"Goslar","Street":"Bäringerstraße","HouseNumber":"21","PostalCode":"38640","AdditionalData":[{"value":"Deutschland","key":"CountryName"},{"value":"Niedersachsen","key":"StateName"},{"value":"Goslar","key":"CountyName"}]},"MapReference":{"ReferenceId":"79803144","Spot":0.12,"SideOfStreet":"left","CountryId":"20147700","StateId":"20151542","CountyId":"20152024","CityId":"20247723","DistrictId":"20247725","AddressId":"181674475","RoadLinkId":"36474812"}}},{"Relevance":1.0,"Distance":80.6,"MatchLevel":"street","MatchQuality":{"Country":1.0,"State":1.0,"County":1.0,"City":1.0,"District":1.0,"PostalCode":1.0},"Location":{"LocationId":"NT_EwKdbpzp-Iz2HKZteBy.cB_l_1215300127_L","LocationType":"point","DisplayPosition":{"Latitude":51.90905,"Longitude":10.42099},"MapView":{"TopLeft":{"Latitude":51.90958,"Longitude":10.42099},"BottomRight":{"Latitude":51.90905,"Longitude":10.42287}},"Address":{"Label":"38640 Goslar, Deutschland","Country":"DEU","State":"Niedersachsen","County":"Goslar","City":"Goslar","District":"Goslar","PostalCode":"38640","AdditionalData":[{"value":"Deutschland","key":"CountryName"},{"value":"Niedersachsen","key":"StateName"},{"value":"Goslar","key":"CountyName"}]},"MapReference":{"ReferenceId":"1215300127","Spot":0.0,"SideOfStreet":"left","CountryId":"20147700","StateId":"20151542","CountyId":"20152024","CityId":"20247723","DistrictId":"20247725"}}},{"Relevance":1.0,"Distance":86.4,"MatchLevel":"houseNumber","MatchQuality":{"Country":1.0,"State":1.0,"County":1.0,"City":1.0,"District":1.0,"Street":[1.0],"HouseNumber":1.0,"PostalCode":1.0},"MatchType":"interpolated","Location":{"LocationId":"NT_STBhhHN19xrTDed6XXiCRB_yID","LocationType":"point","DisplayPosition":{"Latitude":51.90828,"Longitude":10.42042},"MapView":{"TopLeft":{"Latitude":51.9094042,"Longitude":10.4185978},"BottomRight":{"Latitude":51.9071558,"Longitude":10.4222422}},"Address":{"Label":"Bäringerstraße 22, 38640 Goslar, Deutschland","Country":"DEU","State":"Niedersachsen","County":"Goslar","City":"Goslar","District":"Goslar","Street":"Bäringerstraße","HouseNumber":"22","PostalCode":"38640","AdditionalData":[{"value":"Deutschland","key":"CountryName"},{"value":"Niedersachsen","key":"StateName"},{"value":"Goslar","key":"CountyName"}]},"MapReference":{"ReferenceId":"79805382","Spot":0.81,"SideOfStreet":"left","CountryId":"20147700","StateId":"20151542","CountyId":"20152024","CityId":"20247723","DistrictId":"20247725","AddressId":"181696351","RoadLinkId":"36779242"}}},{"Relevance":1.0,"Distance":86.7,"MatchLevel":"houseNumber","MatchQuality":{"Country":1.0,"State":1.0,"County":1.0,"City":1.0,"District":1.0,"Street":[1.0],"HouseNumber":1.0,"PostalCode":1.0},"MatchType":"interpolated","Location":{"LocationId":"NT_3z-OeUTGj1k.6XXMHB.AwA_xAD","LocationType":"point","DisplayPosition":{"Latitude":51.90975,"Longitude":10.41975},"MapView":{"TopLeft":{"Latitude":51.9108742,"Longitude":10.4179277},"BottomRight":{"Latitude":51.9086258,"Longitude":10.4215723}},"Address":{"Label":"Astfelder Straße 10, 38640 Goslar, Deutschland","Country":"DEU","State":"Niedersachsen","County":"Goslar","City":"Goslar","District":"Goslar","Street":"Astfelder Straße","HouseNumber":"10","PostalCode":"38640","AdditionalData":[{"value":"Deutschland","key":"CountryName"},{"value":"Niedersachsen","key":"StateName"},{"value":"Goslar","key":"CountyName"}]},"MapReference":{"ReferenceId":"79805387","Spot":0.13,"SideOfStreet":"left","CountryId":"20147700","StateId":"20151542","CountyId":"20152024","CityId":"20247723","DistrictId":"20247725","AddressId":"178496117","RoadLinkId":"37103940"}}}]}]}}