{"Response":{"MetaInfo":{"Timestamp":"2020-03-28T11:59:56.864+0000","NextPageInformation":"2"},"View":[{"_type":"SearchResultsViewType","ViewId":0,"Result":[{"Relevance":1.0,"Distance":0.0,"Direction":0.0,"MatchLevel":"district","MatchQuality":{"Country":1.0,"State":1.0,"County":1.0,"City":1.0,"District":1.0,"PostalCode":1.0},"Location":{"LocationId":"NT_a4HDUOSoIeBzpvghBjwBWD","LocationType":"point","DisplayPosition":{"Latitude":51.9899875,"Longitude":-1.7040349},"MapView":{"TopLeft":{"Latitude":51.99577,"Longitude":-1.70956},"BottomRight":{"Latitude":51.98374,"Longitude":-1.6851}},"Address":{"Label":"Moreton in Marsh, England, United Kingdom","Country":"GBR","State":"England","County":"Gloucestershire","City":"Moreton in Marsh","District":"Moreton in Marsh","PostalCode":"GL56 0","AdditionalData":[{"value":"United Kingdom","key":"CountryName"},{"value":"England","key":"StateName"},{"value":"Gloucestershire","key":"CountyName"}]},"MapReference":{"ReferenceId":"577358335","SideOfStreet":"neither","StateId":"20248595","CountyId":"20334235","CityId":"20334248","DistrictId":"20348636"}}},{"Relevance":1.0,"Distance":22.1,"MatchLevel":"street","MatchQuality":{"Country":1.0,"State":1.0,"County":1.0,"City":1.0,"District":1.0,"Street":[1.0],"PostalCode":1.0},"Location":{"LocationId":"NT_4kKrTz-8DeSBsuzBaaOl0B_l_577322799_R","LocationType":"point","DisplayPosition":{"Latitude":51.99013,"Longitude":-1.70426},"MapView":{"TopLeft":{"Latitude":51.99013,"Longitude":-1.70496},"BottomRight":{"Latitude":51.99012,"Longitude":-1.70426}},"Address":{"Label":"Corders Close, Moreton in Marsh, GL56 0, United Kingdom","Country":"GBR","State":"England","County":"Gloucestershire","City":"Moreton in Marsh","District":"Moreton in Marsh","Street":"Corders Close","PostalCode":"GL56 0","AdditionalData":[{"value":"United Kingdom","key":"CountryName"},{"value":"England","key":"StateName"},{"value":"Gloucestershire","key":"CountyName"}]},"MapReference":{"ReferenceId":"577322799","Spot":1.0,"SideOfStreet":"right","StateId":"20248595","CountyId":"20334235","CityId":"20334248","DistrictId":"20348636"}}},{"Relevance":1.0,"Distance":24.2,"MatchLevel":"houseNumber","MatchQuality":{"Country":1.0,"State":1.0,"County":1.0,"City":1.0,"District":1.0,"Street":[1.0],"HouseNumber":1.0,"PostalCode":1.0},"MatchType":"interpolated","Location":{"LocationId":"NT_FSPjTVsbR-hPYyV2Xz0FKB_l_577358337_R_xID","LocationType":"point","DisplayPosition":{"Latitude":51.99034,"Longitude":-1.704045},"MapView":{"TopLeft":{"Latitude":51.9914642,"Longitude":-1.7058705},"BottomRight":{"Latitude":51.9892158,"Longitude":-1.7022194}},"Address":{"Label":"12 Corders Lane, Moreton in Marsh, GL56 0BU, United Kingdom","Country":"GBR","State":"England","County":"Gloucestershire","City":"Moreton in Marsh","District":"Moreton in Marsh","Street":"Corders Lane","HouseNumber":"12","PostalCode":"GL56 0BU","AdditionalData":[{"value":"United Kingdom","key":"CountryName"},{"value":"England","key":"StateName"},{"value":"Gloucestershire","key":"CountyName"}]},"MapReference":{"ReferenceId":"577358337","Spot":0.59,"SideOfStreet":"right","StateId":"20248595","CountyId":"20334235","CityId":"20334248","DistrictId":"20348636"}}},{"Relevance":1.0,"Distance":27.7,"MatchLevel":"postalCode","MatchQuality":{"PostalCode":1.0},"Location":{"LocationId":"NT_4kKrTz-8DeSBsuzBaaOl0B_l_577322799_R","LocationType":"point","DisplayPosition":{"Latitude":51.99008,"Longitude":-1.70441},"MapView":{"TopLeft":{"Latitude":51.9990732,"Longitude":-1.7190142},"BottomRight":{"Latitude":51.9810868,"Longitude":-1.6898058}},"Address":{"Label":"GL56 0DA, Moreton in Marsh, England, United Kingdom","Country":"GBR","State":"England","County":"Gloucestershire","City":"Moreton in Marsh","PostalCode":"GL56 0DA","AdditionalData":[{"value":"United Kingdom","key":"CountryName"},{"value":"England","key":"StateName"},{"value":"Gloucestershire","key":"CountyName"}]},"MapReference":{"ReferenceId":"577322799","Spot":1.0,"SideOfStreet":"neither","StateId":"20248595","CountyId":"20334235","CityId":"20334248"}}},{"Relevance":1.0,"Distance":34.8,"MatchLevel":"postalCode","MatchQuality":{"PostalCode":1.0},"Location":{"LocationId":"NT_HB24d5nQWZziB8WIzELNLD_l_577358336_L","LocationType":"point","DisplayPosition":{"Latitude":51.99002,"Longitude":-1.70353},"MapView":{"TopLeft":{"Latitude":51.9990132,"Longitude":-1.7181341},"BottomRight":{"Latitude":51.9810268,"Longitude":-1.6889259}},"Address":{"Label":"GL56 0AL, Moreton in Marsh, England, United Kingdom","Country":"GBR","State":"England","County":"Gloucestershire","City":"Moreton in Marsh","PostalCode":"GL56 0AL","AdditionalData":[{"value":"United Kingdom","key":"CountryName"},{"value":"England","key":"StateName"},{"value":"Gloucestershire","key":"CountyName"}]},"MapReference":{"ReferenceId":"577358336","Spot":0.56,"SideOfStreet":"neither","StateId":"20248595","CountyId":"20334235","CityId":"20334248"}}},{"Relevance":1.0,"Distance":35.7,"MatchLevel":"postalCode","MatchQuality":{"PostalCode":1.0},"MatchType":"interpolated","Location":{"LocationId":"NT_FSPjTVsbR-hPYyV2Xz0FKB_l_577358337_R_xID","LocationType":"point","DisplayPosition":{"Latitude":51.99029,"Longitude":-1.70421},"MapView":{"TopLeft":{"Latitude":51.9992832,"Longitude":-1.7188142},"BottomRight":{"Latitude":51.9812968,"Longitude":-1.6896058}},"Address":{"Label":"GL56 0BU, Moreton in Marsh, England, United Kingdom","Country":"GBR","State":"England","County":"Gloucestershire","City":"Moreton in Marsh","PostalCode":"GL56 0BU","AdditionalData":[{"value":"United Kingdom","key":"CountryName"},{"value":"England","key":"StateName"},{"value":"Gloucestershire","key":"CountyName"}]},"MapReference":{"ReferenceId":"577358337","Spot":0.59,"SideOfStreet":"neither","StateId":"20248595","CountyId":"20334235","CityId":"20334248"}}},{"Relevance":1.0,"Distance":37.6,"MatchLevel":"street","MatchQuality":{"Country":1.0,"State":1.0,"County":1.0,"City":1.0,"District":1.0,"Street":[1.0],"PostalCode":1.0},"Location":{"LocationId":"NT_HB24d5nQWZziB8WIzELNLD_l_577358336_L","LocationType":"point","DisplayPosition":{"Latitude":51.9899001,"Longitude":-1.703504},"MapView":{"TopLeft":{"Latitude":51.99035,"Longitude":-1.70356},"BottomRight":{"Latitude":51.98948,"Longitude":-1.70335}},"Address":{"Label":"High Street, Moreton in Marsh, GL56 0, United Kingdom","Country":"GBR","State":"England","County":"Gloucestershire","City":"Moreton in Marsh","District":"Moreton in Marsh","Street":"High Street","PostalCode":"GL56 0","AdditionalData":[{"value":"United Kingdom","key":"CountryName"},{"value":"England","key":"StateName"},{"value":"Gloucestershire","key":"CountyName"}]},"MapReference":{"ReferenceId":"577358336","Spot":0.56,"SideOfStreet":"left","StateId":"20248595","CountyId":"20334235","CityId":"20334248","DistrictId":"20348636"}}},{"Relevance":1.0,"Distance":44.0,"MatchLevel":"postalCode","MatchQuality":{"PostalCode":1.0},"MatchType":"interpolated","Location":{"LocationId":"NT_1ByGaNXKCuedcEXRcw8g0A_l_26763110_L_xMD","LocationType":"point","DisplayPosition":{"Latitude":51.9903,"Longitude":-1.70364},"MapView":{"TopLeft":{"Latitude":51.9992932,"Longitude":-1.7182442},"BottomRight":{"Latitude":51.9813068,"Longitude":-1.6890358}},"Address":{"Label":"GL56 0AH, Moreton in Marsh, England, United Kingdom","Country":"GBR","State":"England","County":"Gloucestershire","City":"Moreton in Marsh","PostalCode":"GL56 0AH","AdditionalData":[{"value":"United Kingdom","key":"CountryName"},{"value":"England","key":"StateName"},{"value":"Gloucestershire","key":"CountyName"}]},"MapReference":{"ReferenceId":"26763110","Spot":0.54,"SideOfStreet":"neither","StateId":"20248595","CountyId":"20334235","CityId":"20334248"}}},{"Relevance":1.0,"Distance":44.4,"MatchLevel":"houseNumber","MatchQuality":{"Country":1.0,"State":1.0,"County":1.0,"City":1.0,"District":1.0,"Street":[1.0],"HouseNumber":1.0,"PostalCode":1.0},"MatchType":"interpolated","Location":{"LocationId":"NT_1ByGaNXKCuedcEXRcw8g0A_l_577358335_L_0A","LocationType":"point","DisplayPosition":{"Latitude":51.9897254,"Longitude":-1.7032812},"MapView":{"TopLeft":{"Latitude":51.9908495,"Longitude":-1.7051067},"BottomRight":{"Latitude":51.9886012,"Longitude":-1.7014556}},"Address":{"Label":"4 High Street, Moreton in Marsh, GL56 0AH, United Kingdom","Country":"GBR","State":"England","County":"Gloucestershire","City":"Moreton in Marsh","District":"Moreton in Marsh","Street":"High Street","HouseNumber":"4","PostalCode":"GL56 0AH","AdditionalData":[{"value":"United Kingdom","key":"CountryName"},{"value":"England","key":"StateName"},{"value":"Gloucestershire","key":"CountyName"}]},"MapReference":{"ReferenceId":"577358335","Spot":0.5,"SideOfStreet":"left","StateId":"20248595","CountyId":"20334235","CityId":"20334248","DistrictId":"20348636"}}},{"Relevance":1.0,"Distance":48.9,"MatchLevel":"houseNumber","MatchQuality":{"Country":1.0,"State":1.0,"County":1.0,"City":1.0,"District":1.0,"Street":[1.0],"HouseNumber":1.0,"PostalCode":1.0},"MatchType":"interpolated","Location":{"LocationId":"NT_1ByGaNXKCuedcEXRcw8g0A_l_26763110_L_xMD","LocationType":"point","DisplayPosition":{"Latitude":51.9900934,"Longitude":-1.7031678},"MapView":{"TopLeft":{"Latitude":51.9912176,"Longitude":-1.7049933},"BottomRight":{"Latitude":51.9889693,"Longitude":-1.7013423}},"Address":{"Label":"13 High Street, Moreton in Marsh, GL56 0AH, United Kingdom","Country":"GBR","State":"England","County":"Gloucestershire","City":"Moreton in Marsh","District":"Moreton in Marsh","Street":"High Street","HouseNumber":"13","PostalCode":"GL56 0AH","AdditionalData":[{"value":"United Kingdom","key":"CountryName"},{"value":"England","key":"StateName"},{"value":"Gloucestershire","key":"CountyName"}]},"MapReference":{"ReferenceId":"26763110","Spot":0.54,"SideOfStreet":"left","StateId":"20248595","CountyId":"20334235","CityId":"20334248","DistrictId":"20348636"}}}]}]}}