{"Response":{"MetaInfo":{"Timestamp":"2020-03-28T12:00:40.323+0000","NextPageInformation":"2"},"View":[{"_type":"SearchResultsViewType","ViewId":0,"Result":[{"Relevance":1.0,"Distance":0.0,"Direction":0.0,"MatchLevel":"district","MatchQuality":{"Country":1.0,"State":1.0,"County":1.0,"City":1.0,"District":1.0,"PostalCode":1.0},"Location":{"LocationId":"NT_MHTbV07.rSEGDpIt0uixaD","LocationType":"point","DisplayPosition":{"Latitude":51.9297214,"Longitude":-1.7225489},"MapView":{"TopLeft":{"Latitude":51.93634,"Longitude":-1.72906},"BottomRight":{"Latitude":51.92517,"Longitude":-1.70856}},"Address":{"Label":"Stow on the Wold, Cheltenham, England, United Kingdom","Country":"GBR","State":"England","County":"Gloucestershire","City":"Cheltenham","District":"Stow on the Wold","PostalCode":"GL54 1","AdditionalData":[{"value":"United Kingdom","key":"CountryName"},{"value":"England","key":"StateName"},{"value":"Gloucestershire","key":"CountyName"}]},"MapReference":{"ReferenceId":"565668829","SideOfStreet":"neither","StateId":"20248595","CountyId":"20334235","CityId":"20348371","DistrictId":"20348437"}}},{"Relevance":1.0,"Distance":20.0,"MatchLevel":"street","MatchQuality":{"Country":1.0,"State":1.0,"County":1.0,"City":1.0,"District":1.0,"Street":[1.0],"PostalCode":1.0},"Location":{"LocationId":"NT_GE34lcLOsqfBgjABIzREOB_l_26583301_R","LocationType":"point","DisplayPosition":{"Latitude":51.9298975,"Longitude":-1.7226045},"MapView":{"TopLeft":{"Latitude":51.92994,"Longitude":-1.72276},"BottomRight":{"Latitude":51.92988,"Longitude":-1.72247}},"Address":{"Label":"Market Square, Cheltenham, GL54 1, United Kingdom","Country":"GBR","State":"England","County":"Gloucestershire","City":"Cheltenham","District":"Stow on the Wold","Street":"Market Square","PostalCode":"GL54 1","AdditionalData":[{"value":"United Kingdom","key":"CountryName"},{"value":"England","key":"StateName"},{"value":"Gloucestershire","key":"CountyName"}]},"MapReference":{"ReferenceId":"26583301","Spot":0.53,"SideOfStreet":"right","StateId":"20248595","CountyId":"20334235","CityId":"20348371","DistrictId":"20348437"}}},{"Relevance":1.0,"Distance":20.3,"MatchLevel":"postalCode","MatchQuality":{"PostalCode":1.0},"MatchType":"interpolated","Location":{"LocationId":"NT_.FtIOYAagNl22TSjYnowDA_l_26583309_L_xA","LocationType":"point","DisplayPosition":{"Latitude":51.92976,"Longitude":-1.72226},"MapView":{"TopLeft":{"Latitude":51.9387532,"Longitude":-1.7368445},"BottomRight":{"Latitude":51.9207668,"Longitude":-1.7076755}},"Address":{"Label":"GL54 1BL, Cheltenham, England, United Kingdom","Country":"GBR","State":"England","County":"Gloucestershire","City":"Cheltenham","PostalCode":"GL54 1BL","AdditionalData":[{"value":"United Kingdom","key":"CountryName"},{"value":"England","key":"StateName"},{"value":"Gloucestershire","key":"CountyName"}]},"MapReference":{"ReferenceId":"26583309","Spot":0.51,"SideOfStreet":"neither","StateId":"20248595","CountyId":"20334235","CityId":"20348371"}}},{"Relevance":1.0,"Distance":23.7,"MatchLevel":"street","MatchQuality":{"Country":1.0,"State":1.0,"County":1.0,"City":1.0,"District":1.0,"Street":[1.0],"PostalCode":1.0},"Location":{"LocationId":"NT_GE34lcLOsqfBgjABIzREOB_l_26583300_L","LocationType":"point","DisplayPosition":{"Latitude":51.92989,"Longitude":-1.72276},"MapView":{"TopLeft":{"Latitude":51.93056,"Longitude":-1.72323},"BottomRight":{"Latitude":51.92989,"Longitude":-1.72276}},"Address":{"Label":"Market Square, Cheltenham, GL54 1, United Kingdom","Country":"GBR","State":"England","County":"Gloucestershire","City":"Cheltenham","District":"Stow on the Wold","Street":"Market Square","PostalCode":"GL54 1","AdditionalData":[{"value":"United Kingdom","key":"CountryName"},{"value":"England","key":"StateName"},{"value":"Gloucestershire","key":"CountyName"}]},"MapReference":{"ReferenceId":"26583300","Spot":0.0,"SideOfStreet":"left","StateId":"20248595","CountyId":"20334235","CityId":"20348371","DistrictId":"20348437"}}},{"Relevance":1.0,"Distance":23.7,"MatchLevel":"street","MatchQuality":{"Country":1.0,"State":1.0,"County":1.0,"City":1.0,"District":1.0,"Street":[1.0],"PostalCode":1.0},"Location":{"LocationId":"NT_NcalWfdKyq4oVCo4Hz50lD_l_565668834_R","LocationType":"point","DisplayPosition":{"Latitude":51.92989,"Longitude":-1.72276},"MapView":{"TopLeft":{"Latitude":51.92989,"Longitude":-1.72353},"BottomRight":{"Latitude":51.92978,"Longitude":-1.72276}},"Address":{"Label":"Church Street, Cheltenham, GL54 1, United Kingdom","Country":"GBR","State":"England","County":"Gloucestershire","City":"Cheltenham","District":"Stow on the Wold","Street":"Church Street","PostalCode":"GL54 1","AdditionalData":[{"value":"United Kingdom","key":"CountryName"},{"value":"England","key":"StateName"},{"value":"Gloucestershire","key":"CountyName"}]},"MapReference":{"ReferenceId":"565668834","Spot":1.0,"SideOfStreet":"right","StateId":"20248595","CountyId":"20334235","CityId":"20348371","DistrictId":"20348437"}}},{"Relevance":1.0,"Distance":24.9,"MatchLevel":"street","MatchQuality":{"Country":1.0,"State":1.0,"County":1.0,"City":1.0,"District":1.0,"Street":[1.0],"PostalCode":1.0},"Location":{"LocationId":"NT_GE34lcLOsqfBgjABIzREOB_l_26583298_R","LocationType":"point","DisplayPosition":{"Latitude":51.92994,"Longitude":-1.72247},"MapView":{"TopLeft":{"Latitude":51.93066,"Longitude":-1.7228},"BottomRight":{"Latitude":51.92994,"Longitude":-1.72241}},"Address":{"Label":"Market Square, Cheltenham, GL54 1, United Kingdom","Country":"GBR","State":"England","County":"Gloucestershire","City":"Cheltenham","District":"Stow on the Wold","Street":"Market Square","PostalCode":"GL54 1","AdditionalData":[{"value":"United Kingdom","key":"CountryName"},{"value":"England","key":"StateName"},{"value":"Gloucestershire","key":"CountyName"}]},"MapReference":{"ReferenceId":"26583298","Spot":0.0,"SideOfStreet":"right","StateId":"20248595","CountyId":"20334235","CityId":"20348371","DistrictId":"20348437"}}},{"Relevance":1.0,"Distance":29.7,"MatchLevel":"postalCode","MatchQuality":{"PostalCode":1.0},"Location":{"LocationId":"NT_NcalWfdKyq4oVCo4Hz50lD_l_565668834_R","LocationType":"point","DisplayPosition":{"Latitude":51.92975,"Longitude":-1.72298},"MapView":{"TopLeft":{"Latitude":51.9387432,"Longitude":-1.7375645},"BottomRight":{"Latitude":51.9207568,"Longitude":-1.7083955}},"Address":{"Label":"GL54 1BJ, Cheltenham, England, United Kingdom","Country":"GBR","State":"England","County":"Gloucestershire","City":"Cheltenham","PostalCode":"GL54 1BJ","AdditionalData":[{"value":"United Kingdom","key":"CountryName"},{"value":"England","key":"StateName"},{"value":"Gloucestershire","key":"CountyName"}]},"MapReference":{"ReferenceId":"565668834","Spot":1.0,"SideOfStreet":"neither","StateId":"20248595","CountyId":"20334235","CityId":"20348371"}}},{"Relevance":1.0,"Distance":48.2,"MatchLevel":"houseNumber","MatchQuality":{"Country":1.0,"State":1.0,"County":1.0,"City":1.0,"District":1.0,"Street":[1.0],"HouseNumber":1.0,"PostalCode":1.0},"MatchType":"interpolated","Location":{"LocationId":"NT_.FtIOYAagNl22TSjYnowDA_l_26583309_L_xA","LocationType":"point","DisplayPosition":{"Latitude":51.9296241,"Longitude":-1.7218642},"MapView":{"TopLeft":{"Latitude":51.9307482,"Longitude":-1.7236872},"BottomRight":{"Latitude":51.9284999,"Longitude":-1.7200411}},"Address":{"Label":"1 Digbeth Street, Cheltenham, GL54 1BN, United Kingdom","Country":"GBR","State":"England","County":"Gloucestershire","City":"Cheltenham","District":"Stow on the Wold","Street":"Digbeth Street","HouseNumber":"1","PostalCode":"GL54 1BN","AdditionalData":[{"value":"United Kingdom","key":"CountryName"},{"value":"England","key":"StateName"},{"value":"Gloucestershire","key":"CountyName"}]},"MapReference":{"ReferenceId":"26583309","Spot":0.51,"SideOfStreet":"left","StateId":"20248595","CountyId":"20334235","CityId":"20348371","DistrictId":"20348437"}}},{"Relevance":1.0,"Distance":59.8,"MatchLevel":"postalCode","MatchQuality":{"PostalCode":1.0},"Location":{"LocationId":"NT_7k-GpnthyomJyp7EZV8i2C_l_565668828_R","LocationType":"point","DisplayPosition":{"Latitude":51.92921,"Longitude":-1.72228},"MapView":{"TopLeft":{"Latitude":51.9382032,"Longitude":-1.7368644},"BottomRight":{"Latitude":51.9202168,"Longitude":-1.7076956}},"Address":{"Label":"GL54 1JW, Cheltenham, England, United Kingdom","Country":"GBR","State":"England","County":"Gloucestershire","City":"Cheltenham","PostalCode":"GL54 1JW","AdditionalData":[{"value":"United Kingdom","key":"CountryName"},{"value":"England","key":"StateName"},{"value":"Gloucestershire","key":"CountyName"}]},"MapReference":{"ReferenceId":"565668828","Spot":0.68,"SideOfStreet":"neither","StateId":"20248595","CountyId":"20334235","CityId":"20348371"}}},{"Relevance":1.0,"Distance":62.9,"MatchLevel":"street","MatchQuality":{"Country":1.0,"State":1.0,"County":1.0,"City":1.0,"District":1.0,"Street":[1.0],"PostalCode":1.0},"Location":{"LocationId":"NT_7k-GpnthyomJyp7EZV8i2C_l_565668828_R","LocationType":"point","DisplayPosition":{"Latitude":51.9291559,"Longitude":-1.7225325},"MapView":{"TopLeft":{"Latitude":51.92916,"Longitude":-1.72308},"BottomRight":{"Latitude":51.92913,"Longitude":-1.72135}},"Address":{"Label":"Sheep Street, Cheltenham, GL54 1, United Kingdom","Country":"GBR","State":"England","County":"Gloucestershire","City":"Cheltenham","District":"Stow on the Wold","Street":"Sheep Street","PostalCode":"GL54 1","AdditionalData":[{"value":"United Kingdom","key":"CountryName"},{"value":"England","key":"StateName"},{"value":"Gloucestershire","key":"CountyName"}]},"MapReference":{"ReferenceId":"565668828","Spot":0.68,"SideOfStreet":"right","StateId":"20248595","CountyId":"20334235","CityId":"20348371","DistrictId":"20348437"}}}]}]}}