{"Response":{"MetaInfo":{"Timestamp":"2020-03-28T10:13:06.797+0000","NextPageInformation":"2"},"View":[{"_type":"SearchResultsViewType","ViewId":0,"Result":[{"Relevance":1.0,"Distance":0.0,"Direction":0.0,"MatchLevel":"district","MatchQuality":{"Country":1.0,"State":1.0,"County":1.0,"City":1.0,"District":1.0,"PostalCode":1.0},"Location":{"LocationId":"NT_i44G1VMrLI6DOIJA0TNRlD","LocationType":"point","DisplayPosition":{"Latitude":51.9576916,"Longitude":19.6971723},"MapView":{"TopLeft":{"Latitude":51.98736,"Longitude":19.66673},"BottomRight":{"Latitude":51.9398,"Longitude":19.76181}},"Address":{"Label":"Głowno, Woj. Łódzkie, Polska","Country":"POL","State":"Woj. Łódzkie","County":"Powiat Zgierski","City":"Głowno","District":"Głowno","PostalCode":"95-015","AdditionalData":[{"value":"Polska","key":"CountryName"},{"value":"Woj. Łódzkie","key":"StateName"},{"value":"Powiat Zgierski","key":"CountyName"}]},"MapReference":{"ReferenceId":"887158676","SideOfStreet":"neither","CountryId":"20624059","StateId":"20625723","CountyId":"20626098","CityId":"20683437","DistrictId":"20683438"}}},{"Relevance":1.0,"Distance":20.1,"MatchLevel":"houseNumber","MatchQuality":{"Country":1.0,"State":1.0,"County":1.0,"City":1.0,"District":1.0,"Street":[1.0],"HouseNumber":1.0,"PostalCode":1.0},"MatchType":"interpolated","Location":{"LocationId":"NT_mgjlLFtBhbroTR-Ok1ZXSB_3ME","LocationType":"point","DisplayPosition":{"Latitude":51.95681,"Longitude":19.69711},"MapView":{"TopLeft":{"Latitude":51.9579342,"Longitude":19.6952858},"BottomRight":{"Latitude":51.9556858,"Longitude":19.6989342}},"Address":{"Label":"ulica Moczydła 7C, 95-015 Głowno, Polska","Country":"POL","State":"Woj. Łódzkie","County":"Powiat Zgierski","City":"Głowno","District":"Głowno","Street":"ulica Moczydła","HouseNumber":"7C","PostalCode":"95-015","AdditionalData":[{"value":"Polska","key":"CountryName"},{"value":"Woj. Łódzkie","key":"StateName"},{"value":"Powiat Zgierski","key":"CountyName"}]},"MapReference":{"ReferenceId":"595689247","Spot":0.28,"SideOfStreet":"left","CountryId":"20624059","StateId":"20625723","CountyId":"20626098","CityId":"20683437","DistrictId":"20683438","AddressId":"741685202","RoadLinkId":"95951401"}}},{"Relevance":1.0,"Distance":26.3,"MatchLevel":"houseNumber","MatchQuality":{"Country":1.0,"State":1.0,"County":1.0,"City":1.0,"District":1.0,"Street":[1.0],"HouseNumber":1.0,"PostalCode":1.0},"MatchType":"interpolated","Location":{"LocationId":"NT_QUnNuwZZ0kTosmEnGNYfXA_2EE","LocationType":"point","DisplayPosition":{"Latitude":51.95839,"Longitude":19.69726},"MapView":{"TopLeft":{"Latitude":51.9595142,"Longitude":19.6954358},"BottomRight":{"Latitude":51.9572658,"Longitude":19.6990842}},"Address":{"Label":"ulica 18 Stycznia 1493 roku 6A, 95-015 Głowno, Polska","Country":"POL","State":"Woj. Łódzkie","County":"Powiat Zgierski","City":"Głowno","District":"Głowno","Street":"ulica 18 Stycznia 1493 roku","HouseNumber":"6A","PostalCode":"95-015","AdditionalData":[{"value":"Polska","key":"CountryName"},{"value":"Woj. Łódzkie","key":"StateName"},{"value":"Powiat Zgierski","key":"CountyName"}]},"MapReference":{"ReferenceId":"595689081","Spot":0.71,"SideOfStreet":"right","CountryId":"20624059","StateId":"20625723","CountyId":"20626098","CityId":"20683437","DistrictId":"20683438","AddressId":"732080228","RoadLinkId":"95888305"}}},{"Relevance":1.0,"Distance":124.8,"MatchLevel":"street","MatchQuality":{"Country":1.0,"State":1.0,"County":1.0,"City":1.0,"District":1.0,"Street":[1.0],"PostalCode":1.0},"Location":{"LocationId":"NT_OnRHjtKMn0rIZxHHPw52QB_l_595689333_R","LocationType":"point","DisplayPosition":{"Latitude":51.95675,"Longitude":19.69618},"MapView":{"TopLeft":{"Latitude":51.95675,"Longitude":19.69618},"BottomRight":{"Latitude":51.95605,"Longitude":19.69623}},"Address":{"Label":"ulica Mokra, 95-015 Głowno, Polska","Country":"POL","State":"Woj. Łódzkie","County":"Powiat Zgierski","City":"Głowno","District":"Głowno","Street":"ulica Mokra","PostalCode":"95-015","AdditionalData":[{"value":"Polska","key":"CountryName"},{"value":"Woj. Łódzkie","key":"StateName"},{"value":"Powiat Zgierski","key":"CountyName"}]},"MapReference":{"ReferenceId":"595689333","Spot":1.0,"SideOfStreet":"right","CountryId":"20624059","StateId":"20625723","CountyId":"20626098","CityId":"20683437","DistrictId":"20683438"}}},{"Relevance":1.0,"Distance":137.8,"MatchLevel":"houseNumber","MatchQuality":{"Country":1.0,"State":1.0,"County":1.0,"City":1.0,"District":1.0,"Street":[1.0],"HouseNumber":1.0,"PostalCode":1.0},"MatchType":"interpolated","Location":{"LocationId":"NT_rwUi6ovaX8nX1JKgkzQCqD_2A","LocationType":"point","DisplayPosition":{"Latitude":51.95738,"Longitude":19.69942},"MapView":{"TopLeft":{"Latitude":51.9585042,"Longitude":19.6975958},"BottomRight":{"Latitude":51.9562558,"Longitude":19.7012442}},"Address":{"Label":"ulica Lewa 6, 95-015 Głowno, Polska","Country":"POL","State":"Woj. Łódzkie","County":"Powiat Zgierski","City":"Głowno","District":"Głowno","Street":"ulica Lewa","HouseNumber":"6","PostalCode":"95-015","AdditionalData":[{"value":"Polska","key":"CountryName"},{"value":"Woj. Łódzkie","key":"StateName"},{"value":"Powiat Zgierski","key":"CountyName"}]},"MapReference":{"ReferenceId":"782951750","Spot":0.38,"SideOfStreet":"left","CountryId":"20624059","StateId":"20625723","CountyId":"20626098","CityId":"20683437","DistrictId":"20683438","AddressId":"210762346","RoadLinkId":"175765794"}}},{"Relevance":1.0,"Distance":143.7,"MatchLevel":"houseNumber","MatchQuality":{"Country":1.0,"State":1.0,"County":1.0,"City":1.0,"District":1.0,"Street":[1.0],"HouseNumber":1.0,"PostalCode":1.0},"MatchType":"interpolated","Location":{"LocationId":"NT_rwUi6ovaX8nX1JKgkzQCqD_xAD","LocationType":"point","DisplayPosition":{"Latitude":51.95821,"Longitude":19.69929},"MapView":{"TopLeft":{"Latitude":51.9593342,"Longitude":19.6974658},"BottomRight":{"Latitude":51.9570858,"Longitude":19.7011142}},"Address":{"Label":"ulica Lewa 10, 95-015 Głowno, Polska","Country":"POL","State":"Woj. Łódzkie","County":"Powiat Zgierski","City":"Głowno","District":"Głowno","Street":"ulica Lewa","HouseNumber":"10","PostalCode":"95-015","AdditionalData":[{"value":"Polska","key":"CountryName"},{"value":"Woj. Łódzkie","key":"StateName"},{"value":"Powiat Zgierski","key":"CountyName"}]},"MapReference":{"ReferenceId":"782951751","Spot":0.34,"SideOfStreet":"left","CountryId":"20624059","StateId":"20625723","CountyId":"20626098","CityId":"20683437","DistrictId":"20683438","AddressId":"701697316","RoadLinkId":"175765795"}}},{"Relevance":1.0,"Distance":149.5,"MatchLevel":"houseNumber","MatchQuality":{"Country":1.0,"State":1.0,"County":1.0,"City":1.0,"District":1.0,"Street":[1.0],"HouseNumber":1.0,"PostalCode":1.0},"MatchType":"interpolated","Location":{"LocationId":"NT_mgjlLFtBhbroTR-Ok1ZXSB_xED","LocationType":"point","DisplayPosition":{"Latitude":51.95672,"Longitude":19.69543},"MapView":{"TopLeft":{"Latitude":51.9578442,"Longitude":19.6936058},"BottomRight":{"Latitude":51.9555958,"Longitude":19.6972542}},"Address":{"Label":"ulica Moczydła 11, 95-015 Głowno, Polska","Country":"POL","State":"Woj. Łódzkie","County":"Powiat Zgierski","City":"Głowno","District":"Głowno","Street":"ulica Moczydła","HouseNumber":"11","PostalCode":"95-015","AdditionalData":[{"value":"Polska","key":"CountryName"},{"value":"Woj. Łódzkie","key":"StateName"},{"value":"Powiat Zgierski","key":"CountyName"}]},"MapReference":{"ReferenceId":"595689264","Spot":0.8,"SideOfStreet":"left","CountryId":"20624059","StateId":"20625723","CountyId":"20626098","CityId":"20683437","DistrictId":"20683438","AddressId":"701678575","RoadLinkId":"95491037"}}},{"Relevance":1.0,"Distance":151.7,"MatchLevel":"houseNumber","MatchQuality":{"Country":1.0,"State":1.0,"County":1.0,"City":1.0,"District":1.0,"Street":[1.0],"HouseNumber":1.0,"PostalCode":1.0},"MatchType":"interpolated","Location":{"LocationId":"NT_MDzCaL0Bkr2UY8ZlLvMi6D_xQD","LocationType":"point","DisplayPosition":{"Latitude":51.9593,"Longitude":19.69735},"MapView":{"TopLeft":{"Latitude":51.9604242,"Longitude":19.6955257},"BottomRight":{"Latitude":51.9581758,"Longitude":19.6991743}},"Address":{"Label":"ulica Zabrzeźniańska 14, 95-015 Głowno, Polska","Country":"POL","State":"Woj. Łódzkie","County":"Powiat Zgierski","City":"Głowno","District":"Głowno","Street":"ulica Zabrzeźniańska","HouseNumber":"14","PostalCode":"95-015","AdditionalData":[{"value":"Polska","key":"CountryName"},{"value":"Woj. Łódzkie","key":"StateName"},{"value":"Powiat Zgierski","key":"CountyName"}]},"MapReference":{"ReferenceId":"595688949","Spot":0.16,"SideOfStreet":"right","CountryId":"20624059","StateId":"20625723","CountyId":"20626098","CityId":"20683437","DistrictId":"20683438","AddressId":"222110448","RoadLinkId":"95889890"}}},{"Relevance":1.0,"Distance":152.4,"MatchLevel":"street","MatchQuality":{"Country":1.0,"State":1.0,"County":1.0,"City":1.0,"District":1.0,"PostalCode":1.0},"Location":{"LocationId":"NT_ouvGLSsh2VRtS-EwHpL9tB_l_782951752_L","LocationType":"point","DisplayPosition":{"Latitude":51.95807,"Longitude":19.69931},"MapView":{"TopLeft":{"Latitude":51.95887,"Longitude":19.69931},"BottomRight":{"Latitude":51.95807,"Longitude":19.70156}},"Address":{"Label":"95-015 Głowno, Polska","Country":"POL","State":"Woj. Łódzkie","County":"Powiat Zgierski","City":"Głowno","District":"Głowno","PostalCode":"95-015","AdditionalData":[{"value":"Polska","key":"CountryName"},{"value":"Woj. Łódzkie","key":"StateName"},{"value":"Powiat Zgierski","key":"CountyName"}]},"MapReference":{"ReferenceId":"782951752","Spot":0.0,"SideOfStreet":"left","CountryId":"20624059","StateId":"20625723","CountyId":"20626098","CityId":"20683437","DistrictId":"20683438"}}},{"Relevance":1.0,"Distance":162.6,"MatchLevel":"houseNumber","MatchQuality":{"Country":1.0,"State":1.0,"County":1.0,"City":1.0,"District":1.0,"Street":[1.0],"HouseNumber":1.0,"PostalCode":1.0},"MatchType":"interpolated","Location":{"LocationId":"NT_MDzCaL0Bkr2UY8ZlLvMi6D_xYD","LocationType":"point","DisplayPosition":{"Latitude":51.95929,"Longitude":19.69699},"MapView":{"TopLeft":{"Latitude":51.9604142,"Longitude":19.6951657},"BottomRight":{"Latitude":51.9581658,"Longitude":19.6988143}},"Address":{"Label":"ulica Zabrzeźniańska 16, 95-015 Głowno, Polska","Country":"POL","State":"Woj. Łódzkie","County":"Powiat Zgierski","City":"Głowno","District":"Głowno","Street":"ulica Zabrzeźniańska","HouseNumber":"16","PostalCode":"95-015","AdditionalData":[{"value":"Polska","key":"CountryName"},{"value":"Woj. Łódzkie","key":"StateName"},{"value":"Powiat Zgierski","key":"CountyName"}]},"MapReference":{"ReferenceId":"595688972","Spot":1.0,"SideOfStreet":"right","CountryId":"20624059","StateId":"20625723","CountyId":"20626098","CityId":"20683437","DistrictId":"20683438","AddressId":"701676824","RoadLinkId":"95638251"}}}]}]}}