{"Response":{"MetaInfo":{"Timestamp":"2020-03-28T10:40:41.448+0000","NextPageInformation":"2"},"View":[{"_type":"SearchResultsViewType","ViewId":0,"Result":[{"Relevance":1.0,"Distance":0.0,"Direction":0.0,"MatchLevel":"district","MatchQuality":{"Country":1.0,"State":1.0,"County":1.0,"City":1.0,"District":1.0,"PostalCode":1.0},"Location":{"LocationId":"NT_wiY.-oQF3hGvoSM1nH0gCB","LocationType":"point","DisplayPosition":{"Latitude":51.9203979,"Longitude":-0.6640904},"MapView":{"TopLeft":{"Latitude":51.94043,"Longitude":-0.67894},"BottomRight":{"Latitude":51.90108,"Longitude":-0.62612}},"Address":{"Label":"Leighton Buzzard, England, United Kingdom","Country":"GBR","State":"England","County":"Bedfordshire","City":"Leighton Buzzard","District":"Leighton Buzzard","PostalCode":"LU7 1","AdditionalData":[{"value":"United Kingdom","key":"CountryName"},{"value":"England","key":"StateName"},{"value":"Bedfordshire","key":"CountyName"}]},"MapReference":{"ReferenceId":"25856600","SideOfStreet":"neither","StateId":"20248595","CountyId":"20334253","CityId":"20334369","DistrictId":"20334370"}}},{"Relevance":1.0,"Distance":12.3,"MatchLevel":"houseNumber","MatchQuality":{"Country":1.0,"State":1.0,"County":1.0,"City":1.0,"District":1.0,"Street":[1.0],"HouseNumber":1.0,"PostalCode":1.0},"MatchType":"interpolated","Location":{"LocationId":"NT_.waUG7WulNvZwj0YvJHJ7D_l_25856274_R_zED","LocationType":"point","DisplayPosition":{"Latitude":51.9204652,"Longitude":-0.6642326},"MapView":{"TopLeft":{"Latitude":51.9215893,"Longitude":-0.6660553},"BottomRight":{"Latitude":51.919341,"Longitude":-0.6624099}},"Address":{"Label":"31 Millbank, Leighton Buzzard, LU7 1AS, United Kingdom","Country":"GBR","State":"England","County":"Bedfordshire","City":"Leighton Buzzard","District":"Leighton Buzzard","Street":"Millbank","HouseNumber":"31","PostalCode":"LU7 1AS","AdditionalData":[{"value":"United Kingdom","key":"CountryName"},{"value":"England","key":"StateName"},{"value":"Bedfordshire","key":"CountyName"}]},"MapReference":{"ReferenceId":"25856274","Spot":0.51,"SideOfStreet":"right","StateId":"20248595","CountyId":"20334253","CityId":"20334369","DistrictId":"20334370"}}},{"Relevance":1.0,"Distance":23.2,"MatchLevel":"houseNumber","MatchQuality":{"Country":1.0,"State":1.0,"County":1.0,"City":1.0,"District":1.0,"Street":[1.0],"HouseNumber":1.0,"PostalCode":1.0},"MatchType":"interpolated","Location":{"LocationId":"NT_hOjDGzA-pooqD-FtE3d9VB_l_25856325_L_ykD","LocationType":"point","DisplayPosition":{"Latitude":51.9201687,"Longitude":-0.6640939},"MapView":{"TopLeft":{"Latitude":51.9212928,"Longitude":-0.6659165},"BottomRight":{"Latitude":51.9190445,"Longitude":-0.6622712}},"Address":{"Label":"29 Bassett Road, Leighton Buzzard, LU7 1AR, United Kingdom","Country":"GBR","State":"England","County":"Bedfordshire","City":"Leighton Buzzard","District":"Leighton Buzzard","Street":"Bassett Road","HouseNumber":"29","PostalCode":"LU7 1AR","AdditionalData":[{"value":"United Kingdom","key":"CountryName"},{"value":"England","key":"StateName"},{"value":"Bedfordshire","key":"CountyName"}]},"MapReference":{"ReferenceId":"25856325","Spot":0.5,"SideOfStreet":"left","StateId":"20248595","CountyId":"20334253","CityId":"20334369","DistrictId":"20334370"}}},{"Relevance":1.0,"Distance":26.3,"MatchLevel":"street","MatchQuality":{"Country":1.0,"State":1.0,"County":1.0,"City":1.0,"District":1.0,"Street":[1.0],"PostalCode":1.0},"Location":{"LocationId":"NT_bTq3b-f7dBK6bkFNvragfB_l_25856285_R","LocationType":"point","DisplayPosition":{"Latitude":51.92048,"Longitude":-0.66445},"MapView":{"TopLeft":{"Latitude":51.92048,"Longitude":-0.66487},"BottomRight":{"Latitude":51.92033,"Longitude":-0.66445}},"Address":{"Label":"Basildon Court, Leighton Buzzard, LU7 1, United Kingdom","Country":"GBR","State":"England","County":"Bedfordshire","City":"Leighton Buzzard","District":"Leighton Buzzard","Street":"Basildon Court","PostalCode":"LU7 1","AdditionalData":[{"value":"United Kingdom","key":"CountryName"},{"value":"England","key":"StateName"},{"value":"Bedfordshire","key":"CountyName"}]},"MapReference":{"ReferenceId":"25856285","Spot":1.0,"SideOfStreet":"right","StateId":"20248595","CountyId":"20334253","CityId":"20334369","DistrictId":"20334370"}}},{"Relevance":1.0,"Distance":27.0,"MatchLevel":"houseNumber","MatchQuality":{"Country":1.0,"State":1.0,"County":1.0,"City":1.0,"District":1.0,"Street":[1.0],"HouseNumber":1.0,"PostalCode":1.0},"MatchType":"interpolated","Location":{"LocationId":"NT_DNB7ITO5MDhlN5mBmbHSPB_l_25856273_R_1AD","LocationType":"point","DisplayPosition":{"Latitude":51.920626,"Longitude":-0.6639547},"MapView":{"TopLeft":{"Latitude":51.9217501,"Longitude":-0.6657774},"BottomRight":{"Latitude":51.9195018,"Longitude":-0.662132}},"Address":{"Label":"50 Bassett Road, Leighton Buzzard, LU7 1, United Kingdom","Country":"GBR","State":"England","County":"Bedfordshire","City":"Leighton Buzzard","District":"Leighton Buzzard","Street":"Bassett Road","HouseNumber":"50","PostalCode":"LU7 1","AdditionalData":[{"value":"United Kingdom","key":"CountryName"},{"value":"England","key":"StateName"},{"value":"Bedfordshire","key":"CountyName"}]},"MapReference":{"ReferenceId":"25856273","Spot":0.49,"SideOfStreet":"right","StateId":"20248595","CountyId":"20334253","CityId":"20334369","DistrictId":"20334370"}}},{"Relevance":1.0,"Distance":39.8,"MatchLevel":"houseNumber","MatchQuality":{"Country":1.0,"State":1.0,"County":1.0,"City":1.0,"District":1.0,"Street":[1.0],"HouseNumber":1.0,"PostalCode":1.0},"MatchType":"interpolated","Location":{"LocationId":"NT_M7caKFRL9OwQUNWr3BcxAB_l_25856267_L_3MD","LocationType":"point","DisplayPosition":{"Latitude":51.9207107,"Longitude":-0.6635533},"MapView":{"TopLeft":{"Latitude":51.9218349,"Longitude":-0.665376},"BottomRight":{"Latitude":51.9195866,"Longitude":-0.6617306}},"Address":{"Label":"73 Mill Road, Leighton Buzzard, LU7 1AX, United Kingdom","Country":"GBR","State":"England","County":"Bedfordshire","City":"Leighton Buzzard","District":"Leighton Buzzard","Street":"Mill Road","HouseNumber":"73","PostalCode":"LU7 1AX","AdditionalData":[{"value":"United Kingdom","key":"CountryName"},{"value":"England","key":"StateName"},{"value":"Bedfordshire","key":"CountyName"}]},"MapReference":{"ReferenceId":"25856267","Spot":0.69,"SideOfStreet":"left","StateId":"20248595","CountyId":"20334253","CityId":"20334369","DistrictId":"20334370"}}},{"Relevance":1.0,"Distance":39.8,"MatchLevel":"houseNumber","MatchQuality":{"Country":1.0,"State":1.0,"County":1.0,"City":1.0,"District":1.0,"Street":[1.0],"HouseNumber":1.0,"PostalCode":1.0},"MatchType":"interpolated","Location":{"LocationId":"NT_.waUG7WulNvZwj0YvJHJ7D_l_25856271_R_zAD","LocationType":"point","DisplayPosition":{"Latitude":51.92057,"Longitude":-0.6646},"MapView":{"TopLeft":{"Latitude":51.9216942,"Longitude":-0.6664227},"BottomRight":{"Latitude":51.9194459,"Longitude":-0.6627773}},"Address":{"Label":"30 Millbank, Leighton Buzzard, LU7 1AS, United Kingdom","Country":"GBR","State":"England","County":"Bedfordshire","City":"Leighton Buzzard","District":"Leighton Buzzard","Street":"Millbank","HouseNumber":"30","PostalCode":"LU7 1AS","AdditionalData":[{"value":"United Kingdom","key":"CountryName"},{"value":"England","key":"StateName"},{"value":"Bedfordshire","key":"CountyName"}]},"MapReference":{"ReferenceId":"25856271","Spot":0.4,"SideOfStreet":"right","StateId":"20248595","CountyId":"20334253","CityId":"20334369","DistrictId":"20334370"}}},{"Relevance":1.0,"Distance":44.0,"MatchLevel":"houseNumber","MatchQuality":{"Country":1.0,"State":1.0,"County":1.0,"City":1.0,"District":1.0,"Street":[1.0],"HouseNumber":1.0,"PostalCode":1.0},"MatchType":"interpolated","Location":{"LocationId":"NT_QIDXHz550yrzwnu-CQtvJA_l_864245417_R_1QD","LocationType":"point","DisplayPosition":{"Latitude":51.91991,"Longitude":-0.6644},"MapView":{"TopLeft":{"Latitude":51.9210342,"Longitude":-0.6662227},"BottomRight":{"Latitude":51.9187859,"Longitude":-0.6625774}},"Address":{"Label":"54 Millstream Way, Leighton Buzzard, LU7 3WJ, United Kingdom","Country":"GBR","State":"England","County":"Bedfordshire","City":"Leighton Buzzard","District":"Leighton Buzzard","Street":"Millstream Way","HouseNumber":"54","PostalCode":"LU7 3WJ","AdditionalData":[{"value":"United Kingdom","key":"CountryName"},{"value":"England","key":"StateName"},{"value":"Bedfordshire","key":"CountyName"}]},"MapReference":{"ReferenceId":"864245417","Spot":0.22,"SideOfStreet":"right","StateId":"20248595","CountyId":"20334253","CityId":"20334369","DistrictId":"20334370"}}},{"Relevance":1.0,"Distance":47.7,"MatchLevel":"houseNumber","MatchQuality":{"Country":1.0,"State":1.0,"County":1.0,"City":1.0,"District":1.0,"Street":[1.0],"HouseNumber":1.0,"PostalCode":1.0},"MatchType":"interpolated","Location":{"LocationId":"NT_ycOyu2cUYg5i6dVBC.HvnB_l_25856226_L_xA","LocationType":"point","DisplayPosition":{"Latitude":51.92093,"Longitude":-0.66399},"MapView":{"TopLeft":{"Latitude":51.9220542,"Longitude":-0.6658127},"BottomRight":{"Latitude":51.9198059,"Longitude":-0.6621673}},"Address":{"Label":"1 Queen Street, Leighton Buzzard, LU7 1AY, United Kingdom","Country":"GBR","State":"England","County":"Bedfordshire","City":"Leighton Buzzard","District":"Leighton Buzzard","Street":"Queen Street","HouseNumber":"1","PostalCode":"LU7 1AY","AdditionalData":[{"value":"United Kingdom","key":"CountryName"},{"value":"England","key":"StateName"},{"value":"Bedfordshire","key":"CountyName"}]},"MapReference":{"ReferenceId":"25856226","Spot":0.23,"SideOfStreet":"left","StateId":"20248595","CountyId":"20334253","CityId":"20334369","DistrictId":"20334370"}}},{"Relevance":1.0,"Distance":51.8,"MatchLevel":"houseNumber","MatchQuality":{"Country":1.0,"State":1.0,"County":1.0,"City":1.0,"District":1.0,"Street":[1.0],"HouseNumber":1.0,"PostalCode":1.0},"MatchType":"interpolated","Location":{"LocationId":"NT_AnPuI7M5tAaieynvEifN3D_l_743432144_R_0UD","LocationType":"point","DisplayPosition":{"Latitude":51.9209002,"Longitude":-0.6637598},"MapView":{"TopLeft":{"Latitude":51.9220243,"Longitude":-0.6655825},"BottomRight":{"Latitude":51.919776,"Longitude":-0.6619371}},"Address":{"Label":"45 Ashwell Street, Leighton Buzzard, LU7 1BG, United Kingdom","Country":"GBR","State":"England","County":"Bedfordshire","City":"Leighton Buzzard","District":"Leighton Buzzard","Street":"Ashwell Street","HouseNumber":"45","PostalCode":"LU7 1BG","AdditionalData":[{"value":"United Kingdom","key":"CountryName"},{"value":"England","key":"StateName"},{"value":"Bedfordshire","key":"CountyName"}]},"MapReference":{"ReferenceId":"743432144","Spot":0.06,"SideOfStreet":"right","StateId":"20248595","CountyId":"20334253","CityId":"20334369","DistrictId":"20334370"}}}]}]}}