{"Response":{"MetaInfo":{"Timestamp":"2020-03-28T11:44:15.715+0000","NextPageInformation":"2"},"View":[{"_type":"SearchResultsViewType","ViewId":0,"Result":[{"Relevance":1.0,"Distance":0.0,"Direction":0.0,"MatchLevel":"district","MatchQuality":{"Country":1.0,"State":1.0,"County":1.0,"City":1.0,"District":1.0,"PostalCode":1.0},"Location":{"LocationId":"NT_WrZFeyXKv4qqBXrcF0e1ID","LocationType":"point","DisplayPosition":{"Latitude":51.9133132,"Longitude":8.4343222},"MapView":{"TopLeft":{"Latitude":51.94411,"Longitude":8.41937},"BottomRight":{"Latitude":51.90835,"Longitude":8.45516}},"Address":{"Label":"Avenwedde, Gütersloh, Nordrhein-Westfalen, Deutschland","Country":"DEU","State":"Nordrhein-Westfalen","County":"Gütersloh","City":"Gütersloh","District":"Avenwedde","PostalCode":"33335","AdditionalData":[{"value":"Deutschland","key":"CountryName"},{"value":"Nordrhein-Westfalen","key":"StateName"},{"value":"Gütersloh","key":"CountyName"}]},"MapReference":{"ReferenceId":"52701760","SideOfStreet":"neither","CountryId":"20147700","StateId":"20157369","CountyId":"20159554","CityId":"20159560","DistrictId":"20159567"}}},{"Relevance":1.0,"Distance":20.5,"MatchLevel":"houseNumber","MatchQuality":{"Country":1.0,"State":1.0,"County":1.0,"City":1.0,"District":1.0,"Street":[1.0],"HouseNumber":1.0,"PostalCode":1.0},"MatchType":"interpolated","Location":{"LocationId":"NT_bzXDSEBhTwFz1UxsXA8DkC_4MD","LocationType":"point","DisplayPosition":{"Latitude":51.91306,"Longitude":8.43434},"MapView":{"TopLeft":{"Latitude":51.9141842,"Longitude":8.4325176},"BottomRight":{"Latitude":51.9119358,"Longitude":8.4361624}},"Address":{"Label":"Avenwedder Straße 83, 33335 Gütersloh, Deutschland","Country":"DEU","State":"Nordrhein-Westfalen","County":"Gütersloh","City":"Gütersloh","District":"Avenwedde","Street":"Avenwedder Straße","HouseNumber":"83","PostalCode":"33335","AdditionalData":[{"value":"Deutschland","key":"CountryName"},{"value":"Nordrhein-Westfalen","key":"StateName"},{"value":"Gütersloh","key":"CountyName"}]},"MapReference":{"ReferenceId":"1262762860","Spot":0.11,"SideOfStreet":"left","CountryId":"20147700","StateId":"20157369","CountyId":"20159554","CityId":"20159560","DistrictId":"20159567","AddressId":"195793165","RoadLinkId":"588546561"}}},{"Relevance":1.0,"Distance":25.2,"MatchLevel":"street","MatchQuality":{"Country":1.0,"State":1.0,"County":1.0,"City":1.0,"District":1.0,"PostalCode":1.0},"Location":{"LocationId":"NT_Ht-J7tMNAHSb9LWEJAVugD_l_1263152606_R","LocationType":"point","DisplayPosition":{"Latitude":51.9131466,"Longitude":8.4340723},"MapView":{"TopLeft":{"Latitude":51.91353,"Longitude":8.43384},"BottomRight":{"Latitude":51.91301,"Longitude":8.43417}},"Address":{"Label":"33335 Gütersloh, Deutschland","Country":"DEU","State":"Nordrhein-Westfalen","County":"Gütersloh","City":"Gütersloh","District":"Avenwedde","PostalCode":"33335","AdditionalData":[{"value":"Deutschland","key":"CountryName"},{"value":"Nordrhein-Westfalen","key":"StateName"},{"value":"Gütersloh","key":"CountyName"}]},"MapReference":{"ReferenceId":"1263152606","Spot":0.27,"SideOfStreet":"right","CountryId":"20147700","StateId":"20157369","CountyId":"20159554","CityId":"20159560","DistrictId":"20159567"}}},{"Relevance":1.0,"Distance":43.2,"MatchLevel":"houseNumber","MatchQuality":{"Country":1.0,"State":1.0,"County":1.0,"City":1.0,"District":1.0,"Street":[1.0],"HouseNumber":1.0,"PostalCode":1.0},"MatchType":"interpolated","Location":{"LocationId":"NT_bzXDSEBhTwFz1UxsXA8DkC_4ED","LocationType":"point","DisplayPosition":{"Latitude":51.91294,"Longitude":8.43396},"MapView":{"TopLeft":{"Latitude":51.9140642,"Longitude":8.4321376},"BottomRight":{"Latitude":51.9118158,"Longitude":8.4357824}},"Address":{"Label":"Avenwedder Straße 81, 33335 Gütersloh, Deutschland","Country":"DEU","State":"Nordrhein-Westfalen","County":"Gütersloh","City":"Gütersloh","District":"Avenwedde","Street":"Avenwedder Straße","HouseNumber":"81","PostalCode":"33335","AdditionalData":[{"value":"Deutschland","key":"CountryName"},{"value":"Nordrhein-Westfalen","key":"StateName"},{"value":"Gütersloh","key":"CountyName"}]},"MapReference":{"ReferenceId":"1262762859","Spot":0.88,"SideOfStreet":"left","CountryId":"20147700","StateId":"20157369","CountyId":"20159554","CityId":"20159560","DistrictId":"20159567","AddressId":"196159191","RoadLinkId":"588546560"}}},{"Relevance":1.0,"Distance":45.1,"MatchLevel":"houseNumber","MatchQuality":{"Country":1.0,"State":1.0,"County":1.0,"City":1.0,"District":1.0,"Street":[1.0],"HouseNumber":1.0,"PostalCode":1.0},"MatchType":"interpolated","Location":{"LocationId":"NT_P.zME26U70J5aRLv2ZkPlB_xID","LocationType":"point","DisplayPosition":{"Latitude":51.91346,"Longitude":8.43362},"MapView":{"TopLeft":{"Latitude":51.9145842,"Longitude":8.4317976},"BottomRight":{"Latitude":51.9123358,"Longitude":8.4354424}},"Address":{"Label":"Aurikelweg 12, 33335 Gütersloh, Deutschland","Country":"DEU","State":"Nordrhein-Westfalen","County":"Gütersloh","City":"Gütersloh","District":"Avenwedde","Street":"Aurikelweg","HouseNumber":"12","PostalCode":"33335","AdditionalData":[{"value":"Deutschland","key":"CountryName"},{"value":"Nordrhein-Westfalen","key":"StateName"},{"value":"Gütersloh","key":"CountyName"}]},"MapReference":{"ReferenceId":"1262762861","Spot":0.64,"SideOfStreet":"right","CountryId":"20147700","StateId":"20157369","CountyId":"20159554","CityId":"20159560","DistrictId":"20159567","AddressId":"195637559","RoadLinkId":"588546562"}}},{"Relevance":1.0,"Distance":69.4,"MatchLevel":"houseNumber","MatchQuality":{"Country":1.0,"State":1.0,"County":1.0,"City":1.0,"District":1.0,"Street":[1.0],"HouseNumber":1.0,"PostalCode":1.0},"MatchType":"interpolated","Location":{"LocationId":"NT_P.zME26U70J5aRLv2ZkPlB_zA","LocationType":"point","DisplayPosition":{"Latitude":51.91378,"Longitude":8.43365},"MapView":{"TopLeft":{"Latitude":51.9149042,"Longitude":8.4318276},"BottomRight":{"Latitude":51.9126558,"Longitude":8.4354724}},"Address":{"Label":"Aurikelweg 3, 33335 Gütersloh, Deutschland","Country":"DEU","State":"Nordrhein-Westfalen","County":"Gütersloh","City":"Gütersloh","District":"Avenwedde","Street":"Aurikelweg","HouseNumber":"3","PostalCode":"33335","AdditionalData":[{"value":"Deutschland","key":"CountryName"},{"value":"Nordrhein-Westfalen","key":"StateName"},{"value":"Gütersloh","key":"CountyName"}]},"MapReference":{"ReferenceId":"1262762862","Spot":0.51,"SideOfStreet":"left","CountryId":"20147700","StateId":"20157369","CountyId":"20159554","CityId":"20159560","DistrictId":"20159567","AddressId":"195637558","RoadLinkId":"588546563"}}},{"Relevance":1.0,"Distance":80.6,"MatchLevel":"houseNumber","MatchQuality":{"Country":1.0,"State":1.0,"County":1.0,"City":1.0,"District":1.0,"Street":[1.0],"HouseNumber":1.0,"PostalCode":1.0},"MatchType":"interpolated","Location":{"LocationId":"NT_qWnnC5n1Yb9yAJsSF4fvWA_yQD","LocationType":"point","DisplayPosition":{"Latitude":51.91414,"Longitude":8.43393},"MapView":{"TopLeft":{"Latitude":51.9152642,"Longitude":8.4321076},"BottomRight":{"Latitude":51.9130158,"Longitude":8.4357524}},"Address":{"Label":"Freesienstraße 24, 33335 Gütersloh, Deutschland","Country":"DEU","State":"Nordrhein-Westfalen","County":"Gütersloh","City":"Gütersloh","District":"Avenwedde","Street":"Freesienstraße","HouseNumber":"24","PostalCode":"33335","AdditionalData":[{"value":"Deutschland","key":"CountryName"},{"value":"Nordrhein-Westfalen","key":"StateName"},{"value":"Gütersloh","key":"CountyName"}]},"MapReference":{"ReferenceId":"52703293","Spot":0.88,"SideOfStreet":"right","CountryId":"20147700","StateId":"20157369","CountyId":"20159554","CityId":"20159560","DistrictId":"20159567","AddressId":"195875327","RoadLinkId":"35026524"}}},{"Relevance":1.0,"Distance":82.0,"MatchLevel":"houseNumber","MatchQuality":{"Country":1.0,"State":1.0,"County":1.0,"City":1.0,"District":1.0,"Street":[1.0],"HouseNumber":1.0,"PostalCode":1.0},"MatchType":"interpolated","Location":{"LocationId":"NT_qWnnC5n1Yb9yAJsSF4fvWA_yYD","LocationType":"point","DisplayPosition":{"Latitude":51.91419,"Longitude":8.4342},"MapView":{"TopLeft":{"Latitude":51.9153142,"Longitude":8.4323776},"BottomRight":{"Latitude":51.9130658,"Longitude":8.4360224}},"Address":{"Label":"Freesienstraße 26, 33335 Gütersloh, Deutschland","Country":"DEU","State":"Nordrhein-Westfalen","County":"Gütersloh","City":"Gütersloh","District":"Avenwedde","Street":"Freesienstraße","HouseNumber":"26","PostalCode":"33335","AdditionalData":[{"value":"Deutschland","key":"CountryName"},{"value":"Nordrhein-Westfalen","key":"StateName"},{"value":"Gütersloh","key":"CountyName"}]},"MapReference":{"ReferenceId":"1185204085","Spot":0.26,"SideOfStreet":"right","CountryId":"20147700","StateId":"20157369","CountyId":"20159554","CityId":"20159560","DistrictId":"20159567","AddressId":"622109177","RoadLinkId":"493504534"}}},{"Relevance":1.0,"Distance":87.3,"MatchLevel":"houseNumber","MatchQuality":{"Country":1.0,"State":1.0,"County":1.0,"City":1.0,"District":1.0,"Street":[1.0],"HouseNumber":1.0,"PostalCode":1.0},"MatchType":"interpolated","Location":{"LocationId":"NT_qWnnC5n1Yb9yAJsSF4fvWA_zAD","LocationType":"point","DisplayPosition":{"Latitude":51.91413,"Longitude":8.43514},"MapView":{"TopLeft":{"Latitude":51.9152542,"Longitude":8.4333176},"BottomRight":{"Latitude":51.9130058,"Longitude":8.4369624}},"Address":{"Label":"Freesienstraße 30, 33335 Gütersloh, Deutschland","Country":"DEU","State":"Nordrhein-Westfalen","County":"Gütersloh","City":"Gütersloh","District":"Avenwedde","Street":"Freesienstraße","HouseNumber":"30","PostalCode":"33335","AdditionalData":[{"value":"Deutschland","key":"CountryName"},{"value":"Nordrhein-Westfalen","key":"StateName"},{"value":"Gütersloh","key":"CountyName"}]},"MapReference":{"ReferenceId":"1185204084","Spot":0.1,"SideOfStreet":"left","CountryId":"20147700","StateId":"20157369","CountyId":"20159554","CityId":"20159560","DistrictId":"20159567","AddressId":"249346236","RoadLinkId":"493504533"}}},{"Relevance":1.0,"Distance":94.3,"MatchLevel":"houseNumber","MatchQuality":{"Country":1.0,"State":1.0,"County":1.0,"City":1.0,"District":1.0,"Street":[1.0],"HouseNumber":1.0,"PostalCode":1.0},"MatchType":"interpolated","Location":{"LocationId":"NT_qWnnC5n1Yb9yAJsSF4fvWA_l_52703300_R_xgD","LocationType":"point","DisplayPosition":{"Latitude":51.9139453,"Longitude":8.4331761},"MapView":{"TopLeft":{"Latitude":51.9150694,"Longitude":8.4313537},"BottomRight":{"Latitude":51.9128211,"Longitude":8.4349986}},"Address":{"Label":"Freesienstraße 18, 33335 Gütersloh, Deutschland","Country":"DEU","State":"Nordrhein-Westfalen","County":"Gütersloh","City":"Gütersloh","District":"Avenwedde","Street":"Freesienstraße","HouseNumber":"18","PostalCode":"33335","AdditionalData":[{"value":"Deutschland","key":"CountryName"},{"value":"Nordrhein-Westfalen","key":"StateName"},{"value":"Gütersloh","key":"CountyName"}]},"MapReference":{"ReferenceId":"52703300","Spot":0.49,"SideOfStreet":"right","CountryId":"20147700","StateId":"20157369","CountyId":"20159554","CityId":"20159560","DistrictId":"20159567"}}}]}]}}