{"Response":{"MetaInfo":{"Timestamp":"2020-03-28T12:06:22.181+0000","NextPageInformation":"2"},"View":[{"_type":"SearchResultsViewType","ViewId":0,"Result":[{"Relevance":1.0,"Distance":0.0,"Direction":0.0,"MatchLevel":"district","MatchQuality":{"Country":1.0,"State":1.0,"County":1.0,"City":1.0,"District":1.0,"PostalCode":1.0},"Location":{"LocationId":"NT_lcflp7vTIGQdeJQVGqTF0A","LocationType":"point","DisplayPosition":{"Latitude":52.0114521,"Longitude":16.3951845},"MapView":{"TopLeft":{"Latitude":52.01305,"Longitude":16.35855},"BottomRight":{"Latitude":51.9927,"Longitude":16.39942}},"Address":{"Label":"Bucz, Przemęt, Woj. Wielkopolskie, Polska","Country":"POL","State":"Woj. Wielkopolskie","County":"Powiat Wolsztyński","City":"Przemęt","District":"Bucz","PostalCode":"64-234","AdditionalData":[{"value":"Polska","key":"CountryName"},{"value":"Woj. Wielkopolskie","key":"StateName"},{"value":"Powiat Wolsztyński","key":"CountyName"}]},"MapReference":{"ReferenceId":"1089224602","SideOfStreet":"neither","CountryId":"20624059","StateId":"20629915","CountyId":"20631854","CityId":"20631857","DistrictId":"20697694"}}},{"Relevance":1.0,"Distance":12.2,"MatchLevel":"houseNumber","MatchQuality":{"Country":1.0,"State":1.0,"County":1.0,"City":1.0,"District":1.0,"Street":[1.0],"HouseNumber":1.0,"PostalCode":1.0},"MatchType":"interpolated","Location":{"LocationId":"NT_NW1fUZTQLm30SChMXufcyC_3cD","LocationType":"point","DisplayPosition":{"Latitude":52.01122,"Longitude":16.39512},"MapView":{"TopLeft":{"Latitude":52.0123442,"Longitude":16.3932936},"BottomRight":{"Latitude":52.0100958,"Longitude":16.3969464}},"Address":{"Label":"ulica Kasztanowa 77, 64-234 Bucz, Polska","Country":"POL","State":"Woj. Wielkopolskie","County":"Powiat Wolsztyński","City":"Przemęt","District":"Bucz","Street":"ulica Kasztanowa","HouseNumber":"77","PostalCode":"64-234","AdditionalData":[{"value":"Polska","key":"CountryName"},{"value":"Woj. Wielkopolskie","key":"StateName"},{"value":"Powiat Wolsztyński","key":"CountyName"}]},"MapReference":{"ReferenceId":"709419741","Spot":0.16,"SideOfStreet":"left","CountryId":"20624059","StateId":"20629915","CountyId":"20631854","CityId":"20631857","DistrictId":"20697694","AddressId":"267757425","RoadLinkId":"114763701"}}},{"Relevance":1.0,"Distance":20.9,"MatchLevel":"houseNumber","MatchQuality":{"Country":1.0,"State":1.0,"County":1.0,"City":1.0,"District":1.0,"Street":[1.0],"HouseNumber":1.0,"PostalCode":1.0},"MatchType":"interpolated","Location":{"LocationId":"NT_ouiknJ7kdE6Kv2C1Y3MCaC_zA","LocationType":"point","DisplayPosition":{"Latitude":52.01161,"Longitude":16.39502},"MapView":{"TopLeft":{"Latitude":52.0127342,"Longitude":16.3931936},"BottomRight":{"Latitude":52.0104858,"Longitude":16.3968464}},"Address":{"Label":"ulica Polna 3, 64-234 Bucz, Polska","Country":"POL","State":"Woj. Wielkopolskie","County":"Powiat Wolsztyński","City":"Przemęt","District":"Bucz","Street":"ulica Polna","HouseNumber":"3","PostalCode":"64-234","AdditionalData":[{"value":"Polska","key":"CountryName"},{"value":"Woj. Wielkopolskie","key":"StateName"},{"value":"Powiat Wolsztyński","key":"CountyName"}]},"MapReference":{"ReferenceId":"1041975530","Spot":0.54,"SideOfStreet":"left","CountryId":"20624059","StateId":"20629915","CountyId":"20631854","CityId":"20631857","DistrictId":"20697694","AddressId":"266676550","RoadLinkId":"363862722"}}},{"Relevance":1.0,"Distance":54.3,"MatchLevel":"houseNumber","MatchQuality":{"Country":1.0,"State":1.0,"County":1.0,"City":1.0,"District":1.0,"Street":[1.0],"HouseNumber":1.0,"PostalCode":1.0},"MatchType":"interpolated","Location":{"LocationId":"NT_NW1fUZTQLm30SChMXufcyC_3UD","LocationType":"point","DisplayPosition":{"Latitude":52.01107,"Longitude":16.39469},"MapView":{"TopLeft":{"Latitude":52.0121942,"Longitude":16.3928636},"BottomRight":{"Latitude":52.0099458,"Longitude":16.3965164}},"Address":{"Label":"ulica Kasztanowa 75, 64-234 Bucz, Polska","Country":"POL","State":"Woj. Wielkopolskie","County":"Powiat Wolsztyński","City":"Przemęt","District":"Bucz","Street":"ulica Kasztanowa","HouseNumber":"75","PostalCode":"64-234","AdditionalData":[{"value":"Polska","key":"CountryName"},{"value":"Woj. Wielkopolskie","key":"StateName"},{"value":"Powiat Wolsztyński","key":"CountyName"}]},"MapReference":{"ReferenceId":"1089378627","Spot":0.88,"SideOfStreet":"left","CountryId":"20624059","StateId":"20629915","CountyId":"20631854","CityId":"20631857","DistrictId":"20697694","AddressId":"302040838","RoadLinkId":"404379106"}}},{"Relevance":1.0,"Distance":131.5,"MatchLevel":"houseNumber","MatchQuality":{"Country":1.0,"State":1.0,"County":1.0,"City":1.0,"District":1.0,"Street":[1.0],"HouseNumber":1.0,"PostalCode":1.0},"MatchType":"interpolated","Location":{"LocationId":"NT_ouiknJ7kdE6Kv2C1Y3MCaC_xED","LocationType":"point","DisplayPosition":{"Latitude":52.01255,"Longitude":16.3959},"MapView":{"TopLeft":{"Latitude":52.0136742,"Longitude":16.3940736},"BottomRight":{"Latitude":52.0114258,"Longitude":16.3977264}},"Address":{"Label":"ulica Polna 11, 64-234 Bucz, Polska","Country":"POL","State":"Woj. Wielkopolskie","County":"Powiat Wolsztyński","City":"Przemęt","District":"Bucz","Street":"ulica Polna","HouseNumber":"11","PostalCode":"64-234","AdditionalData":[{"value":"Polska","key":"CountryName"},{"value":"Woj. Wielkopolskie","key":"StateName"},{"value":"Powiat Wolsztyński","key":"CountyName"}]},"MapReference":{"ReferenceId":"1041975531","Spot":0.64,"SideOfStreet":"left","CountryId":"20624059","StateId":"20629915","CountyId":"20631854","CityId":"20631857","DistrictId":"20697694","AddressId":"266676551","RoadLinkId":"363862723"}}},{"Relevance":1.0,"Distance":135.4,"MatchLevel":"houseNumber","MatchQuality":{"Country":1.0,"State":1.0,"County":1.0,"City":1.0,"District":1.0,"Street":[1.0],"HouseNumber":1.0,"PostalCode":1.0},"MatchType":"interpolated","Location":{"LocationId":"NT_NW1fUZTQLm30SChMXufcyC_xEDN","LocationType":"point","DisplayPosition":{"Latitude":52.01054,"Longitude":16.39388},"MapView":{"TopLeft":{"Latitude":52.0116642,"Longitude":16.3920536},"BottomRight":{"Latitude":52.0094158,"Longitude":16.3957064}},"Address":{"Label":"ulica Kasztanowa 114, 64-234 Bucz, Polska","Country":"POL","State":"Woj. Wielkopolskie","County":"Powiat Wolsztyński","City":"Przemęt","District":"Bucz","Street":"ulica Kasztanowa","HouseNumber":"114","PostalCode":"64-234","AdditionalData":[{"value":"Polska","key":"CountryName"},{"value":"Woj. Wielkopolskie","key":"StateName"},{"value":"Powiat Wolsztyński","key":"CountyName"}]},"MapReference":{"ReferenceId":"1089378626","Spot":0.31,"SideOfStreet":"right","CountryId":"20624059","StateId":"20629915","CountyId":"20631854","CityId":"20631857","DistrictId":"20697694","AddressId":"266629190","RoadLinkId":"404379105"}}},{"Relevance":1.0,"Distance":137.2,"MatchLevel":"houseNumber","MatchQuality":{"Country":1.0,"State":1.0,"County":1.0,"City":1.0,"District":1.0,"Street":[1.0],"HouseNumber":1.0,"PostalCode":1.0},"MatchType":"interpolated","Location":{"LocationId":"NT_NW1fUZTQLm30SChMXufcyC_4UD","LocationType":"point","DisplayPosition":{"Latitude":52.01161,"Longitude":16.39719},"MapView":{"TopLeft":{"Latitude":52.0127342,"Longitude":16.3953636},"BottomRight":{"Latitude":52.0104858,"Longitude":16.3990164}},"Address":{"Label":"ulica Kasztanowa 85, 64-234 Bucz, Polska","Country":"POL","State":"Woj. Wielkopolskie","County":"Powiat Wolsztyński","City":"Przemęt","District":"Bucz","Street":"ulica Kasztanowa","HouseNumber":"85","PostalCode":"64-234","AdditionalData":[{"value":"Polska","key":"CountryName"},{"value":"Woj. Wielkopolskie","key":"StateName"},{"value":"Powiat Wolsztyński","key":"CountyName"}]},"MapReference":{"ReferenceId":"709419742","Spot":0.12,"SideOfStreet":"left","CountryId":"20624059","StateId":"20629915","CountyId":"20631854","CityId":"20631857","DistrictId":"20697694","AddressId":"266537010","RoadLinkId":"114763702"}}},{"Relevance":1.0,"Distance":150.2,"MatchLevel":"houseNumber","MatchQuality":{"Country":1.0,"State":1.0,"County":1.0,"City":1.0,"District":1.0,"Street":[1.0],"HouseNumber":1.0,"PostalCode":1.0},"MatchType":"interpolated","Location":{"LocationId":"NT_y8qWMwtVUOUCIt2kwKmJZA_xA","LocationType":"point","DisplayPosition":{"Latitude":52.01073,"Longitude":16.39333},"MapView":{"TopLeft":{"Latitude":52.0118542,"Longitude":16.3915036},"BottomRight":{"Latitude":52.0096058,"Longitude":16.3951564}},"Address":{"Label":"ulica Podgórna 1, 64-234 Bucz, Polska","Country":"POL","State":"Woj. Wielkopolskie","County":"Powiat Wolsztyński","City":"Przemęt","District":"Bucz","Street":"ulica Podgórna","HouseNumber":"1","PostalCode":"64-234","AdditionalData":[{"value":"Polska","key":"CountryName"},{"value":"Woj. Wielkopolskie","key":"StateName"},{"value":"Powiat Wolsztyński","key":"CountyName"}]},"MapReference":{"ReferenceId":"957213257","Spot":1.0,"SideOfStreet":"right","CountryId":"20624059","StateId":"20629915","CountyId":"20631854","CityId":"20631857","DistrictId":"20697694","AddressId":"703681765","RoadLinkId":"300167763"}}},{"Relevance":1.0,"Distance":154.5,"MatchLevel":"houseNumber","MatchQuality":{"Country":1.0,"State":1.0,"County":1.0,"City":1.0,"District":1.0,"Street":[1.0],"HouseNumber":1.0,"PostalCode":1.0},"MatchType":"interpolated","Location":{"LocationId":"NT_NW1fUZTQLm30SChMXufcyC_xEjM","LocationType":"point","DisplayPosition":{"Latitude":52.0104,"Longitude":16.3937},"MapView":{"TopLeft":{"Latitude":52.0115242,"Longitude":16.3918737},"BottomRight":{"Latitude":52.0092758,"Longitude":16.3955263}},"Address":{"Label":"ulica Kasztanowa 112, 64-234 Bucz, Polska","Country":"POL","State":"Woj. Wielkopolskie","County":"Powiat Wolsztyński","City":"Przemęt","District":"Bucz","Street":"ulica Kasztanowa","HouseNumber":"112","PostalCode":"64-234","AdditionalData":[{"value":"Polska","key":"CountryName"},{"value":"Woj. Wielkopolskie","key":"StateName"},{"value":"Powiat Wolsztyński","key":"CountyName"}]},"MapReference":{"ReferenceId":"957213258","Spot":0.9,"SideOfStreet":"right","CountryId":"20624059","StateId":"20629915","CountyId":"20631854","CityId":"20631857","DistrictId":"20697694","AddressId":"266629188","RoadLinkId":"300167764"}}},{"Relevance":1.0,"Distance":196.5,"MatchLevel":"houseNumber","MatchQuality":{"Country":1.0,"State":1.0,"County":1.0,"City":1.0,"Street":[1.0],"HouseNumber":1.0,"PostalCode":1.0},"MatchType":"interpolated","Location":{"LocationId":"NT_gJ-Ue6DFPdUCCIszFjwYgC_xUD","LocationType":"point","DisplayPosition":{"Latitude":52.01306,"Longitude":16.39637},"MapView":{"TopLeft":{"Latitude":52.0141842,"Longitude":16.3945435},"BottomRight":{"Latitude":52.0119358,"Longitude":16.3981965}},"Address":{"Label":"ulica Polna 15, 64-234, Polska","Country":"POL","State":"Woj. Wielkopolskie","County":"Powiat Wolsztyński","City":"Przemęt","Street":"ulica Polna","HouseNumber":"15","PostalCode":"64-234","AdditionalData":[{"value":"Polska","key":"CountryName"},{"value":"Woj. Wielkopolskie","key":"StateName"},{"value":"Powiat Wolsztyński","key":"CountyName"}]},"MapReference":{"ReferenceId":"595327947","Spot":0.04,"SideOfStreet":"left","CountryId":"20624059","StateId":"20629915","CountyId":"20631854","CityId":"20631857","AddressId":"702043117","RoadLinkId":"95254912"}}}]}]}}