{"Response":{"MetaInfo":{"Timestamp":"2020-03-28T10:17:38.461+0000","NextPageInformation":"2"},"View":[{"_type":"SearchResultsViewType","ViewId":0,"Result":[{"Relevance":1.0,"Distance":0.0,"Direction":0.0,"MatchLevel":"district","MatchQuality":{"Country":1.0,"State":1.0,"County":1.0,"City":1.0,"District":1.0,"PostalCode":1.0},"Location":{"LocationId":"NT_1ZH1DzTIocL7TOznGtME1B","LocationType":"point","DisplayPosition":{"Latitude":52.0844562,"Longitude":7.4820133},"MapView":{"TopLeft":{"Latitude":52.09725,"Longitude":7.4485},"BottomRight":{"Latitude":52.0736,"Longitude":7.49227}},"Address":{"Label":"Nordwalde, Nordrhein-Westfalen, Deutschland","Country":"DEU","State":"Nordrhein-Westfalen","County":"Steinfurt","City":"Nordwalde","District":"Nordwalde","PostalCode":"48356","AdditionalData":[{"value":"Deutschland","key":"CountryName"},{"value":"Nordrhein-Westfalen","key":"StateName"},{"value":"Steinfurt","key":"CountyName"}]},"MapReference":{"ReferenceId":"835575472","SideOfStreet":"neither","CountryId":"20147700","StateId":"20157369","CountyId":"20159347","CityId":"20159415","DistrictId":"20159418"}}},{"Relevance":1.0,"Distance":13.6,"MatchLevel":"houseNumber","MatchQuality":{"Country":1.0,"State":1.0,"County":1.0,"City":1.0,"District":1.0,"Street":[1.0],"HouseNumber":1.0,"PostalCode":1.0},"MatchType":"interpolated","Location":{"LocationId":"NT_BjH6oYfJnRv2i12qsm2iZB_xMD","LocationType":"point","DisplayPosition":{"Latitude":52.08433,"Longitude":7.48222},"MapView":{"TopLeft":{"Latitude":52.0854542,"Longitude":7.4803906},"BottomRight":{"Latitude":52.0832058,"Longitude":7.4840494}},"Address":{"Label":"Welle 13, 48356 Nordwalde, Deutschland","Country":"DEU","State":"Nordrhein-Westfalen","County":"Steinfurt","City":"Nordwalde","District":"Nordwalde","Street":"Welle","HouseNumber":"13","PostalCode":"48356","AdditionalData":[{"value":"Deutschland","key":"CountryName"},{"value":"Nordrhein-Westfalen","key":"StateName"},{"value":"Steinfurt","key":"CountyName"}]},"MapReference":{"ReferenceId":"835575487","Spot":0.41,"SideOfStreet":"left","CountryId":"20147700","StateId":"20157369","CountyId":"20159347","CityId":"20159415","DistrictId":"20159418","AddressId":"193844431","RoadLinkId":"218853156"}}},{"Relevance":1.0,"Distance":32.1,"MatchLevel":"houseNumber","MatchQuality":{"Country":1.0,"State":1.0,"County":1.0,"City":1.0,"District":1.0,"Street":[1.0],"HouseNumber":1.0,"PostalCode":1.0},"MatchType":"interpolated","Location":{"LocationId":"NT_b3LxGvkoR35x8kPINyVmID_xQD","LocationType":"point","DisplayPosition":{"Latitude":52.08481,"Longitude":7.48212},"MapView":{"TopLeft":{"Latitude":52.0859342,"Longitude":7.4802906},"BottomRight":{"Latitude":52.0836858,"Longitude":7.4839494}},"Address":{"Label":"Lange Straße 14, 48356 Nordwalde, Deutschland","Country":"DEU","State":"Nordrhein-Westfalen","County":"Steinfurt","City":"Nordwalde","District":"Nordwalde","Street":"Lange Straße","HouseNumber":"14","PostalCode":"48356","AdditionalData":[{"value":"Deutschland","key":"CountryName"},{"value":"Nordrhein-Westfalen","key":"StateName"},{"value":"Steinfurt","key":"CountyName"}]},"MapReference":{"ReferenceId":"74637368","Spot":0.24,"SideOfStreet":"left","CountryId":"20147700","StateId":"20157369","CountyId":"20159347","CityId":"20159415","DistrictId":"20159418","AddressId":"194192771","RoadLinkId":"35300758"}}},{"Relevance":1.0,"Distance":45.9,"MatchLevel":"houseNumber","MatchQuality":{"Country":1.0,"State":1.0,"County":1.0,"City":1.0,"District":1.0,"Street":[1.0],"HouseNumber":1.0,"PostalCode":1.0},"MatchType":"interpolated","Location":{"LocationId":"NT_b3LxGvkoR35x8kPINyVmID_xUD","LocationType":"point","DisplayPosition":{"Latitude":52.08472,"Longitude":7.48253},"MapView":{"TopLeft":{"Latitude":52.0858442,"Longitude":7.4807006},"BottomRight":{"Latitude":52.0835958,"Longitude":7.4843594}},"Address":{"Label":"Lange Straße 15, 48356 Nordwalde, Deutschland","Country":"DEU","State":"Nordrhein-Westfalen","County":"Steinfurt","City":"Nordwalde","District":"Nordwalde","Street":"Lange Straße","HouseNumber":"15","PostalCode":"48356","AdditionalData":[{"value":"Deutschland","key":"CountryName"},{"value":"Nordrhein-Westfalen","key":"StateName"},{"value":"Steinfurt","key":"CountyName"}]},"MapReference":{"ReferenceId":"74638726","Spot":1.0,"SideOfStreet":"right","CountryId":"20147700","StateId":"20157369","CountyId":"20159347","CityId":"20159415","DistrictId":"20159418","AddressId":"255645851","RoadLinkId":"35384385"}}},{"Relevance":1.0,"Distance":50.4,"MatchLevel":"houseNumber","MatchQuality":{"Country":1.0,"State":1.0,"County":1.0,"City":1.0,"District":1.0,"Street":[1.0],"HouseNumber":1.0,"PostalCode":1.0},"MatchType":"interpolated","Location":{"LocationId":"NT_BjH6oYfJnRv2i12qsm2iZB_xgD","LocationType":"point","DisplayPosition":{"Latitude":52.08447,"Longitude":7.48275},"MapView":{"TopLeft":{"Latitude":52.0855942,"Longitude":7.4809206},"BottomRight":{"Latitude":52.0833458,"Longitude":7.4845794}},"Address":{"Label":"Welle 18, 48356 Nordwalde, Deutschland","Country":"DEU","State":"Nordrhein-Westfalen","County":"Steinfurt","City":"Nordwalde","District":"Nordwalde","Street":"Welle","HouseNumber":"18","PostalCode":"48356","AdditionalData":[{"value":"Deutschland","key":"CountryName"},{"value":"Nordrhein-Westfalen","key":"StateName"},{"value":"Steinfurt","key":"CountyName"}]},"MapReference":{"ReferenceId":"835575488","Spot":0.0,"SideOfStreet":"right","CountryId":"20147700","StateId":"20157369","CountyId":"20159347","CityId":"20159415","DistrictId":"20159418","AddressId":"193403749","RoadLinkId":"218853157"}}},{"Relevance":1.0,"Distance":51.3,"MatchLevel":"houseNumber","MatchQuality":{"Country":1.0,"State":1.0,"County":1.0,"City":1.0,"District":1.0,"Street":[1.0],"HouseNumber":1.0,"PostalCode":1.0},"MatchType":"interpolated","Location":{"LocationId":"NT_BjH6oYfJnRv2i12qsm2iZB_1A","LocationType":"point","DisplayPosition":{"Latitude":52.08423,"Longitude":7.48131},"MapView":{"TopLeft":{"Latitude":52.0853542,"Longitude":7.4794806},"BottomRight":{"Latitude":52.0831058,"Longitude":7.4831394}},"Address":{"Label":"Welle 5, 48356 Nordwalde, Deutschland","Country":"DEU","State":"Nordrhein-Westfalen","County":"Steinfurt","City":"Nordwalde","District":"Nordwalde","Street":"Welle","HouseNumber":"5","PostalCode":"48356","AdditionalData":[{"value":"Deutschland","key":"CountryName"},{"value":"Nordrhein-Westfalen","key":"StateName"},{"value":"Steinfurt","key":"CountyName"}]},"MapReference":{"ReferenceId":"74644790","Spot":0.48,"SideOfStreet":"right","CountryId":"20147700","StateId":"20157369","CountyId":"20159347","CityId":"20159415","DistrictId":"20159418","AddressId":"194459630","RoadLinkId":"35473324"}}},{"Relevance":1.0,"Distance":54.4,"MatchLevel":"houseNumber","MatchQuality":{"Country":1.0,"State":1.0,"County":1.0,"City":1.0,"District":1.0,"Street":[1.0],"HouseNumber":1.0,"PostalCode":1.0},"MatchType":"interpolated","Location":{"LocationId":"NT_EaSA7kC4alwk3iYe5zeEwB_zA","LocationType":"point","DisplayPosition":{"Latitude":52.08395,"Longitude":7.48204},"MapView":{"TopLeft":{"Latitude":52.0850742,"Longitude":7.4802106},"BottomRight":{"Latitude":52.0828258,"Longitude":7.4838694}},"Address":{"Label":"Marienstraße 3, 48356 Nordwalde, Deutschland","Country":"DEU","State":"Nordrhein-Westfalen","County":"Steinfurt","City":"Nordwalde","District":"Nordwalde","Street":"Marienstraße","HouseNumber":"3","PostalCode":"48356","AdditionalData":[{"value":"Deutschland","key":"CountryName"},{"value":"Nordrhein-Westfalen","key":"StateName"},{"value":"Steinfurt","key":"CountyName"}]},"MapReference":{"ReferenceId":"74638723","Spot":0.69,"SideOfStreet":"right","CountryId":"20147700","StateId":"20157369","CountyId":"20159347","CityId":"20159415","DistrictId":"20159418","AddressId":"194010531","RoadLinkId":"35612214"}}},{"Relevance":1.0,"Distance":57.3,"MatchLevel":"street","MatchQuality":{"Country":1.0,"State":1.0,"County":1.0,"City":1.0,"District":1.0,"PostalCode":1.0},"Location":{"LocationId":"NT_e.qH94oG6HbWxE9jAsZdmC_l_75428004_L","LocationType":"point","DisplayPosition":{"Latitude":52.08454,"Longitude":7.48284},"MapView":{"TopLeft":{"Latitude":52.08458,"Longitude":7.48284},"BottomRight":{"Latitude":52.08451,"Longitude":7.48286}},"Address":{"Label":"48356 Nordwalde, Deutschland","Country":"DEU","State":"Nordrhein-Westfalen","County":"Steinfurt","City":"Nordwalde","District":"Nordwalde","PostalCode":"48356","AdditionalData":[{"value":"Deutschland","key":"CountryName"},{"value":"Nordrhein-Westfalen","key":"StateName"},{"value":"Steinfurt","key":"CountyName"}]},"MapReference":{"ReferenceId":"75428004","Spot":0.4,"SideOfStreet":"left","CountryId":"20147700","StateId":"20157369","CountyId":"20159347","CityId":"20159415","DistrictId":"20159418"}}},{"Relevance":1.0,"Distance":57.5,"MatchLevel":"street","MatchQuality":{"Country":1.0,"State":1.0,"County":1.0,"City":1.0,"District":1.0,"PostalCode":1.0},"Location":{"LocationId":"NT_e.qH94oG6HbWxE9jAsZdmC_l_75428001_L","LocationType":"point","DisplayPosition":{"Latitude":52.08451,"Longitude":7.48285},"MapView":{"TopLeft":{"Latitude":52.08451,"Longitude":7.48285},"BottomRight":{"Latitude":52.08448,"Longitude":7.483}},"Address":{"Label":"48356 Nordwalde, Deutschland","Country":"DEU","State":"Nordrhein-Westfalen","County":"Steinfurt","City":"Nordwalde","District":"Nordwalde","PostalCode":"48356","AdditionalData":[{"value":"Deutschland","key":"CountryName"},{"value":"Nordrhein-Westfalen","key":"StateName"},{"value":"Steinfurt","key":"CountyName"}]},"MapReference":{"ReferenceId":"75428001","Spot":1.0,"SideOfStreet":"left","CountryId":"20147700","StateId":"20157369","CountyId":"20159347","CityId":"20159415","DistrictId":"20159418"}}},{"Relevance":1.0,"Distance":59.5,"MatchLevel":"street","MatchQuality":{"Country":1.0,"State":1.0,"County":1.0,"City":1.0,"District":1.0,"PostalCode":1.0},"Location":{"LocationId":"NT_e.qH94oG6HbWxE9jAsZdmC_l_76169119_R","LocationType":"point","DisplayPosition":{"Latitude":52.08458,"Longitude":7.48286},"MapView":{"TopLeft":{"Latitude":52.0846,"Longitude":7.48286},"BottomRight":{"Latitude":52.08457,"Longitude":7.48303}},"Address":{"Label":"48356 Nordwalde, Deutschland","Country":"DEU","State":"Nordrhein-Westfalen","County":"Steinfurt","City":"Nordwalde","District":"Nordwalde","PostalCode":"48356","AdditionalData":[{"value":"Deutschland","key":"CountryName"},{"value":"Nordrhein-Westfalen","key":"StateName"},{"value":"Steinfurt","key":"CountyName"}]},"MapReference":{"ReferenceId":"76169119","Spot":1.0,"SideOfStreet":"right","CountryId":"20147700","StateId":"20157369","CountyId":"20159347","CityId":"20159415","DistrictId":"20159418"}}}]}]}}