{"Response":{"MetaInfo":{"Timestamp":"2020-03-28T10:25:22.265+0000","NextPageInformation":"2"},"View":[{"_type":"SearchResultsViewType","ViewId":0,"Result":[{"Relevance":1.0,"Distance":0.0,"Direction":0.0,"MatchLevel":"district","MatchQuality":{"Country":1.0,"State":1.0,"County":1.0,"City":1.0,"District":1.0,"PostalCode":1.0},"Location":{"LocationId":"NT_beUNPHm7XfFVg.KTVLjnXD","LocationType":"point","DisplayPosition":{"Latitude":52.0279857,"Longitude":11.2250226},"MapView":{"TopLeft":{"Latitude":52.04408,"Longitude":11.20739},"BottomRight":{"Latitude":52.02062,"Longitude":11.27049}},"Address":{"Label":"Oschersleben (Bode), Sachsen-Anhalt, Deutschland","Country":"DEU","State":"Sachsen-Anhalt","County":"Börde","City":"Oschersleben (Bode)","District":"Oschersleben (Bode)","PostalCode":"39387","AdditionalData":[{"value":"Deutschland","key":"CountryName"},{"value":"Sachsen-Anhalt","key":"StateName"},{"value":"Börde","key":"CountyName"}]},"MapReference":{"ReferenceId":"1208552944","SideOfStreet":"neither","CountryId":"20147700","StateId":"20194537","CountyId":"20196251","CityId":"20213146","DistrictId":"20213147"}}},{"Relevance":1.0,"Distance":13.1,"MatchLevel":"street","MatchQuality":{"Country":1.0,"State":1.0,"County":1.0,"City":1.0,"District":1.0,"Street":[1.0],"PostalCode":1.0},"Location":{"LocationId":"NT_n-K9IDEaJxyBK2XDY8ygFD_l_592189916_R","LocationType":"point","DisplayPosition":{"Latitude":52.0280712,"Longitude":11.2248901},"MapView":{"TopLeft":{"Latitude":52.02903,"Longitude":11.22487},"BottomRight":{"Latitude":52.02804,"Longitude":11.22559}},"Address":{"Label":"Hackelberg, 39387 Oschersleben (Bode), Deutschland","Country":"DEU","State":"Sachsen-Anhalt","County":"Börde","City":"Oschersleben (Bode)","District":"Oschersleben (Bode)","Street":"Hackelberg","PostalCode":"39387","AdditionalData":[{"value":"Deutschland","key":"CountryName"},{"value":"Sachsen-Anhalt","key":"StateName"},{"value":"Börde","key":"CountyName"}]},"MapReference":{"ReferenceId":"592189916","Spot":0.03,"SideOfStreet":"right","CountryId":"20147700","StateId":"20194537","CountyId":"20196251","CityId":"20213146","DistrictId":"20213147"}}},{"Relevance":1.0,"Distance":14.5,"MatchLevel":"houseNumber","MatchQuality":{"Country":1.0,"State":1.0,"County":1.0,"City":1.0,"District":1.0,"Street":[1.0],"HouseNumber":1.0,"PostalCode":1.0},"MatchType":"interpolated","Location":{"LocationId":"NT_n-K9IDEaJxyBK2XDY8ygFD_0A","LocationType":"point","DisplayPosition":{"Latitude":52.02804,"Longitude":11.22523},"MapView":{"TopLeft":{"Latitude":52.0291642,"Longitude":11.2234029},"BottomRight":{"Latitude":52.0269158,"Longitude":11.2270571}},"Address":{"Label":"Hackelberg 4, 39387 Oschersleben (Bode), Deutschland","Country":"DEU","State":"Sachsen-Anhalt","County":"Börde","City":"Oschersleben (Bode)","District":"Oschersleben (Bode)","Street":"Hackelberg","HouseNumber":"4","PostalCode":"39387","AdditionalData":[{"value":"Deutschland","key":"CountryName"},{"value":"Sachsen-Anhalt","key":"StateName"},{"value":"Börde","key":"CountyName"}]},"MapReference":{"ReferenceId":"592189915","Spot":1.0,"SideOfStreet":"right","CountryId":"20147700","StateId":"20194537","CountyId":"20196251","CityId":"20213146","DistrictId":"20213147","AddressId":"208187675","RoadLinkId":"37940370"}}},{"Relevance":1.0,"Distance":28.0,"MatchLevel":"houseNumber","MatchQuality":{"Country":1.0,"State":1.0,"County":1.0,"City":1.0,"District":1.0,"Street":[1.0],"HouseNumber":1.0,"PostalCode":1.0},"MatchType":"interpolated","Location":{"LocationId":"NT_n-K9IDEaJxyBK2XDY8ygFD_1A","LocationType":"point","DisplayPosition":{"Latitude":52.02804,"Longitude":11.22543},"MapView":{"TopLeft":{"Latitude":52.0291642,"Longitude":11.2236029},"BottomRight":{"Latitude":52.0269158,"Longitude":11.2272571}},"Address":{"Label":"Hackelberg 5, 39387 Oschersleben (Bode), Deutschland","Country":"DEU","State":"Sachsen-Anhalt","County":"Börde","City":"Oschersleben (Bode)","District":"Oschersleben (Bode)","Street":"Hackelberg","HouseNumber":"5","PostalCode":"39387","AdditionalData":[{"value":"Deutschland","key":"CountryName"},{"value":"Sachsen-Anhalt","key":"StateName"},{"value":"Börde","key":"CountyName"}]},"MapReference":{"ReferenceId":"544585009","Spot":0.24,"SideOfStreet":"right","CountryId":"20147700","StateId":"20194537","CountyId":"20196251","CityId":"20213146","DistrictId":"20213147","AddressId":"185179386","RoadLinkId":"37555183"}}},{"Relevance":1.0,"Distance":55.4,"MatchLevel":"houseNumber","MatchQuality":{"Country":1.0,"State":1.0,"County":1.0,"City":1.0,"District":1.0,"Street":[1.0],"HouseNumber":1.0,"PostalCode":1.0},"MatchType":"interpolated","Location":{"LocationId":"NT_n-K9IDEaJxyBK2XDY8ygFD_2A","LocationType":"point","DisplayPosition":{"Latitude":52.02753,"Longitude":11.22464},"MapView":{"TopLeft":{"Latitude":52.0286542,"Longitude":11.222813},"BottomRight":{"Latitude":52.0264058,"Longitude":11.226467}},"Address":{"Label":"Hackelberg 6, 39387 Oschersleben (Bode), Deutschland","Country":"DEU","State":"Sachsen-Anhalt","County":"Börde","City":"Oschersleben (Bode)","District":"Oschersleben (Bode)","Street":"Hackelberg","HouseNumber":"6","PostalCode":"39387","AdditionalData":[{"value":"Deutschland","key":"CountryName"},{"value":"Sachsen-Anhalt","key":"StateName"},{"value":"Börde","key":"CountyName"}]},"MapReference":{"ReferenceId":"592189914","Spot":0.56,"SideOfStreet":"right","CountryId":"20147700","StateId":"20194537","CountyId":"20196251","CityId":"20213146","DistrictId":"20213147","AddressId":"208180063","RoadLinkId":"37547884"}}},{"Relevance":1.0,"Distance":68.1,"MatchLevel":"houseNumber","MatchQuality":{"Country":1.0,"State":1.0,"County":1.0,"City":1.0,"District":1.0,"Street":[1.0],"HouseNumber":1.0,"PostalCode":1.0},"MatchType":"interpolated","Location":{"LocationId":"NT_6GGubdDrv2TitULqE7js7B_0A","LocationType":"point","DisplayPosition":{"Latitude":52.02814,"Longitude":11.22406},"MapView":{"TopLeft":{"Latitude":52.0292642,"Longitude":11.2222329},"BottomRight":{"Latitude":52.0270158,"Longitude":11.2258871}},"Address":{"Label":"Lindenstraße 4, 39387 Oschersleben (Bode), Deutschland","Country":"DEU","State":"Sachsen-Anhalt","County":"Börde","City":"Oschersleben (Bode)","District":"Oschersleben (Bode)","Street":"Lindenstraße","HouseNumber":"4","PostalCode":"39387","AdditionalData":[{"value":"Deutschland","key":"CountryName"},{"value":"Sachsen-Anhalt","key":"StateName"},{"value":"Börde","key":"CountyName"}]},"MapReference":{"ReferenceId":"833966961","Spot":0.75,"SideOfStreet":"left","CountryId":"20147700","StateId":"20194537","CountyId":"20196251","CityId":"20213146","DistrictId":"20213147","AddressId":"185749491","RoadLinkId":"217248958"}}},{"Relevance":1.0,"Distance":70.3,"MatchLevel":"houseNumber","MatchQuality":{"Country":1.0,"State":1.0,"County":1.0,"City":1.0,"District":1.0,"Street":[1.0],"HouseNumber":1.0,"PostalCode":1.0},"MatchType":"interpolated","Location":{"LocationId":"NT_krbz7kxAeWZhUFkX9gCDLB_xATO","LocationType":"point","DisplayPosition":{"Latitude":52.028,"Longitude":11.22609},"MapView":{"TopLeft":{"Latitude":52.0291242,"Longitude":11.2242629},"BottomRight":{"Latitude":52.0268758,"Longitude":11.2279171}},"Address":{"Label":"Halberstädter Straße 109, 39387 Oschersleben (Bode), Deutschland","Country":"DEU","State":"Sachsen-Anhalt","County":"Börde","City":"Oschersleben (Bode)","District":"Oschersleben (Bode)","Street":"Halberstädter Straße","HouseNumber":"109","PostalCode":"39387","AdditionalData":[{"value":"Deutschland","key":"CountryName"},{"value":"Sachsen-Anhalt","key":"StateName"},{"value":"Börde","key":"CountyName"}]},"MapReference":{"ReferenceId":"541290859","Spot":0.89,"SideOfStreet":"left","CountryId":"20147700","StateId":"20194537","CountyId":"20196251","CityId":"20213146","DistrictId":"20213147","AddressId":"185188405","RoadLinkId":"37875309"}}},{"Relevance":1.0,"Distance":71.0,"MatchLevel":"houseNumber","MatchQuality":{"Country":1.0,"State":1.0,"County":1.0,"City":1.0,"District":1.0,"Street":[1.0],"HouseNumber":1.0,"PostalCode":1.0},"MatchType":"interpolated","Location":{"LocationId":"NT_6GGubdDrv2TitULqE7js7B_1A","LocationType":"point","DisplayPosition":{"Latitude":52.02829,"Longitude":11.22411},"MapView":{"TopLeft":{"Latitude":52.0294142,"Longitude":11.2222829},"BottomRight":{"Latitude":52.0271658,"Longitude":11.2259371}},"Address":{"Label":"Lindenstraße 5, 39387 Oschersleben (Bode), Deutschland","Country":"DEU","State":"Sachsen-Anhalt","County":"Börde","City":"Oschersleben (Bode)","District":"Oschersleben (Bode)","Street":"Lindenstraße","HouseNumber":"5","PostalCode":"39387","AdditionalData":[{"value":"Deutschland","key":"CountryName"},{"value":"Sachsen-Anhalt","key":"StateName"},{"value":"Börde","key":"CountyName"}]},"MapReference":{"ReferenceId":"1191834819","Spot":0.07,"SideOfStreet":"left","CountryId":"20147700","StateId":"20194537","CountyId":"20196251","CityId":"20213146","DistrictId":"20213147","AddressId":"186231888","RoadLinkId":"501416455"}}},{"Relevance":1.0,"Distance":73.9,"MatchLevel":"houseNumber","MatchQuality":{"Country":1.0,"State":1.0,"County":1.0,"City":1.0,"District":1.0,"Street":[1.0],"HouseNumber":1.0,"PostalCode":1.0},"MatchType":"interpolated","Location":{"LocationId":"NT_krbz7kxAeWZhUFkX9gCDLB_xAD","LocationType":"point","DisplayPosition":{"Latitude":52.02819,"Longitude":11.22605},"MapView":{"TopLeft":{"Latitude":52.0293142,"Longitude":11.2242229},"BottomRight":{"Latitude":52.0270658,"Longitude":11.2278771}},"Address":{"Label":"Halberstädter Straße 10, 39387 Oschersleben (Bode), Deutschland","Country":"DEU","State":"Sachsen-Anhalt","County":"Börde","City":"Oschersleben (Bode)","District":"Oschersleben (Bode)","Street":"Halberstädter Straße","HouseNumber":"10","PostalCode":"39387","AdditionalData":[{"value":"Deutschland","key":"CountryName"},{"value":"Sachsen-Anhalt","key":"StateName"},{"value":"Börde","key":"CountyName"}]},"MapReference":{"ReferenceId":"541290866","Spot":0.36,"SideOfStreet":"right","CountryId":"20147700","StateId":"20194537","CountyId":"20196251","CityId":"20213146","DistrictId":"20213147","AddressId":"185166488","RoadLinkId":"37898496"}}},{"Relevance":1.0,"Distance":90.4,"MatchLevel":"houseNumber","MatchQuality":{"Country":1.0,"State":1.0,"County":1.0,"City":1.0,"District":1.0,"Street":[1.0],"HouseNumber":1.0,"PostalCode":1.0},"MatchType":"interpolated","Location":{"LocationId":"NT_6GGubdDrv2TitULqE7js7B_4A","LocationType":"point","DisplayPosition":{"Latitude":52.02867,"Longitude":11.22431},"MapView":{"TopLeft":{"Latitude":52.0297942,"Longitude":11.2224829},"BottomRight":{"Latitude":52.0275458,"Longitude":11.2261371}},"Address":{"Label":"Lindenstraße 8, 39387 Oschersleben (Bode), Deutschland","Country":"DEU","State":"Sachsen-Anhalt","County":"Börde","City":"Oschersleben (Bode)","District":"Oschersleben (Bode)","Street":"Lindenstraße","HouseNumber":"8","PostalCode":"39387","AdditionalData":[{"value":"Deutschland","key":"CountryName"},{"value":"Sachsen-Anhalt","key":"StateName"},{"value":"Börde","key":"CountyName"}]},"MapReference":{"ReferenceId":"1191834820","Spot":0.1,"SideOfStreet":"left","CountryId":"20147700","StateId":"20194537","CountyId":"20196251","CityId":"20213146","DistrictId":"20213147","AddressId":"185728882","RoadLinkId":"501416456"}}}]}]}}