{"Response":{"MetaInfo":{"Timestamp":"2020-03-28T10:45:41.724+0000","NextPageInformation":"2"},"View":[{"_type":"SearchResultsViewType","ViewId":0,"Result":[{"Relevance":1.0,"Distance":0.0,"Direction":0.0,"MatchLevel":"district","MatchQuality":{"Country":1.0,"State":1.0,"County":1.0,"City":1.0,"District":1.0,"PostalCode":1.0},"Location":{"LocationId":"NT_375u4L-EnFQS.MKDJRS2WB","LocationType":"point","DisplayPosition":{"Latitude":52.0974916,"Longitude":21.0181833},"MapView":{"TopLeft":{"Latitude":52.09944,"Longitude":20.97288},"BottomRight":{"Latitude":52.04761,"Longitude":21.06138}},"Address":{"Label":"Piaseczno, Woj. Mazowieckie, Polska","Country":"POL","State":"Woj. Mazowieckie","County":"Powiat Piaseczyński","City":"Piaseczno","District":"Piaseczno","PostalCode":"05-500","AdditionalData":[{"value":"Polska","key":"CountryName"},{"value":"Woj. Mazowieckie","key":"StateName"},{"value":"Powiat Piaseczyński","key":"CountyName"}]},"MapReference":{"ReferenceId":"957819720","SideOfStreet":"neither","CountryId":"20624059","StateId":"20627182","CountyId":"20627514","CityId":"20627521","DistrictId":"20633146"}}},{"Relevance":1.0,"Distance":17.6,"MatchLevel":"houseNumber","MatchQuality":{"Country":1.0,"State":1.0,"County":1.0,"City":1.0,"District":1.0,"Street":[1.0],"HouseNumber":1.0,"PostalCode":1.0},"MatchType":"interpolated","Location":{"LocationId":"NT_iJgilik1nfXN85N0g4ExTA_zA","LocationType":"point","DisplayPosition":{"Latitude":52.09765,"Longitude":21.01817},"MapView":{"TopLeft":{"Latitude":52.0987742,"Longitude":21.0163401},"BottomRight":{"Latitude":52.0965258,"Longitude":21.0199999}},"Address":{"Label":"ulica Łabędzia 3, 05-500 Piaseczno, Polska","Country":"POL","State":"Woj. Mazowieckie","County":"Powiat Piaseczyński","City":"Piaseczno","District":"Piaseczno","Street":"ulica Łabędzia","HouseNumber":"3","PostalCode":"05-500","AdditionalData":[{"value":"Polska","key":"CountryName"},{"value":"Woj. Mazowieckie","key":"StateName"},{"value":"Powiat Piaseczyński","key":"CountyName"}]},"MapReference":{"ReferenceId":"901992600","Spot":1.0,"SideOfStreet":"right","CountryId":"20624059","StateId":"20627182","CountyId":"20627514","CityId":"20627521","DistrictId":"20633146","AddressId":"222136582","RoadLinkId":"263539493"}}},{"Relevance":1.0,"Distance":17.6,"MatchLevel":"street","MatchQuality":{"Country":1.0,"State":1.0,"County":1.0,"City":1.0,"District":1.0,"Street":[1.0],"PostalCode":1.0},"Location":{"LocationId":"NT_.owXER4TpeuVoAoAk9pfAA_l_901992601_R","LocationType":"point","DisplayPosition":{"Latitude":52.09765,"Longitude":21.01817},"MapView":{"TopLeft":{"Latitude":52.09781,"Longitude":21.01817},"BottomRight":{"Latitude":52.09765,"Longitude":21.01874}},"Address":{"Label":"ulica Łabędzia, 05-500 Piaseczno, Polska","Country":"POL","State":"Woj. Mazowieckie","County":"Powiat Piaseczyński","City":"Piaseczno","District":"Piaseczno","Street":"ulica Łabędzia","PostalCode":"05-500","AdditionalData":[{"value":"Polska","key":"CountryName"},{"value":"Woj. Mazowieckie","key":"StateName"},{"value":"Powiat Piaseczyński","key":"CountyName"}]},"MapReference":{"ReferenceId":"901992601","Spot":0.0,"SideOfStreet":"right","CountryId":"20624059","StateId":"20627182","CountyId":"20627514","CityId":"20627521","DistrictId":"20633146"}}},{"Relevance":1.0,"Distance":17.6,"MatchLevel":"street","MatchQuality":{"Country":1.0,"State":1.0,"County":1.0,"City":1.0,"District":1.0,"Street":[1.0],"PostalCode":1.0},"Location":{"LocationId":"NT_uTmdHy26rRiQwrNQBQcP5C_l_902014293_L","LocationType":"point","DisplayPosition":{"Latitude":52.09765,"Longitude":21.01817},"MapView":{"TopLeft":{"Latitude":52.09775,"Longitude":21.01805},"BottomRight":{"Latitude":52.09765,"Longitude":21.01817}},"Address":{"Label":"ulica Osiedlowa, 05-500 Mysiadło, Polska","Country":"POL","State":"Woj. Mazowieckie","County":"Powiat Piaseczyński","City":"Lesznowola","District":"Mysiadło","Street":"ulica Osiedlowa","PostalCode":"05-500","AdditionalData":[{"value":"Polska","key":"CountryName"},{"value":"Woj. Mazowieckie","key":"StateName"},{"value":"Powiat Piaseczyński","key":"CountyName"}]},"MapReference":{"ReferenceId":"902014293","Spot":0.0,"SideOfStreet":"left","CountryId":"20624059","StateId":"20627182","CountyId":"20627514","CityId":"20627519","DistrictId":"23952696"}}},{"Relevance":1.0,"Distance":19.8,"MatchLevel":"houseNumber","MatchQuality":{"Country":1.0,"State":1.0,"County":1.0,"City":1.0,"District":1.0,"Street":[1.0],"HouseNumber":1.0,"PostalCode":1.0},"MatchType":"interpolated","Location":{"LocationId":"NT_mDy04DWM0QCxnLX-4kATbB_0kD","LocationType":"point","DisplayPosition":{"Latitude":52.09732,"Longitude":21.01875},"MapView":{"TopLeft":{"Latitude":52.0984442,"Longitude":21.0169201},"BottomRight":{"Latitude":52.0961958,"Longitude":21.0205799}},"Address":{"Label":"ulica Puławska 49, 05-500 Piaseczno, Polska","Country":"POL","State":"Woj. Mazowieckie","County":"Powiat Piaseczyński","City":"Piaseczno","District":"Piaseczno","Street":"ulica Puławska","HouseNumber":"49","PostalCode":"05-500","AdditionalData":[{"value":"Polska","key":"CountryName"},{"value":"Woj. Mazowieckie","key":"StateName"},{"value":"Powiat Piaseczyński","key":"CountyName"}]},"MapReference":{"ReferenceId":"743298725","Spot":0.49,"SideOfStreet":"left","CountryId":"20624059","StateId":"20627182","CountyId":"20627514","CityId":"20627521","DistrictId":"20633146","AddressId":"731668370","RoadLinkId":"141440480"}}},{"Relevance":1.0,"Distance":52.0,"MatchLevel":"street","MatchQuality":{"Country":1.0,"State":1.0,"County":1.0,"City":1.0,"District":1.0,"Street":[1.0],"PostalCode":1.0},"Location":{"LocationId":"NT_59DqNCClpNRGi5wpseZyEB_l_957715586_L","LocationType":"point","DisplayPosition":{"Latitude":52.09781,"Longitude":21.01874},"MapView":{"TopLeft":{"Latitude":52.09822,"Longitude":21.01872},"BottomRight":{"Latitude":52.09781,"Longitude":21.01874}},"Address":{"Label":"ulica Puławska, 05-500 Mysiadło, Polska","Country":"POL","State":"Woj. Mazowieckie","County":"Powiat Piaseczyński","City":"Lesznowola","District":"Mysiadło","Street":"ulica Puławska","PostalCode":"05-500","AdditionalData":[{"value":"Polska","key":"CountryName"},{"value":"Woj. Mazowieckie","key":"StateName"},{"value":"Powiat Piaseczyński","key":"CountyName"}]},"MapReference":{"ReferenceId":"957715586","Spot":0.0,"SideOfStreet":"left","CountryId":"20624059","StateId":"20627182","CountyId":"20627514","CityId":"20627519","DistrictId":"23952696"}}},{"Relevance":1.0,"Distance":52.0,"MatchLevel":"street","MatchQuality":{"Country":1.0,"State":1.0,"County":1.0,"City":1.0,"District":1.0,"PostalCode":1.0},"Location":{"LocationId":"NT_u-DYES.fvFczF5L3Z3wzAC_l_595662598_R","LocationType":"point","DisplayPosition":{"Latitude":52.09781,"Longitude":21.01874},"MapView":{"TopLeft":{"Latitude":52.09788,"Longitude":21.01874},"BottomRight":{"Latitude":52.09781,"Longitude":21.01897}},"Address":{"Label":"05-500 Piaseczno, Polska","Country":"POL","State":"Woj. Mazowieckie","County":"Powiat Piaseczyński","City":"Piaseczno","District":"Piaseczno","PostalCode":"05-500","AdditionalData":[{"value":"Polska","key":"CountryName"},{"value":"Woj. Mazowieckie","key":"StateName"},{"value":"Powiat Piaseczyński","key":"CountyName"}]},"MapReference":{"ReferenceId":"595662598","Spot":0.0,"SideOfStreet":"right","CountryId":"20624059","StateId":"20627182","CountyId":"20627514","CityId":"20627521","DistrictId":"20633146"}}},{"Relevance":1.0,"Distance":54.0,"MatchLevel":"houseNumber","MatchQuality":{"Country":1.0,"State":1.0,"County":1.0,"City":1.0,"District":1.0,"Street":[1.0],"HouseNumber":1.0,"PostalCode":1.0},"MatchType":"interpolated","Location":{"LocationId":"NT_uTmdHy26rRiQwrNQBQcP5C_yA","LocationType":"point","DisplayPosition":{"Latitude":52.09779,"Longitude":21.01756},"MapView":{"TopLeft":{"Latitude":52.0989142,"Longitude":21.0157301},"BottomRight":{"Latitude":52.0966658,"Longitude":21.0193899}},"Address":{"Label":"ulica Osiedlowa 2, 05-500 Mysiadło, Polska","Country":"POL","State":"Woj. Mazowieckie","County":"Powiat Piaseczyński","City":"Lesznowola","District":"Mysiadło","Street":"ulica Osiedlowa","HouseNumber":"2","PostalCode":"05-500","AdditionalData":[{"value":"Polska","key":"CountryName"},{"value":"Woj. Mazowieckie","key":"StateName"},{"value":"Powiat Piaseczyński","key":"CountyName"}]},"MapReference":{"ReferenceId":"902014294","Spot":0.48,"SideOfStreet":"right","CountryId":"20624059","StateId":"20627182","CountyId":"20627514","CityId":"20627519","DistrictId":"23952696","AddressId":"353068279","RoadLinkId":"263565524"}}},{"Relevance":1.0,"Distance":54.3,"MatchLevel":"landmark","MatchQuality":{"Country":1.0,"State":1.0,"County":1.0,"City":1.0,"District":1.0,"Street":[1.0],"HouseNumber":1.0,"PostalCode":1.0,"Name":1.0},"Location":{"LocationId":"NT_52NH.FsDDmILEnnlEmaRaC_p_Syb9ecveXcA-1cO99yCrXD","LocationType":"shoppingCentre","Name":"Auchan Piaseczno","DisplayPosition":{"Latitude":52.09539,"Longitude":21.02176},"MapView":{"TopLeft":{"Latitude":52.0965142,"Longitude":21.0199302},"BottomRight":{"Latitude":52.0942658,"Longitude":21.0235898}},"Address":{"Label":"ulica Puławska 46, 05-500 Piaseczno, Polska","Country":"POL","State":"Woj. Mazowieckie","County":"Powiat Piaseczyński","City":"Piaseczno","District":"Piaseczno","Street":"ulica Puławska","HouseNumber":"46","PostalCode":"05-500","AdditionalData":[{"value":"Polska","key":"CountryName"},{"value":"Woj. Mazowieckie","key":"StateName"},{"value":"Powiat Piaseczyński","key":"CountyName"}]},"MapReference":{"CountryId":"20624059","StateId":"20627182","CountyId":"20627514","CityId":"20627521","DistrictId":"20633146","PlaceId":"1010239215"}}},{"Relevance":1.0,"Distance":54.5,"MatchLevel":"houseNumber","MatchQuality":{"Country":1.0,"State":1.0,"County":1.0,"City":1.0,"District":1.0,"Street":[1.0],"HouseNumber":1.0,"PostalCode":1.0},"MatchType":"interpolated","Location":{"LocationId":"NT_mDy04DWM0QCxnLX-4kATbB_1ID","LocationType":"point","DisplayPosition":{"Latitude":52.09747,"Longitude":21.01898},"MapView":{"TopLeft":{"Latitude":52.0985942,"Longitude":21.0171501},"BottomRight":{"Latitude":52.0963458,"Longitude":21.0208099}},"Address":{"Label":"ulica Puławska 52, 05-500 Piaseczno, Polska","Country":"POL","State":"Woj. Mazowieckie","County":"Powiat Piaseczyński","City":"Piaseczno","District":"Piaseczno","Street":"ulica Puławska","HouseNumber":"52","PostalCode":"05-500","AdditionalData":[{"value":"Polska","key":"CountryName"},{"value":"Woj. Mazowieckie","key":"StateName"},{"value":"Powiat Piaseczyński","key":"CountyName"}]},"MapReference":{"ReferenceId":"743298750","Spot":0.72,"SideOfStreet":"right","CountryId":"20624059","StateId":"20627182","CountyId":"20627514","CityId":"20627521","DistrictId":"20633146","AddressId":"582553760","RoadLinkId":"141440509"}}}]}]}}