{"Response":{"MetaInfo":{"Timestamp":"2020-03-28T12:00:38.410+0000","NextPageInformation":"2"},"View":[{"_type":"SearchResultsViewType","ViewId":0,"Result":[{"Relevance":1.0,"Distance":0.0,"Direction":0.0,"MatchLevel":"district","MatchQuality":{"Country":1.0,"State":1.0,"County":1.0,"City":1.0,"District":1.0,"PostalCode":1.0},"Location":{"LocationId":"NT_6VgMZn6deKJzRkFq6uM32D","LocationType":"point","DisplayPosition":{"Latitude":52.0904699,"Longitude":-1.9376274},"MapView":{"TopLeft":{"Latitude":52.11231,"Longitude":-1.95941},"BottomRight":{"Latitude":52.07031,"Longitude":-1.9213}},"Address":{"Label":"Evesham, England, United Kingdom","Country":"GBR","State":"England","County":"Worcestershire","City":"Evesham","District":"Evesham","PostalCode":"WR11 4","AdditionalData":[{"value":"United Kingdom","key":"CountryName"},{"value":"England","key":"StateName"},{"value":"Worcestershire","key":"CountyName"}]},"MapReference":{"ReferenceId":"871972502","SideOfStreet":"neither","StateId":"20248595","CountyId":"20358640","CityId":"20358716","DistrictId":"20358717"}}},{"Relevance":1.0,"Distance":7.9,"MatchLevel":"houseNumber","MatchQuality":{"Country":1.0,"State":1.0,"County":1.0,"City":1.0,"District":1.0,"Street":[1.0],"HouseNumber":1.0,"PostalCode":1.0},"MatchType":"interpolated","Location":{"LocationId":"NT_8xSu0r.Mp2tQn94FXvZxKA_l_26233247_R_3UD","LocationType":"point","DisplayPosition":{"Latitude":52.090414,"Longitude":-1.937556},"MapView":{"TopLeft":{"Latitude":52.0915382,"Longitude":-1.9393856},"BottomRight":{"Latitude":52.0892899,"Longitude":-1.9357264}},"Address":{"Label":"75 Port Street, Evesham, WR11 3LF, United Kingdom","Country":"GBR","State":"England","County":"Worcestershire","City":"Evesham","District":"Evesham","Street":"Port Street","HouseNumber":"75","PostalCode":"WR11 3LF","AdditionalData":[{"value":"United Kingdom","key":"CountryName"},{"value":"England","key":"StateName"},{"value":"Worcestershire","key":"CountyName"}]},"MapReference":{"ReferenceId":"26233247","Spot":0.56,"SideOfStreet":"right","StateId":"20248595","CountyId":"20358640","CityId":"20358716","DistrictId":"20358717"}}},{"Relevance":1.0,"Distance":23.9,"MatchLevel":"houseNumber","MatchQuality":{"Country":1.0,"State":1.0,"County":1.0,"City":1.0,"District":1.0,"Street":[1.0],"HouseNumber":1.0,"PostalCode":1.0},"MatchType":"interpolated","Location":{"LocationId":"NT_Arkbi1OC4DMBwKg6b-fF2D_l_26233273_R_xA","LocationType":"point","DisplayPosition":{"Latitude":52.0902982,"Longitude":-1.9378382},"MapView":{"TopLeft":{"Latitude":52.0914223,"Longitude":-1.9396678},"BottomRight":{"Latitude":52.089174,"Longitude":-1.9360086}},"Address":{"Label":"1 Church Street, Evesham, WR11 1FB, United Kingdom","Country":"GBR","State":"England","County":"Worcestershire","City":"Evesham","District":"Evesham","Street":"Church Street","HouseNumber":"1","PostalCode":"WR11 1FB","AdditionalData":[{"value":"United Kingdom","key":"CountryName"},{"value":"England","key":"StateName"},{"value":"Worcestershire","key":"CountyName"}]},"MapReference":{"ReferenceId":"26233273","Spot":0.69,"SideOfStreet":"right","StateId":"20248595","CountyId":"20358640","CityId":"20358716","DistrictId":"20358717"}}},{"Relevance":1.0,"Distance":25.0,"MatchLevel":"houseNumber","MatchQuality":{"Country":1.0,"State":1.0,"County":1.0,"City":1.0,"District":1.0,"Street":[1.0],"HouseNumber":1.0,"PostalCode":1.0},"MatchType":"interpolated","Location":{"LocationId":"NT_LQMpwMcKG0BzKYIShKMiiC_l_26233243_R_3MD","LocationType":"point","DisplayPosition":{"Latitude":52.0905,"Longitude":-1.9379901},"MapView":{"TopLeft":{"Latitude":52.0916242,"Longitude":-1.9398197},"BottomRight":{"Latitude":52.0893759,"Longitude":-1.9361604}},"Address":{"Label":"73 Port Street, Evesham, WR11 3LF, United Kingdom","Country":"GBR","State":"England","County":"Worcestershire","City":"Evesham","District":"Evesham","Street":"Port Street","HouseNumber":"73","PostalCode":"WR11 3LF","AdditionalData":[{"value":"United Kingdom","key":"CountryName"},{"value":"England","key":"StateName"},{"value":"Worcestershire","key":"CountyName"}]},"MapReference":{"ReferenceId":"26233243","Spot":0.36,"SideOfStreet":"right","StateId":"20248595","CountyId":"20358640","CityId":"20358716","DistrictId":"20358717"}}},{"Relevance":1.0,"Distance":27.9,"MatchLevel":"street","MatchQuality":{"Country":1.0,"State":1.0,"County":1.0,"City":1.0,"District":1.0,"Street":[1.0],"PostalCode":1.0},"Location":{"LocationId":"NT_R-6RGg6XpC8ngXD0vgLAEC_l_936698715_R","LocationType":"point","DisplayPosition":{"Latitude":52.09036,"Longitude":-1.93726},"MapView":{"TopLeft":{"Latitude":52.09036,"Longitude":-1.93726},"BottomRight":{"Latitude":52.09034,"Longitude":-1.93716}},"Address":{"Label":"Port Street, Evesham, WR11 1, United Kingdom","Country":"GBR","State":"England","County":"Worcestershire","City":"Evesham","District":"Evesham","Street":"Port Street","PostalCode":"WR11 1","AdditionalData":[{"value":"United Kingdom","key":"CountryName"},{"value":"England","key":"StateName"},{"value":"Worcestershire","key":"CountyName"}]},"MapReference":{"ReferenceId":"936698715","Spot":1.0,"SideOfStreet":"right","StateId":"20248595","CountyId":"20358640","CityId":"20358716","DistrictId":"20358717"}}},{"Relevance":1.0,"Distance":27.9,"MatchLevel":"street","MatchQuality":{"Country":1.0,"State":1.0,"County":1.0,"City":1.0,"District":1.0,"Street":[1.0],"PostalCode":1.0},"Location":{"LocationId":"NT_hK75Va29coGC3gtnrpRF4A_l_26233246_L","LocationType":"point","DisplayPosition":{"Latitude":52.09036,"Longitude":-1.93726},"MapView":{"TopLeft":{"Latitude":52.09075,"Longitude":-1.93726},"BottomRight":{"Latitude":52.09036,"Longitude":-1.93705}},"Address":{"Label":"Northwick Road, Evesham, WR11 1, United Kingdom","Country":"GBR","State":"England","County":"Worcestershire","City":"Evesham","District":"Evesham","Street":"Northwick Road","PostalCode":"WR11 1","AdditionalData":[{"value":"United Kingdom","key":"CountryName"},{"value":"England","key":"StateName"},{"value":"Worcestershire","key":"CountyName"}]},"MapReference":{"ReferenceId":"26233246","Spot":0.0,"SideOfStreet":"left","StateId":"20248595","CountyId":"20358640","CityId":"20358716","DistrictId":"20358717"}}},{"Relevance":1.0,"Distance":37.6,"MatchLevel":"houseNumber","MatchQuality":{"Country":1.0,"State":1.0,"County":1.0,"City":1.0,"District":1.0,"Street":[1.0],"HouseNumber":1.0,"PostalCode":1.0},"MatchType":"interpolated","Location":{"LocationId":"NT_R-6RGg6XpC8ngXD0vgLAEC_l_936698714_R_4UD","LocationType":"point","DisplayPosition":{"Latitude":52.09033,"Longitude":-1.9371},"MapView":{"TopLeft":{"Latitude":52.0914542,"Longitude":-1.9389296},"BottomRight":{"Latitude":52.0892059,"Longitude":-1.9352704}},"Address":{"Label":"85 Port Street, Evesham, WR11 1, United Kingdom","Country":"GBR","State":"England","County":"Worcestershire","City":"Evesham","District":"Evesham","Street":"Port Street","HouseNumber":"85","PostalCode":"WR11 1","AdditionalData":[{"value":"United Kingdom","key":"CountryName"},{"value":"England","key":"StateName"},{"value":"Worcestershire","key":"CountyName"}]},"MapReference":{"ReferenceId":"936698714","Spot":0.5,"SideOfStreet":"right","StateId":"20248595","CountyId":"20358640","CityId":"20358716","DistrictId":"20358717"}}},{"Relevance":1.0,"Distance":37.7,"MatchLevel":"street","MatchQuality":{"Country":1.0,"State":1.0,"County":1.0,"City":1.0,"District":1.0,"PostalCode":1.0},"Location":{"LocationId":"NT_NEQTQBaYrhlEI3zK3slrSC_l_26233229_L","LocationType":"point","DisplayPosition":{"Latitude":52.09077,"Longitude":-1.93737},"MapView":{"TopLeft":{"Latitude":52.09095,"Longitude":-1.93737},"BottomRight":{"Latitude":52.09075,"Longitude":-1.93705}},"Address":{"Label":"Evesham, WR11 3, United Kingdom","Country":"GBR","State":"England","County":"Worcestershire","City":"Evesham","District":"Evesham","PostalCode":"WR11 3","AdditionalData":[{"value":"United Kingdom","key":"CountryName"},{"value":"England","key":"StateName"},{"value":"Worcestershire","key":"CountyName"}]},"MapReference":{"ReferenceId":"26233229","Spot":0.54,"SideOfStreet":"left","StateId":"20248595","CountyId":"20358640","CityId":"20358716","DistrictId":"20358717"}}},{"Relevance":1.0,"Distance":40.1,"MatchLevel":"street","MatchQuality":{"Country":1.0,"State":1.0,"County":1.0,"City":1.0,"District":1.0,"Street":[1.0],"PostalCode":1.0},"Location":{"LocationId":"NT_Cb3.oMEn-RM1HzzsihTgrC_l_936698716_L","LocationType":"point","DisplayPosition":{"Latitude":52.09011,"Longitude":-1.93759},"MapView":{"TopLeft":{"Latitude":52.09034,"Longitude":-1.93759},"BottomRight":{"Latitude":52.09008,"Longitude":-1.93716}},"Address":{"Label":"Swan Court, Evesham, WR11 1, United Kingdom","Country":"GBR","State":"England","County":"Worcestershire","City":"Evesham","District":"Evesham","Street":"Swan Court","PostalCode":"WR11 1","AdditionalData":[{"value":"United Kingdom","key":"CountryName"},{"value":"England","key":"StateName"},{"value":"Worcestershire","key":"CountyName"}]},"MapReference":{"ReferenceId":"936698716","Spot":0.0,"SideOfStreet":"left","StateId":"20248595","CountyId":"20358640","CityId":"20358716","DistrictId":"20358717"}}},{"Relevance":1.0,"Distance":46.1,"MatchLevel":"postalCode","MatchQuality":{"PostalCode":1.0},"MatchType":"interpolated","Location":{"LocationId":"NT_8xSu0r.Mp2tQn94FXvZxKA_l_26233247_R_3UD","LocationType":"point","DisplayPosition":{"Latitude":52.09016,"Longitude":-1.93718},"MapView":{"TopLeft":{"Latitude":52.0991532,"Longitude":-1.9518169},"BottomRight":{"Latitude":52.0811668,"Longitude":-1.9225431}},"Address":{"Label":"WR11 1AT, Evesham, England, United Kingdom","Country":"GBR","State":"England","County":"Worcestershire","City":"Evesham","PostalCode":"WR11 1AT","AdditionalData":[{"value":"United Kingdom","key":"CountryName"},{"value":"England","key":"StateName"},{"value":"Worcestershire","key":"CountyName"}]},"MapReference":{"ReferenceId":"26233247","Spot":0.56,"SideOfStreet":"neither","StateId":"20248595","CountyId":"20358640","CityId":"20358716"}}}]}]}}