{"Response":{"MetaInfo":{"Timestamp":"2020-03-28T09:56:49.457+0000","NextPageInformation":"2"},"View":[{"_type":"SearchResultsViewType","ViewId":0,"Result":[{"Relevance":1.0,"Distance":0.0,"Direction":0.0,"MatchLevel":"city","MatchQuality":{"Country":1.0,"State":1.0,"County":1.0,"City":1.0,"PostalCode":1.0},"Location":{"LocationId":"NT_OUep6KI7MjZHfPm5dPkwwB","LocationType":"point","DisplayPosition":{"Latitude":52.0546598,"Longitude":6.0915644},"MapView":{"TopLeft":{"Latitude":52.06972,"Longitude":6.08298},"BottomRight":{"Latitude":52.04027,"Longitude":6.11542}},"Address":{"Label":"Dieren, Gelderland, Nederland","Country":"NLD","State":"Gelderland","County":"Rheden","City":"Dieren","PostalCode":"6952 AK","AdditionalData":[{"value":"Nederland","key":"CountryName"},{"value":"Gelderland","key":"StateName"},{"value":"Rheden","key":"CountyName"}]},"MapReference":{"ReferenceId":"55013292","SideOfStreet":"neither","CountryId":"23055544","StateId":"23055652","CountyId":"23055670","CityId":"20201346"}}},{"Relevance":1.0,"Distance":0.3,"MatchLevel":"houseNumber","MatchQuality":{"Country":1.0,"State":1.0,"County":1.0,"City":1.0,"Street":[1.0],"HouseNumber":1.0,"PostalCode":1.0},"MatchType":"interpolated","Location":{"LocationId":"NT_WoQgypntNevvN1-POkZ69D_xITLLJTM5A","LocationType":"point","DisplayPosition":{"Latitude":52.05466,"Longitude":6.09156},"MapView":{"TopLeft":{"Latitude":52.0557842,"Longitude":6.0897318},"BottomRight":{"Latitude":52.0535358,"Longitude":6.0933882}},"Address":{"Label":"Admiraal Helfrichlaan 12-K219, 6952 GG Dieren, Nederland","Country":"NLD","State":"Gelderland","County":"Rheden","City":"Dieren","Street":"Admiraal Helfrichlaan","HouseNumber":"12-K219","PostalCode":"6952 GG","AdditionalData":[{"value":"Nederland","key":"CountryName"},{"value":"Gelderland","key":"StateName"},{"value":"Rheden","key":"CountyName"}]},"MapReference":{"ReferenceId":"55012222","Spot":0.67,"SideOfStreet":"right","CountryId":"23055544","StateId":"23055652","CountyId":"23055670","CityId":"20201346","AddressId":"797535792","RoadLinkId":"31669274"}}},{"Relevance":1.0,"Distance":13.1,"MatchLevel":"street","MatchQuality":{"Country":1.0,"State":1.0,"County":1.0,"City":1.0,"PostalCode":1.0},"Location":{"LocationId":"NT_l6K95uBMWcCC0Jyyc9.6.C_l_55012223_R","LocationType":"point","DisplayPosition":{"Latitude":52.0547772,"Longitude":6.0915483},"MapView":{"TopLeft":{"Latitude":52.05482,"Longitude":6.09084},"BottomRight":{"Latitude":52.05455,"Longitude":6.09186}},"Address":{"Label":"6952 Dieren, Nederland","Country":"NLD","State":"Gelderland","County":"Rheden","City":"Dieren","PostalCode":"6952","AdditionalData":[{"value":"Nederland","key":"CountryName"},{"value":"Gelderland","key":"StateName"},{"value":"Rheden","key":"CountyName"}]},"MapReference":{"ReferenceId":"55012223","Spot":0.73,"SideOfStreet":"right","CountryId":"23055544","StateId":"23055652","CountyId":"23055670","CityId":"20201346"}}},{"Relevance":1.0,"Distance":23.9,"MatchLevel":"street","MatchQuality":{"Country":1.0,"State":1.0,"County":1.0,"City":1.0,"PostalCode":1.0},"Location":{"LocationId":"NT_l6K95uBMWcCC0Jyyc9.6.C_l_55012224_L","LocationType":"point","DisplayPosition":{"Latitude":52.05472,"Longitude":6.0919},"MapView":{"TopLeft":{"Latitude":52.05472,"Longitude":6.0919},"BottomRight":{"Latitude":52.0545,"Longitude":6.092}},"Address":{"Label":"6952 Dieren, Nederland","Country":"NLD","State":"Gelderland","County":"Rheden","City":"Dieren","PostalCode":"6952","AdditionalData":[{"value":"Nederland","key":"CountryName"},{"value":"Gelderland","key":"StateName"},{"value":"Rheden","key":"CountyName"}]},"MapReference":{"ReferenceId":"55012224","Spot":1.0,"SideOfStreet":"left","CountryId":"23055544","StateId":"23055652","CountyId":"23055670","CityId":"20201346"}}},{"Relevance":1.0,"Distance":25.3,"MatchLevel":"street","MatchQuality":{"Country":1.0,"State":1.0,"County":1.0,"City":1.0,"PostalCode":1.0},"Location":{"LocationId":"NT_l6K95uBMWcCC0Jyyc9.6.C_l_55012203_L","LocationType":"point","DisplayPosition":{"Latitude":52.0547838,"Longitude":6.0918745},"MapView":{"TopLeft":{"Latitude":52.05482,"Longitude":6.09186},"BottomRight":{"Latitude":52.05472,"Longitude":6.0919}},"Address":{"Label":"6952 Dieren, Nederland","Country":"NLD","State":"Gelderland","County":"Rheden","City":"Dieren","PostalCode":"6952","AdditionalData":[{"value":"Nederland","key":"CountryName"},{"value":"Gelderland","key":"StateName"},{"value":"Rheden","key":"CountyName"}]},"MapReference":{"ReferenceId":"55012203","Spot":0.64,"SideOfStreet":"left","CountryId":"23055544","StateId":"23055652","CountyId":"23055670","CityId":"20201346"}}},{"Relevance":1.0,"Distance":26.7,"MatchLevel":"street","MatchQuality":{"Country":1.0,"State":1.0,"County":1.0,"City":1.0,"PostalCode":1.0},"Location":{"LocationId":"NT_l6K95uBMWcCC0Jyyc9.6.C_l_55012227_L","LocationType":"point","DisplayPosition":{"Latitude":52.05449,"Longitude":6.09184},"MapView":{"TopLeft":{"Latitude":52.0545,"Longitude":6.09184},"BottomRight":{"Latitude":52.05449,"Longitude":6.092}},"Address":{"Label":"6952 Dieren, Nederland","Country":"NLD","State":"Gelderland","County":"Rheden","City":"Dieren","PostalCode":"6952","AdditionalData":[{"value":"Nederland","key":"CountryName"},{"value":"Gelderland","key":"StateName"},{"value":"Rheden","key":"CountyName"}]},"MapReference":{"ReferenceId":"55012227","Spot":0.0,"SideOfStreet":"left","CountryId":"23055544","StateId":"23055652","CountyId":"23055670","CityId":"20201346"}}},{"Relevance":1.0,"Distance":26.9,"MatchLevel":"street","MatchQuality":{"Country":1.0,"State":1.0,"County":1.0,"City":1.0,"PostalCode":1.0},"Location":{"LocationId":"NT_l6K95uBMWcCC0Jyyc9.6.C_l_55012185_R","LocationType":"point","DisplayPosition":{"Latitude":52.05482,"Longitude":6.09186},"MapView":{"TopLeft":{"Latitude":52.05491,"Longitude":6.09186},"BottomRight":{"Latitude":52.05482,"Longitude":6.09251}},"Address":{"Label":"6952 Dieren, Nederland","Country":"NLD","State":"Gelderland","County":"Rheden","City":"Dieren","PostalCode":"6952","AdditionalData":[{"value":"Nederland","key":"CountryName"},{"value":"Gelderland","key":"StateName"},{"value":"Rheden","key":"CountyName"}]},"MapReference":{"ReferenceId":"55012185","Spot":0.0,"SideOfStreet":"right","CountryId":"23055544","StateId":"23055652","CountyId":"23055670","CityId":"20201346"}}},{"Relevance":1.0,"Distance":34.7,"MatchLevel":"street","MatchQuality":{"Country":1.0,"State":1.0,"County":1.0,"City":1.0,"PostalCode":1.0},"Location":{"LocationId":"NT_l6K95uBMWcCC0Jyyc9.6.C_l_55012276_L","LocationType":"point","DisplayPosition":{"Latitude":52.0545,"Longitude":6.092},"MapView":{"TopLeft":{"Latitude":52.0545,"Longitude":6.092},"BottomRight":{"Latitude":52.0541,"Longitude":6.09213}},"Address":{"Label":"6952 Dieren, Nederland","Country":"NLD","State":"Gelderland","County":"Rheden","City":"Dieren","PostalCode":"6952","AdditionalData":[{"value":"Nederland","key":"CountryName"},{"value":"Gelderland","key":"StateName"},{"value":"Rheden","key":"CountyName"}]},"MapReference":{"ReferenceId":"55012276","Spot":1.0,"SideOfStreet":"left","CountryId":"23055544","StateId":"23055652","CountyId":"23055670","CityId":"20201346"}}},{"Relevance":1.0,"Distance":39.6,"MatchLevel":"houseNumber","MatchQuality":{"Country":1.0,"State":1.0,"County":1.0,"City":1.0,"Street":[1.0],"HouseNumber":1.0,"PostalCode":1.0},"MatchType":"interpolated","Location":{"LocationId":"NT_jxLJIBbjkifdDC.WRWMrvB_xITLLJTMzA","LocationType":"point","DisplayPosition":{"Latitude":52.05406,"Longitude":6.09206},"MapView":{"TopLeft":{"Latitude":52.0551842,"Longitude":6.0902319},"BottomRight":{"Latitude":52.0529358,"Longitude":6.0938881}},"Address":{"Label":"Admiraal Helfrichlaan 12-K213, 6952 Dieren, Nederland","Country":"NLD","State":"Gelderland","County":"Rheden","City":"Dieren","Street":"Admiraal Helfrichlaan","HouseNumber":"12-K213","PostalCode":"6952","AdditionalData":[{"value":"Nederland","key":"CountryName"},{"value":"Gelderland","key":"StateName"},{"value":"Rheden","key":"CountyName"}]},"MapReference":{"ReferenceId":"999119064","Spot":0.95,"SideOfStreet":"left","CountryId":"23055544","StateId":"23055652","CountyId":"23055670","CityId":"20201346","AddressId":"797414658","RoadLinkId":"325416736"}}},{"Relevance":1.0,"Distance":40.2,"MatchLevel":"houseNumber","MatchQuality":{"Country":1.0,"State":1.0,"County":1.0,"City":1.0,"Street":[1.0],"HouseNumber":1.0,"PostalCode":1.0},"MatchType":"interpolated","Location":{"LocationId":"NT_n8yRmPsj9CMoJTTbB-YMZB_3A","LocationType":"point","DisplayPosition":{"Latitude":52.05528,"Longitude":6.09163},"MapView":{"TopLeft":{"Latitude":52.0564042,"Longitude":6.0898018},"BottomRight":{"Latitude":52.0541558,"Longitude":6.0934582}},"Address":{"Label":"Kollinglaan 7, 6952 HK Dieren, Nederland","Country":"NLD","State":"Gelderland","County":"Rheden","City":"Dieren","Street":"Kollinglaan","HouseNumber":"7","PostalCode":"6952 HK","AdditionalData":[{"value":"Nederland","key":"CountryName"},{"value":"Gelderland","key":"StateName"},{"value":"Rheden","key":"CountyName"}]},"MapReference":{"ReferenceId":"55012170","Spot":0.8,"SideOfStreet":"right","CountryId":"23055544","StateId":"23055652","CountyId":"23055670","CityId":"20201346","AddressId":"616996797","RoadLinkId":"31694240"}}}]}]}}