{"Response":{"MetaInfo":{"Timestamp":"2020-03-28T10:41:17.609+0000","NextPageInformation":"2"},"View":[{"_type":"SearchResultsViewType","ViewId":0,"Result":[{"Relevance":1.0,"Distance":0.0,"Direction":0.0,"MatchLevel":"district","MatchQuality":{"Country":1.0,"State":1.0,"County":1.0,"City":1.0,"District":1.0,"PostalCode":1.0},"Location":{"LocationId":"NT_JMxoU.K4oB7.53tBNDOKNC","LocationType":"point","DisplayPosition":{"Latitude":52.0221375,"Longitude":-0.6910412},"MapView":{"TopLeft":{"Latitude":52.02621,"Longitude":-0.70311},"BottomRight":{"Latitude":52.01405,"Longitude":-0.68639}},"Address":{"Label":"Walnut Tree, Milton Keynes, England, United Kingdom","Country":"GBR","State":"England","County":"Buckinghamshire","City":"Milton Keynes","District":"Walnut Tree","PostalCode":"MK7 7","AdditionalData":[{"value":"United Kingdom","key":"CountryName"},{"value":"England","key":"StateName"},{"value":"Buckinghamshire","key":"CountyName"}]},"MapReference":{"ReferenceId":"1085418195","SideOfStreet":"neither","StateId":"20248595","CountyId":"20334714","CityId":"20334924","DistrictId":"20335030"}}},{"Relevance":1.0,"Distance":39.4,"MatchLevel":"houseNumber","MatchQuality":{"Country":1.0,"State":1.0,"County":1.0,"City":1.0,"District":1.0,"Street":[1.0],"HouseNumber":1.0,"PostalCode":1.0},"MatchType":"interpolated","Location":{"LocationId":"NT_pYHRcHlFtH-Zjy39weme0A_l_25849765_R_yA","LocationType":"point","DisplayPosition":{"Latitude":52.02176,"Longitude":-0.69152},"MapView":{"TopLeft":{"Latitude":52.0228842,"Longitude":-0.6933468},"BottomRight":{"Latitude":52.0206359,"Longitude":-0.6896932}},"Address":{"Label":"2 Blackberry Court, Milton Keynes, MK7 7PB, United Kingdom","Country":"GBR","State":"England","County":"Buckinghamshire","City":"Milton Keynes","District":"Walnut Tree","Street":"Blackberry Court","HouseNumber":"2","PostalCode":"MK7 7PB","AdditionalData":[{"value":"United Kingdom","key":"CountryName"},{"value":"England","key":"StateName"},{"value":"Buckinghamshire","key":"CountyName"}]},"MapReference":{"ReferenceId":"25849765","Spot":0.09,"SideOfStreet":"right","StateId":"20248595","CountyId":"20334714","CityId":"20334924","DistrictId":"20335030"}}},{"Relevance":1.0,"Distance":43.5,"MatchLevel":"postalCode","MatchQuality":{"PostalCode":1.0},"MatchType":"interpolated","Location":{"LocationId":"NT_pYHRcHlFtH-Zjy39weme0A_l_25849765_R_yA","LocationType":"point","DisplayPosition":{"Latitude":52.02186,"Longitude":-0.69149},"MapView":{"TopLeft":{"Latitude":52.0308532,"Longitude":-0.7061045},"BottomRight":{"Latitude":52.0128668,"Longitude":-0.6768755}},"Address":{"Label":"MK7 7PB, Milton Keynes, England, United Kingdom","Country":"GBR","State":"England","County":"Buckinghamshire","City":"Milton Keynes","PostalCode":"MK7 7PB","AdditionalData":[{"value":"United Kingdom","key":"CountryName"},{"value":"England","key":"StateName"},{"value":"Buckinghamshire","key":"CountyName"}]},"MapReference":{"ReferenceId":"25849765","Spot":0.09,"SideOfStreet":"neither","StateId":"20248595","CountyId":"20334714","CityId":"20334924"}}},{"Relevance":1.0,"Distance":53.2,"MatchLevel":"street","MatchQuality":{"Country":1.0,"State":1.0,"County":1.0,"City":1.0,"District":1.0,"Street":[1.0],"PostalCode":1.0},"Location":{"LocationId":"NT_pj.Ul3hf2OC3fdod-bHOWA_l_25849790_R","LocationType":"point","DisplayPosition":{"Latitude":52.02166,"Longitude":-0.69108},"MapView":{"TopLeft":{"Latitude":52.02166,"Longitude":-0.69147},"BottomRight":{"Latitude":52.02149,"Longitude":-0.69082}},"Address":{"Label":"Hindhead Knoll, Milton Keynes, MK7 7, United Kingdom","Country":"GBR","State":"England","County":"Buckinghamshire","City":"Milton Keynes","District":"Walnut Tree","Street":"Hindhead Knoll","PostalCode":"MK7 7","AdditionalData":[{"value":"United Kingdom","key":"CountryName"},{"value":"England","key":"StateName"},{"value":"Buckinghamshire","key":"CountyName"}]},"MapReference":{"ReferenceId":"25849790","Spot":0.45,"SideOfStreet":"right","StateId":"20248595","CountyId":"20334714","CityId":"20334924","DistrictId":"20335030"}}},{"Relevance":1.0,"Distance":57.6,"MatchLevel":"houseNumber","MatchQuality":{"Country":1.0,"State":1.0,"County":1.0,"City":1.0,"District":1.0,"Street":[1.0],"HouseNumber":1.0,"PostalCode":1.0},"MatchType":"interpolated","Location":{"LocationId":"NT_c2vzzMm2KVmGLzZVjPoCsA_l_25849639_R_xYD","LocationType":"point","DisplayPosition":{"Latitude":52.0226001,"Longitude":-0.6914201},"MapView":{"TopLeft":{"Latitude":52.0237243,"Longitude":-0.6932469},"BottomRight":{"Latitude":52.021476,"Longitude":-0.6895932}},"Address":{"Label":"16 Groundsel Close, Milton Keynes, MK7 7NT, United Kingdom","Country":"GBR","State":"England","County":"Buckinghamshire","City":"Milton Keynes","District":"Walnut Tree","Street":"Groundsel Close","HouseNumber":"16","PostalCode":"MK7 7NT","AdditionalData":[{"value":"United Kingdom","key":"CountryName"},{"value":"England","key":"StateName"},{"value":"Buckinghamshire","key":"CountyName"}]},"MapReference":{"ReferenceId":"25849639","Spot":0.19,"SideOfStreet":"right","StateId":"20248595","CountyId":"20334714","CityId":"20334924","DistrictId":"20335030"}}},{"Relevance":1.0,"Distance":63.6,"MatchLevel":"street","MatchQuality":{"Country":1.0,"State":1.0,"County":1.0,"City":1.0,"District":1.0,"Street":[1.0],"PostalCode":1.0},"Location":{"LocationId":"NT_pj.Ul3hf2OC3fdod-bHOWA_l_25849800_L","LocationType":"point","DisplayPosition":{"Latitude":52.02163,"Longitude":-0.69147},"MapView":{"TopLeft":{"Latitude":52.02163,"Longitude":-0.6928},"BottomRight":{"Latitude":52.02145,"Longitude":-0.69147}},"Address":{"Label":"Hindhead Knoll, Milton Keynes, MK7 7, United Kingdom","Country":"GBR","State":"England","County":"Buckinghamshire","City":"Milton Keynes","District":"Walnut Tree","Street":"Hindhead Knoll","PostalCode":"MK7 7","AdditionalData":[{"value":"United Kingdom","key":"CountryName"},{"value":"England","key":"StateName"},{"value":"Buckinghamshire","key":"CountyName"}]},"MapReference":{"ReferenceId":"25849800","Spot":1.0,"SideOfStreet":"left","StateId":"20248595","CountyId":"20334714","CityId":"20334924","DistrictId":"20335030"}}},{"Relevance":1.0,"Distance":66.4,"MatchLevel":"street","MatchQuality":{"Country":1.0,"State":1.0,"County":1.0,"City":1.0,"District":1.0,"Street":[1.0],"PostalCode":1.0},"Location":{"LocationId":"NT_t0jW-IL5s1CUwI.PUsA.mA_l_1085425751_L","LocationType":"point","DisplayPosition":{"Latitude":52.02183,"Longitude":-0.69021},"MapView":{"TopLeft":{"Latitude":52.02221,"Longitude":-0.69021},"BottomRight":{"Latitude":52.02159,"Longitude":-0.68988}},"Address":{"Label":"Fyfield Barrow, Milton Keynes, MK7 7, United Kingdom","Country":"GBR","State":"England","County":"Buckinghamshire","City":"Milton Keynes","District":"Walnut Tree","Street":"Fyfield Barrow","PostalCode":"MK7 7","AdditionalData":[{"value":"United Kingdom","key":"CountryName"},{"value":"England","key":"StateName"},{"value":"Buckinghamshire","key":"CountyName"}]},"MapReference":{"ReferenceId":"1085425751","Spot":0.32,"SideOfStreet":"left","StateId":"20248595","CountyId":"20334714","CityId":"20334924","DistrictId":"20335030"}}},{"Relevance":1.0,"Distance":68.2,"MatchLevel":"postalCode","MatchQuality":{"PostalCode":1.0},"MatchType":"interpolated","Location":{"LocationId":"NT_c2vzzMm2KVmGLzZVjPoCsA_l_25849639_R_xYD","LocationType":"point","DisplayPosition":{"Latitude":52.02271,"Longitude":-0.6914},"MapView":{"TopLeft":{"Latitude":52.0317032,"Longitude":-0.7060148},"BottomRight":{"Latitude":52.0137168,"Longitude":-0.6767852}},"Address":{"Label":"MK7 7NT, Milton Keynes, England, United Kingdom","Country":"GBR","State":"England","County":"Buckinghamshire","City":"Milton Keynes","PostalCode":"MK7 7NT","AdditionalData":[{"value":"United Kingdom","key":"CountryName"},{"value":"England","key":"StateName"},{"value":"Buckinghamshire","key":"CountyName"}]},"MapReference":{"ReferenceId":"25849639","Spot":0.19,"SideOfStreet":"neither","StateId":"20248595","CountyId":"20334714","CityId":"20334924"}}},{"Relevance":1.0,"Distance":73.6,"MatchLevel":"street","MatchQuality":{"Country":1.0,"State":1.0,"County":1.0,"City":1.0,"District":1.0,"Street":[1.0],"PostalCode":1.0},"Location":{"LocationId":"NT_pj.Ul3hf2OC3fdod-bHOWA_l_25849789_L","LocationType":"point","DisplayPosition":{"Latitude":52.02149,"Longitude":-0.69082},"MapView":{"TopLeft":{"Latitude":52.02159,"Longitude":-0.69082},"BottomRight":{"Latitude":52.02149,"Longitude":-0.69019}},"Address":{"Label":"Hindhead Knoll, Milton Keynes, MK7 7, United Kingdom","Country":"GBR","State":"England","County":"Buckinghamshire","City":"Milton Keynes","District":"Walnut Tree","Street":"Hindhead Knoll","PostalCode":"MK7 7","AdditionalData":[{"value":"United Kingdom","key":"CountryName"},{"value":"England","key":"StateName"},{"value":"Buckinghamshire","key":"CountyName"}]},"MapReference":{"ReferenceId":"25849789","Spot":0.0,"SideOfStreet":"left","StateId":"20248595","CountyId":"20334714","CityId":"20334924","DistrictId":"20335030"}}},{"Relevance":1.0,"Distance":73.6,"MatchLevel":"street","MatchQuality":{"Country":1.0,"State":1.0,"County":1.0,"City":1.0,"District":1.0,"Street":[1.0],"PostalCode":1.0},"Location":{"LocationId":"NT_pj.Ul3hf2OC3fdod-bHOWA_l_25849826_L","LocationType":"point","DisplayPosition":{"Latitude":52.02149,"Longitude":-0.69082},"MapView":{"TopLeft":{"Latitude":52.02149,"Longitude":-0.6913},"BottomRight":{"Latitude":52.02118,"Longitude":-0.69082}},"Address":{"Label":"Hindhead Knoll, Milton Keynes, MK7 7, United Kingdom","Country":"GBR","State":"England","County":"Buckinghamshire","City":"Milton Keynes","District":"Walnut Tree","Street":"Hindhead Knoll","PostalCode":"MK7 7","AdditionalData":[{"value":"United Kingdom","key":"CountryName"},{"value":"England","key":"StateName"},{"value":"Buckinghamshire","key":"CountyName"}]},"MapReference":{"ReferenceId":"25849826","Spot":1.0,"SideOfStreet":"left","StateId":"20248595","CountyId":"20334714","CityId":"20334924","DistrictId":"20335030"}}}]}]}}