{"Response":{"MetaInfo":{"Timestamp":"2020-03-28T09:35:08.310+0000","NextPageInformation":"2"},"View":[{"_type":"SearchResultsViewType","ViewId":0,"Result":[{"Relevance":1.0,"Distance":0.0,"Direction":0.0,"MatchLevel":"district","MatchQuality":{"Country":1.0,"State":1.0,"County":1.0,"City":1.0,"District":1.0,"PostalCode":1.0},"Location":{"LocationId":"NT_9FcSWmxAC37pPAWP7E4YVB","LocationType":"point","DisplayPosition":{"Latitude":52.0099146,"Longitude":8.5206015},"MapView":{"TopLeft":{"Latitude":52.08108,"Longitude":8.43056},"BottomRight":{"Latitude":51.94892,"Longitude":8.6519}},"Address":{"Label":"Bielefeld, Nordrhein-Westfalen, Deutschland","Country":"DEU","State":"Nordrhein-Westfalen","County":"Bielefeld","City":"Bielefeld","District":"Bielefeld","PostalCode":"33604","AdditionalData":[{"value":"Deutschland","key":"CountryName"},{"value":"Nordrhein-Westfalen","key":"StateName"},{"value":"Bielefeld","key":"CountyName"}]},"MapReference":{"ReferenceId":"51583169","SideOfStreet":"neither","CountryId":"20147700","StateId":"20157369","CountyId":"20159538","CityId":"20159539","DistrictId":"20159550"}}},{"Relevance":1.0,"Distance":17.7,"MatchLevel":"houseNumber","MatchQuality":{"Country":1.0,"State":1.0,"County":1.0,"City":1.0,"District":1.0,"Street":[1.0],"HouseNumber":1.0,"PostalCode":1.0},"MatchType":"interpolated","Location":{"LocationId":"NT_ovVdeToD3V4WQnUzsQBDlD_xAD","LocationType":"point","DisplayPosition":{"Latitude":52.00964,"Longitude":8.52109},"MapView":{"TopLeft":{"Latitude":52.0107642,"Longitude":8.5192637},"BottomRight":{"Latitude":52.0085158,"Longitude":8.5229163}},"Address":{"Label":"Hoffnungstaler Weg 10, 33617 Bielefeld, Deutschland","Country":"DEU","State":"Nordrhein-Westfalen","County":"Bielefeld","City":"Bielefeld","District":"Bielefeld","Street":"Hoffnungstaler Weg","HouseNumber":"10","PostalCode":"33617","AdditionalData":[{"value":"Deutschland","key":"CountryName"},{"value":"Nordrhein-Westfalen","key":"StateName"},{"value":"Bielefeld","key":"CountyName"}]},"MapReference":{"ReferenceId":"51576260","Spot":0.63,"SideOfStreet":"left","CountryId":"20147700","StateId":"20157369","CountyId":"20159538","CityId":"20159539","DistrictId":"20159550","AddressId":"194668435","RoadLinkId":"35358927"}}},{"Relevance":1.0,"Distance":58.2,"MatchLevel":"houseNumber","MatchQuality":{"Country":1.0,"State":1.0,"County":1.0,"City":1.0,"District":1.0,"Street":[1.0],"HouseNumber":1.0,"PostalCode":1.0},"MatchType":"interpolated","Location":{"LocationId":"NT_8qo6.oaG5Evob9HxvyULVD_5A","LocationType":"point","DisplayPosition":{"Latitude":52.01011,"Longitude":8.51969},"MapView":{"TopLeft":{"Latitude":52.0112342,"Longitude":8.5178637},"BottomRight":{"Latitude":52.0089858,"Longitude":8.5215163}},"Address":{"Label":"Deckertstraße 9, 33617 Bielefeld, Deutschland","Country":"DEU","State":"Nordrhein-Westfalen","County":"Bielefeld","City":"Bielefeld","District":"Bielefeld","Street":"Deckertstraße","HouseNumber":"9","PostalCode":"33617","AdditionalData":[{"value":"Deutschland","key":"CountryName"},{"value":"Nordrhein-Westfalen","key":"StateName"},{"value":"Bielefeld","key":"CountyName"}]},"MapReference":{"ReferenceId":"51576217","Spot":0.37,"SideOfStreet":"right","CountryId":"20147700","StateId":"20157369","CountyId":"20159538","CityId":"20159539","DistrictId":"20159550","AddressId":"192759881","RoadLinkId":"34944714"}}},{"Relevance":1.0,"Distance":66.6,"MatchLevel":"houseNumber","MatchQuality":{"Country":1.0,"State":1.0,"County":1.0,"City":1.0,"District":1.0,"Street":[1.0],"HouseNumber":1.0,"PostalCode":1.0},"MatchType":"interpolated","Location":{"LocationId":"NT_ERZYvvF5LlOPz5RCdjJLDD_xMD","LocationType":"point","DisplayPosition":{"Latitude":52.0096,"Longitude":8.51962},"MapView":{"TopLeft":{"Latitude":52.0107242,"Longitude":8.5177937},"BottomRight":{"Latitude":52.0084758,"Longitude":8.5214463}},"Address":{"Label":"Quellenhofweg 13, 33617 Bielefeld, Deutschland","Country":"DEU","State":"Nordrhein-Westfalen","County":"Bielefeld","City":"Bielefeld","District":"Bielefeld","Street":"Quellenhofweg","HouseNumber":"13","PostalCode":"33617","AdditionalData":[{"value":"Deutschland","key":"CountryName"},{"value":"Nordrhein-Westfalen","key":"StateName"},{"value":"Bielefeld","key":"CountyName"}]},"MapReference":{"ReferenceId":"51576261","Spot":0.85,"SideOfStreet":"right","CountryId":"20147700","StateId":"20157369","CountyId":"20159538","CityId":"20159539","DistrictId":"20159550","AddressId":"192948345","RoadLinkId":"34996727"}}},{"Relevance":1.0,"Distance":79.3,"MatchLevel":"houseNumber","MatchQuality":{"Country":1.0,"State":1.0,"County":1.0,"City":1.0,"District":1.0,"Street":[1.0],"HouseNumber":1.0,"PostalCode":1.0},"MatchType":"interpolated","Location":{"LocationId":"NT_50sR1WqjFfoTykry5a2UIA_xMD","LocationType":"point","DisplayPosition":{"Latitude":52.00993,"Longitude":8.52185},"MapView":{"TopLeft":{"Latitude":52.0110542,"Longitude":8.5200237},"BottomRight":{"Latitude":52.0088058,"Longitude":8.5236763}},"Address":{"Label":"Karl-Schnitger-Weg 13, 33617 Bielefeld, Deutschland","Country":"DEU","State":"Nordrhein-Westfalen","County":"Bielefeld","City":"Bielefeld","District":"Bielefeld","Street":"Karl-Schnitger-Weg","HouseNumber":"13","PostalCode":"33617","AdditionalData":[{"value":"Deutschland","key":"CountryName"},{"value":"Nordrhein-Westfalen","key":"StateName"},{"value":"Bielefeld","key":"CountyName"}]},"MapReference":{"ReferenceId":"51576274","Spot":0.73,"SideOfStreet":"left","CountryId":"20147700","StateId":"20157369","CountyId":"20159538","CityId":"20159539","DistrictId":"20159550","AddressId":"193565238","RoadLinkId":"35601813"}}},{"Relevance":1.0,"Distance":81.3,"MatchLevel":"houseNumber","MatchQuality":{"Country":1.0,"State":1.0,"County":1.0,"City":1.0,"District":1.0,"Street":[1.0],"HouseNumber":1.0,"PostalCode":1.0},"MatchType":"interpolated","Location":{"LocationId":"NT_ovVdeToD3V4WQnUzsQBDlD_l_51576178_L_2A","LocationType":"point","DisplayPosition":{"Latitude":52.0104517,"Longitude":8.5214919},"MapView":{"TopLeft":{"Latitude":52.0115759,"Longitude":8.5196656},"BottomRight":{"Latitude":52.0093276,"Longitude":8.5233183}},"Address":{"Label":"Hoffnungstaler Weg 6, 33617 Bielefeld, Deutschland","Country":"DEU","State":"Nordrhein-Westfalen","County":"Bielefeld","City":"Bielefeld","District":"Bielefeld","Street":"Hoffnungstaler Weg","HouseNumber":"6","PostalCode":"33617","AdditionalData":[{"value":"Deutschland","key":"CountryName"},{"value":"Nordrhein-Westfalen","key":"StateName"},{"value":"Bielefeld","key":"CountyName"}]},"MapReference":{"ReferenceId":"51576178","Spot":0.5,"SideOfStreet":"left","CountryId":"20147700","StateId":"20157369","CountyId":"20159538","CityId":"20159539","DistrictId":"20159550"}}},{"Relevance":1.0,"Distance":88.5,"MatchLevel":"houseNumber","MatchQuality":{"Country":1.0,"State":1.0,"County":1.0,"City":1.0,"District":1.0,"Street":[1.0],"HouseNumber":1.0,"PostalCode":1.0},"MatchType":"interpolated","Location":{"LocationId":"NT_ERZYvvF5LlOPz5RCdjJLDD_xED","LocationType":"point","DisplayPosition":{"Latitude":52.00973,"Longitude":8.51925},"MapView":{"TopLeft":{"Latitude":52.0108542,"Longitude":8.5174237},"BottomRight":{"Latitude":52.0086058,"Longitude":8.5210763}},"Address":{"Label":"Quellenhofweg 11, 33617 Bielefeld, Deutschland","Country":"DEU","State":"Nordrhein-Westfalen","County":"Bielefeld","City":"Bielefeld","District":"Bielefeld","Street":"Quellenhofweg","HouseNumber":"11","PostalCode":"33617","AdditionalData":[{"value":"Deutschland","key":"CountryName"},{"value":"Nordrhein-Westfalen","key":"StateName"},{"value":"Bielefeld","key":"CountyName"}]},"MapReference":{"ReferenceId":"51576218","Spot":0.16,"SideOfStreet":"right","CountryId":"20147700","StateId":"20157369","CountyId":"20159538","CityId":"20159539","DistrictId":"20159550","AddressId":"195461646","RoadLinkId":"35681710"}}},{"Relevance":1.0,"Distance":94.5,"MatchLevel":"houseNumber","MatchQuality":{"Country":1.0,"State":1.0,"County":1.0,"City":1.0,"District":1.0,"Street":[1.0],"HouseNumber":1.0,"PostalCode":1.0},"MatchType":"interpolated","Location":{"LocationId":"NT_wef4EnnHymYGNFoSTLRV1B_2A","LocationType":"point","DisplayPosition":{"Latitude":52.01084,"Longitude":8.52135},"MapView":{"TopLeft":{"Latitude":52.0119642,"Longitude":8.5195236},"BottomRight":{"Latitude":52.0097158,"Longitude":8.5231764}},"Address":{"Label":"Martiniweg 6, 33617 Bielefeld, Deutschland","Country":"DEU","State":"Nordrhein-Westfalen","County":"Bielefeld","City":"Bielefeld","District":"Bielefeld","Street":"Martiniweg","HouseNumber":"6","PostalCode":"33617","AdditionalData":[{"value":"Deutschland","key":"CountryName"},{"value":"Nordrhein-Westfalen","key":"StateName"},{"value":"Bielefeld","key":"CountyName"}]},"MapReference":{"ReferenceId":"1022646235","Spot":0.22,"SideOfStreet":"left","CountryId":"20147700","StateId":"20157369","CountyId":"20159538","CityId":"20159539","DistrictId":"20159550","AddressId":"193321567","RoadLinkId":"347242306"}}},{"Relevance":1.0,"Distance":102.0,"MatchLevel":"houseNumber","MatchQuality":{"Country":1.0,"State":1.0,"County":1.0,"City":1.0,"District":1.0,"Street":[1.0],"HouseNumber":1.0,"PostalCode":1.0},"MatchType":"interpolated","Location":{"LocationId":"NT_8qo6.oaG5Evob9HxvyULVD_xcD","LocationType":"point","DisplayPosition":{"Latitude":52.00932,"Longitude":8.51939},"MapView":{"TopLeft":{"Latitude":52.0104442,"Longitude":8.5175637},"BottomRight":{"Latitude":52.0081958,"Longitude":8.5212163}},"Address":{"Label":"Deckertstraße 17, 33617 Bielefeld, Deutschland","Country":"DEU","State":"Nordrhein-Westfalen","County":"Bielefeld","City":"Bielefeld","District":"Bielefeld","Street":"Deckertstraße","HouseNumber":"17","PostalCode":"33617","AdditionalData":[{"value":"Deutschland","key":"CountryName"},{"value":"Nordrhein-Westfalen","key":"StateName"},{"value":"Bielefeld","key":"CountyName"}]},"MapReference":{"ReferenceId":"51576293","Spot":0.57,"SideOfStreet":"right","CountryId":"20147700","StateId":"20157369","CountyId":"20159538","CityId":"20159539","DistrictId":"20159550","AddressId":"196646112","RoadLinkId":"34961884"}}},{"Relevance":1.0,"Distance":113.3,"MatchLevel":"houseNumber","MatchQuality":{"Country":1.0,"State":1.0,"County":1.0,"City":1.0,"District":1.0,"Street":[1.0],"HouseNumber":1.0,"PostalCode":1.0},"MatchType":"interpolated","Location":{"LocationId":"NT_ERZYvvF5LlOPz5RCdjJLDD_yUD","LocationType":"point","DisplayPosition":{"Latitude":52.00873,"Longitude":8.52045},"MapView":{"TopLeft":{"Latitude":52.0098542,"Longitude":8.5186237},"BottomRight":{"Latitude":52.0076058,"Longitude":8.5222763}},"Address":{"Label":"Quellenhofweg 25, 33617 Bielefeld, Deutschland","Country":"DEU","State":"Nordrhein-Westfalen","County":"Bielefeld","City":"Bielefeld","District":"Bielefeld","Street":"Quellenhofweg","HouseNumber":"25","PostalCode":"33617","AdditionalData":[{"value":"Deutschland","key":"CountryName"},{"value":"Nordrhein-Westfalen","key":"StateName"},{"value":"Bielefeld","key":"CountyName"}]},"MapReference":{"ReferenceId":"51576349","Spot":0.62,"SideOfStreet":"right","CountryId":"20147700","StateId":"20157369","CountyId":"20159538","CityId":"20159539","DistrictId":"20159550","AddressId":"195716098","RoadLinkId":"34969755"}}}]}]}}