{"Response":{"MetaInfo":{"Timestamp":"2020-03-28T10:49:37.385+0000","NextPageInformation":"2"},"View":[{"_type":"SearchResultsViewType","ViewId":0,"Result":[{"Relevance":1.0,"Distance":0.0,"Direction":0.0,"MatchLevel":"district","MatchQuality":{"Country":1.0,"State":1.0,"County":1.0,"City":1.0,"District":1.0,"PostalCode":1.0},"Location":{"LocationId":"NT_QRLqW7rEZAHZh4vbtYKK5C","LocationType":"point","DisplayPosition":{"Latitude":52.0634256,"Longitude":21.4843016},"MapView":{"TopLeft":{"Latitude":52.06894,"Longitude":21.46532},"BottomRight":{"Latitude":52.05741,"Longitude":21.49694}},"Address":{"Label":"Kołbiel, Woj. Mazowieckie, Polska","Country":"POL","State":"Woj. Mazowieckie","County":"Powiat Otwocki","City":"Kołbiel","District":"Kołbiel","PostalCode":"05-340","AdditionalData":[{"value":"Polska","key":"CountryName"},{"value":"Woj. Mazowieckie","key":"StateName"},{"value":"Powiat Otwocki","key":"CountyName"}]},"MapReference":{"ReferenceId":"1171727532","SideOfStreet":"neither","CountryId":"20624059","StateId":"20627182","CountyId":"20627495","CityId":"20627502","DistrictId":"20688400"}}},{"Relevance":1.0,"Distance":15.1,"MatchLevel":"houseNumber","MatchQuality":{"Country":1.0,"State":1.0,"County":1.0,"City":1.0,"District":1.0,"Street":[1.0],"HouseNumber":1.0,"PostalCode":1.0},"MatchType":"interpolated","Location":{"LocationId":"NT_S.4i3idE2eKtgwgB4ZwVJA_zEE","LocationType":"point","DisplayPosition":{"Latitude":52.06326,"Longitude":21.48388},"MapView":{"TopLeft":{"Latitude":52.0643842,"Longitude":21.4820515},"BottomRight":{"Latitude":52.0621358,"Longitude":21.4857085}},"Address":{"Label":"ulica Szkolna 3A, 05-340 Kołbiel, Polska","Country":"POL","State":"Woj. Mazowieckie","County":"Powiat Otwocki","City":"Kołbiel","District":"Kołbiel","Street":"ulica Szkolna","HouseNumber":"3A","PostalCode":"05-340","AdditionalData":[{"value":"Polska","key":"CountryName"},{"value":"Woj. Mazowieckie","key":"StateName"},{"value":"Powiat Otwocki","key":"CountyName"}]},"MapReference":{"ReferenceId":"891691693","Spot":0.0,"SideOfStreet":"right","CountryId":"20624059","StateId":"20627182","CountyId":"20627495","CityId":"20627502","DistrictId":"20688400","AddressId":"301934811","RoadLinkId":"255586260"}}},{"Relevance":1.0,"Distance":47.6,"MatchLevel":"houseNumber","MatchQuality":{"Country":1.0,"State":1.0,"County":1.0,"City":1.0,"District":1.0,"Street":[1.0],"HouseNumber":1.0,"PostalCode":1.0},"MatchType":"interpolated","Location":{"LocationId":"NT_S.4i3idE2eKtgwgB4ZwVJA_1A","LocationType":"point","DisplayPosition":{"Latitude":52.06302,"Longitude":21.48393},"MapView":{"TopLeft":{"Latitude":52.0641442,"Longitude":21.4821015},"BottomRight":{"Latitude":52.0618958,"Longitude":21.4857585}},"Address":{"Label":"ulica Szkolna 5, 05-340 Kołbiel, Polska","Country":"POL","State":"Woj. Mazowieckie","County":"Powiat Otwocki","City":"Kołbiel","District":"Kołbiel","Street":"ulica Szkolna","HouseNumber":"5","PostalCode":"05-340","AdditionalData":[{"value":"Polska","key":"CountryName"},{"value":"Woj. Mazowieckie","key":"StateName"},{"value":"Powiat Otwocki","key":"CountyName"}]},"MapReference":{"ReferenceId":"891691692","Spot":0.59,"SideOfStreet":"right","CountryId":"20624059","StateId":"20627182","CountyId":"20627495","CityId":"20627502","DistrictId":"20688400","AddressId":"703639582","RoadLinkId":"255586259"}}},{"Relevance":1.0,"Distance":59.4,"MatchLevel":"street","MatchQuality":{"Country":1.0,"State":1.0,"County":1.0,"City":1.0,"District":1.0,"PostalCode":1.0},"Location":{"LocationId":"NT_Wm6q0c0tS.tBjghdVYtfHC_l_1195093685_L","LocationType":"point","DisplayPosition":{"Latitude":52.06292,"Longitude":21.48458},"MapView":{"TopLeft":{"Latitude":52.06292,"Longitude":21.48458},"BottomRight":{"Latitude":52.06249,"Longitude":21.48465}},"Address":{"Label":"05-340 Kołbiel, Polska","Country":"POL","State":"Woj. Mazowieckie","County":"Powiat Otwocki","City":"Kołbiel","District":"Kołbiel","PostalCode":"05-340","AdditionalData":[{"value":"Polska","key":"CountryName"},{"value":"Woj. Mazowieckie","key":"StateName"},{"value":"Powiat Otwocki","key":"CountyName"}]},"MapReference":{"ReferenceId":"1195093685","Spot":1.0,"SideOfStreet":"left","CountryId":"20624059","StateId":"20627182","CountyId":"20627495","CityId":"20627502","DistrictId":"20688400"}}},{"Relevance":1.0,"Distance":61.0,"MatchLevel":"houseNumber","MatchQuality":{"Country":1.0,"State":1.0,"County":1.0,"City":1.0,"District":1.0,"Street":[1.0],"HouseNumber":1.0,"PostalCode":1.0},"MatchType":"interpolated","Location":{"LocationId":"NT_-QOZLcX8jKdfNmbt7YLKoA_3A","LocationType":"point","DisplayPosition":{"Latitude":52.06268,"Longitude":21.48386},"MapView":{"TopLeft":{"Latitude":52.0638042,"Longitude":21.4820315},"BottomRight":{"Latitude":52.0615558,"Longitude":21.4856885}},"Address":{"Label":"ulica Strażacka 7, 05-340 Kołbiel, Polska","Country":"POL","State":"Woj. Mazowieckie","County":"Powiat Otwocki","City":"Kołbiel","District":"Kołbiel","Street":"ulica Strażacka","HouseNumber":"7","PostalCode":"05-340","AdditionalData":[{"value":"Polska","key":"CountryName"},{"value":"Woj. Mazowieckie","key":"StateName"},{"value":"Powiat Otwocki","key":"CountyName"}]},"MapReference":{"ReferenceId":"595978603","Spot":0.95,"SideOfStreet":"left","CountryId":"20624059","StateId":"20627182","CountyId":"20627495","CityId":"20627502","DistrictId":"20688400","AddressId":"732088848","RoadLinkId":"95939630"}}},{"Relevance":1.0,"Distance":61.0,"MatchLevel":"street","MatchQuality":{"Country":1.0,"State":1.0,"County":1.0,"City":1.0,"District":1.0,"PostalCode":1.0},"Location":{"LocationId":"NT_Wm6q0c0tS.tBjghdVYtfHC_l_891691689_R","LocationType":"point","DisplayPosition":{"Latitude":52.0639732,"Longitude":21.4842396},"MapView":{"TopLeft":{"Latitude":52.06398,"Longitude":21.48377},"BottomRight":{"Latitude":52.06392,"Longitude":21.4843}},"Address":{"Label":"05-340 Kołbiel, Polska","Country":"POL","State":"Woj. Mazowieckie","County":"Powiat Otwocki","City":"Kołbiel","District":"Kołbiel","PostalCode":"05-340","AdditionalData":[{"value":"Polska","key":"CountryName"},{"value":"Woj. Mazowieckie","key":"StateName"},{"value":"Powiat Otwocki","key":"CountyName"}]},"MapReference":{"ReferenceId":"891691689","Spot":0.89,"SideOfStreet":"right","CountryId":"20624059","StateId":"20627182","CountyId":"20627495","CityId":"20627502","DistrictId":"20688400"}}},{"Relevance":1.0,"Distance":61.6,"MatchLevel":"street","MatchQuality":{"Country":1.0,"State":1.0,"County":1.0,"City":1.0,"District":1.0,"PostalCode":1.0},"Location":{"LocationId":"NT_Wm6q0c0tS.tBjghdVYtfHC_l_1195095377_R","LocationType":"point","DisplayPosition":{"Latitude":52.06398,"Longitude":21.4843},"MapView":{"TopLeft":{"Latitude":52.06404,"Longitude":21.4843},"BottomRight":{"Latitude":52.06398,"Longitude":21.4849}},"Address":{"Label":"05-340 Kołbiel, Polska","Country":"POL","State":"Woj. Mazowieckie","County":"Powiat Otwocki","City":"Kołbiel","District":"Kołbiel","PostalCode":"05-340","AdditionalData":[{"value":"Polska","key":"CountryName"},{"value":"Woj. Mazowieckie","key":"StateName"},{"value":"Powiat Otwocki","key":"CountyName"}]},"MapReference":{"ReferenceId":"1195095377","Spot":0.0,"SideOfStreet":"right","CountryId":"20624059","StateId":"20627182","CountyId":"20627495","CityId":"20627502","DistrictId":"20688400"}}},{"Relevance":1.0,"Distance":79.6,"MatchLevel":"street","MatchQuality":{"Country":1.0,"State":1.0,"County":1.0,"City":1.0,"District":1.0,"PostalCode":1.0},"Location":{"LocationId":"NT_Wm6q0c0tS.tBjghdVYtfHC_l_1195095378_R","LocationType":"point","DisplayPosition":{"Latitude":52.06404,"Longitude":21.4849},"MapView":{"TopLeft":{"Latitude":52.06407,"Longitude":21.4849},"BottomRight":{"Latitude":52.06404,"Longitude":21.48518}},"Address":{"Label":"05-340 Kołbiel, Polska","Country":"POL","State":"Woj. Mazowieckie","County":"Powiat Otwocki","City":"Kołbiel","District":"Kołbiel","PostalCode":"05-340","AdditionalData":[{"value":"Polska","key":"CountryName"},{"value":"Woj. Mazowieckie","key":"StateName"},{"value":"Powiat Otwocki","key":"CountyName"}]},"MapReference":{"ReferenceId":"1195095378","Spot":0.0,"SideOfStreet":"right","CountryId":"20624059","StateId":"20627182","CountyId":"20627495","CityId":"20627502","DistrictId":"20688400"}}},{"Relevance":1.0,"Distance":85.0,"MatchLevel":"houseNumber","MatchQuality":{"Country":1.0,"State":1.0,"County":1.0,"City":1.0,"District":1.0,"Street":[1.0],"HouseNumber":1.0,"PostalCode":1.0},"MatchType":"interpolated","Location":{"LocationId":"NT_S.4i3idE2eKtgwgB4ZwVJA_xA","LocationType":"point","DisplayPosition":{"Latitude":52.06419,"Longitude":21.48426},"MapView":{"TopLeft":{"Latitude":52.0653142,"Longitude":21.4824315},"BottomRight":{"Latitude":52.0630658,"Longitude":21.4860885}},"Address":{"Label":"ulica Szkolna 1, 05-340 Kołbiel, Polska","Country":"POL","State":"Woj. Mazowieckie","County":"Powiat Otwocki","City":"Kołbiel","District":"Kołbiel","Street":"ulica Szkolna","HouseNumber":"1","PostalCode":"05-340","AdditionalData":[{"value":"Polska","key":"CountryName"},{"value":"Woj. Mazowieckie","key":"StateName"},{"value":"Powiat Otwocki","key":"CountyName"}]},"MapReference":{"ReferenceId":"891691690","Spot":0.46,"SideOfStreet":"right","CountryId":"20624059","StateId":"20627182","CountyId":"20627495","CityId":"20627502","DistrictId":"20688400","AddressId":"302018524","RoadLinkId":"500158822"}}},{"Relevance":1.0,"Distance":85.6,"MatchLevel":"street","MatchQuality":{"Country":1.0,"State":1.0,"County":1.0,"City":1.0,"District":1.0,"Street":[1.0],"PostalCode":1.0},"Location":{"LocationId":"NT_S.4i3idE2eKtgwgB4ZwVJA_l_1195095386_R","LocationType":"point","DisplayPosition":{"Latitude":52.06268,"Longitude":21.48399},"MapView":{"TopLeft":{"Latitude":52.06268,"Longitude":21.48399},"BottomRight":{"Latitude":52.06246,"Longitude":21.48405}},"Address":{"Label":"ulica Szkolna, 05-340 Kołbiel, Polska","Country":"POL","State":"Woj. Mazowieckie","County":"Powiat Otwocki","City":"Kołbiel","District":"Kołbiel","Street":"ulica Szkolna","PostalCode":"05-340","AdditionalData":[{"value":"Polska","key":"CountryName"},{"value":"Woj. Mazowieckie","key":"StateName"},{"value":"Powiat Otwocki","key":"CountyName"}]},"MapReference":{"ReferenceId":"1195095386","Spot":1.0,"SideOfStreet":"right","CountryId":"20624059","StateId":"20627182","CountyId":"20627495","CityId":"20627502","DistrictId":"20688400"}}}]}]}}