{"Response":{"MetaInfo":{"Timestamp":"2020-03-28T10:36:47.954+0000","NextPageInformation":"2"},"View":[{"_type":"SearchResultsViewType","ViewId":0,"Result":[{"Relevance":1.0,"Distance":0.0,"Direction":0.0,"MatchLevel":"district","MatchQuality":{"Country":1.0,"State":1.0,"County":1.0,"City":1.0,"District":1.0,"PostalCode":1.0},"Location":{"LocationId":"NT_y24LSAD4xtjJvymilMP.mC","LocationType":"point","DisplayPosition":{"Latitude":52.0412556,"Longitude":-4.4683795},"MapView":{"TopLeft":{"Latitude":52.04691,"Longitude":-4.47684},"BottomRight":{"Latitude":52.04044,"Longitude":-4.46516}},"Address":{"Label":"Adpar, Newcastle Emlyn, Wales, United Kingdom","Country":"GBR","State":"Wales","County":"Dyfed","City":"Newcastle Emlyn","District":"Adpar","PostalCode":"SA38 9","AdditionalData":[{"value":"United Kingdom","key":"CountryName"},{"value":"Wales","key":"StateName"},{"value":"Dyfed","key":"CountyName"}]},"MapReference":{"ReferenceId":"17429685","SideOfStreet":"neither","StateId":"20287683","CountyId":"20340980","CityId":"20341487","DistrictId":"20341490"}}},{"Relevance":1.0,"Distance":10.3,"MatchLevel":"street","MatchQuality":{"Country":1.0,"State":1.0,"County":1.0,"City":1.0,"District":1.0,"PostalCode":1.0},"Location":{"LocationId":"NT_NBkz2achq4NOKDYfON3vbC_l_840271516_L","LocationType":"point","DisplayPosition":{"Latitude":52.0413452,"Longitude":-4.4683426},"MapView":{"TopLeft":{"Latitude":52.04141,"Longitude":-4.4685},"BottomRight":{"Latitude":52.04091,"Longitude":-4.46809}},"Address":{"Label":"Newcastle Emlyn, SA38 9, United Kingdom","Country":"GBR","State":"Wales","County":"Dyfed","City":"Newcastle Emlyn","District":"Adpar","PostalCode":"SA38 9","AdditionalData":[{"value":"United Kingdom","key":"CountryName"},{"value":"Wales","key":"StateName"},{"value":"Dyfed","key":"CountyName"}]},"MapReference":{"ReferenceId":"840271516","Spot":0.81,"SideOfStreet":"left","StateId":"20287683","CountyId":"20340980","CityId":"20341487","DistrictId":"20341490"}}},{"Relevance":1.0,"Distance":17.8,"MatchLevel":"street","MatchQuality":{"Country":1.0,"State":1.0,"County":1.0,"City":1.0,"District":1.0,"PostalCode":1.0},"Location":{"LocationId":"NT_NBkz2achq4NOKDYfON3vbC_l_840271514_R","LocationType":"point","DisplayPosition":{"Latitude":52.0413909,"Longitude":-4.4685186},"MapView":{"TopLeft":{"Latitude":52.04141,"Longitude":-4.46886},"BottomRight":{"Latitude":52.04104,"Longitude":-4.4685}},"Address":{"Label":"Newcastle Emlyn, SA38 9, United Kingdom","Country":"GBR","State":"Wales","County":"Dyfed","City":"Newcastle Emlyn","District":"Adpar","PostalCode":"SA38 9","AdditionalData":[{"value":"United Kingdom","key":"CountryName"},{"value":"Wales","key":"StateName"},{"value":"Dyfed","key":"CountyName"}]},"MapReference":{"ReferenceId":"840271514","Spot":0.95,"SideOfStreet":"right","StateId":"20287683","CountyId":"20340980","CityId":"20341487","DistrictId":"20341490"}}},{"Relevance":1.0,"Distance":19.0,"MatchLevel":"street","MatchQuality":{"Country":1.0,"State":1.0,"County":1.0,"City":1.0,"District":1.0,"PostalCode":1.0},"Location":{"LocationId":"NT_NBkz2achq4NOKDYfON3vbC_l_840271515_R","LocationType":"point","DisplayPosition":{"Latitude":52.04141,"Longitude":-4.4685},"MapView":{"TopLeft":{"Latitude":52.04148,"Longitude":-4.4685},"BottomRight":{"Latitude":52.04141,"Longitude":-4.46843}},"Address":{"Label":"Newcastle Emlyn, SA38 9, United Kingdom","Country":"GBR","State":"Wales","County":"Dyfed","City":"Newcastle Emlyn","District":"Adpar","PostalCode":"SA38 9","AdditionalData":[{"value":"United Kingdom","key":"CountryName"},{"value":"Wales","key":"StateName"},{"value":"Dyfed","key":"CountyName"}]},"MapReference":{"ReferenceId":"840271515","Spot":0.0,"SideOfStreet":"right","StateId":"20287683","CountyId":"20340980","CityId":"20341487","DistrictId":"20341490"}}},{"Relevance":1.0,"Distance":20.4,"MatchLevel":"street","MatchQuality":{"Country":1.0,"State":1.0,"County":1.0,"City":1.0,"District":1.0,"Street":[1.0],"PostalCode":1.0},"Location":{"LocationId":"NT_OoE39-mXXCdFPav.VFoiVA_l_840271512_L","LocationType":"point","DisplayPosition":{"Latitude":52.0414338,"Longitude":-4.4683105},"MapView":{"TopLeft":{"Latitude":52.04148,"Longitude":-4.46843},"BottomRight":{"Latitude":52.04117,"Longitude":-4.46759}},"Address":{"Label":"Lloyds Terrace, Newcastle Emlyn, SA38 9, United Kingdom","Country":"GBR","State":"Wales","County":"Dyfed","City":"Newcastle Emlyn","District":"Adpar","Street":"Lloyds Terrace","PostalCode":"SA38 9","AdditionalData":[{"value":"United Kingdom","key":"CountryName"},{"value":"Wales","key":"StateName"},{"value":"Dyfed","key":"CountyName"}]},"MapReference":{"ReferenceId":"840271512","Spot":0.86,"SideOfStreet":"left","StateId":"20287683","CountyId":"20340980","CityId":"20341487","DistrictId":"20341490"}}},{"Relevance":1.0,"Distance":25.2,"MatchLevel":"street","MatchQuality":{"Country":1.0,"State":1.0,"County":1.0,"City":1.0,"District":1.0,"Street":[1.0],"PostalCode":1.0},"Location":{"LocationId":"NT_OoE39-mXXCdFPav.VFoiVA_l_840271513_L","LocationType":"point","DisplayPosition":{"Latitude":52.04148,"Longitude":-4.46843},"MapView":{"TopLeft":{"Latitude":52.0419,"Longitude":-4.46932},"BottomRight":{"Latitude":52.04148,"Longitude":-4.46843}},"Address":{"Label":"Lloyds Terrace, Newcastle Emlyn, SA38 9, United Kingdom","Country":"GBR","State":"Wales","County":"Dyfed","City":"Newcastle Emlyn","District":"Adpar","Street":"Lloyds Terrace","PostalCode":"SA38 9","AdditionalData":[{"value":"United Kingdom","key":"CountryName"},{"value":"Wales","key":"StateName"},{"value":"Dyfed","key":"CountyName"}]},"MapReference":{"ReferenceId":"840271513","Spot":0.0,"SideOfStreet":"left","StateId":"20287683","CountyId":"20340980","CityId":"20341487","DistrictId":"20341490"}}},{"Relevance":1.0,"Distance":34.7,"MatchLevel":"postalCode","MatchQuality":{"PostalCode":1.0},"Location":{"LocationId":"NT_OoE39-mXXCdFPav.VFoiVA_l_840271513_L","LocationType":"point","DisplayPosition":{"Latitude":52.04153,"Longitude":-4.46862},"MapView":{"TopLeft":{"Latitude":52.0505232,"Longitude":-4.483241},"BottomRight":{"Latitude":52.0325368,"Longitude":-4.453999}},"Address":{"Label":"SA38 9NS, Newcastle Emlyn, Wales, United Kingdom","Country":"GBR","State":"Wales","County":"Dyfed","City":"Newcastle Emlyn","PostalCode":"SA38 9NS","AdditionalData":[{"value":"United Kingdom","key":"CountryName"},{"value":"Wales","key":"StateName"},{"value":"Dyfed","key":"CountyName"}]},"MapReference":{"ReferenceId":"840271513","Spot":0.0,"SideOfStreet":"neither","StateId":"20287683","CountyId":"20340980","CityId":"20341487"}}},{"Relevance":1.0,"Distance":54.8,"MatchLevel":"street","MatchQuality":{"Country":1.0,"State":1.0,"County":1.0,"City":1.0,"District":1.0,"Street":[1.0],"PostalCode":1.0},"Location":{"LocationId":"NT_8gUor3OtAp8dUKGl7MAh7C_l_792468549_L","LocationType":"point","DisplayPosition":{"Latitude":52.04117,"Longitude":-4.46759},"MapView":{"TopLeft":{"Latitude":52.04117,"Longitude":-4.46759},"BottomRight":{"Latitude":52.04107,"Longitude":-4.46722}},"Address":{"Label":"Lloyds Terrace, Newcastle Emlyn, SA38 9, United Kingdom","Country":"GBR","State":"Wales","County":"Dyfed","City":"Newcastle Emlyn","District":"Adpar","Street":"Lloyds Terrace","PostalCode":"SA38 9","AdditionalData":[{"value":"United Kingdom","key":"CountryName"},{"value":"Wales","key":"StateName"},{"value":"Dyfed","key":"CountyName"}]},"MapReference":{"ReferenceId":"792468549","Spot":1.0,"SideOfStreet":"left","StateId":"20287683","CountyId":"20340980","CityId":"20341487","DistrictId":"20341490"}}},{"Relevance":1.0,"Distance":57.8,"MatchLevel":"street","MatchQuality":{"Country":1.0,"State":1.0,"County":1.0,"City":1.0,"District":1.0,"Street":[1.0],"PostalCode":1.0},"Location":{"LocationId":"NT_GBPeKgmzSjMpGNrEaloRgA_l_17429704_R","LocationType":"point","DisplayPosition":{"Latitude":52.0407407,"Longitude":-4.4684898},"MapView":{"TopLeft":{"Latitude":52.04091,"Longitude":-4.46944},"BottomRight":{"Latitude":52.04051,"Longitude":-4.46681}},"Address":{"Label":"Teifi Terrace, Newcastle Emlyn, SA38 9, United Kingdom","Country":"GBR","State":"Wales","County":"Dyfed","City":"Newcastle Emlyn","District":"Adpar","Street":"Teifi Terrace","PostalCode":"SA38 9","AdditionalData":[{"value":"United Kingdom","key":"CountryName"},{"value":"Wales","key":"StateName"},{"value":"Dyfed","key":"CountyName"}]},"MapReference":{"ReferenceId":"17429704","Spot":0.64,"SideOfStreet":"right","StateId":"20287683","CountyId":"20340980","CityId":"20341487","DistrictId":"20341490"}}},{"Relevance":1.0,"Distance":62.2,"MatchLevel":"postalCode","MatchQuality":{"PostalCode":1.0},"Location":{"LocationId":"NT_GBPeKgmzSjMpGNrEaloRgA_l_17429704_R","LocationType":"point","DisplayPosition":{"Latitude":52.04071,"Longitude":-4.46818},"MapView":{"TopLeft":{"Latitude":52.0497032,"Longitude":-4.4828007},"BottomRight":{"Latitude":52.0317168,"Longitude":-4.4535593}},"Address":{"Label":"SA38 9EA, Newcastle Emlyn, Wales, United Kingdom","Country":"GBR","State":"Wales","County":"Dyfed","City":"Newcastle Emlyn","PostalCode":"SA38 9EA","AdditionalData":[{"value":"United Kingdom","key":"CountryName"},{"value":"Wales","key":"StateName"},{"value":"Dyfed","key":"CountyName"}]},"MapReference":{"ReferenceId":"17429704","Spot":0.64,"SideOfStreet":"neither","StateId":"20287683","CountyId":"20340980","CityId":"20341487"}}}]}]}}