{"Response":{"MetaInfo":{"Timestamp":"2020-03-28T10:12:44.033+0000","NextPageInformation":"2"},"View":[{"_type":"SearchResultsViewType","ViewId":0,"Result":[{"Relevance":1.0,"Distance":0.0,"Direction":0.0,"MatchLevel":"district","MatchQuality":{"Country":1.0,"State":1.0,"County":1.0,"City":1.0,"District":1.0,"PostalCode":1.0},"Location":{"LocationId":"NT_FHdo.hZ49Zab9TbIMnJ1xB","LocationType":"point","DisplayPosition":{"Latitude":52.0833259,"Longitude":4.3374387},"MapView":{"TopLeft":{"Latitude":52.09122,"Longitude":4.32471},"BottomRight":{"Latitude":52.07495,"Longitude":4.35259}},"Address":{"Label":"Bezuidenhout, Den Haag, Zuid-Holland, Nederland","Country":"NLD","State":"Zuid-Holland","County":"Den Haag","City":"Den Haag","District":"Bezuidenhout","PostalCode":"2595 SR","AdditionalData":[{"value":"Nederland","key":"CountryName"},{"value":"Zuid-Holland","key":"StateName"},{"value":"Den Haag","key":"CountyName"}]},"MapReference":{"ReferenceId":"1077095315","SideOfStreet":"neither","CountryId":"23055544","StateId":"23055596","CountyId":"23055843","CityId":"20202081"}}},{"Relevance":1.0,"Distance":4.4,"MatchLevel":"houseNumber","MatchQuality":{"Country":1.0,"State":1.0,"County":1.0,"City":1.0,"District":1.0,"Street":[1.0],"HouseNumber":1.0,"PostalCode":1.0},"MatchType":"interpolated","Location":{"LocationId":"NT_P6F45jw5.49CTRiTqcyIpC_2ED","LocationType":"point","DisplayPosition":{"Latitude":52.08341,"Longitude":4.33731},"MapView":{"TopLeft":{"Latitude":52.0845342,"Longitude":4.3354807},"BottomRight":{"Latitude":52.0822858,"Longitude":4.3391393}},"Address":{"Label":"Juliana van Stolberglaan 61, 2595 CB Den Haag, Nederland","Country":"NLD","State":"Zuid-Holland","County":"Den Haag","City":"Den Haag","District":"Bezuidenhout","Street":"Juliana van Stolberglaan","HouseNumber":"61","PostalCode":"2595 CB","AdditionalData":[{"value":"Nederland","key":"CountryName"},{"value":"Zuid-Holland","key":"StateName"},{"value":"Den Haag","key":"CountyName"}]},"MapReference":{"ReferenceId":"1077096187","Spot":0.13,"SideOfStreet":"right","CountryId":"23055544","StateId":"23055596","CountyId":"23055843","CityId":"20202081","AddressId":"625001794","RoadLinkId":"396630399"}}},{"Relevance":1.0,"Distance":13.7,"MatchLevel":"houseNumber","MatchQuality":{"Country":1.0,"State":1.0,"County":1.0,"City":1.0,"District":1.0,"Street":[1.0],"HouseNumber":1.0,"PostalCode":1.0},"MatchType":"interpolated","Location":{"LocationId":"NT_w8YoKTckBipT8GyKjiCHvD_0cD","LocationType":"point","DisplayPosition":{"Latitude":52.08337,"Longitude":4.33718},"MapView":{"TopLeft":{"Latitude":52.0844942,"Longitude":4.3353507},"BottomRight":{"Latitude":52.0822458,"Longitude":4.3390093}},"Address":{"Label":"Juliana van Stolberglaan 47, 2595 CA Den Haag, Nederland","Country":"NLD","State":"Zuid-Holland","County":"Den Haag","City":"Den Haag","District":"Bezuidenhout","Street":"Juliana van Stolberglaan","HouseNumber":"47","PostalCode":"2595 CA","AdditionalData":[{"value":"Nederland","key":"CountryName"},{"value":"Zuid-Holland","key":"StateName"},{"value":"Den Haag","key":"CountyName"}]},"MapReference":{"ReferenceId":"1077096186","Spot":0.87,"SideOfStreet":"right","CountryId":"23055544","StateId":"23055596","CountyId":"23055843","CityId":"20202081","AddressId":"625100759","RoadLinkId":"396630398"}}},{"Relevance":1.0,"Distance":37.5,"MatchLevel":"street","MatchQuality":{"Country":1.0,"State":1.0,"County":1.0,"City":1.0,"District":1.0,"Street":[1.0],"PostalCode":1.0},"Location":{"LocationId":"NT_cvwwhtxH4J0ix.kyn.ZoCB_l_55054345_R","LocationType":"point","DisplayPosition":{"Latitude":52.083658,"Longitude":4.3373432},"MapView":{"TopLeft":{"Latitude":52.08366,"Longitude":4.33638},"BottomRight":{"Latitude":52.08338,"Longitude":4.33735}},"Address":{"Label":"Juliana van Stolberglaan, 2595 Den Haag, Nederland","Country":"NLD","State":"Zuid-Holland","County":"Den Haag","City":"Den Haag","District":"Bezuidenhout","Street":"Juliana van Stolberglaan","PostalCode":"2595","AdditionalData":[{"value":"Nederland","key":"CountryName"},{"value":"Zuid-Holland","key":"StateName"},{"value":"Den Haag","key":"CountyName"}]},"MapReference":{"ReferenceId":"55054345","Spot":0.99,"SideOfStreet":"right","CountryId":"23055544","StateId":"23055596","CountyId":"23055843","CityId":"20202081"}}},{"Relevance":1.0,"Distance":37.6,"MatchLevel":"street","MatchQuality":{"Country":1.0,"State":1.0,"County":1.0,"City":1.0,"District":1.0,"Street":[1.0],"PostalCode":1.0},"Location":{"LocationId":"NT_cvwwhtxH4J0ix.kyn.ZoCB_l_55053130_R","LocationType":"point","DisplayPosition":{"Latitude":52.08366,"Longitude":4.33735},"MapView":{"TopLeft":{"Latitude":52.08393,"Longitude":4.33735},"BottomRight":{"Latitude":52.08366,"Longitude":4.33834}},"Address":{"Label":"Juliana van Stolberglaan, 2595 Den Haag, Nederland","Country":"NLD","State":"Zuid-Holland","County":"Den Haag","City":"Den Haag","District":"Bezuidenhout","Street":"Juliana van Stolberglaan","PostalCode":"2595","AdditionalData":[{"value":"Nederland","key":"CountryName"},{"value":"Zuid-Holland","key":"StateName"},{"value":"Den Haag","key":"CountyName"}]},"MapReference":{"ReferenceId":"55053130","Spot":0.0,"SideOfStreet":"right","CountryId":"23055544","StateId":"23055596","CountyId":"23055843","CityId":"20202081"}}},{"Relevance":1.0,"Distance":42.9,"MatchLevel":"houseNumber","MatchQuality":{"Country":1.0,"State":1.0,"County":1.0,"City":1.0,"District":1.0,"Street":[1.0],"HouseNumber":1.0,"PostalCode":1.0},"MatchType":"interpolated","Location":{"LocationId":"NT_GC73LOkm3e1uS8ue5as7eA_xA","LocationType":"point","DisplayPosition":{"Latitude":52.08317,"Longitude":4.33808},"MapView":{"TopLeft":{"Latitude":52.0842942,"Longitude":4.3362507},"BottomRight":{"Latitude":52.0820458,"Longitude":4.3399093}},"Address":{"Label":"Van Imhoffstraat 1, 2595 SB Den Haag, Nederland","Country":"NLD","State":"Zuid-Holland","County":"Den Haag","City":"Den Haag","District":"Bezuidenhout","Street":"Van Imhoffstraat","HouseNumber":"1","PostalCode":"2595 SB","AdditionalData":[{"value":"Nederland","key":"CountryName"},{"value":"Zuid-Holland","key":"StateName"},{"value":"Den Haag","key":"CountyName"}]},"MapReference":{"ReferenceId":"54336680","Spot":0.42,"SideOfStreet":"left","CountryId":"23055544","StateId":"23055596","CountyId":"23055843","CityId":"20202081","AddressId":"614164996","RoadLinkId":"32254468"}}},{"Relevance":1.0,"Distance":43.8,"MatchLevel":"houseNumber","MatchQuality":{"Country":1.0,"State":1.0,"County":1.0,"City":1.0,"District":1.0,"Street":[1.0],"HouseNumber":1.0,"PostalCode":1.0},"MatchType":"interpolated","Location":{"LocationId":"NT_0pcq4Nt6hc7TyaB-Eh0YHD_0A","LocationType":"point","DisplayPosition":{"Latitude":52.08288,"Longitude":4.33716},"MapView":{"TopLeft":{"Latitude":52.0840042,"Longitude":4.3353307},"BottomRight":{"Latitude":52.0817558,"Longitude":4.3389893}},"Address":{"Label":"Jacob Mosselstraat 4, 2595 RH Den Haag, Nederland","Country":"NLD","State":"Zuid-Holland","County":"Den Haag","City":"Den Haag","District":"Bezuidenhout","Street":"Jacob Mosselstraat","HouseNumber":"4","PostalCode":"2595 RH","AdditionalData":[{"value":"Nederland","key":"CountryName"},{"value":"Zuid-Holland","key":"StateName"},{"value":"Den Haag","key":"CountyName"}]},"MapReference":{"ReferenceId":"54336746","Spot":0.47,"SideOfStreet":"right","CountryId":"23055544","StateId":"23055596","CountyId":"23055843","CityId":"20202081","AddressId":"614163348","RoadLinkId":"31188317"}}},{"Relevance":1.0,"Distance":45.6,"MatchLevel":"houseNumber","MatchQuality":{"Country":1.0,"State":1.0,"County":1.0,"City":1.0,"District":1.0,"Street":[1.0],"HouseNumber":1.0,"PostalCode":1.0},"MatchType":"interpolated","Location":{"LocationId":"NT_P6F45jw5.49CTRiTqcyIpC_3ED","LocationType":"point","DisplayPosition":{"Latitude":52.08359,"Longitude":4.33795},"MapView":{"TopLeft":{"Latitude":52.0847142,"Longitude":4.3361207},"BottomRight":{"Latitude":52.0824658,"Longitude":4.3397793}},"Address":{"Label":"Juliana van Stolberglaan 71, 2595 CB Den Haag, Nederland","Country":"NLD","State":"Zuid-Holland","County":"Den Haag","City":"Den Haag","District":"Bezuidenhout","Street":"Juliana van Stolberglaan","HouseNumber":"71","PostalCode":"2595 CB","AdditionalData":[{"value":"Nederland","key":"CountryName"},{"value":"Zuid-Holland","key":"StateName"},{"value":"Den Haag","key":"CountyName"}]},"MapReference":{"ReferenceId":"55053129","Spot":0.26,"SideOfStreet":"right","CountryId":"23055544","StateId":"23055596","CountyId":"23055843","CityId":"20202081","AddressId":"614637430","RoadLinkId":"32409530"}}},{"Relevance":1.0,"Distance":61.5,"MatchLevel":"houseNumber","MatchQuality":{"Country":1.0,"State":1.0,"County":1.0,"City":1.0,"District":1.0,"Street":[1.0],"HouseNumber":1.0,"PostalCode":1.0},"MatchType":"interpolated","Location":{"LocationId":"NT_LLVdYRB0fEP-pX6e8xP9uB_xETM","LocationType":"point","DisplayPosition":{"Latitude":52.08385,"Longitude":4.33715},"MapView":{"TopLeft":{"Latitude":52.0849742,"Longitude":4.3353206},"BottomRight":{"Latitude":52.0827258,"Longitude":4.3389794}},"Address":{"Label":"Mariastraat 111, 2595 GM Den Haag, Nederland","Country":"NLD","State":"Zuid-Holland","County":"Den Haag","City":"Den Haag","District":"Bezuidenhout","Street":"Mariastraat","HouseNumber":"111","PostalCode":"2595 GM","AdditionalData":[{"value":"Nederland","key":"CountryName"},{"value":"Zuid-Holland","key":"StateName"},{"value":"Den Haag","key":"CountyName"}]},"MapReference":{"ReferenceId":"1077095298","Spot":0.36,"SideOfStreet":"left","CountryId":"23055544","StateId":"23055596","CountyId":"23055843","CityId":"20202081","AddressId":"625060599","RoadLinkId":"396629752"}}},{"Relevance":1.0,"Distance":62.0,"MatchLevel":"houseNumber","MatchQuality":{"Country":1.0,"State":1.0,"County":1.0,"City":1.0,"District":1.0,"Street":[1.0],"HouseNumber":1.0,"PostalCode":1.0},"MatchType":"interpolated","Location":{"LocationId":"NT_w8YoKTckBipT8GyKjiCHvD_zUD","LocationType":"point","DisplayPosition":{"Latitude":52.08319,"Longitude":4.33655},"MapView":{"TopLeft":{"Latitude":52.0843142,"Longitude":4.3347207},"BottomRight":{"Latitude":52.0820658,"Longitude":4.3383793}},"Address":{"Label":"Juliana van Stolberglaan 35, 2595 CA Den Haag, Nederland","Country":"NLD","State":"Zuid-Holland","County":"Den Haag","City":"Den Haag","District":"Bezuidenhout","Street":"Juliana van Stolberglaan","HouseNumber":"35","PostalCode":"2595 CA","AdditionalData":[{"value":"Nederland","key":"CountryName"},{"value":"Zuid-Holland","key":"StateName"},{"value":"Den Haag","key":"CountyName"}]},"MapReference":{"ReferenceId":"55054344","Spot":0.81,"SideOfStreet":"right","CountryId":"23055544","StateId":"23055596","CountyId":"23055843","CityId":"20202081","AddressId":"614640825","RoadLinkId":"31263826"}}}]}]}}