{"Response":{"MetaInfo":{"Timestamp":"2020-03-28T10:47:40.558+0000","NextPageInformation":"2"},"View":[{"_type":"SearchResultsViewType","ViewId":0,"Result":[{"Relevance":1.0,"Distance":0.0,"Direction":0.0,"MatchLevel":"district","MatchQuality":{"Country":1.0,"State":1.0,"County":1.0,"City":1.0,"District":1.0,"PostalCode":1.0},"Location":{"LocationId":"NT_vRLlRBrunIabKkSnwQ4TRD","LocationType":"point","DisplayPosition":{"Latitude":52.0219958,"Longitude":17.4616953},"MapView":{"TopLeft":{"Latitude":52.03098,"Longitude":17.43746},"BottomRight":{"Latitude":52.01251,"Longitude":17.47434}},"Address":{"Label":"Mieszków, Jarocin, Woj. Wielkopolskie, Polska","Country":"POL","State":"Woj. Wielkopolskie","County":"Powiat Jarociński","City":"Jarocin","District":"Mieszków","PostalCode":"63-200","AdditionalData":[{"value":"Polska","key":"CountryName"},{"value":"Woj. Wielkopolskie","key":"StateName"},{"value":"Powiat Jarociński","key":"CountyName"}]},"MapReference":{"ReferenceId":"1176822537","SideOfStreet":"neither","CountryId":"20624059","StateId":"20629915","CountyId":"20630003","CityId":"20630006","DistrictId":"20696008"}}},{"Relevance":1.0,"Distance":10.4,"MatchLevel":"houseNumber","MatchQuality":{"Country":1.0,"State":1.0,"County":1.0,"City":1.0,"District":1.0,"Street":[1.0],"HouseNumber":1.0,"PostalCode":1.0},"MatchType":"interpolated","Location":{"LocationId":"NT_jHEFer5lbL9nJl8STYerqB_xATQ","LocationType":"point","DisplayPosition":{"Latitude":52.02202,"Longitude":17.46152},"MapView":{"TopLeft":{"Latitude":52.0231442,"Longitude":17.4596932},"BottomRight":{"Latitude":52.0208958,"Longitude":17.4633468}},"Address":{"Label":"ulica Dworcowa 10A, 63-200 Mieszków, Polska","Country":"POL","State":"Woj. Wielkopolskie","County":"Powiat Jarociński","City":"Jarocin","District":"Mieszków","Street":"ulica Dworcowa","HouseNumber":"10A","PostalCode":"63-200","AdditionalData":[{"value":"Polska","key":"CountryName"},{"value":"Woj. Wielkopolskie","key":"StateName"},{"value":"Powiat Jarociński","key":"CountyName"}]},"MapReference":{"ReferenceId":"907940325","Spot":0.87,"SideOfStreet":"right","CountryId":"20624059","StateId":"20629915","CountyId":"20630003","CityId":"20630006","DistrictId":"20696008","AddressId":"731753038","RoadLinkId":"269717707"}}},{"Relevance":1.0,"Distance":13.8,"MatchLevel":"street","MatchQuality":{"Country":1.0,"State":1.0,"County":1.0,"City":1.0,"District":1.0,"PostalCode":1.0},"Location":{"LocationId":"NT_gc-Zb-OptVZET7RKaie4ID_l_595331175_L","LocationType":"point","DisplayPosition":{"Latitude":52.02212,"Longitude":17.4616953},"MapView":{"TopLeft":{"Latitude":52.02212,"Longitude":17.4615},"BottomRight":{"Latitude":52.02178,"Longitude":17.46197}},"Address":{"Label":"63-200 Mieszków, Polska","Country":"POL","State":"Woj. Wielkopolskie","County":"Powiat Jarociński","City":"Jarocin","District":"Mieszków","PostalCode":"63-200","AdditionalData":[{"value":"Polska","key":"CountryName"},{"value":"Woj. Wielkopolskie","key":"StateName"},{"value":"Powiat Jarociński","key":"CountyName"}]},"MapReference":{"ReferenceId":"595331175","Spot":0.73,"SideOfStreet":"left","CountryId":"20624059","StateId":"20629915","CountyId":"20630003","CityId":"20630006","DistrictId":"20696008"}}},{"Relevance":1.0,"Distance":49.5,"MatchLevel":"houseNumber","MatchQuality":{"Country":1.0,"State":1.0,"County":1.0,"City":1.0,"District":1.0,"Street":[1.0],"HouseNumber":1.0,"PostalCode":1.0},"MatchType":"interpolated","Location":{"LocationId":"NT_jHEFer5lbL9nJl8STYerqB_xAD","LocationType":"point","DisplayPosition":{"Latitude":52.02243,"Longitude":17.46144},"MapView":{"TopLeft":{"Latitude":52.0235542,"Longitude":17.4596132},"BottomRight":{"Latitude":52.0213058,"Longitude":17.4632668}},"Address":{"Label":"ulica Dworcowa 10, 63-200 Mieszków, Polska","Country":"POL","State":"Woj. Wielkopolskie","County":"Powiat Jarociński","City":"Jarocin","District":"Mieszków","Street":"ulica Dworcowa","HouseNumber":"10","PostalCode":"63-200","AdditionalData":[{"value":"Polska","key":"CountryName"},{"value":"Woj. Wielkopolskie","key":"StateName"},{"value":"Powiat Jarociński","key":"CountyName"}]},"MapReference":{"ReferenceId":"595331121","Spot":0.4,"SideOfStreet":"right","CountryId":"20624059","StateId":"20629915","CountyId":"20630003","CityId":"20630006","DistrictId":"20696008","AddressId":"731684968","RoadLinkId":"269717716"}}},{"Relevance":1.0,"Distance":66.2,"MatchLevel":"houseNumber","MatchQuality":{"Country":1.0,"State":1.0,"County":1.0,"City":1.0,"District":1.0,"Street":[1.0],"HouseNumber":1.0,"PostalCode":1.0},"MatchType":"interpolated","Location":{"LocationId":"NT_gKe151ORoaX3tlzDcmEmLB_xATQ","LocationType":"point","DisplayPosition":{"Latitude":52.02142,"Longitude":17.46194},"MapView":{"TopLeft":{"Latitude":52.0225442,"Longitude":17.4601132},"BottomRight":{"Latitude":52.0202958,"Longitude":17.4637668}},"Address":{"Label":"ulica Jarocińska 10A, 63-200 Mieszków, Polska","Country":"POL","State":"Woj. Wielkopolskie","County":"Powiat Jarociński","City":"Jarocin","District":"Mieszków","Street":"ulica Jarocińska","HouseNumber":"10A","PostalCode":"63-200","AdditionalData":[{"value":"Polska","key":"CountryName"},{"value":"Woj. Wielkopolskie","key":"StateName"},{"value":"Powiat Jarociński","key":"CountyName"}]},"MapReference":{"ReferenceId":"907940324","Spot":0.25,"SideOfStreet":"right","CountryId":"20624059","StateId":"20629915","CountyId":"20630003","CityId":"20630006","DistrictId":"20696008","AddressId":"582367124","RoadLinkId":"268536593"}}},{"Relevance":1.0,"Distance":66.5,"MatchLevel":"houseNumber","MatchQuality":{"Country":1.0,"State":1.0,"County":1.0,"City":1.0,"District":1.0,"Street":[1.0],"HouseNumber":1.0,"PostalCode":1.0},"MatchType":"interpolated","Location":{"LocationId":"NT_gKe151ORoaX3tlzDcmEmLB_xATR","LocationType":"point","DisplayPosition":{"Latitude":52.02133,"Longitude":17.46167},"MapView":{"TopLeft":{"Latitude":52.0224542,"Longitude":17.4598432},"BottomRight":{"Latitude":52.0202058,"Longitude":17.4634968}},"Address":{"Label":"ulica Jarocińska 10E, 63-200 Mieszków, Polska","Country":"POL","State":"Woj. Wielkopolskie","County":"Powiat Jarociński","City":"Jarocin","District":"Mieszków","Street":"ulica Jarocińska","HouseNumber":"10E","PostalCode":"63-200","AdditionalData":[{"value":"Polska","key":"CountryName"},{"value":"Woj. Wielkopolskie","key":"StateName"},{"value":"Powiat Jarociński","key":"CountyName"}]},"MapReference":{"ReferenceId":"907984431","Spot":0.42,"SideOfStreet":"left","CountryId":"20624059","StateId":"20629915","CountyId":"20630003","CityId":"20630006","DistrictId":"20696008","AddressId":"582484456","RoadLinkId":"268583929"}}},{"Relevance":1.0,"Distance":70.2,"MatchLevel":"street","MatchQuality":{"Country":1.0,"State":1.0,"County":1.0,"City":1.0,"District":1.0,"Street":[1.0],"PostalCode":1.0},"Location":{"LocationId":"NT_embHmP42fDDlcB.a1lEDPD_l_1169235407_L","LocationType":"point","DisplayPosition":{"Latitude":52.02171,"Longitude":17.46261},"MapView":{"TopLeft":{"Latitude":52.02182,"Longitude":17.46256},"BottomRight":{"Latitude":52.02154,"Longitude":17.46308}},"Address":{"Label":"ulica Poznańska, 63-200 Mieszków, Polska","Country":"POL","State":"Woj. Wielkopolskie","County":"Powiat Jarociński","City":"Jarocin","District":"Mieszków","Street":"ulica Poznańska","PostalCode":"63-200","AdditionalData":[{"value":"Polska","key":"CountryName"},{"value":"Woj. Wielkopolskie","key":"StateName"},{"value":"Powiat Jarociński","key":"CountyName"}]},"MapReference":{"ReferenceId":"1169235407","Spot":0.27,"SideOfStreet":"left","CountryId":"20624059","StateId":"20629915","CountyId":"20630003","CityId":"20630006","DistrictId":"20696008"}}},{"Relevance":1.0,"Distance":80.7,"MatchLevel":"street","MatchQuality":{"Country":1.0,"State":1.0,"County":1.0,"City":1.0,"District":1.0,"PostalCode":1.0},"Location":{"LocationId":"NT_gc-Zb-OptVZET7RKaie4ID_l_907984430_R","LocationType":"point","DisplayPosition":{"Latitude":52.02127,"Longitude":17.46166},"MapView":{"TopLeft":{"Latitude":52.02127,"Longitude":17.46166},"BottomRight":{"Latitude":52.02114,"Longitude":17.4617}},"Address":{"Label":"63-200 Mieszków, Polska","Country":"POL","State":"Woj. Wielkopolskie","County":"Powiat Jarociński","City":"Jarocin","District":"Mieszków","PostalCode":"63-200","AdditionalData":[{"value":"Polska","key":"CountryName"},{"value":"Woj. Wielkopolskie","key":"StateName"},{"value":"Powiat Jarociński","key":"CountyName"}]},"MapReference":{"ReferenceId":"907984430","Spot":1.0,"SideOfStreet":"right","CountryId":"20624059","StateId":"20629915","CountyId":"20630003","CityId":"20630006","DistrictId":"20696008"}}},{"Relevance":1.0,"Distance":94.8,"MatchLevel":"street","MatchQuality":{"Country":1.0,"State":1.0,"County":1.0,"City":1.0,"District":1.0,"PostalCode":1.0},"Location":{"LocationId":"NT_gc-Zb-OptVZET7RKaie4ID_l_907940329_R","LocationType":"point","DisplayPosition":{"Latitude":52.02201,"Longitude":17.46031},"MapView":{"TopLeft":{"Latitude":52.02224,"Longitude":17.46008},"BottomRight":{"Latitude":52.02157,"Longitude":17.46031}},"Address":{"Label":"63-200 Mieszków, Polska","Country":"POL","State":"Woj. Wielkopolskie","County":"Powiat Jarociński","City":"Jarocin","District":"Mieszków","PostalCode":"63-200","AdditionalData":[{"value":"Polska","key":"CountryName"},{"value":"Woj. Wielkopolskie","key":"StateName"},{"value":"Powiat Jarociński","key":"CountyName"}]},"MapReference":{"ReferenceId":"907940329","Spot":0.68,"SideOfStreet":"right","CountryId":"20624059","StateId":"20629915","CountyId":"20630003","CityId":"20630006","DistrictId":"20696008"}}},{"Relevance":1.0,"Distance":95.2,"MatchLevel":"street","MatchQuality":{"Country":1.0,"State":1.0,"County":1.0,"City":1.0,"District":1.0,"PostalCode":1.0},"Location":{"LocationId":"NT_gc-Zb-OptVZET7RKaie4ID_l_907940323_L","LocationType":"point","DisplayPosition":{"Latitude":52.02114,"Longitude":17.4617},"MapView":{"TopLeft":{"Latitude":52.02114,"Longitude":17.46063},"BottomRight":{"Latitude":52.02077,"Longitude":17.4617}},"Address":{"Label":"63-200 Mieszków, Polska","Country":"POL","State":"Woj. Wielkopolskie","County":"Powiat Jarociński","City":"Jarocin","District":"Mieszków","PostalCode":"63-200","AdditionalData":[{"value":"Polska","key":"CountryName"},{"value":"Woj. Wielkopolskie","key":"StateName"},{"value":"Powiat Jarociński","key":"CountyName"}]},"MapReference":{"ReferenceId":"907940323","Spot":1.0,"SideOfStreet":"left","CountryId":"20624059","StateId":"20629915","CountyId":"20630003","CityId":"20630006","DistrictId":"20696008"}}}]}]}}