{"Response":{"MetaInfo":{"Timestamp":"2020-03-28T11:40:52.879+0000","NextPageInformation":"2"},"View":[{"_type":"SearchResultsViewType","ViewId":0,"Result":[{"Relevance":1.0,"Distance":0.0,"Direction":0.0,"MatchLevel":"district","MatchQuality":{"Country":1.0,"State":1.0,"County":1.0,"City":1.0,"District":1.0,"PostalCode":1.0},"Location":{"LocationId":"NT_GU1Cv5gwufLnkaPwus2keB","LocationType":"point","DisplayPosition":{"Latitude":52.0908125,"Longitude":9.6361202},"MapView":{"TopLeft":{"Latitude":52.10968,"Longitude":9.62701},"BottomRight":{"Latitude":52.08316,"Longitude":9.64345}},"Address":{"Label":"Oldendorf, Salzhemmendorf, Niedersachsen, Deutschland","Country":"DEU","State":"Niedersachsen","County":"Hameln-Pyrmont","City":"Salzhemmendorf","District":"Oldendorf","PostalCode":"31020","AdditionalData":[{"value":"Deutschland","key":"CountryName"},{"value":"Niedersachsen","key":"StateName"},{"value":"Hameln-Pyrmont","key":"CountyName"}]},"MapReference":{"ReferenceId":"762989568","SideOfStreet":"neither","CountryId":"20147700","StateId":"20151542","CountyId":"20152915","CityId":"20153014","DistrictId":"20360176"}}},{"Relevance":1.0,"Distance":7.1,"MatchLevel":"houseNumber","MatchQuality":{"Country":1.0,"State":1.0,"County":1.0,"City":1.0,"District":1.0,"Street":[1.0],"HouseNumber":1.0,"PostalCode":1.0},"MatchType":"interpolated","Location":{"LocationId":"NT_8rwyy1MAi20WCuTjACcwzD_xcD","LocationType":"point","DisplayPosition":{"Latitude":52.09059,"Longitude":9.63602},"MapView":{"TopLeft":{"Latitude":52.0917142,"Longitude":9.6341904},"BottomRight":{"Latitude":52.0894658,"Longitude":9.6378496}},"Address":{"Label":"Heerstraße 17, 31020 Salzhemmendorf, Deutschland","Country":"DEU","State":"Niedersachsen","County":"Hameln-Pyrmont","City":"Salzhemmendorf","District":"Oldendorf","Street":"Heerstraße","HouseNumber":"17","PostalCode":"31020","AdditionalData":[{"value":"Deutschland","key":"CountryName"},{"value":"Niedersachsen","key":"StateName"},{"value":"Hameln-Pyrmont","key":"CountyName"}]},"MapReference":{"ReferenceId":"762989568","Spot":0.79,"SideOfStreet":"left","CountryId":"20147700","StateId":"20151542","CountyId":"20152915","CityId":"20153014","DistrictId":"20360176","AddressId":"180987792","RoadLinkId":"157280931"}}},{"Relevance":1.0,"Distance":41.1,"MatchLevel":"houseNumber","MatchQuality":{"Country":1.0,"State":1.0,"County":1.0,"City":1.0,"District":1.0,"Street":[1.0],"HouseNumber":1.0,"PostalCode":1.0},"MatchType":"interpolated","Location":{"LocationId":"NT_8rwyy1MAi20WCuTjACcwzD_xkD","LocationType":"point","DisplayPosition":{"Latitude":52.0906,"Longitude":9.63671},"MapView":{"TopLeft":{"Latitude":52.0917242,"Longitude":9.6348804},"BottomRight":{"Latitude":52.0894758,"Longitude":9.6385396}},"Address":{"Label":"Heerstraße 19, 31020 Salzhemmendorf, Deutschland","Country":"DEU","State":"Niedersachsen","County":"Hameln-Pyrmont","City":"Salzhemmendorf","District":"Oldendorf","Street":"Heerstraße","HouseNumber":"19","PostalCode":"31020","AdditionalData":[{"value":"Deutschland","key":"CountryName"},{"value":"Niedersachsen","key":"StateName"},{"value":"Hameln-Pyrmont","key":"CountyName"}]},"MapReference":{"ReferenceId":"762989569","Spot":0.32,"SideOfStreet":"left","CountryId":"20147700","StateId":"20151542","CountyId":"20152915","CityId":"20153014","DistrictId":"20360176","AddressId":"178334535","RoadLinkId":"157280932"}}},{"Relevance":1.0,"Distance":67.6,"MatchLevel":"street","MatchQuality":{"Country":1.0,"State":1.0,"County":1.0,"City":1.0,"District":1.0,"Street":[1.0],"PostalCode":1.0},"Location":{"LocationId":"NT_d8Ln8hOxa7VMicSAD4PNrB_l_83732670_R","LocationType":"point","DisplayPosition":{"Latitude":52.09056,"Longitude":9.63522},"MapView":{"TopLeft":{"Latitude":52.09077,"Longitude":9.63472},"BottomRight":{"Latitude":52.09056,"Longitude":9.63522}},"Address":{"Label":"Osterwalder Straße, 31020 Salzhemmendorf, Deutschland","Country":"DEU","State":"Niedersachsen","County":"Hameln-Pyrmont","City":"Salzhemmendorf","District":"Oldendorf","Street":"Osterwalder Straße","PostalCode":"31020","AdditionalData":[{"value":"Deutschland","key":"CountryName"},{"value":"Niedersachsen","key":"StateName"},{"value":"Hameln-Pyrmont","key":"CountyName"}]},"MapReference":{"ReferenceId":"83732670","Spot":0.0,"SideOfStreet":"right","CountryId":"20147700","StateId":"20151542","CountyId":"20152915","CityId":"20153014","DistrictId":"20360176"}}},{"Relevance":1.0,"Distance":75.6,"MatchLevel":"houseNumber","MatchQuality":{"Country":1.0,"State":1.0,"County":1.0,"City":1.0,"District":1.0,"Street":[1.0],"HouseNumber":1.0,"PostalCode":1.0},"MatchType":"interpolated","Location":{"LocationId":"NT_YWHboymJcEOyUvgBYIaVPB_1A","LocationType":"point","DisplayPosition":{"Latitude":52.08986,"Longitude":9.63607},"MapView":{"TopLeft":{"Latitude":52.0909842,"Longitude":9.6342404},"BottomRight":{"Latitude":52.0887358,"Longitude":9.6378996}},"Address":{"Label":"Dorfstraße 5, 31020 Salzhemmendorf, Deutschland","Country":"DEU","State":"Niedersachsen","County":"Hameln-Pyrmont","City":"Salzhemmendorf","District":"Oldendorf","Street":"Dorfstraße","HouseNumber":"5","PostalCode":"31020","AdditionalData":[{"value":"Deutschland","key":"CountryName"},{"value":"Niedersachsen","key":"StateName"},{"value":"Hameln-Pyrmont","key":"CountyName"}]},"MapReference":{"ReferenceId":"79674928","Spot":0.18,"SideOfStreet":"right","CountryId":"20147700","StateId":"20151542","CountyId":"20152915","CityId":"20153014","DistrictId":"20360176","AddressId":"178461691","RoadLinkId":"37105097"}}},{"Relevance":1.0,"Distance":80.5,"MatchLevel":"houseNumber","MatchQuality":{"Country":1.0,"State":1.0,"County":1.0,"City":1.0,"District":1.0,"Street":[1.0],"HouseNumber":1.0,"PostalCode":1.0},"MatchType":"interpolated","Location":{"LocationId":"NT_8rwyy1MAi20WCuTjACcwzD_yAD","LocationType":"point","DisplayPosition":{"Latitude":52.0905,"Longitude":9.63503},"MapView":{"TopLeft":{"Latitude":52.0916242,"Longitude":9.6332004},"BottomRight":{"Latitude":52.0893758,"Longitude":9.6368596}},"Address":{"Label":"Heerstraße 20, 31020 Salzhemmendorf, Deutschland","Country":"DEU","State":"Niedersachsen","County":"Hameln-Pyrmont","City":"Salzhemmendorf","District":"Oldendorf","Street":"Heerstraße","HouseNumber":"20","PostalCode":"31020","AdditionalData":[{"value":"Deutschland","key":"CountryName"},{"value":"Niedersachsen","key":"StateName"},{"value":"Hameln-Pyrmont","key":"CountyName"}]},"MapReference":{"ReferenceId":"83732668","Spot":0.47,"SideOfStreet":"right","CountryId":"20147700","StateId":"20151542","CountyId":"20152915","CityId":"20153014","DistrictId":"20360176","AddressId":"179464543","RoadLinkId":"37219678"}}},{"Relevance":1.0,"Distance":80.9,"MatchLevel":"houseNumber","MatchQuality":{"Country":1.0,"State":1.0,"County":1.0,"City":1.0,"District":1.0,"Street":[1.0],"HouseNumber":1.0,"PostalCode":1.0},"MatchType":"interpolated","Location":{"LocationId":"NT_YoWURDRWiKc-t5bWd1GDmD_xEE","LocationType":"point","DisplayPosition":{"Latitude":52.0909,"Longitude":9.63781},"MapView":{"TopLeft":{"Latitude":52.0920242,"Longitude":9.6359804},"BottomRight":{"Latitude":52.0897758,"Longitude":9.6396396}},"Address":{"Label":"Auf der Hube 1A, 31020 Salzhemmendorf, Deutschland","Country":"DEU","State":"Niedersachsen","County":"Hameln-Pyrmont","City":"Salzhemmendorf","District":"Oldendorf","Street":"Auf der Hube","HouseNumber":"1A","PostalCode":"31020","AdditionalData":[{"value":"Deutschland","key":"CountryName"},{"value":"Niedersachsen","key":"StateName"},{"value":"Hameln-Pyrmont","key":"CountyName"}]},"MapReference":{"ReferenceId":"1180079028","Spot":0.16,"SideOfStreet":"left","CountryId":"20147700","StateId":"20151542","CountyId":"20152915","CityId":"20153014","DistrictId":"20360176","AddressId":"177287359","RoadLinkId":"487931451"}}},{"Relevance":1.0,"Distance":82.7,"MatchLevel":"houseNumber","MatchQuality":{"Country":1.0,"State":1.0,"County":1.0,"City":1.0,"District":1.0,"Street":[1.0],"HouseNumber":1.0,"PostalCode":1.0},"MatchType":"interpolated","Location":{"LocationId":"NT_d8Ln8hOxa7VMicSAD4PNrB_yA","LocationType":"point","DisplayPosition":{"Latitude":52.09083,"Longitude":9.63468},"MapView":{"TopLeft":{"Latitude":52.0919542,"Longitude":9.6328504},"BottomRight":{"Latitude":52.0897058,"Longitude":9.6365096}},"Address":{"Label":"Osterwalder Straße 2, 31020 Salzhemmendorf, Deutschland","Country":"DEU","State":"Niedersachsen","County":"Hameln-Pyrmont","City":"Salzhemmendorf","District":"Oldendorf","Street":"Osterwalder Straße","HouseNumber":"2","PostalCode":"31020","AdditionalData":[{"value":"Deutschland","key":"CountryName"},{"value":"Niedersachsen","key":"StateName"},{"value":"Hameln-Pyrmont","key":"CountyName"}]},"MapReference":{"ReferenceId":"762991479","Spot":0.1,"SideOfStreet":"right","CountryId":"20147700","StateId":"20151542","CountyId":"20152915","CityId":"20153014","DistrictId":"20360176","AddressId":"181681085","RoadLinkId":"157283341"}}},{"Relevance":1.0,"Distance":93.9,"MatchLevel":"houseNumber","MatchQuality":{"Country":1.0,"State":1.0,"County":1.0,"City":1.0,"District":1.0,"Street":[1.0],"HouseNumber":1.0,"PostalCode":1.0},"MatchType":"interpolated","Location":{"LocationId":"NT_d8Ln8hOxa7VMicSAD4PNrB_xA","LocationType":"point","DisplayPosition":{"Latitude":52.09069,"Longitude":9.63476},"MapView":{"TopLeft":{"Latitude":52.0918142,"Longitude":9.6329304},"BottomRight":{"Latitude":52.0895658,"Longitude":9.6365896}},"Address":{"Label":"Osterwalder Straße 1, 31020 Salzhemmendorf, Deutschland","Country":"DEU","State":"Niedersachsen","County":"Hameln-Pyrmont","City":"Salzhemmendorf","District":"Oldendorf","Street":"Osterwalder Straße","HouseNumber":"1","PostalCode":"31020","AdditionalData":[{"value":"Deutschland","key":"CountryName"},{"value":"Niedersachsen","key":"StateName"},{"value":"Hameln-Pyrmont","key":"CountyName"}]},"MapReference":{"ReferenceId":"79675668","Spot":0.77,"SideOfStreet":"left","CountryId":"20147700","StateId":"20151542","CountyId":"20152915","CityId":"20153014","DistrictId":"20360176","AddressId":"181253515","RoadLinkId":"37040954"}}},{"Relevance":1.0,"Distance":106.7,"MatchLevel":"houseNumber","MatchQuality":{"Country":1.0,"State":1.0,"County":1.0,"City":1.0,"District":1.0,"Street":[1.0],"HouseNumber":1.0,"PostalCode":1.0},"MatchType":"interpolated","Location":{"LocationId":"NT_8rwyy1MAi20WCuTjACcwzD_xMD","LocationType":"point","DisplayPosition":{"Latitude":52.09033,"Longitude":9.63477},"MapView":{"TopLeft":{"Latitude":52.0914542,"Longitude":9.6329404},"BottomRight":{"Latitude":52.0892058,"Longitude":9.6365996}},"Address":{"Label":"Heerstraße 13, 31020 Salzhemmendorf, Deutschland","Country":"DEU","State":"Niedersachsen","County":"Hameln-Pyrmont","City":"Salzhemmendorf","District":"Oldendorf","Street":"Heerstraße","HouseNumber":"13","PostalCode":"31020","AdditionalData":[{"value":"Deutschland","key":"CountryName"},{"value":"Niedersachsen","key":"StateName"},{"value":"Hameln-Pyrmont","key":"CountyName"}]},"MapReference":{"ReferenceId":"79674956","Spot":0.87,"SideOfStreet":"left","CountryId":"20147700","StateId":"20151542","CountyId":"20152915","CityId":"20153014","DistrictId":"20360176","AddressId":"181529463","RoadLinkId":"36642758"}}}]}]}}