{"Response":{"MetaInfo":{"Timestamp":"2020-03-28T11:17:24.150+0000","NextPageInformation":"2"},"View":[{"_type":"SearchResultsViewType","ViewId":0,"Result":[{"Relevance":1.0,"Distance":0.0,"Direction":0.0,"MatchLevel":"district","MatchQuality":{"Country":1.0,"State":1.0,"County":1.0,"City":1.0,"District":1.0,"PostalCode":1.0},"Location":{"LocationId":"NT_T.DNRk4BZJKV59oat3MFPB","LocationType":"point","DisplayPosition":{"Latitude":52.0366892,"Longitude":-2.4256442},"MapView":{"TopLeft":{"Latitude":52.05128,"Longitude":-2.44047},"BottomRight":{"Latitude":52.025,"Longitude":-2.41454}},"Address":{"Label":"Ledbury, England, United Kingdom","Country":"GBR","State":"England","County":"Herefordshire","City":"Ledbury","District":"Ledbury","PostalCode":"HR8 1","AdditionalData":[{"value":"United Kingdom","key":"CountryName"},{"value":"England","key":"StateName"},{"value":"Herefordshire","key":"CountyName"}]},"MapReference":{"ReferenceId":"942366385","SideOfStreet":"neither","StateId":"20248595","CountyId":"20343180","CityId":"20349033","DistrictId":"20349034"}}},{"Relevance":1.0,"Distance":5.2,"MatchLevel":"street","MatchQuality":{"Country":1.0,"State":1.0,"County":1.0,"City":1.0,"District":1.0,"Street":[1.0],"PostalCode":1.0},"Location":{"LocationId":"NT_rlQD984g3yXsvxm20iCA0C_l_26219240_R","LocationType":"point","DisplayPosition":{"Latitude":52.0367363,"Longitude":-2.4256478},"MapView":{"TopLeft":{"Latitude":52.03675,"Longitude":-2.42573},"BottomRight":{"Latitude":52.03673,"Longitude":-2.42547}},"Address":{"Label":"Bye Street, Ledbury, HR8 2, United Kingdom","Country":"GBR","State":"England","County":"Herefordshire","City":"Ledbury","District":"Ledbury","Street":"Bye Street","PostalCode":"HR8 2","AdditionalData":[{"value":"United Kingdom","key":"CountryName"},{"value":"England","key":"StateName"},{"value":"Herefordshire","key":"CountyName"}]},"MapReference":{"ReferenceId":"26219240","Spot":0.32,"SideOfStreet":"right","StateId":"20248595","CountyId":"20343180","CityId":"20349033","DistrictId":"20349034"}}},{"Relevance":1.0,"Distance":7.4,"MatchLevel":"houseNumber","MatchQuality":{"Country":1.0,"State":1.0,"County":1.0,"City":1.0,"District":1.0,"Street":[1.0],"HouseNumber":1.0,"PostalCode":1.0},"MatchType":"interpolated","Location":{"LocationId":"NT_rlQD984g3yXsvxm20iCA0C_1AD","LocationType":"point","DisplayPosition":{"Latitude":52.03673,"Longitude":-2.42573},"MapView":{"TopLeft":{"Latitude":52.0378542,"Longitude":-2.4275574},"BottomRight":{"Latitude":52.0356058,"Longitude":-2.4239026}},"Address":{"Label":"50 Bye Street, Ledbury, HR8 2AG, United Kingdom","Country":"GBR","State":"England","County":"Herefordshire","City":"Ledbury","District":"Ledbury","Street":"Bye Street","HouseNumber":"50","PostalCode":"HR8 2AG","AdditionalData":[{"value":"United Kingdom","key":"CountryName"},{"value":"England","key":"StateName"},{"value":"Herefordshire","key":"CountyName"}]},"MapReference":{"ReferenceId":"26219248","Spot":1.0,"SideOfStreet":"left","StateId":"20248595","CountyId":"20343180","CityId":"20349033","DistrictId":"20349034","AddressId":"762398365","RoadLinkId":"83148324"}}},{"Relevance":1.0,"Distance":7.4,"MatchLevel":"street","MatchQuality":{"Country":1.0,"State":1.0,"County":1.0,"City":1.0,"District":1.0,"Street":[1.0],"PostalCode":1.0},"Location":{"LocationId":"NT_PxjvESNPu.SrCEvAr0K1zA_l_26219241_R","LocationType":"point","DisplayPosition":{"Latitude":52.03673,"Longitude":-2.42573},"MapView":{"TopLeft":{"Latitude":52.03673,"Longitude":-2.42645},"BottomRight":{"Latitude":52.03672,"Longitude":-2.42573}},"Address":{"Label":"Bridge Street, Ledbury, HR8 2, United Kingdom","Country":"GBR","State":"England","County":"Herefordshire","City":"Ledbury","District":"Ledbury","Street":"Bridge Street","PostalCode":"HR8 2","AdditionalData":[{"value":"United Kingdom","key":"CountryName"},{"value":"England","key":"StateName"},{"value":"Herefordshire","key":"CountyName"}]},"MapReference":{"ReferenceId":"26219241","Spot":1.0,"SideOfStreet":"right","StateId":"20248595","CountyId":"20343180","CityId":"20349033","DistrictId":"20349034"}}},{"Relevance":1.0,"Distance":13.7,"MatchLevel":"street","MatchQuality":{"Country":1.0,"State":1.0,"County":1.0,"City":1.0,"District":1.0,"Street":[1.0],"PostalCode":1.0},"Location":{"LocationId":"NT_rlQD984g3yXsvxm20iCA0C_l_26219237_R","LocationType":"point","DisplayPosition":{"Latitude":52.03675,"Longitude":-2.42547},"MapView":{"TopLeft":{"Latitude":52.03679,"Longitude":-2.42547},"BottomRight":{"Latitude":52.03675,"Longitude":-2.42508}},"Address":{"Label":"Bye Street, Ledbury, HR8 2, United Kingdom","Country":"GBR","State":"England","County":"Herefordshire","City":"Ledbury","District":"Ledbury","Street":"Bye Street","PostalCode":"HR8 2","AdditionalData":[{"value":"United Kingdom","key":"CountryName"},{"value":"England","key":"StateName"},{"value":"Herefordshire","key":"CountyName"}]},"MapReference":{"ReferenceId":"26219237","Spot":0.0,"SideOfStreet":"right","StateId":"20248595","CountyId":"20343180","CityId":"20349033","DistrictId":"20349034"}}},{"Relevance":1.0,"Distance":13.7,"MatchLevel":"street","MatchQuality":{"Country":1.0,"State":1.0,"County":1.0,"City":1.0,"District":1.0,"PostalCode":1.0},"Location":{"LocationId":"NT_nTsky9meDG2dGa-6OvU-8A_l_26219238_L","LocationType":"point","DisplayPosition":{"Latitude":52.0368126,"Longitude":-2.4256415},"MapView":{"TopLeft":{"Latitude":52.03683,"Longitude":-2.42645},"BottomRight":{"Latitude":52.03675,"Longitude":-2.42547}},"Address":{"Label":"Ledbury, HR8 2, United Kingdom","Country":"GBR","State":"England","County":"Herefordshire","City":"Ledbury","District":"Ledbury","PostalCode":"HR8 2","AdditionalData":[{"value":"United Kingdom","key":"CountryName"},{"value":"England","key":"StateName"},{"value":"Herefordshire","key":"CountyName"}]},"MapReference":{"ReferenceId":"26219238","Spot":0.2,"SideOfStreet":"left","StateId":"20248595","CountyId":"20343180","CityId":"20349033","DistrictId":"20349034"}}},{"Relevance":1.0,"Distance":14.4,"MatchLevel":"street","MatchQuality":{"Country":1.0,"State":1.0,"County":1.0,"City":1.0,"District":1.0,"Street":[1.0],"PostalCode":1.0},"Location":{"LocationId":"NT_N-GTRcWGaETymA9AY4yLTA_l_577367584_R","LocationType":"point","DisplayPosition":{"Latitude":52.03656,"Longitude":-2.42566},"MapView":{"TopLeft":{"Latitude":52.03656,"Longitude":-2.42566},"BottomRight":{"Latitude":52.03574,"Longitude":-2.42441}},"Address":{"Label":"Market Street, Ledbury, HR8 2, United Kingdom","Country":"GBR","State":"England","County":"Herefordshire","City":"Ledbury","District":"Ledbury","Street":"Market Street","PostalCode":"HR8 2","AdditionalData":[{"value":"United Kingdom","key":"CountryName"},{"value":"England","key":"StateName"},{"value":"Herefordshire","key":"CountyName"}]},"MapReference":{"ReferenceId":"577367584","Spot":1.0,"SideOfStreet":"right","StateId":"20248595","CountyId":"20343180","CityId":"20349033","DistrictId":"20349034"}}},{"Relevance":1.0,"Distance":34.4,"MatchLevel":"postalCode","MatchQuality":{"PostalCode":1.0},"MatchType":"interpolated","Location":{"LocationId":"NT_rlQD984g3yXsvxm20iCA0C_1AD","LocationType":"point","DisplayPosition":{"Latitude":52.03677,"Longitude":-2.42613},"MapView":{"TopLeft":{"Latitude":52.0457632,"Longitude":-2.4407494},"BottomRight":{"Latitude":52.0277768,"Longitude":-2.4115106}},"Address":{"Label":"HR8 2AG, Ledbury, England, United Kingdom","Country":"GBR","State":"England","County":"Herefordshire","City":"Ledbury","PostalCode":"HR8 2AG","AdditionalData":[{"value":"United Kingdom","key":"CountryName"},{"value":"England","key":"StateName"},{"value":"Herefordshire","key":"CountyName"}]},"MapReference":{"ReferenceId":"26219248","Spot":1.0,"SideOfStreet":"neither","StateId":"20248595","CountyId":"20343180","CityId":"20349033"}}},{"Relevance":1.0,"Distance":41.2,"MatchLevel":"postalCode","MatchQuality":{"PostalCode":1.0},"Location":{"LocationId":"NT_N-GTRcWGaETymA9AY4yLTA_l_577367584_R","LocationType":"point","DisplayPosition":{"Latitude":52.03632,"Longitude":-2.4256},"MapView":{"TopLeft":{"Latitude":52.0453132,"Longitude":-2.4402193},"BottomRight":{"Latitude":52.0273268,"Longitude":-2.4109807}},"Address":{"Label":"HR8 2AQ, Ledbury, England, United Kingdom","Country":"GBR","State":"England","County":"Herefordshire","City":"Ledbury","PostalCode":"HR8 2AQ","AdditionalData":[{"value":"United Kingdom","key":"CountryName"},{"value":"England","key":"StateName"},{"value":"Herefordshire","key":"CountyName"}]},"MapReference":{"ReferenceId":"577367584","Spot":1.0,"SideOfStreet":"neither","StateId":"20248595","CountyId":"20343180","CityId":"20349033"}}},{"Relevance":1.0,"Distance":41.5,"MatchLevel":"street","MatchQuality":{"Country":1.0,"State":1.0,"County":1.0,"City":1.0,"District":1.0,"Street":[1.0],"PostalCode":1.0},"Location":{"LocationId":"NT_-B4dohcbY67K4I7hT3bMoC_l_26219232_L","LocationType":"point","DisplayPosition":{"Latitude":52.0368528,"Longitude":-2.4250988},"MapView":{"TopLeft":{"Latitude":52.03793,"Longitude":-2.42559},"BottomRight":{"Latitude":52.03679,"Longitude":-2.42508}},"Address":{"Label":"Lawnside Road, Ledbury, HR8 2, United Kingdom","Country":"GBR","State":"England","County":"Herefordshire","City":"Ledbury","District":"Ledbury","Street":"Lawnside Road","PostalCode":"HR8 2","AdditionalData":[{"value":"United Kingdom","key":"CountryName"},{"value":"England","key":"StateName"},{"value":"Herefordshire","key":"CountyName"}]},"MapReference":{"ReferenceId":"26219232","Spot":0.05,"SideOfStreet":"left","StateId":"20248595","CountyId":"20343180","CityId":"20349033","DistrictId":"20349034"}}}]}]}}