{"Response":{"MetaInfo":{"Timestamp":"2020-03-28T10:39:40.571+0000","NextPageInformation":"2"},"View":[{"_type":"SearchResultsViewType","ViewId":0,"Result":[{"Relevance":1.0,"Distance":0.0,"Direction":0.0,"MatchLevel":"district","MatchQuality":{"Country":1.0,"State":1.0,"County":1.0,"City":1.0,"District":1.0,"PostalCode":1.0},"Location":{"LocationId":"NT_3wWybXb5jPsTYouspzZAwC","LocationType":"point","DisplayPosition":{"Latitude":52.0375895,"Longitude":1.1370173},"MapView":{"TopLeft":{"Latitude":52.08932,"Longitude":1.09521},"BottomRight":{"Latitude":52.02405,"Longitude":1.24287}},"Address":{"Label":"Ipswich, England, United Kingdom","Country":"GBR","State":"England","County":"Suffolk","City":"Ipswich","District":"Ipswich","PostalCode":"IP1 2","AdditionalData":[{"value":"United Kingdom","key":"CountryName"},{"value":"England","key":"StateName"},{"value":"Suffolk","key":"CountyName"}]},"MapReference":{"ReferenceId":"877738224","SideOfStreet":"neither","StateId":"20248595","CountyId":"20338322","CityId":"20338335","DistrictId":"20338336"}}},{"Relevance":1.0,"Distance":35.6,"MatchLevel":"houseNumber","MatchQuality":{"Country":1.0,"State":1.0,"County":1.0,"City":1.0,"District":1.0,"Street":[1.0],"HouseNumber":1.0,"PostalCode":1.0},"MatchType":"interpolated","Location":{"LocationId":"NT_Qrc-QClPyo2.1rPGT1Ph.B_l_26784914_L_xQDN","LocationType":"point","DisplayPosition":{"Latitude":52.0372034,"Longitude":1.137397},"MapView":{"TopLeft":{"Latitude":52.0383276,"Longitude":1.1355695},"BottomRight":{"Latitude":52.0360793,"Longitude":1.1392244}},"Address":{"Label":"144 Lanercost Way, Ipswich, IP2 9DP, United Kingdom","Country":"GBR","State":"England","County":"Suffolk","City":"Ipswich","District":"Ipswich","Street":"Lanercost Way","HouseNumber":"144","PostalCode":"IP2 9DP","AdditionalData":[{"value":"United Kingdom","key":"CountryName"},{"value":"England","key":"StateName"},{"value":"Suffolk","key":"CountyName"}]},"MapReference":{"ReferenceId":"26784914","Spot":0.88,"SideOfStreet":"left","StateId":"20248595","CountyId":"20338322","CityId":"20338335","DistrictId":"20338336"}}},{"Relevance":1.0,"Distance":46.1,"MatchLevel":"houseNumber","MatchQuality":{"Country":1.0,"State":1.0,"County":1.0,"City":1.0,"District":1.0,"Street":[1.0],"HouseNumber":1.0,"PostalCode":1.0},"MatchType":"interpolated","Location":{"LocationId":"NT_Qrc-QClPyo2.1rPGT1Ph.B_l_26157083_L_3AD","LocationType":"point","DisplayPosition":{"Latitude":52.03743,"Longitude":1.1377701},"MapView":{"TopLeft":{"Latitude":52.0385542,"Longitude":1.1359426},"BottomRight":{"Latitude":52.0363059,"Longitude":1.1395975}},"Address":{"Label":"70 Lanercost Way, Ipswich, IP2 9DP, United Kingdom","Country":"GBR","State":"England","County":"Suffolk","City":"Ipswich","District":"Ipswich","Street":"Lanercost Way","HouseNumber":"70","PostalCode":"IP2 9DP","AdditionalData":[{"value":"United Kingdom","key":"CountryName"},{"value":"England","key":"StateName"},{"value":"Suffolk","key":"CountyName"}]},"MapReference":{"ReferenceId":"26157083","Spot":0.22,"SideOfStreet":"left","StateId":"20248595","CountyId":"20338322","CityId":"20338335","DistrictId":"20338336"}}},{"Relevance":1.0,"Distance":55.4,"MatchLevel":"postalCode","MatchQuality":{"PostalCode":1.0},"MatchType":"interpolated","Location":{"LocationId":"NT_Qrc-QClPyo2.1rPGT1Ph.B_l_26784914_L_xQDN","LocationType":"point","DisplayPosition":{"Latitude":52.03715,"Longitude":1.1374},"MapView":{"TopLeft":{"Latitude":52.0461432,"Longitude":1.1227805},"BottomRight":{"Latitude":52.0281568,"Longitude":1.1520195}},"Address":{"Label":"IP2 9DP, Ipswich, England, United Kingdom","Country":"GBR","State":"England","County":"Suffolk","City":"Ipswich","PostalCode":"IP2 9DP","AdditionalData":[{"value":"United Kingdom","key":"CountryName"},{"value":"England","key":"StateName"},{"value":"Suffolk","key":"CountyName"}]},"MapReference":{"ReferenceId":"26784914","Spot":0.88,"SideOfStreet":"neither","StateId":"20248595","CountyId":"20338322","CityId":"20338335"}}},{"Relevance":1.0,"Distance":61.4,"MatchLevel":"houseNumber","MatchQuality":{"Country":1.0,"State":1.0,"County":1.0,"City":1.0,"District":1.0,"Street":[1.0],"HouseNumber":1.0,"PostalCode":1.0},"MatchType":"interpolated","Location":{"LocationId":"NT_Qrc-QClPyo2.1rPGT1Ph.B_l_26784912_L_xATO","LocationType":"point","DisplayPosition":{"Latitude":52.0372607,"Longitude":1.137739},"MapView":{"TopLeft":{"Latitude":52.0383848,"Longitude":1.1359115},"BottomRight":{"Latitude":52.0361365,"Longitude":1.1395664}},"Address":{"Label":"109 Lanercost Way, Ipswich, IP2 9DP, United Kingdom","Country":"GBR","State":"England","County":"Suffolk","City":"Ipswich","District":"Ipswich","Street":"Lanercost Way","HouseNumber":"109","PostalCode":"IP2 9DP","AdditionalData":[{"value":"United Kingdom","key":"CountryName"},{"value":"England","key":"StateName"},{"value":"Suffolk","key":"CountyName"}]},"MapReference":{"ReferenceId":"26784912","Spot":0.5,"SideOfStreet":"left","StateId":"20248595","CountyId":"20338322","CityId":"20338335","DistrictId":"20338336"}}},{"Relevance":1.0,"Distance":69.4,"MatchLevel":"street","MatchQuality":{"Country":1.0,"State":1.0,"County":1.0,"City":1.0,"District":1.0,"Street":[1.0],"PostalCode":1.0},"Location":{"LocationId":"NT_C3TCnixEycUI6yGRxl7.DA_l_26157228_L","LocationType":"point","DisplayPosition":{"Latitude":52.03706,"Longitude":1.13648},"MapView":{"TopLeft":{"Latitude":52.03706,"Longitude":1.13611},"BottomRight":{"Latitude":52.03629,"Longitude":1.13648}},"Address":{"Label":"Oaklee, Ipswich, IP2 9, United Kingdom","Country":"GBR","State":"England","County":"Suffolk","City":"Ipswich","District":"Ipswich","Street":"Oaklee","PostalCode":"IP2 9","AdditionalData":[{"value":"United Kingdom","key":"CountryName"},{"value":"England","key":"StateName"},{"value":"Suffolk","key":"CountyName"}]},"MapReference":{"ReferenceId":"26157228","Spot":1.0,"SideOfStreet":"left","StateId":"20248595","CountyId":"20338322","CityId":"20338335","DistrictId":"20338336"}}},{"Relevance":1.0,"Distance":81.8,"MatchLevel":"street","MatchQuality":{"Country":1.0,"State":1.0,"County":1.0,"City":1.0,"District":1.0,"Street":[1.0],"PostalCode":1.0},"Location":{"LocationId":"NT_AIW4WK0fJExBpmjGUUt.RA_l_565697178_R","LocationType":"point","DisplayPosition":{"Latitude":52.0372914,"Longitude":1.1359242},"MapView":{"TopLeft":{"Latitude":52.03766,"Longitude":1.13578},"BottomRight":{"Latitude":52.03715,"Longitude":1.13595}},"Address":{"Label":"Stoke Park Drive, Ipswich, IP2 9, United Kingdom","Country":"GBR","State":"England","County":"Suffolk","City":"Ipswich","District":"Ipswich","Street":"Stoke Park Drive","PostalCode":"IP2 9","AdditionalData":[{"value":"United Kingdom","key":"CountryName"},{"value":"England","key":"StateName"},{"value":"Suffolk","key":"CountyName"}]},"MapReference":{"ReferenceId":"565697178","Spot":0.27,"SideOfStreet":"right","StateId":"20248595","CountyId":"20338322","CityId":"20338335","DistrictId":"20338336"}}},{"Relevance":1.0,"Distance":85.0,"MatchLevel":"street","MatchQuality":{"Country":1.0,"State":1.0,"County":1.0,"City":1.0,"District":1.0,"Street":[1.0],"PostalCode":1.0},"Location":{"LocationId":"NT_AIW4WK0fJExBpmjGUUt.RA_l_1005141241_R","LocationType":"point","DisplayPosition":{"Latitude":52.03766,"Longitude":1.13578},"MapView":{"TopLeft":{"Latitude":52.03921,"Longitude":1.13555},"BottomRight":{"Latitude":52.03766,"Longitude":1.13638}},"Address":{"Label":"Stoke Park Drive, Ipswich, IP2 9, United Kingdom","Country":"GBR","State":"England","County":"Suffolk","City":"Ipswich","District":"Ipswich","Street":"Stoke Park Drive","PostalCode":"IP2 9","AdditionalData":[{"value":"United Kingdom","key":"CountryName"},{"value":"England","key":"StateName"},{"value":"Suffolk","key":"CountyName"}]},"MapReference":{"ReferenceId":"1005141241","Spot":0.0,"SideOfStreet":"right","StateId":"20248595","CountyId":"20338322","CityId":"20338335","DistrictId":"20338336"}}},{"Relevance":1.0,"Distance":86.3,"MatchLevel":"postalCode","MatchQuality":{"PostalCode":1.0},"Location":{"LocationId":"NT_AIW4WK0fJExBpmjGUUt.RA_l_1005141241_R","LocationType":"point","DisplayPosition":{"Latitude":52.03777,"Longitude":1.13579},"MapView":{"TopLeft":{"Latitude":52.0467632,"Longitude":1.1211703},"BottomRight":{"Latitude":52.0287768,"Longitude":1.1504097}},"Address":{"Label":"IP2 9TH, Ipswich, England, United Kingdom","Country":"GBR","State":"England","County":"Suffolk","City":"Ipswich","PostalCode":"IP2 9TH","AdditionalData":[{"value":"United Kingdom","key":"CountryName"},{"value":"England","key":"StateName"},{"value":"Suffolk","key":"CountyName"}]},"MapReference":{"ReferenceId":"1005141241","Spot":0.0,"SideOfStreet":"neither","StateId":"20248595","CountyId":"20338322","CityId":"20338335"}}},{"Relevance":1.0,"Distance":87.9,"MatchLevel":"street","MatchQuality":{"Country":1.0,"State":1.0,"County":1.0,"City":1.0,"District":1.0,"Street":[1.0],"PostalCode":1.0},"Location":{"LocationId":"NT_AIW4WK0fJExBpmjGUUt.RA_l_565697179_R","LocationType":"point","DisplayPosition":{"Latitude":52.03715,"Longitude":1.13595},"MapView":{"TopLeft":{"Latitude":52.03715,"Longitude":1.13595},"BottomRight":{"Latitude":52.0365,"Longitude":1.13605}},"Address":{"Label":"Stoke Park Drive, Ipswich, IP2 9, United Kingdom","Country":"GBR","State":"England","County":"Suffolk","City":"Ipswich","District":"Ipswich","Street":"Stoke Park Drive","PostalCode":"IP2 9","AdditionalData":[{"value":"United Kingdom","key":"CountryName"},{"value":"England","key":"StateName"},{"value":"Suffolk","key":"CountyName"}]},"MapReference":{"ReferenceId":"565697179","Spot":1.0,"SideOfStreet":"right","StateId":"20248595","CountyId":"20338322","CityId":"20338335","DistrictId":"20338336"}}}]}]}}