{"Response":{"MetaInfo":{"Timestamp":"2020-03-28T11:56:57.553+0000","NextPageInformation":"2"},"View":[{"_type":"SearchResultsViewType","ViewId":0,"Result":[{"Relevance":1.0,"Distance":0.0,"Direction":0.0,"MatchLevel":"district","MatchQuality":{"Country":1.0,"State":1.0,"County":1.0,"City":1.0,"District":1.0,"PostalCode":1.0},"Location":{"LocationId":"NT_9-W-PJRhbK2hDCxGTxebQD","LocationType":"point","DisplayPosition":{"Latitude":52.0557735,"Longitude":-2.7174066},"MapView":{"TopLeft":{"Latitude":52.0822,"Longitude":-2.7552},"BottomRight":{"Latitude":52.03375,"Longitude":-2.67004}},"Address":{"Label":"Hereford, England, United Kingdom","Country":"GBR","State":"England","County":"Herefordshire","City":"Hereford","District":"Hereford","PostalCode":"HR4 0","AdditionalData":[{"value":"United Kingdom","key":"CountryName"},{"value":"England","key":"StateName"},{"value":"Herefordshire","key":"CountyName"}]},"MapReference":{"ReferenceId":"565703420","SideOfStreet":"neither","StateId":"20248595","CountyId":"20343180","CityId":"20343181","DistrictId":"20343182"}}},{"Relevance":1.0,"Distance":6.1,"MatchLevel":"houseNumber","MatchQuality":{"Country":1.0,"State":1.0,"County":1.0,"City":1.0,"District":1.0,"Street":[1.0],"HouseNumber":1.0,"PostalCode":1.0},"MatchType":"interpolated","Location":{"LocationId":"NT_t2cmk-DAwgveX4kAlT-P6B_l_942367454_R_1A","LocationType":"point","DisplayPosition":{"Latitude":52.0557183,"Longitude":-2.7175241},"MapView":{"TopLeft":{"Latitude":52.0568424,"Longitude":-2.7193523},"BottomRight":{"Latitude":52.0545941,"Longitude":-2.7156959}},"Address":{"Label":"5 Broad Street, Hereford, HR4 9, United Kingdom","Country":"GBR","State":"England","County":"Herefordshire","City":"Hereford","District":"Hereford","Street":"Broad Street","HouseNumber":"5","PostalCode":"HR4 9","AdditionalData":[{"value":"United Kingdom","key":"CountryName"},{"value":"England","key":"StateName"},{"value":"Herefordshire","key":"CountyName"}]},"MapReference":{"ReferenceId":"942367454","Spot":0.79,"SideOfStreet":"right","StateId":"20248595","CountyId":"20343180","CityId":"20343181","DistrictId":"20343182"}}},{"Relevance":1.0,"Distance":21.8,"MatchLevel":"street","MatchQuality":{"Country":1.0,"State":1.0,"County":1.0,"City":1.0,"District":1.0,"Street":[1.0],"PostalCode":1.0},"Location":{"LocationId":"NT_APtNxQ03s4ozmW-7hhAmaB_l_26217549_L","LocationType":"point","DisplayPosition":{"Latitude":52.05597,"Longitude":-2.7174066},"MapView":{"TopLeft":{"Latitude":52.05597,"Longitude":-2.71759},"BottomRight":{"Latitude":52.05592,"Longitude":-2.71618}},"Address":{"Label":"East Street, Hereford, HR1 2, United Kingdom","Country":"GBR","State":"England","County":"Herefordshire","City":"Hereford","District":"Hereford","Street":"East Street","PostalCode":"HR1 2","AdditionalData":[{"value":"United Kingdom","key":"CountryName"},{"value":"England","key":"StateName"},{"value":"Herefordshire","key":"CountyName"}]},"MapReference":{"ReferenceId":"26217549","Spot":0.87,"SideOfStreet":"left","StateId":"20248595","CountyId":"20343180","CityId":"20343181","DistrictId":"20343182"}}},{"Relevance":1.0,"Distance":26.2,"MatchLevel":"postalCode","MatchQuality":{"PostalCode":1.0},"MatchType":"interpolated","Location":{"LocationId":"NT_t2cmk-DAwgveX4kAlT-P6B_l_942367454_R_1A","LocationType":"point","DisplayPosition":{"Latitude":52.05555,"Longitude":-2.71753},"MapView":{"TopLeft":{"Latitude":52.0645432,"Longitude":-2.7321556},"BottomRight":{"Latitude":52.0465568,"Longitude":-2.7029044}},"Address":{"Label":"HR4 9BG, Hereford, England, United Kingdom","Country":"GBR","State":"England","County":"Herefordshire","City":"Hereford","PostalCode":"HR4 9BG","AdditionalData":[{"value":"United Kingdom","key":"CountryName"},{"value":"England","key":"StateName"},{"value":"Herefordshire","key":"CountyName"}]},"MapReference":{"ReferenceId":"942367454","Spot":0.79,"SideOfStreet":"neither","StateId":"20248595","CountyId":"20343180","CityId":"20343181"}}},{"Relevance":1.0,"Distance":28.0,"MatchLevel":"houseNumber","MatchQuality":{"Country":1.0,"State":1.0,"County":1.0,"City":1.0,"District":1.0,"Street":[1.0],"HouseNumber":1.0,"PostalCode":1.0},"MatchType":"interpolated","Location":{"LocationId":"NT_HEt7Powt.AqCpk7yiwnueB_l_26217547_L_zA","LocationType":"point","DisplayPosition":{"Latitude":52.05597,"Longitude":-2.7178002},"MapView":{"TopLeft":{"Latitude":52.0570942,"Longitude":-2.7196284},"BottomRight":{"Latitude":52.0548459,"Longitude":-2.715972}},"Address":{"Label":"3 West Street, Hereford, HR4 0BX, United Kingdom","Country":"GBR","State":"England","County":"Herefordshire","City":"Hereford","District":"Hereford","Street":"West Street","HouseNumber":"3","PostalCode":"HR4 0BX","AdditionalData":[{"value":"United Kingdom","key":"CountryName"},{"value":"England","key":"StateName"},{"value":"Herefordshire","key":"CountyName"}]},"MapReference":{"ReferenceId":"26217547","Spot":0.25,"SideOfStreet":"left","StateId":"20248595","CountyId":"20343180","CityId":"20343181","DistrictId":"20343182"}}},{"Relevance":1.0,"Distance":29.2,"MatchLevel":"postalCode","MatchQuality":{"PostalCode":1.0},"MatchType":"interpolated","Location":{"LocationId":"NT_t2cmk-DAwgveX4kAlT-P6B_l_26217514_R_xA","LocationType":"point","DisplayPosition":{"Latitude":52.05602,"Longitude":-2.71726},"MapView":{"TopLeft":{"Latitude":52.0650132,"Longitude":-2.7318857},"BottomRight":{"Latitude":52.0470268,"Longitude":-2.7026343}},"Address":{"Label":"HR4 9BH, Hereford, England, United Kingdom","Country":"GBR","State":"England","County":"Herefordshire","City":"Hereford","PostalCode":"HR4 9BH","AdditionalData":[{"value":"United Kingdom","key":"CountryName"},{"value":"England","key":"StateName"},{"value":"Herefordshire","key":"CountyName"}]},"MapReference":{"ReferenceId":"26217514","Spot":0.52,"SideOfStreet":"neither","StateId":"20248595","CountyId":"20343180","CityId":"20343181"}}},{"Relevance":1.0,"Distance":36.1,"MatchLevel":"postalCode","MatchQuality":{"PostalCode":1.0},"MatchType":"interpolated","Location":{"LocationId":"NT_HEt7Powt.AqCpk7yiwnueB_l_26217547_L_zA","LocationType":"point","DisplayPosition":{"Latitude":52.05593,"Longitude":-2.71787},"MapView":{"TopLeft":{"Latitude":52.0649232,"Longitude":-2.7324957},"BottomRight":{"Latitude":52.0469368,"Longitude":-2.7032443}},"Address":{"Label":"HR4 0BY, Hereford, England, United Kingdom","Country":"GBR","State":"England","County":"Herefordshire","City":"Hereford","PostalCode":"HR4 0BY","AdditionalData":[{"value":"United Kingdom","key":"CountryName"},{"value":"England","key":"StateName"},{"value":"Herefordshire","key":"CountyName"}]},"MapReference":{"ReferenceId":"26217547","Spot":0.25,"SideOfStreet":"neither","StateId":"20248595","CountyId":"20343180","CityId":"20343181"}}},{"Relevance":1.0,"Distance":36.5,"MatchLevel":"houseNumber","MatchQuality":{"Country":1.0,"State":1.0,"County":1.0,"City":1.0,"District":1.0,"Street":[1.0],"HouseNumber":1.0,"PostalCode":1.0},"MatchType":"interpolated","Location":{"LocationId":"NT_t2cmk-DAwgveX4kAlT-P6B_l_26217546_R_zA","LocationType":"point","DisplayPosition":{"Latitude":52.0560921,"Longitude":-2.7175953},"MapView":{"TopLeft":{"Latitude":52.0572163,"Longitude":-2.7194235},"BottomRight":{"Latitude":52.054968,"Longitude":-2.7157671}},"Address":{"Label":"3 Broad Street, Hereford, HR4 9, United Kingdom","Country":"GBR","State":"England","County":"Herefordshire","City":"Hereford","District":"Hereford","Street":"Broad Street","HouseNumber":"3","PostalCode":"HR4 9","AdditionalData":[{"value":"United Kingdom","key":"CountryName"},{"value":"England","key":"StateName"},{"value":"Herefordshire","key":"CountyName"}]},"MapReference":{"ReferenceId":"26217546","Spot":0.53,"SideOfStreet":"right","StateId":"20248595","CountyId":"20343180","CityId":"20343181","DistrictId":"20343182"}}},{"Relevance":1.0,"Distance":47.3,"MatchLevel":"houseNumber","MatchQuality":{"Country":1.0,"State":1.0,"County":1.0,"City":1.0,"District":1.0,"Street":[1.0],"HouseNumber":1.0,"PostalCode":1.0},"MatchType":"interpolated","Location":{"LocationId":"NT_t2cmk-DAwgveX4kAlT-P6B_l_26217514_R_xA","LocationType":"point","DisplayPosition":{"Latitude":52.0562944,"Longitude":-2.7175972},"MapView":{"TopLeft":{"Latitude":52.0574186,"Longitude":-2.7194254},"BottomRight":{"Latitude":52.0551703,"Longitude":-2.715769}},"Address":{"Label":"1 Broad Street, Hereford, HR4 9BH, United Kingdom","Country":"GBR","State":"England","County":"Herefordshire","City":"Hereford","District":"Hereford","Street":"Broad Street","HouseNumber":"1","PostalCode":"HR4 9BH","AdditionalData":[{"value":"United Kingdom","key":"CountryName"},{"value":"England","key":"StateName"},{"value":"Herefordshire","key":"CountyName"}]},"MapReference":{"ReferenceId":"26217514","Spot":0.52,"SideOfStreet":"right","StateId":"20248595","CountyId":"20343180","CityId":"20343181","DistrictId":"20343182"}}},{"Relevance":1.0,"Distance":47.9,"MatchLevel":"postalCode","MatchQuality":{"PostalCode":1.0},"MatchType":"interpolated","Location":{"LocationId":"NT_t2cmk-DAwgveX4kAlT-P6B_l_26217546_R_zA","LocationType":"point","DisplayPosition":{"Latitude":52.05618,"Longitude":-2.71764},"MapView":{"TopLeft":{"Latitude":52.0651732,"Longitude":-2.7322658},"BottomRight":{"Latitude":52.0471868,"Longitude":-2.7030142}},"Address":{"Label":"HR4 9AB, Hereford, England, United Kingdom","Country":"GBR","State":"England","County":"Herefordshire","City":"Hereford","PostalCode":"HR4 9AB","AdditionalData":[{"value":"United Kingdom","key":"CountryName"},{"value":"England","key":"StateName"},{"value":"Herefordshire","key":"CountyName"}]},"MapReference":{"ReferenceId":"26217546","Spot":0.53,"SideOfStreet":"neither","StateId":"20248595","CountyId":"20343180","CityId":"20343181"}}}]}]}}