{"Response":{"MetaInfo":{"Timestamp":"2020-03-28T10:34:32.664+0000","NextPageInformation":"2"},"View":[{"_type":"SearchResultsViewType","ViewId":0,"Result":[{"Relevance":1.0,"Distance":0.0,"Direction":0.0,"MatchLevel":"district","MatchQuality":{"Country":1.0,"State":1.0,"County":1.0,"City":1.0,"District":1.0,"PostalCode":1.0},"Location":{"LocationId":"NT_3wWybXb5jPsTYouspzZAwC","LocationType":"point","DisplayPosition":{"Latitude":52.0472693,"Longitude":1.1844048},"MapView":{"TopLeft":{"Latitude":52.08932,"Longitude":1.09521},"BottomRight":{"Latitude":52.02405,"Longitude":1.24287}},"Address":{"Label":"Ipswich, England, United Kingdom","Country":"GBR","State":"England","County":"Suffolk","City":"Ipswich","District":"Ipswich","PostalCode":"IP1 2","AdditionalData":[{"value":"United Kingdom","key":"CountryName"},{"value":"England","key":"StateName"},{"value":"Suffolk","key":"CountyName"}]},"MapReference":{"ReferenceId":"877738224","SideOfStreet":"neither","StateId":"20248595","CountyId":"20338322","CityId":"20338335","DistrictId":"20338336"}}},{"Relevance":1.0,"Distance":35.6,"MatchLevel":"houseNumber","MatchQuality":{"Country":1.0,"State":1.0,"County":1.0,"City":1.0,"District":1.0,"Street":[1.0],"HouseNumber":1.0,"PostalCode":1.0},"MatchType":"interpolated","Location":{"LocationId":"NT_0EbqYwgRaWSmichqKJwPBC_l_26155805_R_yMzN","LocationType":"point","DisplayPosition":{"Latitude":52.0468541,"Longitude":1.1841139},"MapView":{"TopLeft":{"Latitude":52.0479782,"Longitude":1.1822861},"BottomRight":{"Latitude":52.0457299,"Longitude":1.1859418}},"Address":{"Label":"237 Felixstowe Road, Ipswich, IP3 9, United Kingdom","Country":"GBR","State":"England","County":"Suffolk","City":"Ipswich","District":"Ipswich","Street":"Felixstowe Road","HouseNumber":"237","PostalCode":"IP3 9","AdditionalData":[{"value":"United Kingdom","key":"CountryName"},{"value":"England","key":"StateName"},{"value":"Suffolk","key":"CountyName"}]},"MapReference":{"ReferenceId":"26155805","Spot":0.55,"SideOfStreet":"right","StateId":"20248595","CountyId":"20338322","CityId":"20338335","DistrictId":"20338336"}}},{"Relevance":1.0,"Distance":45.6,"MatchLevel":"postalCode","MatchQuality":{"PostalCode":1.0},"MatchType":"interpolated","Location":{"LocationId":"NT_0EbqYwgRaWSmichqKJwPBC_l_26155805_R_yMzN","LocationType":"point","DisplayPosition":{"Latitude":52.04697,"Longitude":1.18395},"MapView":{"TopLeft":{"Latitude":52.0559632,"Longitude":1.1693272},"BottomRight":{"Latitude":52.0379768,"Longitude":1.1985728}},"Address":{"Label":"IP3 9BN, Ipswich, England, United Kingdom","Country":"GBR","State":"England","County":"Suffolk","City":"Ipswich","PostalCode":"IP3 9BN","AdditionalData":[{"value":"United Kingdom","key":"CountryName"},{"value":"England","key":"StateName"},{"value":"Suffolk","key":"CountyName"}]},"MapReference":{"ReferenceId":"26155805","Spot":0.55,"SideOfStreet":"neither","StateId":"20248595","CountyId":"20338322","CityId":"20338335"}}},{"Relevance":1.0,"Distance":61.5,"MatchLevel":"street","MatchQuality":{"Country":1.0,"State":1.0,"County":1.0,"City":1.0,"District":1.0,"Street":[1.0],"PostalCode":1.0},"Location":{"LocationId":"NT_WRAmDYRN8r5efPAKqol9FC_l_1199769306_R","LocationType":"point","DisplayPosition":{"Latitude":52.0477337,"Longitude":1.183916},"MapView":{"TopLeft":{"Latitude":52.04778,"Longitude":1.18336},"BottomRight":{"Latitude":52.04758,"Longitude":1.18396}},"Address":{"Label":"Hines Road, Ipswich, IP3 9, United Kingdom","Country":"GBR","State":"England","County":"Suffolk","City":"Ipswich","District":"Ipswich","Street":"Hines Road","PostalCode":"IP3 9","AdditionalData":[{"value":"United Kingdom","key":"CountryName"},{"value":"England","key":"StateName"},{"value":"Suffolk","key":"CountyName"}]},"MapReference":{"ReferenceId":"1199769306","Spot":0.91,"SideOfStreet":"right","StateId":"20248595","CountyId":"20338322","CityId":"20338335","DistrictId":"20338336"}}},{"Relevance":1.0,"Distance":78.8,"MatchLevel":"houseNumber","MatchQuality":{"Country":1.0,"State":1.0,"County":1.0,"City":1.0,"District":1.0,"Street":[1.0],"HouseNumber":1.0,"PostalCode":1.0},"MatchType":"interpolated","Location":{"LocationId":"NT_93eMlsqTU8ddcBxtsRQ9zB_l_778609165_R_yETN","LocationType":"point","DisplayPosition":{"Latitude":52.04719,"Longitude":1.18321},"MapView":{"TopLeft":{"Latitude":52.0483142,"Longitude":1.1813821},"BottomRight":{"Latitude":52.0460659,"Longitude":1.1850378}},"Address":{"Label":"215 Felixstowe Road, Ipswich, IP3 9, United Kingdom","Country":"GBR","State":"England","County":"Suffolk","City":"Ipswich","District":"Ipswich","Street":"Felixstowe Road","HouseNumber":"215","PostalCode":"IP3 9","AdditionalData":[{"value":"United Kingdom","key":"CountryName"},{"value":"England","key":"StateName"},{"value":"Suffolk","key":"CountyName"}]},"MapReference":{"ReferenceId":"778609165","Spot":0.0,"SideOfStreet":"right","StateId":"20248595","CountyId":"20338322","CityId":"20338335","DistrictId":"20338336"}}},{"Relevance":1.0,"Distance":82.5,"MatchLevel":"postalCode","MatchQuality":{"PostalCode":1.0},"Location":{"LocationId":"NT_WRAmDYRN8r5efPAKqol9FC_l_1199769306_R","LocationType":"point","DisplayPosition":{"Latitude":52.04778,"Longitude":1.18353},"MapView":{"TopLeft":{"Latitude":52.0567732,"Longitude":1.168907},"BottomRight":{"Latitude":52.0387868,"Longitude":1.198153}},"Address":{"Label":"IP3 9BG, Ipswich, England, United Kingdom","Country":"GBR","State":"England","County":"Suffolk","City":"Ipswich","PostalCode":"IP3 9BG","AdditionalData":[{"value":"United Kingdom","key":"CountryName"},{"value":"England","key":"StateName"},{"value":"Suffolk","key":"CountyName"}]},"MapReference":{"ReferenceId":"1199769306","Spot":0.91,"SideOfStreet":"neither","StateId":"20248595","CountyId":"20338322","CityId":"20338335"}}},{"Relevance":1.0,"Distance":84.2,"MatchLevel":"street","MatchQuality":{"Country":1.0,"State":1.0,"County":1.0,"City":1.0,"District":1.0,"Street":[1.0],"PostalCode":1.0},"Location":{"LocationId":"NT_WRAmDYRN8r5efPAKqol9FC_l_1199769307_R","LocationType":"point","DisplayPosition":{"Latitude":52.04767,"Longitude":1.18336},"MapView":{"TopLeft":{"Latitude":52.04767,"Longitude":1.18298},"BottomRight":{"Latitude":52.04727,"Longitude":1.18336}},"Address":{"Label":"Hines Road, Ipswich, IP3 9, United Kingdom","Country":"GBR","State":"England","County":"Suffolk","City":"Ipswich","District":"Ipswich","Street":"Hines Road","PostalCode":"IP3 9","AdditionalData":[{"value":"United Kingdom","key":"CountryName"},{"value":"England","key":"StateName"},{"value":"Suffolk","key":"CountyName"}]},"MapReference":{"ReferenceId":"1199769307","Spot":1.0,"SideOfStreet":"right","StateId":"20248595","CountyId":"20338322","CityId":"20338335","DistrictId":"20338336"}}},{"Relevance":1.0,"Distance":94.3,"MatchLevel":"street","MatchQuality":{"Country":1.0,"State":1.0,"County":1.0,"City":1.0,"District":1.0,"Street":[1.0],"PostalCode":1.0},"Location":{"LocationId":"NT_WRAmDYRN8r5efPAKqol9FC_l_1199769308_R","LocationType":"point","DisplayPosition":{"Latitude":52.0479781,"Longitude":1.1836488},"MapView":{"TopLeft":{"Latitude":52.04866,"Longitude":1.18336},"BottomRight":{"Latitude":52.04767,"Longitude":1.18414}},"Address":{"Label":"Hines Road, Ipswich, IP3 9, United Kingdom","Country":"GBR","State":"England","County":"Suffolk","City":"Ipswich","District":"Ipswich","Street":"Hines Road","PostalCode":"IP3 9","AdditionalData":[{"value":"United Kingdom","key":"CountryName"},{"value":"England","key":"StateName"},{"value":"Suffolk","key":"CountyName"}]},"MapReference":{"ReferenceId":"1199769308","Spot":0.33,"SideOfStreet":"right","StateId":"20248595","CountyId":"20338322","CityId":"20338335","DistrictId":"20338336"}}},{"Relevance":1.0,"Distance":110.0,"MatchLevel":"houseNumber","MatchQuality":{"Country":1.0,"State":1.0,"County":1.0,"City":1.0,"District":1.0,"Street":[1.0],"HouseNumber":1.0,"PostalCode":1.0},"MatchType":"interpolated","Location":{"LocationId":"NT_0EbqYwgRaWSmichqKJwPBC_l_778609166_R_yATO","LocationType":"point","DisplayPosition":{"Latitude":52.0473301,"Longitude":1.1827798},"MapView":{"TopLeft":{"Latitude":52.0484542,"Longitude":1.180952},"BottomRight":{"Latitude":52.0462059,"Longitude":1.1846077}},"Address":{"Label":"209 Felixstowe Road, Ipswich, IP3 9, United Kingdom","Country":"GBR","State":"England","County":"Suffolk","City":"Ipswich","District":"Ipswich","Street":"Felixstowe Road","HouseNumber":"209","PostalCode":"IP3 9","AdditionalData":[{"value":"United Kingdom","key":"CountryName"},{"value":"England","key":"StateName"},{"value":"Suffolk","key":"CountyName"}]},"MapReference":{"ReferenceId":"778609166","Spot":0.14,"SideOfStreet":"right","StateId":"20248595","CountyId":"20338322","CityId":"20338335","DistrictId":"20338336"}}},{"Relevance":1.0,"Distance":111.8,"MatchLevel":"houseNumber","MatchQuality":{"Country":1.0,"State":1.0,"County":1.0,"City":1.0,"District":1.0,"Street":[1.0],"HouseNumber":1.0,"PostalCode":1.0},"MatchType":"interpolated","Location":{"LocationId":"NT_FQKlQYf1evWG3Osh3-j3OC_l_26156268_R_xA","LocationType":"point","DisplayPosition":{"Latitude":52.0465312,"Longitude":1.18316},"MapView":{"TopLeft":{"Latitude":52.0476554,"Longitude":1.1813322},"BottomRight":{"Latitude":52.0454071,"Longitude":1.1849878}},"Address":{"Label":"1 Murray Road, Ipswich, IP3 9AH, United Kingdom","Country":"GBR","State":"England","County":"Suffolk","City":"Ipswich","District":"Ipswich","Street":"Murray Road","HouseNumber":"1","PostalCode":"IP3 9AH","AdditionalData":[{"value":"United Kingdom","key":"CountryName"},{"value":"England","key":"StateName"},{"value":"Suffolk","key":"CountyName"}]},"MapReference":{"ReferenceId":"26156268","Spot":0.85,"SideOfStreet":"right","StateId":"20248595","CountyId":"20338322","CityId":"20338335","DistrictId":"20338336"}}}]}]}}