{"Response":{"MetaInfo":{"Timestamp":"2020-03-28T10:45:00.946+0000","NextPageInformation":"2"},"View":[{"_type":"SearchResultsViewType","ViewId":0,"Result":[{"Relevance":1.0,"Distance":0.0,"Direction":0.0,"MatchLevel":"city","MatchQuality":{"Country":1.0,"State":1.0,"County":1.0,"City":1.0,"PostalCode":1.0},"Location":{"LocationId":"NT_ubSjTGKGuYN4QKGXUTXScA","LocationType":"point","DisplayPosition":{"Latitude":52.0386807,"Longitude":4.4927151},"MapView":{"TopLeft":{"Latitude":52.08065,"Longitude":4.4558},"BottomRight":{"Latitude":52.0317,"Longitude":4.555}},"Address":{"Label":"Zoetermeer, Zuid-Holland, Nederland","Country":"NLD","State":"Zuid-Holland","County":"Zoetermeer","City":"Zoetermeer","PostalCode":"2711","AdditionalData":[{"value":"Nederland","key":"CountryName"},{"value":"Zuid-Holland","key":"StateName"},{"value":"Zoetermeer","key":"CountyName"}]},"MapReference":{"ReferenceId":"591794254","SideOfStreet":"neither","CountryId":"23055544","StateId":"23055596","CountyId":"23055526","CityId":"20202334"}}},{"Relevance":1.0,"Distance":12.0,"MatchLevel":"houseNumber","MatchQuality":{"Country":1.0,"State":1.0,"County":1.0,"City":1.0,"Street":[1.0],"HouseNumber":1.0,"PostalCode":1.0},"MatchType":"interpolated","Location":{"LocationId":"NT_p6pvaGxXCz7wavGBmbyqFA_xMzM","LocationType":"point","DisplayPosition":{"Latitude":52.03869,"Longitude":4.49289},"MapView":{"TopLeft":{"Latitude":52.0398142,"Longitude":4.4910625},"BottomRight":{"Latitude":52.0375658,"Longitude":4.4947175}},"Address":{"Label":"Groen-Blauwlaan 133, 2718 GH Zoetermeer, Nederland","Country":"NLD","State":"Zuid-Holland","County":"Zoetermeer","City":"Zoetermeer","Street":"Groen-Blauwlaan","HouseNumber":"133","PostalCode":"2718 GH","AdditionalData":[{"value":"Nederland","key":"CountryName"},{"value":"Zuid-Holland","key":"StateName"},{"value":"Zoetermeer","key":"CountyName"}]},"MapReference":{"ReferenceId":"591793722","Spot":0.79,"SideOfStreet":"right","CountryId":"23055544","StateId":"23055596","CountyId":"23055526","CityId":"20202334","AddressId":"614982683","RoadLinkId":"32140916"}}},{"Relevance":1.0,"Distance":13.4,"MatchLevel":"street","MatchQuality":{"Country":1.0,"State":1.0,"County":1.0,"City":1.0,"Street":[1.0],"PostalCode":1.0},"Location":{"LocationId":"NT_bDBNswBAT94OvTbCzyZLaC_l_1196121188_R","LocationType":"point","DisplayPosition":{"Latitude":52.0388009,"Longitude":4.4927007},"MapView":{"TopLeft":{"Latitude":52.03952,"Longitude":4.4917},"BottomRight":{"Latitude":52.03878,"Longitude":4.49377}},"Address":{"Label":"Hooliganspad, 2718 Zoetermeer, Nederland","Country":"NLD","State":"Zuid-Holland","County":"Zoetermeer","City":"Zoetermeer","Street":"Hooliganspad","PostalCode":"2718","AdditionalData":[{"value":"Nederland","key":"CountryName"},{"value":"Zuid-Holland","key":"StateName"},{"value":"Zoetermeer","key":"CountyName"}]},"MapReference":{"ReferenceId":"1196121188","Spot":0.45,"SideOfStreet":"right","CountryId":"23055544","StateId":"23055596","CountyId":"23055526","CityId":"20202334"}}},{"Relevance":1.0,"Distance":42.4,"MatchLevel":"houseNumber","MatchQuality":{"Country":1.0,"State":1.0,"County":1.0,"City":1.0,"Street":[1.0],"HouseNumber":1.0,"PostalCode":1.0},"MatchType":"interpolated","Location":{"LocationId":"NT_p6pvaGxXCz7wavGBmbyqFA_xQTN","LocationType":"point","DisplayPosition":{"Latitude":52.03829,"Longitude":4.4932},"MapView":{"TopLeft":{"Latitude":52.0394142,"Longitude":4.4913725},"BottomRight":{"Latitude":52.0371658,"Longitude":4.4950275}},"Address":{"Label":"Groen-Blauwlaan 145, 2718 GH Zoetermeer, Nederland","Country":"NLD","State":"Zuid-Holland","County":"Zoetermeer","City":"Zoetermeer","Street":"Groen-Blauwlaan","HouseNumber":"145","PostalCode":"2718 GH","AdditionalData":[{"value":"Nederland","key":"CountryName"},{"value":"Zuid-Holland","key":"StateName"},{"value":"Zoetermeer","key":"CountyName"}]},"MapReference":{"ReferenceId":"54305067","Spot":0.83,"SideOfStreet":"left","CountryId":"23055544","StateId":"23055596","CountyId":"23055526","CityId":"20202334","AddressId":"614029455","RoadLinkId":"31999196"}}},{"Relevance":1.0,"Distance":44.1,"MatchLevel":"houseNumber","MatchQuality":{"Country":1.0,"State":1.0,"County":1.0,"City":1.0,"Street":[1.0],"HouseNumber":1.0,"PostalCode":1.0},"MatchType":"interpolated","Location":{"LocationId":"NT_p6pvaGxXCz7wavGBmbyqFA_xITOJB","LocationType":"point","DisplayPosition":{"Latitude":52.03857,"Longitude":4.49357},"MapView":{"TopLeft":{"Latitude":52.0396942,"Longitude":4.4917425},"BottomRight":{"Latitude":52.0374458,"Longitude":4.4953975}},"Address":{"Label":"Groen-Blauwlaan 129I, 2718 GH Zoetermeer, Nederland","Country":"NLD","State":"Zuid-Holland","County":"Zoetermeer","City":"Zoetermeer","Street":"Groen-Blauwlaan","HouseNumber":"129I","PostalCode":"2718 GH","AdditionalData":[{"value":"Nederland","key":"CountryName"},{"value":"Zuid-Holland","key":"StateName"},{"value":"Zoetermeer","key":"CountyName"}]},"MapReference":{"ReferenceId":"591793720","Spot":0.14,"SideOfStreet":"left","CountryId":"23055544","StateId":"23055596","CountyId":"23055526","CityId":"20202334","AddressId":"797597100","RoadLinkId":"31308713"}}},{"Relevance":1.0,"Distance":49.9,"MatchLevel":"houseNumber","MatchQuality":{"Country":1.0,"State":1.0,"County":1.0,"City":1.0,"Street":[1.0],"HouseNumber":1.0,"PostalCode":1.0},"MatchType":"interpolated","Location":{"LocationId":"NT_mRNWtxuKDvSJRJLlIYSETB_xMzM","LocationType":"point","DisplayPosition":{"Latitude":52.03909,"Longitude":4.49208},"MapView":{"TopLeft":{"Latitude":52.0402142,"Longitude":4.4902525},"BottomRight":{"Latitude":52.0379658,"Longitude":4.4939075}},"Address":{"Label":"Granietgroen 133, 2718 GG Zoetermeer, Nederland","Country":"NLD","State":"Zuid-Holland","County":"Zoetermeer","City":"Zoetermeer","Street":"Granietgroen","HouseNumber":"133","PostalCode":"2718 GG","AdditionalData":[{"value":"Nederland","key":"CountryName"},{"value":"Zuid-Holland","key":"StateName"},{"value":"Zoetermeer","key":"CountyName"}]},"MapReference":{"ReferenceId":"1117766351","Spot":0.0,"SideOfStreet":"left","CountryId":"23055544","StateId":"23055596","CountyId":"23055526","CityId":"20202334","AddressId":"614978340","RoadLinkId":"428093083"}}},{"Relevance":1.0,"Distance":53.3,"MatchLevel":"houseNumber","MatchQuality":{"Country":1.0,"State":1.0,"County":1.0,"City":1.0,"Street":[1.0],"HouseNumber":1.0,"PostalCode":1.0},"MatchType":"interpolated","Location":{"LocationId":"NT_qmughRRudRz2BYJfwWW0lA_xUjM","LocationType":"point","DisplayPosition":{"Latitude":52.03843,"Longitude":4.49338},"MapView":{"TopLeft":{"Latitude":52.0395542,"Longitude":4.4915525},"BottomRight":{"Latitude":52.0373058,"Longitude":4.4952075}},"Address":{"Label":"Groen-Blauwlaan 152, 2718 JV Zoetermeer, Nederland","Country":"NLD","State":"Zuid-Holland","County":"Zoetermeer","City":"Zoetermeer","Street":"Groen-Blauwlaan","HouseNumber":"152","PostalCode":"2718 JV","AdditionalData":[{"value":"Nederland","key":"CountryName"},{"value":"Zuid-Holland","key":"StateName"},{"value":"Zoetermeer","key":"CountyName"}]},"MapReference":{"ReferenceId":"591793721","Spot":0.92,"SideOfStreet":"right","CountryId":"23055544","StateId":"23055596","CountyId":"23055526","CityId":"20202334","AddressId":"614982682","RoadLinkId":"31202011"}}},{"Relevance":1.0,"Distance":56.1,"MatchLevel":"houseNumber","MatchQuality":{"Country":1.0,"State":1.0,"County":1.0,"City":1.0,"Street":[1.0],"HouseNumber":1.0,"PostalCode":1.0},"MatchType":"interpolated","Location":{"LocationId":"NT_BKtcBYU8DSvCV.eP9T.l9D_5MD","LocationType":"point","DisplayPosition":{"Latitude":52.03821,"Longitude":4.49242},"MapView":{"TopLeft":{"Latitude":52.0393342,"Longitude":4.4905925},"BottomRight":{"Latitude":52.0370858,"Longitude":4.4942475}},"Address":{"Label":"Regenboogsingel 93, 2718 GV Zoetermeer, Nederland","Country":"NLD","State":"Zuid-Holland","County":"Zoetermeer","City":"Zoetermeer","Street":"Regenboogsingel","HouseNumber":"93","PostalCode":"2718 GV","AdditionalData":[{"value":"Nederland","key":"CountryName"},{"value":"Zuid-Holland","key":"StateName"},{"value":"Zoetermeer","key":"CountyName"}]},"MapReference":{"ReferenceId":"591793719","Spot":0.17,"SideOfStreet":"left","CountryId":"23055544","StateId":"23055596","CountyId":"23055526","CityId":"20202334","AddressId":"614982628","RoadLinkId":"32367786"}}},{"Relevance":1.0,"Distance":61.5,"MatchLevel":"street","MatchQuality":{"Country":1.0,"State":1.0,"County":1.0,"City":1.0,"PostalCode":1.0},"Location":{"LocationId":"NT_dHvlV0hgFiVG2-gUsGxCFC_l_54305068_L","LocationType":"point","DisplayPosition":{"Latitude":52.03813,"Longitude":4.4928},"MapView":{"TopLeft":{"Latitude":52.03813,"Longitude":4.49266},"BottomRight":{"Latitude":52.03809,"Longitude":4.49295}},"Address":{"Label":"2718 Zoetermeer, Nederland","Country":"NLD","State":"Zuid-Holland","County":"Zoetermeer","City":"Zoetermeer","PostalCode":"2718","AdditionalData":[{"value":"Nederland","key":"CountryName"},{"value":"Zuid-Holland","key":"StateName"},{"value":"Zoetermeer","key":"CountyName"}]},"MapReference":{"ReferenceId":"54305068","Spot":0.49,"SideOfStreet":"left","CountryId":"23055544","StateId":"23055596","CountyId":"23055526","CityId":"20202334"}}},{"Relevance":1.0,"Distance":65.8,"MatchLevel":"street","MatchQuality":{"Country":1.0,"State":1.0,"County":1.0,"City":1.0,"PostalCode":1.0},"Location":{"LocationId":"NT_dHvlV0hgFiVG2-gUsGxCFC_l_54305073_L","LocationType":"point","DisplayPosition":{"Latitude":52.03809,"Longitude":4.49266},"MapView":{"TopLeft":{"Latitude":52.03809,"Longitude":4.49261},"BottomRight":{"Latitude":52.03789,"Longitude":4.49268}},"Address":{"Label":"2718 Zoetermeer, Nederland","Country":"NLD","State":"Zuid-Holland","County":"Zoetermeer","City":"Zoetermeer","PostalCode":"2718","AdditionalData":[{"value":"Nederland","key":"CountryName"},{"value":"Zuid-Holland","key":"StateName"},{"value":"Zoetermeer","key":"CountyName"}]},"MapReference":{"ReferenceId":"54305073","Spot":1.0,"SideOfStreet":"left","CountryId":"23055544","StateId":"23055596","CountyId":"23055526","CityId":"20202334"}}}]}]}}