{"Response":{"MetaInfo":{"Timestamp":"2020-03-28T09:58:16.164+0000","NextPageInformation":"2"},"View":[{"_type":"SearchResultsViewType","ViewId":0,"Result":[{"Relevance":1.0,"Distance":0.0,"Direction":0.0,"MatchLevel":"district","MatchQuality":{"Country":1.0,"State":1.0,"County":1.0,"City":1.0,"District":1.0,"PostalCode":1.0},"Location":{"LocationId":"NT_cN88RzLoNlkrWk.wksVlxC","LocationType":"point","DisplayPosition":{"Latitude":52.0164568,"Longitude":18.5088158},"MapView":{"TopLeft":{"Latitude":52.0393,"Longitude":18.46456},"BottomRight":{"Latitude":51.99771,"Longitude":18.55712}},"Address":{"Label":"Turek, Woj. Wielkopolskie, Polska","Country":"POL","State":"Woj. Wielkopolskie","County":"Powiat Turecki","City":"Turek","District":"Turek","PostalCode":"62-700","AdditionalData":[{"value":"Polska","key":"CountryName"},{"value":"Woj. Wielkopolskie","key":"StateName"},{"value":"Powiat Turecki","key":"CountyName"}]},"MapReference":{"ReferenceId":"595334523","SideOfStreet":"neither","CountryId":"20624059","StateId":"20629915","CountyId":"20631820","CityId":"20697612","DistrictId":"20697613"}}},{"Relevance":1.0,"Distance":7.1,"MatchLevel":"houseNumber","MatchQuality":{"Country":1.0,"State":1.0,"County":1.0,"City":1.0,"District":1.0,"Street":[1.0],"HouseNumber":1.0,"PostalCode":1.0},"MatchType":"interpolated","Location":{"LocationId":"NT_LBdNrrTpELnKO5wGndKSTA_xED","LocationType":"point","DisplayPosition":{"Latitude":52.01613,"Longitude":18.50894},"MapView":{"TopLeft":{"Latitude":52.0172542,"Longitude":18.5071134},"BottomRight":{"Latitude":52.0150058,"Longitude":18.5107666}},"Address":{"Label":"ulica Franciszka Stawickiego 11, 62-700 Turek, Polska","Country":"POL","State":"Woj. Wielkopolskie","County":"Powiat Turecki","City":"Turek","District":"Turek","Street":"ulica Franciszka Stawickiego","HouseNumber":"11","PostalCode":"62-700","AdditionalData":[{"value":"Polska","key":"CountryName"},{"value":"Woj. Wielkopolskie","key":"StateName"},{"value":"Powiat Turecki","key":"CountyName"}]},"MapReference":{"ReferenceId":"778765833","Spot":0.7,"SideOfStreet":"left","CountryId":"20624059","StateId":"20629915","CountyId":"20631820","CityId":"20697612","DistrictId":"20697613","AddressId":"702053385","RoadLinkId":"172244211"}}},{"Relevance":1.0,"Distance":17.7,"MatchLevel":"houseNumber","MatchQuality":{"Country":1.0,"State":1.0,"County":1.0,"City":1.0,"District":1.0,"Street":[1.0],"HouseNumber":1.0,"PostalCode":1.0},"MatchType":"interpolated","Location":{"LocationId":"NT_LBdNrrTpELnKO5wGndKSTA_5A","LocationType":"point","DisplayPosition":{"Latitude":52.0169,"Longitude":18.50858},"MapView":{"TopLeft":{"Latitude":52.0180242,"Longitude":18.5067534},"BottomRight":{"Latitude":52.0157758,"Longitude":18.5104066}},"Address":{"Label":"ulica Franciszka Stawickiego 9, 62-700 Turek, Polska","Country":"POL","State":"Woj. Wielkopolskie","County":"Powiat Turecki","City":"Turek","District":"Turek","Street":"ulica Franciszka Stawickiego","HouseNumber":"9","PostalCode":"62-700","AdditionalData":[{"value":"Polska","key":"CountryName"},{"value":"Woj. Wielkopolskie","key":"StateName"},{"value":"Powiat Turecki","key":"CountyName"}]},"MapReference":{"ReferenceId":"595334407","Spot":0.37,"SideOfStreet":"right","CountryId":"20624059","StateId":"20629915","CountyId":"20631820","CityId":"20697612","DistrictId":"20697613","AddressId":"702042393","RoadLinkId":"95321675"}}},{"Relevance":1.0,"Distance":43.7,"MatchLevel":"houseNumber","MatchQuality":{"Country":1.0,"State":1.0,"County":1.0,"City":1.0,"District":1.0,"Street":[1.0],"HouseNumber":1.0,"PostalCode":1.0},"MatchType":"interpolated","Location":{"LocationId":"NT_8aAiTSYNDbbKG1yAnaWzED_xgTR","LocationType":"point","DisplayPosition":{"Latitude":52.0164,"Longitude":18.51003},"MapView":{"TopLeft":{"Latitude":52.0175242,"Longitude":18.5082034},"BottomRight":{"Latitude":52.0152758,"Longitude":18.5118566}},"Address":{"Label":"ulica Armii Krajowej 18E, 62-700 Turek, Polska","Country":"POL","State":"Woj. Wielkopolskie","County":"Powiat Turecki","City":"Turek","District":"Turek","Street":"ulica Armii Krajowej","HouseNumber":"18E","PostalCode":"62-700","AdditionalData":[{"value":"Polska","key":"CountryName"},{"value":"Woj. Wielkopolskie","key":"StateName"},{"value":"Powiat Turecki","key":"CountyName"}]},"MapReference":{"ReferenceId":"999506790","Spot":0.21,"SideOfStreet":"left","CountryId":"20624059","StateId":"20629915","CountyId":"20631820","CityId":"20697612","DistrictId":"20697613","AddressId":"772922413","RoadLinkId":"325754228"}}},{"Relevance":1.0,"Distance":53.3,"MatchLevel":"houseNumber","MatchQuality":{"Country":1.0,"State":1.0,"County":1.0,"City":1.0,"District":1.0,"Street":[1.0],"HouseNumber":1.0,"PostalCode":1.0},"MatchType":"interpolated","Location":{"LocationId":"NT_5aZuTKzxnJfFFRfoK9e-FA_1ME","LocationType":"point","DisplayPosition":{"Latitude":52.01556,"Longitude":18.5087},"MapView":{"TopLeft":{"Latitude":52.0166842,"Longitude":18.5068734},"BottomRight":{"Latitude":52.0144358,"Longitude":18.5105266}},"Address":{"Label":"ulica 650-lecia 5C, 62-700 Turek, Polska","Country":"POL","State":"Woj. Wielkopolskie","County":"Powiat Turecki","City":"Turek","District":"Turek","Street":"ulica 650-lecia","HouseNumber":"5C","PostalCode":"62-700","AdditionalData":[{"value":"Polska","key":"CountryName"},{"value":"Woj. Wielkopolskie","key":"StateName"},{"value":"Powiat Turecki","key":"CountyName"}]},"MapReference":{"ReferenceId":"778765835","Spot":0.48,"SideOfStreet":"left","CountryId":"20624059","StateId":"20629915","CountyId":"20631820","CityId":"20697612","DistrictId":"20697613","AddressId":"731701932","RoadLinkId":"172244213"}}},{"Relevance":1.0,"Distance":71.4,"MatchLevel":"houseNumber","MatchQuality":{"Country":1.0,"State":1.0,"County":1.0,"City":1.0,"District":1.0,"Street":[1.0],"HouseNumber":1.0,"PostalCode":1.0},"MatchType":"interpolated","Location":{"LocationId":"NT_WCM47i8vn2Uj-x8qpojSOC_xATQ","LocationType":"point","DisplayPosition":{"Latitude":52.01745,"Longitude":18.50794},"MapView":{"TopLeft":{"Latitude":52.0185742,"Longitude":18.5061134},"BottomRight":{"Latitude":52.0163258,"Longitude":18.5097666}},"Address":{"Label":"ulica Kolska Szosa 10A, 62-700 Turek, Polska","Country":"POL","State":"Woj. Wielkopolskie","County":"Powiat Turecki","City":"Turek","District":"Turek","Street":"ulica Kolska Szosa","HouseNumber":"10A","PostalCode":"62-700","AdditionalData":[{"value":"Polska","key":"CountryName"},{"value":"Woj. Wielkopolskie","key":"StateName"},{"value":"Powiat Turecki","key":"CountyName"}]},"MapReference":{"ReferenceId":"1101587450","Spot":0.79,"SideOfStreet":"right","CountryId":"20624059","StateId":"20629915","CountyId":"20631820","CityId":"20697612","DistrictId":"20697613","AddressId":"731751598","RoadLinkId":"413824859"}}},{"Relevance":1.0,"Distance":74.9,"MatchLevel":"houseNumber","MatchQuality":{"Country":1.0,"State":1.0,"County":1.0,"City":1.0,"District":1.0,"Street":[1.0],"HouseNumber":1.0,"PostalCode":1.0},"MatchType":"interpolated","Location":{"LocationId":"NT_WCM47i8vn2Uj-x8qpojSOC_xITQ","LocationType":"point","DisplayPosition":{"Latitude":52.01761,"Longitude":18.50833},"MapView":{"TopLeft":{"Latitude":52.0187342,"Longitude":18.5065034},"BottomRight":{"Latitude":52.0164858,"Longitude":18.5101566}},"Address":{"Label":"ulica Kolska Szosa 12A, 62-700 Turek, Polska","Country":"POL","State":"Woj. Wielkopolskie","County":"Powiat Turecki","City":"Turek","District":"Turek","Street":"ulica Kolska Szosa","HouseNumber":"12A","PostalCode":"62-700","AdditionalData":[{"value":"Polska","key":"CountryName"},{"value":"Woj. Wielkopolskie","key":"StateName"},{"value":"Powiat Turecki","key":"CountyName"}]},"MapReference":{"ReferenceId":"1101842589","Spot":0.18,"SideOfStreet":"right","CountryId":"20624059","StateId":"20629915","CountyId":"20631820","CityId":"20697612","DistrictId":"20697613","AddressId":"732071170","RoadLinkId":"414084424"}}},{"Relevance":1.0,"Distance":92.5,"MatchLevel":"street","MatchQuality":{"Country":1.0,"State":1.0,"County":1.0,"City":1.0,"District":1.0,"Street":[1.0],"PostalCode":1.0},"Location":{"LocationId":"NT_8aAiTSYNDbbKG1yAnaWzED_l_595334462_L","LocationType":"point","DisplayPosition":{"Latitude":52.01618,"Longitude":18.51009},"MapView":{"TopLeft":{"Latitude":52.01618,"Longitude":18.51009},"BottomRight":{"Latitude":52.01603,"Longitude":18.51013}},"Address":{"Label":"ulica Armii Krajowej, 62-700 Turek, Polska","Country":"POL","State":"Woj. Wielkopolskie","County":"Powiat Turecki","City":"Turek","District":"Turek","Street":"ulica Armii Krajowej","PostalCode":"62-700","AdditionalData":[{"value":"Polska","key":"CountryName"},{"value":"Woj. Wielkopolskie","key":"StateName"},{"value":"Powiat Turecki","key":"CountyName"}]},"MapReference":{"ReferenceId":"595334462","Spot":1.0,"SideOfStreet":"left","CountryId":"20624059","StateId":"20629915","CountyId":"20631820","CityId":"20697612","DistrictId":"20697613"}}},{"Relevance":1.0,"Distance":97.6,"MatchLevel":"houseNumber","MatchQuality":{"Country":1.0,"State":1.0,"County":1.0,"City":1.0,"District":1.0,"Street":[1.0],"HouseNumber":1.0,"PostalCode":1.0},"MatchType":"interpolated","Location":{"LocationId":"NT_8aAiTSYNDbbKG1yAnaWzED_yAD","LocationType":"point","DisplayPosition":{"Latitude":52.0159,"Longitude":18.51016},"MapView":{"TopLeft":{"Latitude":52.0170242,"Longitude":18.5083334},"BottomRight":{"Latitude":52.0147758,"Longitude":18.5119866}},"Address":{"Label":"ulica Armii Krajowej 20, 62-700 Turek, Polska","Country":"POL","State":"Woj. Wielkopolskie","County":"Powiat Turecki","City":"Turek","District":"Turek","Street":"ulica Armii Krajowej","HouseNumber":"20","PostalCode":"62-700","AdditionalData":[{"value":"Polska","key":"CountryName"},{"value":"Woj. Wielkopolskie","key":"StateName"},{"value":"Powiat Turecki","key":"CountyName"}]},"MapReference":{"ReferenceId":"595334529","Spot":0.67,"SideOfStreet":"left","CountryId":"20624059","StateId":"20629915","CountyId":"20631820","CityId":"20697612","DistrictId":"20697613","AddressId":"702042438","RoadLinkId":"95304922"}}},{"Relevance":1.0,"Distance":102.7,"MatchLevel":"houseNumber","MatchQuality":{"Country":1.0,"State":1.0,"County":1.0,"City":1.0,"District":1.0,"Street":[1.0],"HouseNumber":1.0,"PostalCode":1.0},"MatchType":"interpolated","Location":{"LocationId":"NT_WCM47i8vn2Uj-x8qpojSOC_xQTQ","LocationType":"point","DisplayPosition":{"Latitude":52.01781,"Longitude":18.50882},"MapView":{"TopLeft":{"Latitude":52.0189342,"Longitude":18.5069933},"BottomRight":{"Latitude":52.0166858,"Longitude":18.5106467}},"Address":{"Label":"ulica Kolska Szosa 14A, 62-700 Turek, Polska","Country":"POL","State":"Woj. Wielkopolskie","County":"Powiat Turecki","City":"Turek","District":"Turek","Street":"ulica Kolska Szosa","HouseNumber":"14A","PostalCode":"62-700","AdditionalData":[{"value":"Polska","key":"CountryName"},{"value":"Woj. Wielkopolskie","key":"StateName"},{"value":"Powiat Turecki","key":"CountyName"}]},"MapReference":{"ReferenceId":"1101842590","Spot":0.21,"SideOfStreet":"right","CountryId":"20624059","StateId":"20629915","CountyId":"20631820","CityId":"20697612","DistrictId":"20697613","AddressId":"731835653","RoadLinkId":"414084425"}}}]}]}}