{"Response":{"MetaInfo":{"Timestamp":"2020-03-28T10:23:50.489+0000","NextPageInformation":"2"},"View":[{"_type":"SearchResultsViewType","ViewId":0,"Result":[{"Relevance":1.0,"Distance":0.0,"Direction":0.0,"MatchLevel":"district","MatchQuality":{"Country":1.0,"State":1.0,"County":1.0,"City":1.0,"District":1.0,"PostalCode":1.0},"Location":{"LocationId":"NT_J7C0ZfIB1z0Femv19j453D","LocationType":"point","DisplayPosition":{"Latitude":52.0555706,"Longitude":9.9011279},"MapView":{"TopLeft":{"Latitude":52.05976,"Longitude":9.8931},"BottomRight":{"Latitude":52.05025,"Longitude":9.91037}},"Address":{"Label":"Sibbesse, Niedersachsen, Deutschland","Country":"DEU","State":"Niedersachsen","County":"Hildesheim","City":"Sibbesse","District":"Sibbesse","PostalCode":"31079","AdditionalData":[{"value":"Deutschland","key":"CountryName"},{"value":"Niedersachsen","key":"StateName"},{"value":"Hildesheim","key":"CountyName"}]},"MapReference":{"ReferenceId":"1223325265","SideOfStreet":"neither","CountryId":"20147700","StateId":"20151542","CountyId":"20153268","CityId":"20153460","DistrictId":"20153463"}}},{"Relevance":1.0,"Distance":40.6,"MatchLevel":"houseNumber","MatchQuality":{"Country":1.0,"State":1.0,"County":1.0,"City":1.0,"District":1.0,"Street":[1.0],"HouseNumber":1.0,"PostalCode":1.0},"MatchType":"interpolated","Location":{"LocationId":"NT_0t8tzMQ.IFTEBYH1HtVNTC_yA","LocationType":"point","DisplayPosition":{"Latitude":52.05543,"Longitude":9.90058},"MapView":{"TopLeft":{"Latitude":52.0565542,"Longitude":9.8987518},"BottomRight":{"Latitude":52.0543058,"Longitude":9.9024082}},"Address":{"Label":"Schulstraße 2, 31079 Sibbesse, Deutschland","Country":"DEU","State":"Niedersachsen","County":"Hildesheim","City":"Sibbesse","District":"Sibbesse","Street":"Schulstraße","HouseNumber":"2","PostalCode":"31079","AdditionalData":[{"value":"Deutschland","key":"CountryName"},{"value":"Niedersachsen","key":"StateName"},{"value":"Hildesheim","key":"CountyName"}]},"MapReference":{"ReferenceId":"83570472","Spot":0.77,"SideOfStreet":"left","CountryId":"20147700","StateId":"20151542","CountyId":"20153268","CityId":"20153460","DistrictId":"20153463","AddressId":"181271927","RoadLinkId":"36838347"}}},{"Relevance":1.0,"Distance":70.6,"MatchLevel":"houseNumber","MatchQuality":{"Country":1.0,"State":1.0,"County":1.0,"City":1.0,"District":1.0,"Street":[1.0],"HouseNumber":1.0,"PostalCode":1.0},"MatchType":"interpolated","Location":{"LocationId":"NT_0t8tzMQ.IFTEBYH1HtVNTC_1A","LocationType":"point","DisplayPosition":{"Latitude":52.05507,"Longitude":9.90197},"MapView":{"TopLeft":{"Latitude":52.0561942,"Longitude":9.9001418},"BottomRight":{"Latitude":52.0539458,"Longitude":9.9037982}},"Address":{"Label":"Schulstraße 5, 31079 Sibbesse, Deutschland","Country":"DEU","State":"Niedersachsen","County":"Hildesheim","City":"Sibbesse","District":"Sibbesse","Street":"Schulstraße","HouseNumber":"5","PostalCode":"31079","AdditionalData":[{"value":"Deutschland","key":"CountryName"},{"value":"Niedersachsen","key":"StateName"},{"value":"Hildesheim","key":"CountyName"}]},"MapReference":{"ReferenceId":"68009178","Spot":0.96,"SideOfStreet":"right","CountryId":"20147700","StateId":"20151542","CountyId":"20153268","CityId":"20153460","DistrictId":"20153463","AddressId":"181702530","RoadLinkId":"36581692"}}},{"Relevance":1.0,"Distance":80.7,"MatchLevel":"houseNumber","MatchQuality":{"Country":1.0,"State":1.0,"County":1.0,"City":1.0,"District":1.0,"Street":[1.0],"HouseNumber":1.0,"PostalCode":1.0},"MatchType":"interpolated","Location":{"LocationId":"NT_0t8tzMQ.IFTEBYH1HtVNTC_xA","LocationType":"point","DisplayPosition":{"Latitude":52.05566,"Longitude":9.89993},"MapView":{"TopLeft":{"Latitude":52.0567842,"Longitude":9.8981018},"BottomRight":{"Latitude":52.0545358,"Longitude":9.9017582}},"Address":{"Label":"Schulstraße 1, 31079 Sibbesse, Deutschland","Country":"DEU","State":"Niedersachsen","County":"Hildesheim","City":"Sibbesse","District":"Sibbesse","Street":"Schulstraße","HouseNumber":"1","PostalCode":"31079","AdditionalData":[{"value":"Deutschland","key":"CountryName"},{"value":"Niedersachsen","key":"StateName"},{"value":"Hildesheim","key":"CountyName"}]},"MapReference":{"ReferenceId":"83570473","Spot":0.41,"SideOfStreet":"right","CountryId":"20147700","StateId":"20151542","CountyId":"20153268","CityId":"20153460","DistrictId":"20153463","AddressId":"181456694","RoadLinkId":"36374377"}}},{"Relevance":1.0,"Distance":81.3,"MatchLevel":"houseNumber","MatchQuality":{"Country":1.0,"State":1.0,"County":1.0,"City":1.0,"District":1.0,"Street":[1.0],"HouseNumber":1.0,"PostalCode":1.0},"MatchType":"interpolated","Location":{"LocationId":"NT_zkZBYZdCkdYu6gJ.Wk2MnA_xYD","LocationType":"point","DisplayPosition":{"Latitude":52.05536,"Longitude":9.90283},"MapView":{"TopLeft":{"Latitude":52.0564842,"Longitude":9.9010018},"BottomRight":{"Latitude":52.0542358,"Longitude":9.9046582}},"Address":{"Label":"Hauptstraße 16, 31079 Sibbesse, Deutschland","Country":"DEU","State":"Niedersachsen","County":"Hildesheim","City":"Sibbesse","District":"Sibbesse","Street":"Hauptstraße","HouseNumber":"16","PostalCode":"31079","AdditionalData":[{"value":"Deutschland","key":"CountryName"},{"value":"Niedersachsen","key":"StateName"},{"value":"Hildesheim","key":"CountyName"}]},"MapReference":{"ReferenceId":"779354039","Spot":0.17,"SideOfStreet":"left","CountryId":"20147700","StateId":"20151542","CountyId":"20153268","CityId":"20153460","DistrictId":"20153463","AddressId":"181109673","RoadLinkId":"172836100"}}},{"Relevance":1.0,"Distance":82.8,"MatchLevel":"houseNumber","MatchQuality":{"Country":1.0,"State":1.0,"County":1.0,"City":1.0,"District":1.0,"Street":[1.0],"HouseNumber":1.0,"PostalCode":1.0},"MatchType":"interpolated","Location":{"LocationId":"NT_ufSeQGoku3PBDQz08DoyGD_3A","LocationType":"point","DisplayPosition":{"Latitude":52.05598,"Longitude":9.89995},"MapView":{"TopLeft":{"Latitude":52.0571042,"Longitude":9.8981218},"BottomRight":{"Latitude":52.0548558,"Longitude":9.9017782}},"Address":{"Label":"Kurze Halbe 7, 31079 Sibbesse, Deutschland","Country":"DEU","State":"Niedersachsen","County":"Hildesheim","City":"Sibbesse","District":"Sibbesse","Street":"Kurze Halbe","HouseNumber":"7","PostalCode":"31079","AdditionalData":[{"value":"Deutschland","key":"CountryName"},{"value":"Niedersachsen","key":"StateName"},{"value":"Hildesheim","key":"CountyName"}]},"MapReference":{"ReferenceId":"779703916","Spot":0.75,"SideOfStreet":"right","CountryId":"20147700","StateId":"20151542","CountyId":"20153268","CityId":"20153460","DistrictId":"20153463","AddressId":"177781703","RoadLinkId":"172996786"}}},{"Relevance":1.0,"Distance":84.8,"MatchLevel":"houseNumber","MatchQuality":{"Country":1.0,"State":1.0,"County":1.0,"City":1.0,"District":1.0,"Street":[1.0],"HouseNumber":1.0,"PostalCode":1.0},"MatchType":"interpolated","Location":{"LocationId":"NT_s0.bKvqYuwDtlz71t1qrUC_yA","LocationType":"point","DisplayPosition":{"Latitude":52.05472,"Longitude":9.9016},"MapView":{"TopLeft":{"Latitude":52.0558442,"Longitude":9.8997718},"BottomRight":{"Latitude":52.0535958,"Longitude":9.9034282}},"Address":{"Label":"Kirchstraße 2, 31079 Sibbesse, Deutschland","Country":"DEU","State":"Niedersachsen","County":"Hildesheim","City":"Sibbesse","District":"Sibbesse","Street":"Kirchstraße","HouseNumber":"2","PostalCode":"31079","AdditionalData":[{"value":"Deutschland","key":"CountryName"},{"value":"Niedersachsen","key":"StateName"},{"value":"Hildesheim","key":"CountyName"}]},"MapReference":{"ReferenceId":"68009285","Spot":0.71,"SideOfStreet":"left","CountryId":"20147700","StateId":"20151542","CountyId":"20153268","CityId":"20153460","DistrictId":"20153463","AddressId":"208449707","RoadLinkId":"37300367"}}},{"Relevance":1.0,"Distance":89.3,"MatchLevel":"street","MatchQuality":{"Country":1.0,"State":1.0,"County":1.0,"City":1.0,"District":1.0,"Street":[1.0],"PostalCode":1.0},"Location":{"LocationId":"NT_ML4YaVfLbCgaYuVqrTcrXD_l_1104904596_R","LocationType":"point","DisplayPosition":{"Latitude":52.05605,"Longitude":9.90008},"MapView":{"TopLeft":{"Latitude":52.0568,"Longitude":9.89956},"BottomRight":{"Latitude":52.05605,"Longitude":9.90008}},"Address":{"Label":"August-Bartels-Straße, 31079 Sibbesse, Deutschland","Country":"DEU","State":"Niedersachsen","County":"Hildesheim","City":"Sibbesse","District":"Sibbesse","Street":"August-Bartels-Straße","PostalCode":"31079","AdditionalData":[{"value":"Deutschland","key":"CountryName"},{"value":"Niedersachsen","key":"StateName"},{"value":"Hildesheim","key":"CountyName"}]},"MapReference":{"ReferenceId":"1104904596","Spot":0.0,"SideOfStreet":"right","CountryId":"20147700","StateId":"20151542","CountyId":"20153268","CityId":"20153460","DistrictId":"20153463"}}},{"Relevance":1.0,"Distance":95.3,"MatchLevel":"houseNumber","MatchQuality":{"Country":1.0,"State":1.0,"County":1.0,"City":1.0,"District":1.0,"Street":[1.0],"HouseNumber":1.0,"PostalCode":1.0},"MatchType":"interpolated","Location":{"LocationId":"NT_zkZBYZdCkdYu6gJ.Wk2MnA_xQD","LocationType":"point","DisplayPosition":{"Latitude":52.05555,"Longitude":9.90291},"MapView":{"TopLeft":{"Latitude":52.0566742,"Longitude":9.9010818},"BottomRight":{"Latitude":52.0544258,"Longitude":9.9047382}},"Address":{"Label":"Hauptstraße 14, 31079 Sibbesse, Deutschland","Country":"DEU","State":"Niedersachsen","County":"Hildesheim","City":"Sibbesse","District":"Sibbesse","Street":"Hauptstraße","HouseNumber":"14","PostalCode":"31079","AdditionalData":[{"value":"Deutschland","key":"CountryName"},{"value":"Niedersachsen","key":"StateName"},{"value":"Hildesheim","key":"CountyName"}]},"MapReference":{"ReferenceId":"80738424","Spot":0.14,"SideOfStreet":"left","CountryId":"20147700","StateId":"20151542","CountyId":"20153268","CityId":"20153460","DistrictId":"20153463","AddressId":"179520086","RoadLinkId":"36553767"}}},{"Relevance":1.0,"Distance":105.4,"MatchLevel":"houseNumber","MatchQuality":{"Country":1.0,"State":1.0,"County":1.0,"City":1.0,"District":1.0,"Street":[1.0],"HouseNumber":1.0,"PostalCode":1.0},"MatchType":"interpolated","Location":{"LocationId":"NT_ufSeQGoku3PBDQz08DoyGD_1EE","LocationType":"point","DisplayPosition":{"Latitude":52.05666,"Longitude":9.90117},"MapView":{"TopLeft":{"Latitude":52.0577842,"Longitude":9.8993418},"BottomRight":{"Latitude":52.0555358,"Longitude":9.9029982}},"Address":{"Label":"Kurze Halbe 5A, 31079 Sibbesse, Deutschland","Country":"DEU","State":"Niedersachsen","County":"Hildesheim","City":"Sibbesse","District":"Sibbesse","Street":"Kurze Halbe","HouseNumber":"5A","PostalCode":"31079","AdditionalData":[{"value":"Deutschland","key":"CountryName"},{"value":"Niedersachsen","key":"StateName"},{"value":"Hildesheim","key":"CountyName"}]},"MapReference":{"ReferenceId":"779703917","Spot":0.93,"SideOfStreet":"right","CountryId":"20147700","StateId":"20151542","CountyId":"20153268","CityId":"20153460","DistrictId":"20153463","AddressId":"179493216","RoadLinkId":"172996787"}}}]}]}}