{"Response":{"MetaInfo":{"Timestamp":"2020-03-28T10:22:40.779+0000","NextPageInformation":"2"},"View":[{"_type":"SearchResultsViewType","ViewId":0,"Result":[{"Relevance":1.0,"Distance":0.0,"Direction":0.0,"MatchLevel":"district","MatchQuality":{"Country":1.0,"State":1.0,"County":1.0,"City":1.0,"District":1.0,"PostalCode":1.0},"Location":{"LocationId":"NT_MhEw0zmfNXBPkWqlcbylmB","LocationType":"point","DisplayPosition":{"Latitude":52.0202188,"Longitude":11.7386737},"MapView":{"TopLeft":{"Latitude":52.04098,"Longitude":11.68277},"BottomRight":{"Latitude":51.98957,"Longitude":11.77344}},"Address":{"Label":"Schönebeck (Elbe), Sachsen-Anhalt, Deutschland","Country":"DEU","State":"Sachsen-Anhalt","County":"Salzlandkreis","City":"Schönebeck (Elbe)","District":"Schönebeck (Elbe)","PostalCode":"39218","AdditionalData":[{"value":"Deutschland","key":"CountryName"},{"value":"Sachsen-Anhalt","key":"StateName"},{"value":"Salzlandkreis","key":"CountyName"}]},"MapReference":{"ReferenceId":"541301703","SideOfStreet":"neither","CountryId":"20147700","StateId":"20194537","CountyId":"20195819","CityId":"20196703","DistrictId":"20196705"}}},{"Relevance":1.0,"Distance":7.9,"MatchLevel":"houseNumber","MatchQuality":{"Country":1.0,"State":1.0,"County":1.0,"City":1.0,"District":1.0,"Street":[1.0],"HouseNumber":1.0,"PostalCode":1.0},"MatchType":"interpolated","Location":{"LocationId":"NT_GdfkChoKaHiH4y0QRT8MUC_1A","LocationType":"point","DisplayPosition":{"Latitude":52.02028,"Longitude":11.73882},"MapView":{"TopLeft":{"Latitude":52.0214042,"Longitude":11.7369932},"BottomRight":{"Latitude":52.0191558,"Longitude":11.7406468}},"Address":{"Label":"Breiteweg 5, 39218 Schönebeck (Elbe), Deutschland","Country":"DEU","State":"Sachsen-Anhalt","County":"Salzlandkreis","City":"Schönebeck (Elbe)","District":"Schönebeck (Elbe)","Street":"Breiteweg","HouseNumber":"5","PostalCode":"39218","AdditionalData":[{"value":"Deutschland","key":"CountryName"},{"value":"Sachsen-Anhalt","key":"StateName"},{"value":"Salzlandkreis","key":"CountyName"}]},"MapReference":{"ReferenceId":"1221317567","Spot":0.9,"SideOfStreet":"left","CountryId":"20147700","StateId":"20194537","CountyId":"20195819","CityId":"20196703","DistrictId":"20196705","AddressId":"185013356","RoadLinkId":"538696655"}}},{"Relevance":1.0,"Distance":25.7,"MatchLevel":"houseNumber","MatchQuality":{"Country":1.0,"State":1.0,"County":1.0,"City":1.0,"District":1.0,"Street":[1.0],"HouseNumber":1.0,"PostalCode":1.0},"MatchType":"interpolated","Location":{"LocationId":"NT_GdfkChoKaHiH4y0QRT8MUC_zA","LocationType":"point","DisplayPosition":{"Latitude":52.02037,"Longitude":11.73839},"MapView":{"TopLeft":{"Latitude":52.0214942,"Longitude":11.7365632},"BottomRight":{"Latitude":52.0192458,"Longitude":11.7402168}},"Address":{"Label":"Breiteweg 3, 39218 Schönebeck (Elbe), Deutschland","Country":"DEU","State":"Sachsen-Anhalt","County":"Salzlandkreis","City":"Schönebeck (Elbe)","District":"Schönebeck (Elbe)","Street":"Breiteweg","HouseNumber":"3","PostalCode":"39218","AdditionalData":[{"value":"Deutschland","key":"CountryName"},{"value":"Sachsen-Anhalt","key":"StateName"},{"value":"Salzlandkreis","key":"CountyName"}]},"MapReference":{"ReferenceId":"1221317568","Spot":0.33,"SideOfStreet":"left","CountryId":"20147700","StateId":"20194537","CountyId":"20195819","CityId":"20196703","DistrictId":"20196705","AddressId":"185013354","RoadLinkId":"538696656"}}},{"Relevance":1.0,"Distance":49.9,"MatchLevel":"houseNumber","MatchQuality":{"Country":1.0,"State":1.0,"County":1.0,"City":1.0,"District":1.0,"Street":[1.0],"HouseNumber":1.0,"PostalCode":1.0},"MatchType":"interpolated","Location":{"LocationId":"NT_owLtQVTuXBeFOI6h8Gli3B_xA","LocationType":"point","DisplayPosition":{"Latitude":52.02063,"Longitude":11.73792},"MapView":{"TopLeft":{"Latitude":52.0217542,"Longitude":11.7360932},"BottomRight":{"Latitude":52.0195058,"Longitude":11.7397468}},"Address":{"Label":"Markt 1, 39218 Schönebeck (Elbe), Deutschland","Country":"DEU","State":"Sachsen-Anhalt","County":"Salzlandkreis","City":"Schönebeck (Elbe)","District":"Schönebeck (Elbe)","Street":"Markt","HouseNumber":"1","PostalCode":"39218","AdditionalData":[{"value":"Deutschland","key":"CountryName"},{"value":"Sachsen-Anhalt","key":"StateName"},{"value":"Salzlandkreis","key":"CountyName"}]},"MapReference":{"ReferenceId":"53374023","Spot":0.24,"SideOfStreet":"right","CountryId":"20147700","StateId":"20194537","CountyId":"20195819","CityId":"20196703","DistrictId":"20196705","AddressId":"185626850","RoadLinkId":"37634819"}}},{"Relevance":1.0,"Distance":53.3,"MatchLevel":"houseNumber","MatchQuality":{"Country":1.0,"State":1.0,"County":1.0,"City":1.0,"District":1.0,"Street":[1.0],"HouseNumber":1.0,"PostalCode":1.0},"MatchType":"interpolated","Location":{"LocationId":"NT_GdfkChoKaHiH4y0QRT8MUC_xA","LocationType":"point","DisplayPosition":{"Latitude":52.02047,"Longitude":11.73792},"MapView":{"TopLeft":{"Latitude":52.0215942,"Longitude":11.7360932},"BottomRight":{"Latitude":52.0193458,"Longitude":11.7397468}},"Address":{"Label":"Breiteweg 1, 39218 Schönebeck (Elbe), Deutschland","Country":"DEU","State":"Sachsen-Anhalt","County":"Salzlandkreis","City":"Schönebeck (Elbe)","District":"Schönebeck (Elbe)","Street":"Breiteweg","HouseNumber":"1","PostalCode":"39218","AdditionalData":[{"value":"Deutschland","key":"CountryName"},{"value":"Sachsen-Anhalt","key":"StateName"},{"value":"Salzlandkreis","key":"CountyName"}]},"MapReference":{"ReferenceId":"811218687","Spot":0.59,"SideOfStreet":"left","CountryId":"20147700","StateId":"20194537","CountyId":"20195819","CityId":"20196703","DistrictId":"20196705","AddressId":"185748551","RoadLinkId":"198582957"}}},{"Relevance":1.0,"Distance":63.1,"MatchLevel":"houseNumber","MatchQuality":{"Country":1.0,"State":1.0,"County":1.0,"City":1.0,"District":1.0,"Street":[1.0],"HouseNumber":1.0,"PostalCode":1.0},"MatchType":"interpolated","Location":{"LocationId":"NT_WkjGOePXFPSD6Z16-9tAoB_xAD","LocationType":"point","DisplayPosition":{"Latitude":52.02016,"Longitude":11.73765},"MapView":{"TopLeft":{"Latitude":52.0212842,"Longitude":11.7358233},"BottomRight":{"Latitude":52.0190358,"Longitude":11.7394767}},"Address":{"Label":"Salztor 10, 39218 Schönebeck (Elbe), Deutschland","Country":"DEU","State":"Sachsen-Anhalt","County":"Salzlandkreis","City":"Schönebeck (Elbe)","District":"Schönebeck (Elbe)","Street":"Salztor","HouseNumber":"10","PostalCode":"39218","AdditionalData":[{"value":"Deutschland","key":"CountryName"},{"value":"Sachsen-Anhalt","key":"StateName"},{"value":"Salzlandkreis","key":"CountyName"}]},"MapReference":{"ReferenceId":"53374022","Spot":0.62,"SideOfStreet":"right","CountryId":"20147700","StateId":"20194537","CountyId":"20195819","CityId":"20196703","DistrictId":"20196705","AddressId":"185533023","RoadLinkId":"37969406"}}},{"Relevance":1.0,"Distance":93.9,"MatchLevel":"houseNumber","MatchQuality":{"Country":1.0,"State":1.0,"County":1.0,"City":1.0,"District":1.0,"Street":[1.0],"HouseNumber":1.0,"PostalCode":1.0},"MatchType":"interpolated","Location":{"LocationId":"NT_owLtQVTuXBeFOI6h8Gli3B_0A","LocationType":"point","DisplayPosition":{"Latitude":52.02116,"Longitude":11.73819},"MapView":{"TopLeft":{"Latitude":52.0222842,"Longitude":11.7363632},"BottomRight":{"Latitude":52.0200358,"Longitude":11.7400168}},"Address":{"Label":"Markt 4, 39218 Schönebeck (Elbe), Deutschland","Country":"DEU","State":"Sachsen-Anhalt","County":"Salzlandkreis","City":"Schönebeck (Elbe)","District":"Schönebeck (Elbe)","Street":"Markt","HouseNumber":"4","PostalCode":"39218","AdditionalData":[{"value":"Deutschland","key":"CountryName"},{"value":"Sachsen-Anhalt","key":"StateName"},{"value":"Salzlandkreis","key":"CountyName"}]},"MapReference":{"ReferenceId":"541301733","Spot":0.55,"SideOfStreet":"right","CountryId":"20147700","StateId":"20194537","CountyId":"20195819","CityId":"20196703","DistrictId":"20196705","AddressId":"185217899","RoadLinkId":"37544959"}}},{"Relevance":1.0,"Distance":97.3,"MatchLevel":"houseNumber","MatchQuality":{"Country":1.0,"State":1.0,"County":1.0,"City":1.0,"District":1.0,"Street":[1.0],"HouseNumber":1.0,"PostalCode":1.0},"MatchType":"interpolated","Location":{"LocationId":"NT_WtCUGuHbfxNyLSgxWYUXMA_zEE","LocationType":"point","DisplayPosition":{"Latitude":52.01932,"Longitude":11.73828},"MapView":{"TopLeft":{"Latitude":52.0204442,"Longitude":11.7364533},"BottomRight":{"Latitude":52.0181958,"Longitude":11.7401067}},"Address":{"Label":"Böttcherstraße 3A, 39218 Schönebeck (Elbe), Deutschland","Country":"DEU","State":"Sachsen-Anhalt","County":"Salzlandkreis","City":"Schönebeck (Elbe)","District":"Schönebeck (Elbe)","Street":"Böttcherstraße","HouseNumber":"3A","PostalCode":"39218","AdditionalData":[{"value":"Deutschland","key":"CountryName"},{"value":"Sachsen-Anhalt","key":"StateName"},{"value":"Salzlandkreis","key":"CountyName"}]},"MapReference":{"ReferenceId":"541301575","Spot":0.7,"SideOfStreet":"right","CountryId":"20147700","StateId":"20194537","CountyId":"20195819","CityId":"20196703","DistrictId":"20196705","AddressId":"185536513","RoadLinkId":"37583677"}}},{"Relevance":1.0,"Distance":100.9,"MatchLevel":"street","MatchQuality":{"Country":1.0,"State":1.0,"County":1.0,"City":1.0,"District":1.0,"Street":[1.0],"PostalCode":1.0},"Location":{"LocationId":"NT_n7NwE0Mo4ElTzRb2-hokTC_l_1223699738_L","LocationType":"point","DisplayPosition":{"Latitude":52.02106,"Longitude":11.73812},"MapView":{"TopLeft":{"Latitude":52.0211,"Longitude":11.73753},"BottomRight":{"Latitude":52.02106,"Longitude":11.73812}},"Address":{"Label":"Nicolaistraße, 39218 Schönebeck (Elbe), Deutschland","Country":"DEU","State":"Sachsen-Anhalt","County":"Salzlandkreis","City":"Schönebeck (Elbe)","District":"Schönebeck (Elbe)","Street":"Nicolaistraße","PostalCode":"39218","AdditionalData":[{"value":"Deutschland","key":"CountryName"},{"value":"Sachsen-Anhalt","key":"StateName"},{"value":"Salzlandkreis","key":"CountyName"}]},"MapReference":{"ReferenceId":"1223699738","Spot":0.0,"SideOfStreet":"left","CountryId":"20147700","StateId":"20194537","CountyId":"20195819","CityId":"20196703","DistrictId":"20196705"}}},{"Relevance":1.0,"Distance":106.1,"MatchLevel":"houseNumber","MatchQuality":{"Country":1.0,"State":1.0,"County":1.0,"City":1.0,"District":1.0,"Street":[1.0],"HouseNumber":1.0,"PostalCode":1.0},"MatchType":"interpolated","Location":{"LocationId":"NT_0TohgCxL0yiTo6AGoE5qrD_2A","LocationType":"point","DisplayPosition":{"Latitude":52.0211,"Longitude":11.73951},"MapView":{"TopLeft":{"Latitude":52.0222242,"Longitude":11.7376832},"BottomRight":{"Latitude":52.0199758,"Longitude":11.7413368}},"Address":{"Label":"Steinstraße 6, 39218 Schönebeck (Elbe), Deutschland","Country":"DEU","State":"Sachsen-Anhalt","County":"Salzlandkreis","City":"Schönebeck (Elbe)","District":"Schönebeck (Elbe)","Street":"Steinstraße","HouseNumber":"6","PostalCode":"39218","AdditionalData":[{"value":"Deutschland","key":"CountryName"},{"value":"Sachsen-Anhalt","key":"StateName"},{"value":"Salzlandkreis","key":"CountyName"}]},"MapReference":{"ReferenceId":"541301719","Spot":0.63,"SideOfStreet":"left","CountryId":"20147700","StateId":"20194537","CountyId":"20195819","CityId":"20196703","DistrictId":"20196705","AddressId":"185721003","RoadLinkId":"37887675"}}}]}]}}