{"Response":{"MetaInfo":{"Timestamp":"2020-03-28T10:44:55.698+0000","NextPageInformation":"2"},"View":[{"_type":"SearchResultsViewType","ViewId":0,"Result":[{"Relevance":1.0,"Distance":0.0,"Direction":0.0,"MatchLevel":"district","MatchQuality":{"Country":1.0,"State":1.0,"County":1.0,"City":1.0,"District":1.0,"PostalCode":1.0},"Location":{"LocationId":"NT_7uc3fTo.PoTLE6diZi3nLC","LocationType":"point","DisplayPosition":{"Latitude":52.0601978,"Longitude":4.2427507},"MapView":{"TopLeft":{"Latitude":52.06756,"Longitude":4.22584},"BottomRight":{"Latitude":52.05428,"Longitude":4.25936}},"Address":{"Label":"Waldeck, Den Haag, Zuid-Holland, Nederland","Country":"NLD","State":"Zuid-Holland","County":"Den Haag","City":"Den Haag","District":"Waldeck","PostalCode":"2551","AdditionalData":[{"value":"Nederland","key":"CountryName"},{"value":"Zuid-Holland","key":"StateName"},{"value":"Den Haag","key":"CountyName"}]},"MapReference":{"ReferenceId":"54342799","SideOfStreet":"neither","CountryId":"23055544","StateId":"23055596","CountyId":"23055843","CityId":"20202081"}}},{"Relevance":1.0,"Distance":7.3,"MatchLevel":"street","MatchQuality":{"Country":1.0,"State":1.0,"County":1.0,"City":1.0,"District":1.0,"Street":[1.0],"PostalCode":1.0},"Location":{"LocationId":"NT_iFMEQJjTTvE.DjIG6DpOxC_l_1113824232_L","LocationType":"point","DisplayPosition":{"Latitude":52.060133,"Longitude":4.2427712},"MapView":{"TopLeft":{"Latitude":52.06031,"Longitude":4.24213},"BottomRight":{"Latitude":52.05993,"Longitude":4.24333}},"Address":{"Label":"3e Strausspad, 2551 Den Haag, Nederland","Country":"NLD","State":"Zuid-Holland","County":"Den Haag","City":"Den Haag","District":"Waldeck","Street":"3e Strausspad","PostalCode":"2551","AdditionalData":[{"value":"Nederland","key":"CountryName"},{"value":"Zuid-Holland","key":"StateName"},{"value":"Den Haag","key":"CountyName"}]},"MapReference":{"ReferenceId":"1113824232","Spot":0.53,"SideOfStreet":"left","CountryId":"23055544","StateId":"23055596","CountyId":"23055843","CityId":"20202081"}}},{"Relevance":1.0,"Distance":19.6,"MatchLevel":"houseNumber","MatchQuality":{"Country":1.0,"State":1.0,"County":1.0,"City":1.0,"District":1.0,"Street":[1.0],"HouseNumber":1.0,"PostalCode":1.0},"MatchType":"interpolated","Location":{"LocationId":"NT_HNCBBeI5E0iaHODkLsHGmC_5AD","LocationType":"point","DisplayPosition":{"Latitude":52.06018,"Longitude":4.24212},"MapView":{"TopLeft":{"Latitude":52.0613042,"Longitude":4.2402916},"BottomRight":{"Latitude":52.0590558,"Longitude":4.2439484}},"Address":{"Label":"Strausslaan 90, 2551 NR Den Haag, Nederland","Country":"NLD","State":"Zuid-Holland","County":"Den Haag","City":"Den Haag","District":"Waldeck","Street":"Strausslaan","HouseNumber":"90","PostalCode":"2551 NR","AdditionalData":[{"value":"Nederland","key":"CountryName"},{"value":"Zuid-Holland","key":"StateName"},{"value":"Den Haag","key":"CountyName"}]},"MapReference":{"ReferenceId":"1111785672","Spot":0.0,"SideOfStreet":"right","CountryId":"23055544","StateId":"23055596","CountyId":"23055843","CityId":"20202081","AddressId":"614657195","RoadLinkId":"421925972"}}},{"Relevance":1.0,"Distance":41.0,"MatchLevel":"street","MatchQuality":{"Country":1.0,"State":1.0,"County":1.0,"City":1.0,"District":1.0,"Street":[1.0],"PostalCode":1.0},"Location":{"LocationId":"NT_6Oi1f5XPPH4Lxzp3fPsV8B_l_1113824234_L","LocationType":"point","DisplayPosition":{"Latitude":52.0604961,"Longitude":4.2431033},"MapView":{"TopLeft":{"Latitude":52.06099,"Longitude":4.24276},"BottomRight":{"Latitude":52.06031,"Longitude":4.24333}},"Address":{"Label":"Scarlattipad, 2551 Den Haag, Nederland","Country":"NLD","State":"Zuid-Holland","County":"Den Haag","City":"Den Haag","District":"Waldeck","Street":"Scarlattipad","PostalCode":"2551","AdditionalData":[{"value":"Nederland","key":"CountryName"},{"value":"Zuid-Holland","key":"StateName"},{"value":"Den Haag","key":"CountyName"}]},"MapReference":{"ReferenceId":"1113824234","Spot":0.33,"SideOfStreet":"left","CountryId":"23055544","StateId":"23055596","CountyId":"23055843","CityId":"20202081"}}},{"Relevance":1.0,"Distance":41.5,"MatchLevel":"street","MatchQuality":{"Country":1.0,"State":1.0,"County":1.0,"City":1.0,"District":1.0,"Street":[1.0],"PostalCode":1.0},"Location":{"LocationId":"NT_iFMEQJjTTvE.DjIG6DpOxC_l_1113824233_L","LocationType":"point","DisplayPosition":{"Latitude":52.06031,"Longitude":4.24333},"MapView":{"TopLeft":{"Latitude":52.06036,"Longitude":4.24333},"BottomRight":{"Latitude":52.06031,"Longitude":4.24351}},"Address":{"Label":"3e Strausspad, 2551 Den Haag, Nederland","Country":"NLD","State":"Zuid-Holland","County":"Den Haag","City":"Den Haag","District":"Waldeck","Street":"3e Strausspad","PostalCode":"2551","AdditionalData":[{"value":"Nederland","key":"CountryName"},{"value":"Zuid-Holland","key":"StateName"},{"value":"Den Haag","key":"CountyName"}]},"MapReference":{"ReferenceId":"1113824233","Spot":0.0,"SideOfStreet":"left","CountryId":"23055544","StateId":"23055596","CountyId":"23055843","CityId":"20202081"}}},{"Relevance":1.0,"Distance":43.2,"MatchLevel":"street","MatchQuality":{"Country":1.0,"State":1.0,"County":1.0,"City":1.0,"District":1.0,"Street":[1.0],"PostalCode":1.0},"Location":{"LocationId":"NT_CBvQdxYvAmp.CsNbwuFxJA_l_55060293_R","LocationType":"point","DisplayPosition":{"Latitude":52.06018,"Longitude":4.24212},"MapView":{"TopLeft":{"Latitude":52.06018,"Longitude":4.24168},"BottomRight":{"Latitude":52.06005,"Longitude":4.24212}},"Address":{"Label":"Georges Bizetstraat, 2551 Den Haag, Nederland","Country":"NLD","State":"Zuid-Holland","County":"Den Haag","City":"Den Haag","District":"Waldeck","Street":"Georges Bizetstraat","PostalCode":"2551","AdditionalData":[{"value":"Nederland","key":"CountryName"},{"value":"Zuid-Holland","key":"StateName"},{"value":"Den Haag","key":"CountyName"}]},"MapReference":{"ReferenceId":"55060293","Spot":1.0,"SideOfStreet":"right","CountryId":"23055544","StateId":"23055596","CountyId":"23055843","CityId":"20202081"}}},{"Relevance":1.0,"Distance":43.2,"MatchLevel":"street","MatchQuality":{"Country":1.0,"State":1.0,"County":1.0,"City":1.0,"District":1.0,"Street":[1.0],"PostalCode":1.0},"Location":{"LocationId":"NT_yvwyiZ3YtKaBrbUd5w3SHA_l_1113808956_R","LocationType":"point","DisplayPosition":{"Latitude":52.06018,"Longitude":4.24212},"MapView":{"TopLeft":{"Latitude":52.06018,"Longitude":4.24208},"BottomRight":{"Latitude":52.06004,"Longitude":4.24212}},"Address":{"Label":"Strausslaan, 2551 Den Haag, Nederland","Country":"NLD","State":"Zuid-Holland","County":"Den Haag","City":"Den Haag","District":"Waldeck","Street":"Strausslaan","PostalCode":"2551","AdditionalData":[{"value":"Nederland","key":"CountryName"},{"value":"Zuid-Holland","key":"StateName"},{"value":"Den Haag","key":"CountyName"}]},"MapReference":{"ReferenceId":"1113808956","Spot":1.0,"SideOfStreet":"right","CountryId":"23055544","StateId":"23055596","CountyId":"23055843","CityId":"20202081"}}},{"Relevance":1.0,"Distance":43.9,"MatchLevel":"houseNumber","MatchQuality":{"Country":1.0,"State":1.0,"County":1.0,"City":1.0,"District":1.0,"Street":[1.0],"HouseNumber":1.0,"PostalCode":1.0},"MatchType":"interpolated","Location":{"LocationId":"NT_W4ugtqCm0ixMd6WL9wmKsB_4YD","LocationType":"point","DisplayPosition":{"Latitude":52.06025,"Longitude":4.24205},"MapView":{"TopLeft":{"Latitude":52.0613742,"Longitude":4.2402216},"BottomRight":{"Latitude":52.0591258,"Longitude":4.2438784}},"Address":{"Label":"Strausslaan 86, 2551 NP Den Haag, Nederland","Country":"NLD","State":"Zuid-Holland","County":"Den Haag","City":"Den Haag","District":"Waldeck","Street":"Strausslaan","HouseNumber":"86","PostalCode":"2551 NP","AdditionalData":[{"value":"Nederland","key":"CountryName"},{"value":"Zuid-Holland","key":"StateName"},{"value":"Den Haag","key":"CountyName"}]},"MapReference":{"ReferenceId":"1111785673","Spot":0.0,"SideOfStreet":"right","CountryId":"23055544","StateId":"23055596","CountyId":"23055843","CityId":"20202081","AddressId":"614657204","RoadLinkId":"421925973"}}},{"Relevance":1.0,"Distance":51.8,"MatchLevel":"street","MatchQuality":{"Country":1.0,"State":1.0,"County":1.0,"City":1.0,"District":1.0,"Street":[1.0],"PostalCode":1.0},"Location":{"LocationId":"NT_yvwyiZ3YtKaBrbUd5w3SHA_l_1113808957_R","LocationType":"point","DisplayPosition":{"Latitude":52.05993,"Longitude":4.24213},"MapView":{"TopLeft":{"Latitude":52.06004,"Longitude":4.24208},"BottomRight":{"Latitude":52.05993,"Longitude":4.24213}},"Address":{"Label":"Strausslaan, 2551 Den Haag, Nederland","Country":"NLD","State":"Zuid-Holland","County":"Den Haag","City":"Den Haag","District":"Waldeck","Street":"Strausslaan","PostalCode":"2551","AdditionalData":[{"value":"Nederland","key":"CountryName"},{"value":"Zuid-Holland","key":"StateName"},{"value":"Den Haag","key":"CountyName"}]},"MapReference":{"ReferenceId":"1113808957","Spot":0.0,"SideOfStreet":"right","CountryId":"23055544","StateId":"23055596","CountyId":"23055843","CityId":"20202081"}}},{"Relevance":1.0,"Distance":51.8,"MatchLevel":"street","MatchQuality":{"Country":1.0,"State":1.0,"County":1.0,"City":1.0,"District":1.0,"Street":[1.0],"PostalCode":1.0},"Location":{"LocationId":"NT_iFMEQJjTTvE.DjIG6DpOxC_l_1113808952_L","LocationType":"point","DisplayPosition":{"Latitude":52.05993,"Longitude":4.24213},"MapView":{"TopLeft":{"Latitude":52.05993,"Longitude":4.24118},"BottomRight":{"Latitude":52.05955,"Longitude":4.24213}},"Address":{"Label":"3e Strausspad, 2551 Den Haag, Nederland","Country":"NLD","State":"Zuid-Holland","County":"Den Haag","City":"Den Haag","District":"Waldeck","Street":"3e Strausspad","PostalCode":"2551","AdditionalData":[{"value":"Nederland","key":"CountryName"},{"value":"Zuid-Holland","key":"StateName"},{"value":"Den Haag","key":"CountyName"}]},"MapReference":{"ReferenceId":"1113808952","Spot":1.0,"SideOfStreet":"left","CountryId":"23055544","StateId":"23055596","CountyId":"23055843","CityId":"20202081"}}}]}]}}