{"Response":{"MetaInfo":{"Timestamp":"2020-03-28T10:03:27.235+0000","NextPageInformation":"2"},"View":[{"_type":"SearchResultsViewType","ViewId":0,"Result":[{"Relevance":1.0,"Distance":0.0,"Direction":0.0,"MatchLevel":"district","MatchQuality":{"Country":1.0,"State":1.0,"County":1.0,"City":1.0,"District":1.0,"PostalCode":1.0},"Location":{"LocationId":"NT_1ZH1DzTIocL7TOznGtME1B","LocationType":"point","DisplayPosition":{"Latitude":52.0867026,"Longitude":7.4805425},"MapView":{"TopLeft":{"Latitude":52.09725,"Longitude":7.4485},"BottomRight":{"Latitude":52.0736,"Longitude":7.49227}},"Address":{"Label":"Nordwalde, Nordrhein-Westfalen, Deutschland","Country":"DEU","State":"Nordrhein-Westfalen","County":"Steinfurt","City":"Nordwalde","District":"Nordwalde","PostalCode":"48356","AdditionalData":[{"value":"Deutschland","key":"CountryName"},{"value":"Nordrhein-Westfalen","key":"StateName"},{"value":"Steinfurt","key":"CountyName"}]},"MapReference":{"ReferenceId":"835575472","SideOfStreet":"neither","CountryId":"20147700","StateId":"20157369","CountyId":"20159347","CityId":"20159415","DistrictId":"20159418"}}},{"Relevance":1.0,"Distance":6.5,"MatchLevel":"houseNumber","MatchQuality":{"Country":1.0,"State":1.0,"County":1.0,"City":1.0,"District":1.0,"Street":[1.0],"HouseNumber":1.0,"PostalCode":1.0},"MatchType":"interpolated","Location":{"LocationId":"NT_8m3ygMNsCMiiqZuXKYBqrC_xgD","LocationType":"point","DisplayPosition":{"Latitude":52.08663,"Longitude":7.48037},"MapView":{"TopLeft":{"Latitude":52.0877542,"Longitude":7.4785405},"BottomRight":{"Latitude":52.0855058,"Longitude":7.4821995}},"Address":{"Label":"Amtmann-Daniel-Straße 18, 48356 Nordwalde, Deutschland","Country":"DEU","State":"Nordrhein-Westfalen","County":"Steinfurt","City":"Nordwalde","District":"Nordwalde","Street":"Amtmann-Daniel-Straße","HouseNumber":"18","PostalCode":"48356","AdditionalData":[{"value":"Deutschland","key":"CountryName"},{"value":"Nordrhein-Westfalen","key":"StateName"},{"value":"Steinfurt","key":"CountyName"}]},"MapReference":{"ReferenceId":"1266487191","Spot":0.75,"SideOfStreet":"right","CountryId":"20147700","StateId":"20157369","CountyId":"20159347","CityId":"20159415","DistrictId":"20159418","AddressId":"193685410","RoadLinkId":"593060019"}}},{"Relevance":1.0,"Distance":15.5,"MatchLevel":"houseNumber","MatchQuality":{"Country":1.0,"State":1.0,"County":1.0,"City":1.0,"District":1.0,"Street":[1.0],"HouseNumber":1.0,"PostalCode":1.0},"MatchType":"interpolated","Location":{"LocationId":"NT_8m3ygMNsCMiiqZuXKYBqrC_yID","LocationType":"point","DisplayPosition":{"Latitude":52.0868,"Longitude":7.48032},"MapView":{"TopLeft":{"Latitude":52.0879242,"Longitude":7.4784905},"BottomRight":{"Latitude":52.0856758,"Longitude":7.4821495}},"Address":{"Label":"Amtmann-Daniel-Straße 22, 48356 Nordwalde, Deutschland","Country":"DEU","State":"Nordrhein-Westfalen","County":"Steinfurt","City":"Nordwalde","District":"Nordwalde","Street":"Amtmann-Daniel-Straße","HouseNumber":"22","PostalCode":"48356","AdditionalData":[{"value":"Deutschland","key":"CountryName"},{"value":"Nordrhein-Westfalen","key":"StateName"},{"value":"Steinfurt","key":"CountyName"}]},"MapReference":{"ReferenceId":"1266487192","Spot":0.1,"SideOfStreet":"right","CountryId":"20147700","StateId":"20157369","CountyId":"20159347","CityId":"20159415","DistrictId":"20159418","AddressId":"194604434","RoadLinkId":"593060020"}}},{"Relevance":1.0,"Distance":35.3,"MatchLevel":"houseNumber","MatchQuality":{"Country":1.0,"State":1.0,"County":1.0,"City":1.0,"District":1.0,"Street":[1.0],"HouseNumber":1.0,"PostalCode":1.0},"MatchType":"interpolated","Location":{"LocationId":"NT_8m3ygMNsCMiiqZuXKYBqrC_yAD","LocationType":"point","DisplayPosition":{"Latitude":52.08689,"Longitude":7.48096},"MapView":{"TopLeft":{"Latitude":52.0880142,"Longitude":7.4791305},"BottomRight":{"Latitude":52.0857658,"Longitude":7.4827895}},"Address":{"Label":"Amtmann-Daniel-Straße 20, 48356 Nordwalde, Deutschland","Country":"DEU","State":"Nordrhein-Westfalen","County":"Steinfurt","City":"Nordwalde","District":"Nordwalde","Street":"Amtmann-Daniel-Straße","HouseNumber":"20","PostalCode":"48356","AdditionalData":[{"value":"Deutschland","key":"CountryName"},{"value":"Nordrhein-Westfalen","key":"StateName"},{"value":"Steinfurt","key":"CountyName"}]},"MapReference":{"ReferenceId":"1266487193","Spot":1.0,"SideOfStreet":"right","CountryId":"20147700","StateId":"20157369","CountyId":"20159347","CityId":"20159415","DistrictId":"20159418","AddressId":"193141337","RoadLinkId":"593060021"}}},{"Relevance":1.0,"Distance":43.8,"MatchLevel":"houseNumber","MatchQuality":{"Country":1.0,"State":1.0,"County":1.0,"City":1.0,"District":1.0,"Street":[1.0],"HouseNumber":1.0,"PostalCode":1.0},"MatchType":"interpolated","Location":{"LocationId":"NT_8m3ygMNsCMiiqZuXKYBqrC_xYD","LocationType":"point","DisplayPosition":{"Latitude":52.08629,"Longitude":7.48047},"MapView":{"TopLeft":{"Latitude":52.0874142,"Longitude":7.4786405},"BottomRight":{"Latitude":52.0851658,"Longitude":7.4822995}},"Address":{"Label":"Amtmann-Daniel-Straße 16, 48356 Nordwalde, Deutschland","Country":"DEU","State":"Nordrhein-Westfalen","County":"Steinfurt","City":"Nordwalde","District":"Nordwalde","Street":"Amtmann-Daniel-Straße","HouseNumber":"16","PostalCode":"48356","AdditionalData":[{"value":"Deutschland","key":"CountryName"},{"value":"Nordrhein-Westfalen","key":"StateName"},{"value":"Steinfurt","key":"CountyName"}]},"MapReference":{"ReferenceId":"1266487189","Spot":0.76,"SideOfStreet":"right","CountryId":"20147700","StateId":"20157369","CountyId":"20159347","CityId":"20159415","DistrictId":"20159418","AddressId":"194286506","RoadLinkId":"593060017"}}},{"Relevance":1.0,"Distance":67.3,"MatchLevel":"houseNumber","MatchQuality":{"Country":1.0,"State":1.0,"County":1.0,"City":1.0,"District":1.0,"Street":[1.0],"HouseNumber":1.0,"PostalCode":1.0},"MatchType":"interpolated","Location":{"LocationId":"NT_8m3ygMNsCMiiqZuXKYBqrC_xETR","LocationType":"point","DisplayPosition":{"Latitude":52.08632,"Longitude":7.47978},"MapView":{"TopLeft":{"Latitude":52.0874442,"Longitude":7.4779505},"BottomRight":{"Latitude":52.0851958,"Longitude":7.4816095}},"Address":{"Label":"Amtmann-Daniel-Straße 11E, 48356 Nordwalde, Deutschland","Country":"DEU","State":"Nordrhein-Westfalen","County":"Steinfurt","City":"Nordwalde","District":"Nordwalde","Street":"Amtmann-Daniel-Straße","HouseNumber":"11E","PostalCode":"48356","AdditionalData":[{"value":"Deutschland","key":"CountryName"},{"value":"Nordrhein-Westfalen","key":"StateName"},{"value":"Steinfurt","key":"CountyName"}]},"MapReference":{"ReferenceId":"1266487190","Spot":0.43,"SideOfStreet":"left","CountryId":"20147700","StateId":"20157369","CountyId":"20159347","CityId":"20159415","DistrictId":"20159418","AddressId":"622115200","RoadLinkId":"593060018"}}},{"Relevance":1.0,"Distance":68.8,"MatchLevel":"houseNumber","MatchQuality":{"Country":1.0,"State":1.0,"County":1.0,"City":1.0,"District":1.0,"Street":[1.0],"HouseNumber":1.0,"PostalCode":1.0},"MatchType":"interpolated","Location":{"LocationId":"NT_CtQgdM6BrUI6mtxyks7gYA_4A","LocationType":"point","DisplayPosition":{"Latitude":52.08628,"Longitude":7.48175},"MapView":{"TopLeft":{"Latitude":52.0874042,"Longitude":7.4799205},"BottomRight":{"Latitude":52.0851558,"Longitude":7.4835795}},"Address":{"Label":"Krankenhausweg 8, 48356 Nordwalde, Deutschland","Country":"DEU","State":"Nordrhein-Westfalen","County":"Steinfurt","City":"Nordwalde","District":"Nordwalde","Street":"Krankenhausweg","HouseNumber":"8","PostalCode":"48356","AdditionalData":[{"value":"Deutschland","key":"CountryName"},{"value":"Nordrhein-Westfalen","key":"StateName"},{"value":"Steinfurt","key":"CountyName"}]},"MapReference":{"ReferenceId":"871707090","Spot":0.83,"SideOfStreet":"left","CountryId":"20147700","StateId":"20157369","CountyId":"20159347","CityId":"20159415","DistrictId":"20159418","AddressId":"193379051","RoadLinkId":"243958790"}}},{"Relevance":1.0,"Distance":78.5,"MatchLevel":"street","MatchQuality":{"Country":1.0,"State":1.0,"County":1.0,"City":1.0,"District":1.0,"PostalCode":1.0},"Location":{"LocationId":"NT_e.qH94oG6HbWxE9jAsZdmC_l_1045963768_R","LocationType":"point","DisplayPosition":{"Latitude":52.0866353,"Longitude":7.4793991},"MapView":{"TopLeft":{"Latitude":52.08725,"Longitude":7.47936},"BottomRight":{"Latitude":52.08662,"Longitude":7.4795}},"Address":{"Label":"48356 Nordwalde, Deutschland","Country":"DEU","State":"Nordrhein-Westfalen","County":"Steinfurt","City":"Nordwalde","District":"Nordwalde","PostalCode":"48356","AdditionalData":[{"value":"Deutschland","key":"CountryName"},{"value":"Nordrhein-Westfalen","key":"StateName"},{"value":"Steinfurt","key":"CountyName"}]},"MapReference":{"ReferenceId":"1045963768","Spot":0.02,"SideOfStreet":"right","CountryId":"20147700","StateId":"20157369","CountyId":"20159347","CityId":"20159415","DistrictId":"20159418"}}},{"Relevance":1.0,"Distance":79.1,"MatchLevel":"street","MatchQuality":{"Country":1.0,"State":1.0,"County":1.0,"City":1.0,"District":1.0,"PostalCode":1.0},"Location":{"LocationId":"NT_e.qH94oG6HbWxE9jAsZdmC_l_1041563091_R","LocationType":"point","DisplayPosition":{"Latitude":52.0865607,"Longitude":7.4794074},"MapView":{"TopLeft":{"Latitude":52.08662,"Longitude":7.47806},"BottomRight":{"Latitude":52.08523,"Longitude":7.47941}},"Address":{"Label":"48356 Nordwalde, Deutschland","Country":"DEU","State":"Nordrhein-Westfalen","County":"Steinfurt","City":"Nordwalde","District":"Nordwalde","PostalCode":"48356","AdditionalData":[{"value":"Deutschland","key":"CountryName"},{"value":"Nordrhein-Westfalen","key":"StateName"},{"value":"Steinfurt","key":"CountyName"}]},"MapReference":{"ReferenceId":"1041563091","Spot":0.97,"SideOfStreet":"right","CountryId":"20147700","StateId":"20157369","CountyId":"20159347","CityId":"20159415","DistrictId":"20159418"}}},{"Relevance":1.0,"Distance":82.9,"MatchLevel":"houseNumber","MatchQuality":{"Country":1.0,"State":1.0,"County":1.0,"City":1.0,"District":1.0,"Street":[1.0],"HouseNumber":1.0,"PostalCode":1.0},"MatchType":"interpolated","Location":{"LocationId":"NT_8m3ygMNsCMiiqZuXKYBqrC_1A","LocationType":"point","DisplayPosition":{"Latitude":52.08592,"Longitude":7.4806},"MapView":{"TopLeft":{"Latitude":52.0870442,"Longitude":7.4787706},"BottomRight":{"Latitude":52.0847958,"Longitude":7.4824294}},"Address":{"Label":"Amtmann-Daniel-Straße 5, 48356 Nordwalde, Deutschland","Country":"DEU","State":"Nordrhein-Westfalen","County":"Steinfurt","City":"Nordwalde","District":"Nordwalde","Street":"Amtmann-Daniel-Straße","HouseNumber":"5","PostalCode":"48356","AdditionalData":[{"value":"Deutschland","key":"CountryName"},{"value":"Nordrhein-Westfalen","key":"StateName"},{"value":"Steinfurt","key":"CountyName"}]},"MapReference":{"ReferenceId":"75026971","Spot":0.83,"SideOfStreet":"left","CountryId":"20147700","StateId":"20157369","CountyId":"20159347","CityId":"20159415","DistrictId":"20159418","AddressId":"249316495","RoadLinkId":"35265819"}}}]}]}}