{"Response":{"MetaInfo":{"Timestamp":"2020-03-28T10:12:44.636+0000","NextPageInformation":"2"},"View":[{"_type":"SearchResultsViewType","ViewId":0,"Result":[{"Relevance":1.0,"Distance":0.0,"Direction":0.0,"MatchLevel":"city","MatchQuality":{"Country":1.0,"State":1.0,"County":1.0,"City":1.0,"PostalCode":1.0},"Location":{"LocationId":"NT_deve5mnBZvhrURIqhyTmlA","LocationType":"point","DisplayPosition":{"Latitude":52.0191456,"Longitude":4.7041986},"MapView":{"TopLeft":{"Latitude":52.03998,"Longitude":4.66782},"BottomRight":{"Latitude":51.99734,"Longitude":4.75732}},"Address":{"Label":"Gouda, Zuid-Holland, Nederland","Country":"NLD","State":"Zuid-Holland","County":"Gouda","City":"Gouda","PostalCode":"2801","AdditionalData":[{"value":"Nederland","key":"CountryName"},{"value":"Zuid-Holland","key":"StateName"},{"value":"Gouda","key":"CountyName"}]},"MapReference":{"ReferenceId":"54352111","SideOfStreet":"neither","CountryId":"23055544","StateId":"23055596","CountyId":"23055534","CityId":"20202075"}}},{"Relevance":1.0,"Distance":28.8,"MatchLevel":"houseNumber","MatchQuality":{"Country":1.0,"State":1.0,"County":1.0,"City":1.0,"Street":[1.0],"HouseNumber":1.0,"PostalCode":1.0},"MatchType":"interpolated","Location":{"LocationId":"NT_.uIrLCa7I5u0CJ9y5AhFfB_1UTMCB","LocationType":"point","DisplayPosition":{"Latitude":52.01961,"Longitude":4.70426},"MapView":{"TopLeft":{"Latitude":52.0207342,"Longitude":4.7024333},"BottomRight":{"Latitude":52.0184858,"Longitude":4.7060867}},"Address":{"Label":"Ronsseweg 551B, 2803 ZK Gouda, Nederland","Country":"NLD","State":"Zuid-Holland","County":"Gouda","City":"Gouda","Street":"Ronsseweg","HouseNumber":"551B","PostalCode":"2803 ZK","AdditionalData":[{"value":"Nederland","key":"CountryName"},{"value":"Zuid-Holland","key":"StateName"},{"value":"Gouda","key":"CountyName"}]},"MapReference":{"ReferenceId":"54350225","Spot":0.8,"SideOfStreet":"right","CountryId":"23055544","StateId":"23055596","CountyId":"23055534","CityId":"20202075","AddressId":"614249914","RoadLinkId":"32408306"}}},{"Relevance":1.0,"Distance":32.5,"MatchLevel":"street","MatchQuality":{"Country":1.0,"State":1.0,"County":1.0,"City":1.0,"Street":[1.0],"PostalCode":1.0},"Location":{"LocationId":"NT_FMw4W2cC3lonmLbjbCk1WD_l_54350310_L","LocationType":"point","DisplayPosition":{"Latitude":52.01891,"Longitude":4.70448},"MapView":{"TopLeft":{"Latitude":52.01893,"Longitude":4.70448},"BottomRight":{"Latitude":52.01891,"Longitude":4.70484}},"Address":{"Label":"Ronsseweg, 2803 Gouda, Nederland","Country":"NLD","State":"Zuid-Holland","County":"Gouda","City":"Gouda","Street":"Ronsseweg","PostalCode":"2803","AdditionalData":[{"value":"Nederland","key":"CountryName"},{"value":"Zuid-Holland","key":"StateName"},{"value":"Gouda","key":"CountyName"}]},"MapReference":{"ReferenceId":"54350310","Spot":0.0,"SideOfStreet":"left","CountryId":"23055544","StateId":"23055596","CountyId":"23055534","CityId":"20202075"}}},{"Relevance":1.0,"Distance":41.3,"MatchLevel":"houseNumber","MatchQuality":{"Country":1.0,"State":1.0,"County":1.0,"City":1.0,"Street":[1.0],"HouseNumber":1.0,"PostalCode":1.0},"MatchType":"interpolated","Location":{"LocationId":"NT_FMw4W2cC3lonmLbjbCk1WD_1ATN","LocationType":"point","DisplayPosition":{"Latitude":52.01882,"Longitude":4.70449},"MapView":{"TopLeft":{"Latitude":52.0199442,"Longitude":4.7026633},"BottomRight":{"Latitude":52.0176958,"Longitude":4.7063167}},"Address":{"Label":"Ronsseweg 505, 2803 Gouda, Nederland","Country":"NLD","State":"Zuid-Holland","County":"Gouda","City":"Gouda","Street":"Ronsseweg","HouseNumber":"505","PostalCode":"2803","AdditionalData":[{"value":"Nederland","key":"CountryName"},{"value":"Zuid-Holland","key":"StateName"},{"value":"Gouda","key":"CountyName"}]},"MapReference":{"ReferenceId":"54350331","Spot":0.03,"SideOfStreet":"right","CountryId":"23055544","StateId":"23055596","CountyId":"23055534","CityId":"20202075","AddressId":"614250090","RoadLinkId":"32241459"}}},{"Relevance":1.0,"Distance":41.7,"MatchLevel":"street","MatchQuality":{"Country":1.0,"State":1.0,"County":1.0,"City":1.0,"Street":[1.0],"PostalCode":1.0},"Location":{"LocationId":"NT_8Vav796wo.K0KvI8irfxvB_l_1012352022_L","LocationType":"point","DisplayPosition":{"Latitude":52.01882,"Longitude":4.7045},"MapView":{"TopLeft":{"Latitude":52.01882,"Longitude":4.70446},"BottomRight":{"Latitude":52.01857,"Longitude":4.7045}},"Address":{"Label":"Ronssepad, 2803 Gouda, Nederland","Country":"NLD","State":"Zuid-Holland","County":"Gouda","City":"Gouda","Street":"Ronssepad","PostalCode":"2803","AdditionalData":[{"value":"Nederland","key":"CountryName"},{"value":"Zuid-Holland","key":"StateName"},{"value":"Gouda","key":"CountyName"}]},"MapReference":{"ReferenceId":"1012352022","Spot":1.0,"SideOfStreet":"left","CountryId":"23055544","StateId":"23055596","CountyId":"23055534","CityId":"20202075"}}},{"Relevance":1.0,"Distance":41.8,"MatchLevel":"houseNumber","MatchQuality":{"Country":1.0,"State":1.0,"County":1.0,"City":1.0,"Street":[1.0],"HouseNumber":1.0,"PostalCode":1.0},"MatchType":"interpolated","Location":{"LocationId":"NT_.AbLLOyZWLNiALxIVkkrxB_0IjN","LocationType":"point","DisplayPosition":{"Latitude":52.01926,"Longitude":4.70478},"MapView":{"TopLeft":{"Latitude":52.0203842,"Longitude":4.7029533},"BottomRight":{"Latitude":52.0181358,"Longitude":4.7066067}},"Address":{"Label":"Ronsseweg 426, 2803 ZZ Gouda, Nederland","Country":"NLD","State":"Zuid-Holland","County":"Gouda","City":"Gouda","Street":"Ronsseweg","HouseNumber":"426","PostalCode":"2803 ZZ","AdditionalData":[{"value":"Nederland","key":"CountryName"},{"value":"Zuid-Holland","key":"StateName"},{"value":"Gouda","key":"CountyName"}]},"MapReference":{"ReferenceId":"1077142800","Spot":0.69,"SideOfStreet":"right","CountryId":"23055544","StateId":"23055596","CountyId":"23055534","CityId":"20202075","AddressId":"625064405","RoadLinkId":"396674402"}}},{"Relevance":1.0,"Distance":48.4,"MatchLevel":"houseNumber","MatchQuality":{"Country":1.0,"State":1.0,"County":1.0,"City":1.0,"Street":[1.0],"HouseNumber":1.0,"PostalCode":1.0},"MatchType":"interpolated","Location":{"LocationId":"NT_jrXdrbu9TXbj9t2IUkL3yC_0EDMtcDM0A","LocationType":"point","DisplayPosition":{"Latitude":52.01941,"Longitude":4.70476},"MapView":{"TopLeft":{"Latitude":52.0205342,"Longitude":4.7029333},"BottomRight":{"Latitude":52.0182858,"Longitude":4.7065867}},"Address":{"Label":"Ronsseweg 410-704, 2803 ZX Gouda, Nederland","Country":"NLD","State":"Zuid-Holland","County":"Gouda","City":"Gouda","Street":"Ronsseweg","HouseNumber":"410-704","PostalCode":"2803 ZX","AdditionalData":[{"value":"Nederland","key":"CountryName"},{"value":"Zuid-Holland","key":"StateName"},{"value":"Gouda","key":"CountyName"}]},"MapReference":{"ReferenceId":"1077142801","Spot":0.0,"SideOfStreet":"right","CountryId":"23055544","StateId":"23055596","CountyId":"23055534","CityId":"20202075","AddressId":"625064435","RoadLinkId":"396674403"}}},{"Relevance":1.0,"Distance":50.0,"MatchLevel":"street","MatchQuality":{"Country":1.0,"State":1.0,"County":1.0,"City":1.0,"Street":[1.0],"PostalCode":1.0},"Location":{"LocationId":"NT_FMw4W2cC3lonmLbjbCk1WD_l_54350326_L","LocationType":"point","DisplayPosition":{"Latitude":52.01893,"Longitude":4.70484},"MapView":{"TopLeft":{"Latitude":52.01893,"Longitude":4.70484},"BottomRight":{"Latitude":52.01884,"Longitude":4.70486}},"Address":{"Label":"Ronsseweg, 2803 Gouda, Nederland","Country":"NLD","State":"Zuid-Holland","County":"Gouda","City":"Gouda","Street":"Ronsseweg","PostalCode":"2803","AdditionalData":[{"value":"Nederland","key":"CountryName"},{"value":"Zuid-Holland","key":"StateName"},{"value":"Gouda","key":"CountyName"}]},"MapReference":{"ReferenceId":"54350326","Spot":1.0,"SideOfStreet":"left","CountryId":"23055544","StateId":"23055596","CountyId":"23055534","CityId":"20202075"}}},{"Relevance":1.0,"Distance":57.7,"MatchLevel":"houseNumber","MatchQuality":{"Country":1.0,"State":1.0,"County":1.0,"City":1.0,"Street":[1.0],"HouseNumber":1.0,"PostalCode":1.0},"MatchType":"interpolated","Location":{"LocationId":"NT_-Tq6C2BhSUiWqks454txQC_1ATM","LocationType":"point","DisplayPosition":{"Latitude":52.01886,"Longitude":4.70538},"MapView":{"TopLeft":{"Latitude":52.0199842,"Longitude":4.7035533},"BottomRight":{"Latitude":52.0177358,"Longitude":4.7072067}},"Address":{"Label":"Ronsseweg 501, 2803 ZH Gouda, Nederland","Country":"NLD","State":"Zuid-Holland","County":"Gouda","City":"Gouda","Street":"Ronsseweg","HouseNumber":"501","PostalCode":"2803 ZH","AdditionalData":[{"value":"Nederland","key":"CountryName"},{"value":"Zuid-Holland","key":"StateName"},{"value":"Gouda","key":"CountyName"}]},"MapReference":{"ReferenceId":"999063171","Spot":0.0,"SideOfStreet":"right","CountryId":"23055544","StateId":"23055596","CountyId":"23055534","CityId":"20202075","AddressId":"614250099","RoadLinkId":"325362072"}}},{"Relevance":1.0,"Distance":59.5,"MatchLevel":"houseNumber","MatchQuality":{"Country":1.0,"State":1.0,"County":1.0,"City":1.0,"Street":[1.0],"HouseNumber":1.0,"PostalCode":1.0},"MatchType":"interpolated","Location":{"LocationId":"NT_Aq7yklQLze1NvmG0aQ7gNA_1IzM","LocationType":"point","DisplayPosition":{"Latitude":52.01884,"Longitude":4.70509},"MapView":{"TopLeft":{"Latitude":52.0199642,"Longitude":4.7032633},"BottomRight":{"Latitude":52.0177158,"Longitude":4.7069167}},"Address":{"Label":"Ronsseweg 523, 2803 ZJ Gouda, Nederland","Country":"NLD","State":"Zuid-Holland","County":"Gouda","City":"Gouda","Street":"Ronsseweg","HouseNumber":"523","PostalCode":"2803 ZJ","AdditionalData":[{"value":"Nederland","key":"CountryName"},{"value":"Zuid-Holland","key":"StateName"},{"value":"Gouda","key":"CountyName"}]},"MapReference":{"ReferenceId":"1006436019","Spot":0.0,"SideOfStreet":"right","CountryId":"23055544","StateId":"23055596","CountyId":"23055534","CityId":"20202075","AddressId":"614250083","RoadLinkId":"331670571"}}}]}]}}