{"Response":{"MetaInfo":{"Timestamp":"2020-03-28T10:38:22.933+0000","NextPageInformation":"2"},"View":[{"_type":"SearchResultsViewType","ViewId":0,"Result":[{"Relevance":1.0,"Distance":0.0,"Direction":0.0,"MatchLevel":"district","MatchQuality":{"Country":1.0,"State":1.0,"County":1.0,"City":1.0,"District":1.0,"PostalCode":1.0},"Location":{"LocationId":"NT_MJS-iVS0ND8rvQw6tjR96C","LocationType":"point","DisplayPosition":{"Latitude":52.1332614,"Longitude":-0.4923466},"MapView":{"TopLeft":{"Latitude":52.17098,"Longitude":-0.50014},"BottomRight":{"Latitude":52.1282,"Longitude":-0.40339}},"Address":{"Label":"Bedford, England, United Kingdom","Country":"GBR","State":"England","County":"Bedfordshire","City":"Bedford","District":"Bedford","PostalCode":"MK40 2","AdditionalData":[{"value":"United Kingdom","key":"CountryName"},{"value":"England","key":"StateName"},{"value":"Bedfordshire","key":"CountyName"}]},"MapReference":{"ReferenceId":"841444384","SideOfStreet":"neither","StateId":"20248595","CountyId":"20334253","CityId":"20334256","DistrictId":"20334257"}}},{"Relevance":1.0,"Distance":43.5,"MatchLevel":"houseNumber","MatchQuality":{"Country":1.0,"State":1.0,"County":1.0,"City":1.0,"District":1.0,"Street":[1.0],"HouseNumber":1.0,"PostalCode":1.0},"MatchType":"interpolated","Location":{"LocationId":"NT_s3fNP.xZx0CD5vnm9jDcoB_l_25912519_L_xgD","LocationType":"point","DisplayPosition":{"Latitude":52.13346,"Longitude":-0.49157},"MapView":{"TopLeft":{"Latitude":52.1345842,"Longitude":-0.4934014},"BottomRight":{"Latitude":52.1323359,"Longitude":-0.4897386}},"Address":{"Label":"18 Chester Road, Bedford, MK40 4HP, United Kingdom","Country":"GBR","State":"England","County":"Bedfordshire","City":"Bedford","District":"Bedford","Street":"Chester Road","HouseNumber":"18","PostalCode":"MK40 4HP","AdditionalData":[{"value":"United Kingdom","key":"CountryName"},{"value":"England","key":"StateName"},{"value":"Bedfordshire","key":"CountyName"}]},"MapReference":{"ReferenceId":"25912519","Spot":0.69,"SideOfStreet":"left","StateId":"20248595","CountyId":"20334253","CityId":"20334256","DistrictId":"20334257"}}},{"Relevance":1.0,"Distance":45.5,"MatchLevel":"houseNumber","MatchQuality":{"Country":1.0,"State":1.0,"County":1.0,"City":1.0,"District":1.0,"Street":[1.0],"HouseNumber":1.0,"PostalCode":1.0},"MatchType":"interpolated","Location":{"LocationId":"NT_mwZIc11PgKO-xumed3XsFB_l_25912524_R_yUD","LocationType":"point","DisplayPosition":{"Latitude":52.1333698,"Longitude":-0.4932119},"MapView":{"TopLeft":{"Latitude":52.1344939,"Longitude":-0.4950433},"BottomRight":{"Latitude":52.1322456,"Longitude":-0.4913805}},"Address":{"Label":"25 Carlisle Road, Bedford, MK40 4HR, United Kingdom","Country":"GBR","State":"England","County":"Bedfordshire","City":"Bedford","District":"Bedford","Street":"Carlisle Road","HouseNumber":"25","PostalCode":"MK40 4HR","AdditionalData":[{"value":"United Kingdom","key":"CountryName"},{"value":"England","key":"StateName"},{"value":"Bedfordshire","key":"CountyName"}]},"MapReference":{"ReferenceId":"25912524","Spot":0.61,"SideOfStreet":"right","StateId":"20248595","CountyId":"20334253","CityId":"20334256","DistrictId":"20334257"}}},{"Relevance":1.0,"Distance":59.1,"MatchLevel":"postalCode","MatchQuality":{"PostalCode":1.0},"MatchType":"interpolated","Location":{"LocationId":"NT_mwZIc11PgKO-xumed3XsFB_l_25912524_R_yUD","LocationType":"point","DisplayPosition":{"Latitude":52.13317,"Longitude":-0.4932},"MapView":{"TopLeft":{"Latitude":52.1421632,"Longitude":-0.507851},"BottomRight":{"Latitude":52.1241768,"Longitude":-0.478549}},"Address":{"Label":"MK40 4HR, Bedford, England, United Kingdom","Country":"GBR","State":"England","County":"Bedfordshire","City":"Bedford","PostalCode":"MK40 4HR","AdditionalData":[{"value":"United Kingdom","key":"CountryName"},{"value":"England","key":"StateName"},{"value":"Bedfordshire","key":"CountyName"}]},"MapReference":{"ReferenceId":"25912524","Spot":0.61,"SideOfStreet":"neither","StateId":"20248595","CountyId":"20334253","CityId":"20334256"}}},{"Relevance":1.0,"Distance":68.0,"MatchLevel":"postalCode","MatchQuality":{"PostalCode":1.0},"MatchType":"interpolated","Location":{"LocationId":"NT_s3fNP.xZx0CD5vnm9jDcoB_l_25912519_L_xgD","LocationType":"point","DisplayPosition":{"Latitude":52.13307,"Longitude":-0.4914},"MapView":{"TopLeft":{"Latitude":52.1420632,"Longitude":-0.506051},"BottomRight":{"Latitude":52.1240768,"Longitude":-0.476749}},"Address":{"Label":"MK40 4HP, Bedford, England, United Kingdom","Country":"GBR","State":"England","County":"Bedfordshire","City":"Bedford","PostalCode":"MK40 4HP","AdditionalData":[{"value":"United Kingdom","key":"CountryName"},{"value":"England","key":"StateName"},{"value":"Bedfordshire","key":"CountyName"}]},"MapReference":{"ReferenceId":"25912519","Spot":0.69,"SideOfStreet":"neither","StateId":"20248595","CountyId":"20334253","CityId":"20334256"}}},{"Relevance":1.0,"Distance":70.6,"MatchLevel":"houseNumber","MatchQuality":{"Country":1.0,"State":1.0,"County":1.0,"City":1.0,"District":1.0,"Street":[1.0],"HouseNumber":1.0,"PostalCode":1.0},"MatchType":"interpolated","Location":{"LocationId":"NT_s3fNP.xZx0CD5vnm9jDcoB_l_25912431_L_yID","LocationType":"point","DisplayPosition":{"Latitude":52.13394,"Longitude":-0.49182},"MapView":{"TopLeft":{"Latitude":52.1350642,"Longitude":-0.4936514},"BottomRight":{"Latitude":52.1328159,"Longitude":-0.4899886}},"Address":{"Label":"22 Chester Road, Bedford, MK40 4HP, United Kingdom","Country":"GBR","State":"England","County":"Bedfordshire","City":"Bedford","District":"Bedford","Street":"Chester Road","HouseNumber":"22","PostalCode":"MK40 4HP","AdditionalData":[{"value":"United Kingdom","key":"CountryName"},{"value":"England","key":"StateName"},{"value":"Bedfordshire","key":"CountyName"}]},"MapReference":{"ReferenceId":"25912431","Spot":0.29,"SideOfStreet":"left","StateId":"20248595","CountyId":"20334253","CityId":"20334256","DistrictId":"20334257"}}},{"Relevance":1.0,"Distance":85.8,"MatchLevel":"postalCode","MatchQuality":{"PostalCode":1.0},"MatchType":"interpolated","Location":{"LocationId":"NT_BIopskOWL-TMnklVc67yRD_l_25912430_R_0YD","LocationType":"point","DisplayPosition":{"Latitude":52.13382,"Longitude":-0.49148},"MapView":{"TopLeft":{"Latitude":52.1428132,"Longitude":-0.5061312},"BottomRight":{"Latitude":52.1248268,"Longitude":-0.4768288}},"Address":{"Label":"MK40 4HF, Bedford, England, United Kingdom","Country":"GBR","State":"England","County":"Bedfordshire","City":"Bedford","PostalCode":"MK40 4HF","AdditionalData":[{"value":"United Kingdom","key":"CountryName"},{"value":"England","key":"StateName"},{"value":"Bedfordshire","key":"CountyName"}]},"MapReference":{"ReferenceId":"25912430","Spot":0.5,"SideOfStreet":"neither","StateId":"20248595","CountyId":"20334253","CityId":"20334256"}}},{"Relevance":1.0,"Distance":90.4,"MatchLevel":"houseNumber","MatchQuality":{"Country":1.0,"State":1.0,"County":1.0,"City":1.0,"District":1.0,"Street":[1.0],"HouseNumber":1.0,"PostalCode":1.0},"MatchType":"interpolated","Location":{"LocationId":"NT_BIopskOWL-TMnklVc67yRD_l_25912430_R_0YD","LocationType":"point","DisplayPosition":{"Latitude":52.1339,"Longitude":-0.4913398},"MapView":{"TopLeft":{"Latitude":52.1350242,"Longitude":-0.4931712},"BottomRight":{"Latitude":52.1327759,"Longitude":-0.4895084}},"Address":{"Label":"46 Oldfield Road, Bedford, MK40 4HF, United Kingdom","Country":"GBR","State":"England","County":"Bedfordshire","City":"Bedford","District":"Bedford","Street":"Oldfield Road","HouseNumber":"46","PostalCode":"MK40 4HF","AdditionalData":[{"value":"United Kingdom","key":"CountryName"},{"value":"England","key":"StateName"},{"value":"Bedfordshire","key":"CountyName"}]},"MapReference":{"ReferenceId":"25912430","Spot":0.5,"SideOfStreet":"right","StateId":"20248595","CountyId":"20334253","CityId":"20334256","DistrictId":"20334257"}}},{"Relevance":1.0,"Distance":96.7,"MatchLevel":"houseNumber","MatchQuality":{"Country":1.0,"State":1.0,"County":1.0,"City":1.0,"District":1.0,"Street":[1.0],"HouseNumber":1.0,"PostalCode":1.0},"MatchType":"interpolated","Location":{"LocationId":"NT_70LCulzYH798496m4pCpFB_l_25912470_L_xID","LocationType":"point","DisplayPosition":{"Latitude":52.1334686,"Longitude":-0.4907676},"MapView":{"TopLeft":{"Latitude":52.1345927,"Longitude":-0.492599},"BottomRight":{"Latitude":52.1323444,"Longitude":-0.4889362}},"Address":{"Label":"12 Boyde Gardens, Bedford, MK40 4PT, United Kingdom","Country":"GBR","State":"England","County":"Bedfordshire","City":"Bedford","District":"Bedford","Street":"Boyde Gardens","HouseNumber":"12","PostalCode":"MK40 4PT","AdditionalData":[{"value":"United Kingdom","key":"CountryName"},{"value":"England","key":"StateName"},{"value":"Bedfordshire","key":"CountyName"}]},"MapReference":{"ReferenceId":"25912470","Spot":0.5,"SideOfStreet":"left","StateId":"20248595","CountyId":"20334253","CityId":"20334256","DistrictId":"20334257"}}},{"Relevance":1.0,"Distance":118.5,"MatchLevel":"postalCode","MatchQuality":{"PostalCode":1.0},"MatchType":"interpolated","Location":{"LocationId":"NT_70LCulzYH798496m4pCpFB_l_25912470_L_xID","LocationType":"point","DisplayPosition":{"Latitude":52.13358,"Longitude":-0.49069},"MapView":{"TopLeft":{"Latitude":52.1425732,"Longitude":-0.5053412},"BottomRight":{"Latitude":52.1245868,"Longitude":-0.4760388}},"Address":{"Label":"MK40 4PT, Bedford, England, United Kingdom","Country":"GBR","State":"England","County":"Bedfordshire","City":"Bedford","PostalCode":"MK40 4PT","AdditionalData":[{"value":"United Kingdom","key":"CountryName"},{"value":"England","key":"StateName"},{"value":"Bedfordshire","key":"CountyName"}]},"MapReference":{"ReferenceId":"25912470","Spot":0.5,"SideOfStreet":"neither","StateId":"20248595","CountyId":"20334253","CityId":"20334256"}}}]}]}}