{"Response":{"MetaInfo":{"Timestamp":"2020-03-28T11:00:03.071+0000","NextPageInformation":"2"},"View":[{"_type":"SearchResultsViewType","ViewId":0,"Result":[{"Relevance":1.0,"Distance":0.0,"Direction":0.0,"MatchLevel":"district","MatchQuality":{"Country":1.0,"State":1.0,"County":1.0,"City":1.0,"District":1.0,"PostalCode":1.0},"Location":{"LocationId":"NT_FefliAV0VbEM607WcSJ1lD","LocationType":"point","DisplayPosition":{"Latitude":52.1125652,"Longitude":8.6756965},"MapView":{"TopLeft":{"Latitude":52.14429,"Longitude":8.60955},"BottomRight":{"Latitude":52.08959,"Longitude":8.71704}},"Address":{"Label":"Herford, Nordrhein-Westfalen, Deutschland","Country":"DEU","State":"Nordrhein-Westfalen","County":"Herford","City":"Herford","District":"Herford","PostalCode":"32052","AdditionalData":[{"value":"Deutschland","key":"CountryName"},{"value":"Nordrhein-Westfalen","key":"StateName"},{"value":"Herford","key":"CountyName"}]},"MapReference":{"ReferenceId":"1240014330","SideOfStreet":"neither","CountryId":"20147700","StateId":"20157369","CountyId":"20159634","CityId":"20159648","DistrictId":"20159653"}}},{"Relevance":1.0,"Distance":48.0,"MatchLevel":"houseNumber","MatchQuality":{"Country":1.0,"State":1.0,"County":1.0,"City":1.0,"District":1.0,"Street":[1.0],"HouseNumber":1.0,"PostalCode":1.0},"MatchType":"interpolated","Location":{"LocationId":"NT_QkZnjMWQx7pOp.ZrQCA8WA_4A","LocationType":"point","DisplayPosition":{"Latitude":52.11316,"Longitude":8.67604},"MapView":{"TopLeft":{"Latitude":52.1142842,"Longitude":8.6742094},"BottomRight":{"Latitude":52.1120358,"Longitude":8.6778706}},"Address":{"Label":"Wiesestraße 8, 32052 Herford, Deutschland","Country":"DEU","State":"Nordrhein-Westfalen","County":"Herford","City":"Herford","District":"Herford","Street":"Wiesestraße","HouseNumber":"8","PostalCode":"32052","AdditionalData":[{"value":"Deutschland","key":"CountryName"},{"value":"Nordrhein-Westfalen","key":"StateName"},{"value":"Herford","key":"CountyName"}]},"MapReference":{"ReferenceId":"61212182","Spot":0.2,"SideOfStreet":"left","CountryId":"20147700","StateId":"20157369","CountyId":"20159634","CityId":"20159648","DistrictId":"20159653","AddressId":"194935134","RoadLinkId":"35784304"}}},{"Relevance":1.0,"Distance":50.8,"MatchLevel":"houseNumber","MatchQuality":{"Country":1.0,"State":1.0,"County":1.0,"City":1.0,"District":1.0,"Street":[1.0],"HouseNumber":1.0,"PostalCode":1.0},"MatchType":"interpolated","Location":{"LocationId":"NT_QkZnjMWQx7pOp.ZrQCA8WA_xAD","LocationType":"point","DisplayPosition":{"Latitude":52.11287,"Longitude":8.67679},"MapView":{"TopLeft":{"Latitude":52.1139942,"Longitude":8.6749595},"BottomRight":{"Latitude":52.1117458,"Longitude":8.6786205}},"Address":{"Label":"Wiesestraße 10, 32052 Herford, Deutschland","Country":"DEU","State":"Nordrhein-Westfalen","County":"Herford","City":"Herford","District":"Herford","Street":"Wiesestraße","HouseNumber":"10","PostalCode":"32052","AdditionalData":[{"value":"Deutschland","key":"CountryName"},{"value":"Nordrhein-Westfalen","key":"StateName"},{"value":"Herford","key":"CountyName"}]},"MapReference":{"ReferenceId":"61212208","Spot":0.45,"SideOfStreet":"left","CountryId":"20147700","StateId":"20157369","CountyId":"20159634","CityId":"20159648","DistrictId":"20159653","AddressId":"195526470","RoadLinkId":"35346777"}}},{"Relevance":1.0,"Distance":53.0,"MatchLevel":"houseNumber","MatchQuality":{"Country":1.0,"State":1.0,"County":1.0,"City":1.0,"District":1.0,"Street":[1.0],"HouseNumber":1.0,"PostalCode":1.0},"MatchType":"interpolated","Location":{"LocationId":"NT_us6w7DFG-6uzAdv1ANgqnC_xEE","LocationType":"point","DisplayPosition":{"Latitude":52.11231,"Longitude":8.67669},"MapView":{"TopLeft":{"Latitude":52.1134342,"Longitude":8.6748595},"BottomRight":{"Latitude":52.1111858,"Longitude":8.6785205}},"Address":{"Label":"Pöppelmannwall 1A, 32052 Herford, Deutschland","Country":"DEU","State":"Nordrhein-Westfalen","County":"Herford","City":"Herford","District":"Herford","Street":"Pöppelmannwall","HouseNumber":"1A","PostalCode":"32052","AdditionalData":[{"value":"Deutschland","key":"CountryName"},{"value":"Nordrhein-Westfalen","key":"StateName"},{"value":"Herford","key":"CountyName"}]},"MapReference":{"ReferenceId":"76179553","Spot":0.85,"SideOfStreet":"left","CountryId":"20147700","StateId":"20157369","CountyId":"20159634","CityId":"20159648","DistrictId":"20159653","AddressId":"195601416","RoadLinkId":"35209302"}}},{"Relevance":1.0,"Distance":71.6,"MatchLevel":"houseNumber","MatchQuality":{"Country":1.0,"State":1.0,"County":1.0,"City":1.0,"District":1.0,"Street":[1.0],"HouseNumber":1.0,"PostalCode":1.0},"MatchType":"interpolated","Location":{"LocationId":"NT_c8HLr.WuensJIBGRiFlbBB_ygD","LocationType":"point","DisplayPosition":{"Latitude":52.11319,"Longitude":8.67426},"MapView":{"TopLeft":{"Latitude":52.1143142,"Longitude":8.6724294},"BottomRight":{"Latitude":52.1120658,"Longitude":8.6760906}},"Address":{"Label":"Johannisstraße 28, 32052 Herford, Deutschland","Country":"DEU","State":"Nordrhein-Westfalen","County":"Herford","City":"Herford","District":"Herford","Street":"Johannisstraße","HouseNumber":"28","PostalCode":"32052","AdditionalData":[{"value":"Deutschland","key":"CountryName"},{"value":"Nordrhein-Westfalen","key":"StateName"},{"value":"Herford","key":"CountyName"}]},"MapReference":{"ReferenceId":"1197916187","Spot":0.88,"SideOfStreet":"right","CountryId":"20147700","StateId":"20157369","CountyId":"20159634","CityId":"20159648","DistrictId":"20159653","AddressId":"196268425","RoadLinkId":"508887742"}}},{"Relevance":1.0,"Distance":83.2,"MatchLevel":"houseNumber","MatchQuality":{"Country":1.0,"State":1.0,"County":1.0,"City":1.0,"District":1.0,"Street":[1.0],"HouseNumber":1.0,"PostalCode":1.0},"MatchType":"interpolated","Location":{"LocationId":"NT_dJ9Rn1LlQXtis0zm0jqopC_xA","LocationType":"point","DisplayPosition":{"Latitude":52.11228,"Longitude":8.67441},"MapView":{"TopLeft":{"Latitude":52.1134042,"Longitude":8.6725795},"BottomRight":{"Latitude":52.1111558,"Longitude":8.6762405}},"Address":{"Label":"Gertrudstraße 1, 32052 Herford, Deutschland","Country":"DEU","State":"Nordrhein-Westfalen","County":"Herford","City":"Herford","District":"Herford","Street":"Gertrudstraße","HouseNumber":"1","PostalCode":"32052","AdditionalData":[{"value":"Deutschland","key":"CountryName"},{"value":"Nordrhein-Westfalen","key":"StateName"},{"value":"Herford","key":"CountyName"}]},"MapReference":{"ReferenceId":"61212238","Spot":0.31,"SideOfStreet":"right","CountryId":"20147700","StateId":"20157369","CountyId":"20159634","CityId":"20159648","DistrictId":"20159653","AddressId":"195553678","RoadLinkId":"35410515"}}},{"Relevance":1.0,"Distance":84.4,"MatchLevel":"houseNumber","MatchQuality":{"Country":1.0,"State":1.0,"County":1.0,"City":1.0,"District":1.0,"Street":[1.0],"HouseNumber":1.0,"PostalCode":1.0},"MatchType":"interpolated","Location":{"LocationId":"NT_c8HLr.WuensJIBGRiFlbBB_yQD","LocationType":"point","DisplayPosition":{"Latitude":52.11341,"Longitude":8.67477},"MapView":{"TopLeft":{"Latitude":52.1145342,"Longitude":8.6729394},"BottomRight":{"Latitude":52.1122858,"Longitude":8.6766006}},"Address":{"Label":"Johannisstraße 24, 32052 Herford, Deutschland","Country":"DEU","State":"Nordrhein-Westfalen","County":"Herford","City":"Herford","District":"Herford","Street":"Johannisstraße","HouseNumber":"24","PostalCode":"32052","AdditionalData":[{"value":"Deutschland","key":"CountryName"},{"value":"Nordrhein-Westfalen","key":"StateName"},{"value":"Herford","key":"CountyName"}]},"MapReference":{"ReferenceId":"1197916188","Spot":0.58,"SideOfStreet":"right","CountryId":"20147700","StateId":"20157369","CountyId":"20159634","CityId":"20159648","DistrictId":"20159653","AddressId":"193012525","RoadLinkId":"508887743"}}},{"Relevance":1.0,"Distance":94.6,"MatchLevel":"houseNumber","MatchQuality":{"Country":1.0,"State":1.0,"County":1.0,"City":1.0,"District":1.0,"Street":[1.0],"HouseNumber":1.0,"PostalCode":1.0},"MatchType":"interpolated","Location":{"LocationId":"NT_69a5vM6ot9iJZMlvPEmczC_xA","LocationType":"point","DisplayPosition":{"Latitude":52.11213,"Longitude":8.67455},"MapView":{"TopLeft":{"Latitude":52.1132542,"Longitude":8.6727195},"BottomRight":{"Latitude":52.1110058,"Longitude":8.6763805}},"Address":{"Label":"Renntormauer 1, 32052 Herford, Deutschland","Country":"DEU","State":"Nordrhein-Westfalen","County":"Herford","City":"Herford","District":"Herford","Street":"Renntormauer","HouseNumber":"1","PostalCode":"32052","AdditionalData":[{"value":"Deutschland","key":"CountryName"},{"value":"Nordrhein-Westfalen","key":"StateName"},{"value":"Herford","key":"CountyName"}]},"MapReference":{"ReferenceId":"61212237","Spot":0.0,"SideOfStreet":"right","CountryId":"20147700","StateId":"20157369","CountyId":"20159634","CityId":"20159648","DistrictId":"20159653","AddressId":"196209181","RoadLinkId":"35530788"}}},{"Relevance":1.0,"Distance":105.4,"MatchLevel":"houseNumber","MatchQuality":{"Country":1.0,"State":1.0,"County":1.0,"City":1.0,"District":1.0,"Street":[1.0],"HouseNumber":1.0,"PostalCode":1.0},"MatchType":"interpolated","Location":{"LocationId":"NT_69a5vM6ot9iJZMlvPEmczC_0IE","LocationType":"point","DisplayPosition":{"Latitude":52.11207,"Longitude":8.67438},"MapView":{"TopLeft":{"Latitude":52.1131942,"Longitude":8.6725495},"BottomRight":{"Latitude":52.1109458,"Longitude":8.6762105}},"Address":{"Label":"Renntormauer 4B, 32052 Herford, Deutschland","Country":"DEU","State":"Nordrhein-Westfalen","County":"Herford","City":"Herford","District":"Herford","Street":"Renntormauer","HouseNumber":"4B","PostalCode":"32052","AdditionalData":[{"value":"Deutschland","key":"CountryName"},{"value":"Nordrhein-Westfalen","key":"StateName"},{"value":"Herford","key":"CountyName"}]},"MapReference":{"ReferenceId":"61212253","Spot":0.81,"SideOfStreet":"left","CountryId":"20147700","StateId":"20157369","CountyId":"20159634","CityId":"20159648","DistrictId":"20159653","AddressId":"195830389","RoadLinkId":"35068017"}}},{"Relevance":1.0,"Distance":110.7,"MatchLevel":"houseNumber","MatchQuality":{"Country":1.0,"State":1.0,"County":1.0,"City":1.0,"District":1.0,"Street":[1.0],"HouseNumber":1.0,"PostalCode":1.0},"MatchType":"interpolated","Location":{"LocationId":"NT_T0Lm49vyeYoKUJtyW0AYiA_yA","LocationType":"point","DisplayPosition":{"Latitude":52.11341,"Longitude":8.67657},"MapView":{"TopLeft":{"Latitude":52.1145342,"Longitude":8.6747394},"BottomRight":{"Latitude":52.1122858,"Longitude":8.6784006}},"Address":{"Label":"Zur Bleiche 2, 32052 Herford, Deutschland","Country":"DEU","State":"Nordrhein-Westfalen","County":"Herford","City":"Herford","District":"Herford","Street":"Zur Bleiche","HouseNumber":"2","PostalCode":"32052","AdditionalData":[{"value":"Deutschland","key":"CountryName"},{"value":"Nordrhein-Westfalen","key":"StateName"},{"value":"Herford","key":"CountyName"}]},"MapReference":{"ReferenceId":"61212181","Spot":0.2,"SideOfStreet":"left","CountryId":"20147700","StateId":"20157369","CountyId":"20159634","CityId":"20159648","DistrictId":"20159653","AddressId":"193549746","RoadLinkId":"35169787"}}}]}]}}