{"Response":{"MetaInfo":{"Timestamp":"2020-03-28T10:45:03.265+0000","NextPageInformation":"2"},"View":[{"_type":"SearchResultsViewType","ViewId":0,"Result":[{"Relevance":1.0,"Distance":0.0,"Direction":0.0,"MatchLevel":"city","MatchQuality":{"Country":1.0,"State":1.0,"County":1.0,"City":1.0,"PostalCode":1.0},"Location":{"LocationId":"NT_yYG-lbiRRYdDDao.aWciUC","LocationType":"point","DisplayPosition":{"Latitude":52.181967,"Longitude":5.4075031},"MapView":{"TopLeft":{"Latitude":52.21215,"Longitude":5.34468},"BottomRight":{"Latitude":52.13383,"Longitude":5.4382}},"Address":{"Label":"Amersfoort, Utrecht, Nederland","Country":"NLD","State":"Utrecht","County":"Amersfoort","City":"Amersfoort","PostalCode":"3817 CH","AdditionalData":[{"value":"Nederland","key":"CountryName"},{"value":"Utrecht","key":"StateName"},{"value":"Amersfoort","key":"CountyName"}]},"MapReference":{"ReferenceId":"1216785251","SideOfStreet":"neither","CountryId":"23055544","StateId":"23055938","CountyId":"23055975","CityId":"20201487"}}},{"Relevance":1.0,"Distance":14.0,"MatchLevel":"houseNumber","MatchQuality":{"Country":1.0,"State":1.0,"County":1.0,"City":1.0,"Street":[1.0],"HouseNumber":1.0,"PostalCode":1.0},"MatchType":"interpolated","Location":{"LocationId":"NT_0zDV2Ce5ydtDgb6kIk28VB_yUTM","LocationType":"point","DisplayPosition":{"Latitude":52.18203,"Longitude":5.40808},"MapView":{"TopLeft":{"Latitude":52.1831542,"Longitude":5.4062466},"BottomRight":{"Latitude":52.1809058,"Longitude":5.4099134}},"Address":{"Label":"Albert Schweitzersingel 251, 3822 BV Amersfoort, Nederland","Country":"NLD","State":"Utrecht","County":"Amersfoort","City":"Amersfoort","Street":"Albert Schweitzersingel","HouseNumber":"251","PostalCode":"3822 BV","AdditionalData":[{"value":"Nederland","key":"CountryName"},{"value":"Utrecht","key":"StateName"},{"value":"Amersfoort","key":"CountyName"}]},"MapReference":{"ReferenceId":"907299311","Spot":0.41,"SideOfStreet":"left","CountryId":"23055544","StateId":"23055938","CountyId":"23055975","CityId":"20201487","AddressId":"613766895","RoadLinkId":"267987927"}}},{"Relevance":1.0,"Distance":21.3,"MatchLevel":"houseNumber","MatchQuality":{"Country":1.0,"State":1.0,"County":1.0,"City":1.0,"Street":[1.0],"HouseNumber":1.0,"PostalCode":1.0},"MatchType":"interpolated","Location":{"LocationId":"NT_lSLeWrSf0TXJ9skE6aVUtC_xIzM","LocationType":"point","DisplayPosition":{"Latitude":52.18158,"Longitude":5.40734},"MapView":{"TopLeft":{"Latitude":52.1827042,"Longitude":5.4055066},"BottomRight":{"Latitude":52.1804558,"Longitude":5.4091734}},"Address":{"Label":"Trombonestraat 123, 3822 CW Amersfoort, Nederland","Country":"NLD","State":"Utrecht","County":"Amersfoort","City":"Amersfoort","Street":"Trombonestraat","HouseNumber":"123","PostalCode":"3822 CW","AdditionalData":[{"value":"Nederland","key":"CountryName"},{"value":"Utrecht","key":"StateName"},{"value":"Amersfoort","key":"CountyName"}]},"MapReference":{"ReferenceId":"54927787","Spot":0.52,"SideOfStreet":"right","CountryId":"23055544","StateId":"23055938","CountyId":"23055975","CityId":"20201487","AddressId":"613303060","RoadLinkId":"32393845"}}},{"Relevance":1.0,"Distance":28.9,"MatchLevel":"houseNumber","MatchQuality":{"Country":1.0,"State":1.0,"County":1.0,"City":1.0,"Street":[1.0],"HouseNumber":1.0,"PostalCode":1.0},"MatchType":"interpolated","Location":{"LocationId":"NT_0zDV2Ce5ydtDgb6kIk28VB_yUzM","LocationType":"point","DisplayPosition":{"Latitude":52.18217,"Longitude":5.40809},"MapView":{"TopLeft":{"Latitude":52.1832942,"Longitude":5.4062566},"BottomRight":{"Latitude":52.1810458,"Longitude":5.4099234}},"Address":{"Label":"Albert Schweitzersingel 253, 3822 BV Amersfoort, Nederland","Country":"NLD","State":"Utrecht","County":"Amersfoort","City":"Amersfoort","Street":"Albert Schweitzersingel","HouseNumber":"253","PostalCode":"3822 BV","AdditionalData":[{"value":"Nederland","key":"CountryName"},{"value":"Utrecht","key":"StateName"},{"value":"Amersfoort","key":"CountyName"}]},"MapReference":{"ReferenceId":"907299309","Spot":0.22,"SideOfStreet":"left","CountryId":"23055544","StateId":"23055938","CountyId":"23055975","CityId":"20201487","AddressId":"613766891","RoadLinkId":"267987925"}}},{"Relevance":1.0,"Distance":37.7,"MatchLevel":"houseNumber","MatchQuality":{"Country":1.0,"State":1.0,"County":1.0,"City":1.0,"Street":[1.0],"HouseNumber":1.0,"PostalCode":1.0},"MatchType":"interpolated","Location":{"LocationId":"NT_QM9zUq7Jr212G-IisXyUOA_xAD","LocationType":"point","DisplayPosition":{"Latitude":52.18251,"Longitude":5.40741},"MapView":{"TopLeft":{"Latitude":52.1836342,"Longitude":5.4055766},"BottomRight":{"Latitude":52.1813858,"Longitude":5.4092434}},"Address":{"Label":"Stradivariusstraat 10, 3822 DS Amersfoort, Nederland","Country":"NLD","State":"Utrecht","County":"Amersfoort","City":"Amersfoort","Street":"Stradivariusstraat","HouseNumber":"10","PostalCode":"3822 DS","AdditionalData":[{"value":"Nederland","key":"CountryName"},{"value":"Utrecht","key":"StateName"},{"value":"Amersfoort","key":"CountyName"}]},"MapReference":{"ReferenceId":"1082192561","Spot":0.71,"SideOfStreet":"left","CountryId":"23055544","StateId":"23055938","CountyId":"23055975","CityId":"20201487","AddressId":"613545299","RoadLinkId":"399136544"}}},{"Relevance":1.0,"Distance":38.7,"MatchLevel":"houseNumber","MatchQuality":{"Country":1.0,"State":1.0,"County":1.0,"City":1.0,"Street":[1.0],"HouseNumber":1.0,"PostalCode":1.0},"MatchType":"interpolated","Location":{"LocationId":"NT_Y70dwVmzLFQO.-NIdJryvC_zMDO","LocationType":"point","DisplayPosition":{"Latitude":52.18195,"Longitude":5.40807},"MapView":{"TopLeft":{"Latitude":52.1830742,"Longitude":5.4062366},"BottomRight":{"Latitude":52.1808258,"Longitude":5.4099034}},"Address":{"Label":"Albert Schweitzersingel 338, 3822 BZ Amersfoort, Nederland","Country":"NLD","State":"Utrecht","County":"Amersfoort","City":"Amersfoort","Street":"Albert Schweitzersingel","HouseNumber":"338","PostalCode":"3822 BZ","AdditionalData":[{"value":"Nederland","key":"CountryName"},{"value":"Utrecht","key":"StateName"},{"value":"Amersfoort","key":"CountyName"}]},"MapReference":{"ReferenceId":"907299310","Spot":0.94,"SideOfStreet":"right","CountryId":"23055544","StateId":"23055938","CountyId":"23055975","CityId":"20201487","AddressId":"613766893","RoadLinkId":"267987926"}}},{"Relevance":1.0,"Distance":39.9,"MatchLevel":"houseNumber","MatchQuality":{"Country":1.0,"State":1.0,"County":1.0,"City":1.0,"Street":[1.0],"HouseNumber":1.0,"PostalCode":1.0},"MatchType":"interpolated","Location":{"LocationId":"NT_yj02J6puJNqR-uLf6vhrVA_0A","LocationType":"point","DisplayPosition":{"Latitude":52.18203,"Longitude":5.40669},"MapView":{"TopLeft":{"Latitude":52.1831542,"Longitude":5.4048566},"BottomRight":{"Latitude":52.1809058,"Longitude":5.4085234}},"Address":{"Label":"Spinetpad 4, 3822 DT Amersfoort, Nederland","Country":"NLD","State":"Utrecht","County":"Amersfoort","City":"Amersfoort","Street":"Spinetpad","HouseNumber":"4","PostalCode":"3822 DT","AdditionalData":[{"value":"Nederland","key":"CountryName"},{"value":"Utrecht","key":"StateName"},{"value":"Amersfoort","key":"CountyName"}]},"MapReference":{"ReferenceId":"61292266","Spot":0.47,"SideOfStreet":"right","CountryId":"23055544","StateId":"23055938","CountyId":"23055975","CityId":"20201487","AddressId":"613537610","RoadLinkId":"31840237"}}},{"Relevance":1.0,"Distance":43.8,"MatchLevel":"street","MatchQuality":{"Country":1.0,"State":1.0,"County":1.0,"City":1.0,"Street":[1.0],"PostalCode":1.0},"Location":{"LocationId":"NT_745I-qpaH2Z1h0-rD5ziQD_l_54927786_L","LocationType":"point","DisplayPosition":{"Latitude":52.18177,"Longitude":5.40806},"MapView":{"TopLeft":{"Latitude":52.18177,"Longitude":5.40804},"BottomRight":{"Latitude":52.18156,"Longitude":5.40806}},"Address":{"Label":"Albert Schweitzersingel, 3822 Amersfoort, Nederland","Country":"NLD","State":"Utrecht","County":"Amersfoort","City":"Amersfoort","Street":"Albert Schweitzersingel","PostalCode":"3822","AdditionalData":[{"value":"Nederland","key":"CountryName"},{"value":"Utrecht","key":"StateName"},{"value":"Amersfoort","key":"CountyName"}]},"MapReference":{"ReferenceId":"54927786","Spot":1.0,"SideOfStreet":"left","CountryId":"23055544","StateId":"23055938","CountyId":"23055975","CityId":"20201487"}}},{"Relevance":1.0,"Distance":43.8,"MatchLevel":"street","MatchQuality":{"Country":1.0,"State":1.0,"County":1.0,"City":1.0,"Street":[1.0],"PostalCode":1.0},"Location":{"LocationId":"NT_cjKnt1OYhgtKn6CyJA4anC_l_54927739_R","LocationType":"point","DisplayPosition":{"Latitude":52.18177,"Longitude":5.40806},"MapView":{"TopLeft":{"Latitude":52.18177,"Longitude":5.40806},"BottomRight":{"Latitude":52.18176,"Longitude":5.40822}},"Address":{"Label":"Curiestraat, 3822 Amersfoort, Nederland","Country":"NLD","State":"Utrecht","County":"Amersfoort","City":"Amersfoort","Street":"Curiestraat","PostalCode":"3822","AdditionalData":[{"value":"Nederland","key":"CountryName"},{"value":"Utrecht","key":"StateName"},{"value":"Amersfoort","key":"CountyName"}]},"MapReference":{"ReferenceId":"54927739","Spot":1.0,"SideOfStreet":"right","CountryId":"23055544","StateId":"23055938","CountyId":"23055975","CityId":"20201487"}}},{"Relevance":1.0,"Distance":56.3,"MatchLevel":"street","MatchQuality":{"Country":1.0,"State":1.0,"County":1.0,"City":1.0,"Street":[1.0],"PostalCode":1.0},"Location":{"LocationId":"NT_smDzJCmkaIRMOiGPG3yGwC_l_54927652_L","LocationType":"point","DisplayPosition":{"Latitude":52.18231,"Longitude":5.40811},"MapView":{"TopLeft":{"Latitude":52.18231,"Longitude":5.40811},"BottomRight":{"Latitude":52.1823,"Longitude":5.40829}},"Address":{"Label":"Henry Dunantstraat, 3822 Amersfoort, Nederland","Country":"NLD","State":"Utrecht","County":"Amersfoort","City":"Amersfoort","Street":"Henry Dunantstraat","PostalCode":"3822","AdditionalData":[{"value":"Nederland","key":"CountryName"},{"value":"Utrecht","key":"StateName"},{"value":"Amersfoort","key":"CountyName"}]},"MapReference":{"ReferenceId":"54927652","Spot":1.0,"SideOfStreet":"left","CountryId":"23055544","StateId":"23055938","CountyId":"23055975","CityId":"20201487"}}}]}]}}