{"Response":{"MetaInfo":{"Timestamp":"2020-03-28T10:45:19.154+0000","NextPageInformation":"2"},"View":[{"_type":"SearchResultsViewType","ViewId":0,"Result":[{"Relevance":1.0,"Distance":0.0,"Direction":0.0,"MatchLevel":"postalCode","MatchQuality":{"Country":1.0,"State":1.0,"County":1.0,"PostalCode":1.0},"Location":{"LocationId":"NT_.47bYVBYQuxUUybfSxw3OA","LocationType":"point","DisplayPosition":{"Latitude":52.107829,"Longitude":6.0682706},"MapView":{"TopLeft":{"Latitude":52.1621,"Longitude":6.00609},"BottomRight":{"Latitude":52.05911,"Longitude":6.21842}},"Address":{"Label":"6971 EN, Gelderland, Nederland","Country":"NLD","State":"Gelderland","County":"Brummen","PostalCode":"6971 EN","AdditionalData":[{"value":"Nederland","key":"CountryName"},{"value":"Gelderland","key":"StateName"},{"value":"Brummen","key":"CountyName"}]},"MapReference":{"ReferenceId":"55009057","SideOfStreet":"neither","CountryId":"23055544","StateId":"23055652","CountyId":"23055657"}}},{"Relevance":1.0,"Distance":5.5,"MatchLevel":"houseNumber","MatchQuality":{"Country":1.0,"State":1.0,"County":1.0,"City":1.0,"Street":[1.0],"HouseNumber":1.0,"PostalCode":1.0},"MatchType":"interpolated","Location":{"LocationId":"NT_UiDrm.c1NXFbDTIYk3Od9B_xkD","LocationType":"point","DisplayPosition":{"Latitude":52.10766,"Longitude":6.06864},"MapView":{"TopLeft":{"Latitude":52.1087842,"Longitude":6.0668097},"BottomRight":{"Latitude":52.1065358,"Longitude":6.0704703}},"Address":{"Label":"Smeestraat 19, 6961 DG Eerbeek, Nederland","Country":"NLD","State":"Gelderland","County":"Brummen","City":"Eerbeek","Street":"Smeestraat","HouseNumber":"19","PostalCode":"6961 DG","AdditionalData":[{"value":"Nederland","key":"CountryName"},{"value":"Gelderland","key":"StateName"},{"value":"Brummen","key":"CountyName"}]},"MapReference":{"ReferenceId":"1074710225","Spot":0.1,"SideOfStreet":"left","CountryId":"23055544","StateId":"23055652","CountyId":"23055657","CityId":"20201117","AddressId":"617854254","RoadLinkId":"394940284"}}},{"Relevance":1.0,"Distance":33.5,"MatchLevel":"landmark","MatchQuality":{"Country":1.0,"State":1.0,"County":1.0,"City":1.0,"PostalCode":1.0,"Name":1.0},"Location":{"LocationId":"NT_N3-zJ32zbMUy8SABpEOe3A","LocationType":"woodland","Name":"Huis-te-Eerbeek","DisplayPosition":{"Latitude":52.11054,"Longitude":6.07476},"MapView":{"TopLeft":{"Latitude":52.11479,"Longitude":6.06852},"BottomRight":{"Latitude":52.10628,"Longitude":6.07963}},"Address":{"Label":"6961 CW Eerbeek, Nederland","Country":"NLD","State":"Gelderland","County":"Brummen","City":"Eerbeek","PostalCode":"6961 CW","AdditionalData":[{"value":"Nederland","key":"CountryName"},{"value":"Gelderland","key":"StateName"},{"value":"Brummen","key":"CountyName"}]},"MapReference":{"CountryId":"23055544","StateId":"23055652","CountyId":"23055657","CityId":"20201117","PlaceId":"559419463"}}},{"Relevance":1.0,"Distance":33.5,"MatchLevel":"street","MatchQuality":{"Country":1.0,"State":1.0,"County":1.0,"City":1.0,"Street":[1.0],"PostalCode":1.0},"Location":{"LocationId":"NT_A9S2VdW-LkphP7KXpgyq0B_l_55006430_R","LocationType":"point","DisplayPosition":{"Latitude":52.10757,"Longitude":6.06852},"MapView":{"TopLeft":{"Latitude":52.10757,"Longitude":6.06852},"BottomRight":{"Latitude":52.10751,"Longitude":6.06864}},"Address":{"Label":"Doctor Gunningstraat, 6961 Eerbeek, Nederland","Country":"NLD","State":"Gelderland","County":"Brummen","City":"Eerbeek","Street":"Doctor Gunningstraat","PostalCode":"6961","AdditionalData":[{"value":"Nederland","key":"CountryName"},{"value":"Gelderland","key":"StateName"},{"value":"Brummen","key":"CountyName"}]},"MapReference":{"ReferenceId":"55006430","Spot":1.0,"SideOfStreet":"right","CountryId":"23055544","StateId":"23055652","CountyId":"23055657","CityId":"20201117"}}},{"Relevance":1.0,"Distance":38.5,"MatchLevel":"houseNumber","MatchQuality":{"Country":1.0,"State":1.0,"County":1.0,"City":1.0,"Street":[1.0],"HouseNumber":1.0,"PostalCode":1.0},"MatchType":"interpolated","Location":{"LocationId":"NT_UiDrm.c1NXFbDTIYk3Od9B_xcD","LocationType":"point","DisplayPosition":{"Latitude":52.10732,"Longitude":6.06822},"MapView":{"TopLeft":{"Latitude":52.1084442,"Longitude":6.0663897},"BottomRight":{"Latitude":52.1061958,"Longitude":6.0700503}},"Address":{"Label":"Smeestraat 17, 6961 DG Eerbeek, Nederland","Country":"NLD","State":"Gelderland","County":"Brummen","City":"Eerbeek","Street":"Smeestraat","HouseNumber":"17","PostalCode":"6961 DG","AdditionalData":[{"value":"Nederland","key":"CountryName"},{"value":"Gelderland","key":"StateName"},{"value":"Brummen","key":"CountyName"}]},"MapReference":{"ReferenceId":"55006516","Spot":0.79,"SideOfStreet":"left","CountryId":"23055544","StateId":"23055652","CountyId":"23055657","CityId":"20201117","AddressId":"617815560","RoadLinkId":"31299071"}}},{"Relevance":1.0,"Distance":46.3,"MatchLevel":"street","MatchQuality":{"Country":1.0,"State":1.0,"County":1.0,"City":1.0,"Street":[1.0],"PostalCode":1.0},"Location":{"LocationId":"NT_c1m5wNgQ.MUuTq1vEeqQcB_l_55006442_L","LocationType":"point","DisplayPosition":{"Latitude":52.107426,"Longitude":6.0684385},"MapView":{"TopLeft":{"Latitude":52.10751,"Longitude":6.0684},"BottomRight":{"Latitude":52.10741,"Longitude":6.06864}},"Address":{"Label":"Smeestraat, 6961 Eerbeek, Nederland","Country":"NLD","State":"Gelderland","County":"Brummen","City":"Eerbeek","Street":"Smeestraat","PostalCode":"6961","AdditionalData":[{"value":"Nederland","key":"CountryName"},{"value":"Gelderland","key":"StateName"},{"value":"Brummen","key":"CountyName"}]},"MapReference":{"ReferenceId":"55006442","Spot":0.16,"SideOfStreet":"left","CountryId":"23055544","StateId":"23055652","CountyId":"23055657","CityId":"20201117"}}},{"Relevance":1.0,"Distance":56.8,"MatchLevel":"houseNumber","MatchQuality":{"Country":1.0,"State":1.0,"County":1.0,"City":1.0,"Street":[1.0],"HouseNumber":1.0,"PostalCode":1.0},"MatchType":"interpolated","Location":{"LocationId":"NT_gbNUoEW60lpi7g9bZ0bhuD_xAD","LocationType":"point","DisplayPosition":{"Latitude":52.10742,"Longitude":6.06877},"MapView":{"TopLeft":{"Latitude":52.1085442,"Longitude":6.0669397},"BottomRight":{"Latitude":52.1062958,"Longitude":6.0706003}},"Address":{"Label":"Doctor Gunningstraat 10, 6961 DJ Eerbeek, Nederland","Country":"NLD","State":"Gelderland","County":"Brummen","City":"Eerbeek","Street":"Doctor Gunningstraat","HouseNumber":"10","PostalCode":"6961 DJ","AdditionalData":[{"value":"Nederland","key":"CountryName"},{"value":"Gelderland","key":"StateName"},{"value":"Brummen","key":"CountyName"}]},"MapReference":{"ReferenceId":"55006695","Spot":0.96,"SideOfStreet":"right","CountryId":"23055544","StateId":"23055652","CountyId":"23055657","CityId":"20201117","AddressId":"617899881","RoadLinkId":"32051023"}}},{"Relevance":1.0,"Distance":98.0,"MatchLevel":"houseNumber","MatchQuality":{"Country":1.0,"State":1.0,"County":1.0,"City":1.0,"Street":[1.0],"HouseNumber":1.0,"PostalCode":1.0},"MatchType":"interpolated","Location":{"LocationId":"NT_UiDrm.c1NXFbDTIYk3Od9B_xED","LocationType":"point","DisplayPosition":{"Latitude":52.10709,"Longitude":6.06749},"MapView":{"TopLeft":{"Latitude":52.1082142,"Longitude":6.0656597},"BottomRight":{"Latitude":52.1059658,"Longitude":6.0693203}},"Address":{"Label":"Smeestraat 11, 6961 DG Eerbeek, Nederland","Country":"NLD","State":"Gelderland","County":"Brummen","City":"Eerbeek","Street":"Smeestraat","HouseNumber":"11","PostalCode":"6961 DG","AdditionalData":[{"value":"Nederland","key":"CountryName"},{"value":"Gelderland","key":"StateName"},{"value":"Brummen","key":"CountyName"}]},"MapReference":{"ReferenceId":"999126719","Spot":0.97,"SideOfStreet":"left","CountryId":"23055544","StateId":"23055652","CountyId":"23055657","CityId":"20201117","AddressId":"618003591","RoadLinkId":"325424820"}}},{"Relevance":1.0,"Distance":106.9,"MatchLevel":"houseNumber","MatchQuality":{"Country":1.0,"State":1.0,"County":1.0,"City":1.0,"Street":[1.0],"HouseNumber":1.0,"PostalCode":1.0},"MatchType":"interpolated","Location":{"LocationId":"NT_UiDrm.c1NXFbDTIYk3Od9B_yMTQ","LocationType":"point","DisplayPosition":{"Latitude":52.10869,"Longitude":6.06942},"MapView":{"TopLeft":{"Latitude":52.1098142,"Longitude":6.0675896},"BottomRight":{"Latitude":52.1075658,"Longitude":6.0712504}},"Address":{"Label":"Smeestraat 23A, 6961 DG Eerbeek, Nederland","Country":"NLD","State":"Gelderland","County":"Brummen","City":"Eerbeek","Street":"Smeestraat","HouseNumber":"23A","PostalCode":"6961 DG","AdditionalData":[{"value":"Nederland","key":"CountryName"},{"value":"Gelderland","key":"StateName"},{"value":"Brummen","key":"CountyName"}]},"MapReference":{"ReferenceId":"1074710226","Spot":0.06,"SideOfStreet":"left","CountryId":"23055544","StateId":"23055652","CountyId":"23055657","CityId":"20201117","AddressId":"761835029","RoadLinkId":"394940285"}}},{"Relevance":1.0,"Distance":118.6,"MatchLevel":"street","MatchQuality":{"Country":1.0,"State":1.0,"County":1.0,"City":1.0,"Street":[1.0],"PostalCode":1.0},"Location":{"LocationId":"NT_c1m5wNgQ.MUuTq1vEeqQcB_l_999126718_L","LocationType":"point","DisplayPosition":{"Latitude":52.10698,"Longitude":6.06722},"MapView":{"TopLeft":{"Latitude":52.10698,"Longitude":6.06694},"BottomRight":{"Latitude":52.10688,"Longitude":6.06722}},"Address":{"Label":"Smeestraat, 6961 Eerbeek, Nederland","Country":"NLD","State":"Gelderland","County":"Brummen","City":"Eerbeek","Street":"Smeestraat","PostalCode":"6961","AdditionalData":[{"value":"Nederland","key":"CountryName"},{"value":"Gelderland","key":"StateName"},{"value":"Brummen","key":"CountyName"}]},"MapReference":{"ReferenceId":"999126718","Spot":1.0,"SideOfStreet":"left","CountryId":"23055544","StateId":"23055652","CountyId":"23055657","CityId":"20201117"}}}]}]}}