{"Response":{"MetaInfo":{"Timestamp":"2020-03-28T11:28:44.893+0000","NextPageInformation":"2"},"View":[{"_type":"SearchResultsViewType","ViewId":0,"Result":[{"Relevance":1.0,"Distance":-8.2,"MatchLevel":"landmark","MatchQuality":{"Country":1.0,"State":1.0,"County":1.0,"City":1.0,"Street":[1.0],"HouseNumber":1.0,"PostalCode":1.0,"Name":1.0},"Location":{"LocationId":"NT_O8vyMM0JB10G9xOODi80EB_p_bwyxhdCh5q7euRiLhuqSZD","LocationType":"hospital","Name":"Gelre Ziekenhuizen/Lucas","DisplayPosition":{"Latitude":52.18173,"Longitude":5.94707},"MapView":{"TopLeft":{"Latitude":52.1828542,"Longitude":5.9452366},"BottomRight":{"Latitude":52.1806058,"Longitude":5.9489034}},"Address":{"Label":"Albert Schweitzerlaan 31, 7334 DZ Apeldoorn, Nederland","Country":"NLD","State":"Gelderland","County":"Apeldoorn","City":"Apeldoorn","Street":"Albert Schweitzerlaan","HouseNumber":"31","PostalCode":"7334 DZ","AdditionalData":[{"value":"Nederland","key":"CountryName"},{"value":"Gelderland","key":"StateName"},{"value":"Apeldoorn","key":"CountyName"}]},"MapReference":{"CountryId":"23055544","StateId":"23055652","CountyId":"23055498","CityId":"20201060","PlaceId":"50866533"}}},{"Relevance":1.0,"Distance":0.0,"Direction":0.0,"MatchLevel":"city","MatchQuality":{"Country":1.0,"State":1.0,"County":1.0,"City":1.0,"PostalCode":1.0},"Location":{"LocationId":"NT_kKM-DKzvFp8AY2HtSZG5iD","LocationType":"point","DisplayPosition":{"Latitude":52.1816343,"Longitude":5.9444701},"MapView":{"TopLeft":{"Latitude":52.24948,"Longitude":5.91633},"BottomRight":{"Latitude":52.17254,"Longitude":6.04805}},"Address":{"Label":"Apeldoorn, Gelderland, Nederland","Country":"NLD","State":"Gelderland","County":"Apeldoorn","City":"Apeldoorn","PostalCode":"7311 LW","AdditionalData":[{"value":"Nederland","key":"CountryName"},{"value":"Gelderland","key":"StateName"},{"value":"Apeldoorn","key":"CountyName"}]},"MapReference":{"ReferenceId":"572346049","SideOfStreet":"neither","CountryId":"23055544","StateId":"23055652","CountyId":"23055498","CityId":"20201060"}}},{"Relevance":1.0,"Distance":2.0,"MatchLevel":"street","MatchQuality":{"Country":1.0,"State":1.0,"County":1.0,"City":1.0,"PostalCode":1.0},"Location":{"LocationId":"NT_sHryOHHgBcNsFS368KeGLD_l_1203115687_L","LocationType":"point","DisplayPosition":{"Latitude":52.1816231,"Longitude":5.9444468},"MapView":{"TopLeft":{"Latitude":52.1817,"Longitude":5.94441},"BottomRight":{"Latitude":52.18122,"Longitude":5.94629}},"Address":{"Label":"7339 Apeldoorn, Nederland","Country":"NLD","State":"Gelderland","County":"Apeldoorn","City":"Apeldoorn","PostalCode":"7339","AdditionalData":[{"value":"Nederland","key":"CountryName"},{"value":"Gelderland","key":"StateName"},{"value":"Apeldoorn","key":"CountyName"}]},"MapReference":{"ReferenceId":"1203115687","Spot":0.96,"SideOfStreet":"neither","CountryId":"23055544","StateId":"23055652","CountyId":"23055498","CityId":"20201060"}}},{"Relevance":1.0,"Distance":7.6,"MatchLevel":"street","MatchQuality":{"Country":1.0,"State":1.0,"County":1.0,"City":1.0,"PostalCode":1.0},"Location":{"LocationId":"NT_sHryOHHgBcNsFS368KeGLD_l_1202289019_L","LocationType":"point","DisplayPosition":{"Latitude":52.1816859,"Longitude":5.9445439},"MapView":{"TopLeft":{"Latitude":52.18172,"Longitude":5.94452},"BottomRight":{"Latitude":52.18162,"Longitude":5.94459}},"Address":{"Label":"7339 Apeldoorn, Nederland","Country":"NLD","State":"Gelderland","County":"Apeldoorn","City":"Apeldoorn","PostalCode":"7339","AdditionalData":[{"value":"Nederland","key":"CountryName"},{"value":"Gelderland","key":"StateName"},{"value":"Apeldoorn","key":"CountyName"}]},"MapReference":{"ReferenceId":"1202289019","Spot":0.66,"SideOfStreet":"left","CountryId":"23055544","StateId":"23055652","CountyId":"23055498","CityId":"20201060"}}},{"Relevance":1.0,"Distance":8.3,"MatchLevel":"street","MatchQuality":{"Country":1.0,"State":1.0,"County":1.0,"City":1.0,"Street":[1.0],"PostalCode":1.0},"Location":{"LocationId":"NT_FjzQ8FviU7NXY9gj3tvdlC_l_1203115689_R","LocationType":"point","DisplayPosition":{"Latitude":52.1817085,"Longitude":5.9444566},"MapView":{"TopLeft":{"Latitude":52.18172,"Longitude":5.94441},"BottomRight":{"Latitude":52.1817,"Longitude":5.94452}},"Address":{"Label":"Albert Schweitzerlaan, 7339 Apeldoorn, Nederland","Country":"NLD","State":"Gelderland","County":"Apeldoorn","City":"Apeldoorn","Street":"Albert Schweitzerlaan","PostalCode":"7339","AdditionalData":[{"value":"Nederland","key":"CountryName"},{"value":"Gelderland","key":"StateName"},{"value":"Apeldoorn","key":"CountyName"}]},"MapReference":{"ReferenceId":"1203115689","Spot":0.42,"SideOfStreet":"right","CountryId":"23055544","StateId":"23055652","CountyId":"23055498","CityId":"20201060"}}},{"Relevance":1.0,"Distance":8.3,"MatchLevel":"street","MatchQuality":{"Country":1.0,"State":1.0,"County":1.0,"City":1.0,"PostalCode":1.0},"Location":{"LocationId":"NT_sHryOHHgBcNsFS368KeGLD_l_1202289022_L","LocationType":"point","DisplayPosition":{"Latitude":52.18162,"Longitude":5.94459},"MapView":{"TopLeft":{"Latitude":52.18162,"Longitude":5.94459},"BottomRight":{"Latitude":52.18148,"Longitude":5.94467}},"Address":{"Label":"7339 Apeldoorn, Nederland","Country":"NLD","State":"Gelderland","County":"Apeldoorn","City":"Apeldoorn","PostalCode":"7339","AdditionalData":[{"value":"Nederland","key":"CountryName"},{"value":"Gelderland","key":"StateName"},{"value":"Apeldoorn","key":"CountyName"}]},"MapReference":{"ReferenceId":"1202289022","Spot":1.0,"SideOfStreet":"left","CountryId":"23055544","StateId":"23055652","CountyId":"23055498","CityId":"20201060"}}},{"Relevance":1.0,"Distance":8.3,"MatchLevel":"street","MatchQuality":{"Country":1.0,"State":1.0,"County":1.0,"City":1.0,"PostalCode":1.0},"Location":{"LocationId":"NT_sHryOHHgBcNsFS368KeGLD_l_1202289020_L","LocationType":"point","DisplayPosition":{"Latitude":52.18162,"Longitude":5.94459},"MapView":{"TopLeft":{"Latitude":52.18192,"Longitude":5.94459},"BottomRight":{"Latitude":52.18162,"Longitude":5.94638}},"Address":{"Label":"7339 Apeldoorn, Nederland","Country":"NLD","State":"Gelderland","County":"Apeldoorn","City":"Apeldoorn","PostalCode":"7339","AdditionalData":[{"value":"Nederland","key":"CountryName"},{"value":"Gelderland","key":"StateName"},{"value":"Apeldoorn","key":"CountyName"}]},"MapReference":{"ReferenceId":"1202289020","Spot":0.0,"SideOfStreet":"left","CountryId":"23055544","StateId":"23055652","CountyId":"23055498","CityId":"20201060"}}},{"Relevance":1.0,"Distance":8.4,"MatchLevel":"street","MatchQuality":{"Country":1.0,"State":1.0,"County":1.0,"City":1.0,"Street":[1.0],"PostalCode":1.0},"Location":{"LocationId":"NT_FjzQ8FviU7NXY9gj3tvdlC_l_1209954322_R","LocationType":"point","DisplayPosition":{"Latitude":52.1817,"Longitude":5.94441},"MapView":{"TopLeft":{"Latitude":52.1817,"Longitude":5.94428},"BottomRight":{"Latitude":52.18165,"Longitude":5.94441}},"Address":{"Label":"Albert Schweitzerlaan, 7339 Apeldoorn, Nederland","Country":"NLD","State":"Gelderland","County":"Apeldoorn","City":"Apeldoorn","Street":"Albert Schweitzerlaan","PostalCode":"7339","AdditionalData":[{"value":"Nederland","key":"CountryName"},{"value":"Gelderland","key":"StateName"},{"value":"Apeldoorn","key":"CountyName"}]},"MapReference":{"ReferenceId":"1209954322","Spot":1.0,"SideOfStreet":"right","CountryId":"23055544","StateId":"23055652","CountyId":"23055498","CityId":"20201060"}}},{"Relevance":1.0,"Distance":10.1,"MatchLevel":"street","MatchQuality":{"Country":1.0,"State":1.0,"County":1.0,"City":1.0,"Street":[1.0],"PostalCode":1.0},"Location":{"LocationId":"NT_FjzQ8FviU7NXY9gj3tvdlC_l_1202289018_R","LocationType":"point","DisplayPosition":{"Latitude":52.18172,"Longitude":5.94452},"MapView":{"TopLeft":{"Latitude":52.18184,"Longitude":5.94452},"BottomRight":{"Latitude":52.18172,"Longitude":5.94535}},"Address":{"Label":"Albert Schweitzerlaan, 7339 Apeldoorn, Nederland","Country":"NLD","State":"Gelderland","County":"Apeldoorn","City":"Apeldoorn","Street":"Albert Schweitzerlaan","PostalCode":"7339","AdditionalData":[{"value":"Nederland","key":"CountryName"},{"value":"Gelderland","key":"StateName"},{"value":"Apeldoorn","key":"CountyName"}]},"MapReference":{"ReferenceId":"1202289018","Spot":0.0,"SideOfStreet":"right","CountryId":"23055544","StateId":"23055652","CountyId":"23055498","CityId":"20201060"}}},{"Relevance":1.0,"Distance":13.1,"MatchLevel":"street","MatchQuality":{"Country":1.0,"State":1.0,"County":1.0,"City":1.0,"Street":[1.0],"PostalCode":1.0},"Location":{"LocationId":"NT_FjzQ8FviU7NXY9gj3tvdlC_l_1210897594_R","LocationType":"point","DisplayPosition":{"Latitude":52.18165,"Longitude":5.94428},"MapView":{"TopLeft":{"Latitude":52.18206,"Longitude":5.94401},"BottomRight":{"Latitude":52.18165,"Longitude":5.94525}},"Address":{"Label":"Albert Schweitzerlaan, 7339 Ugchelen, Nederland","Country":"NLD","State":"Gelderland","County":"Apeldoorn","City":"Ugchelen","Street":"Albert Schweitzerlaan","PostalCode":"7339","AdditionalData":[{"value":"Nederland","key":"CountryName"},{"value":"Gelderland","key":"StateName"},{"value":"Apeldoorn","key":"CountyName"}]},"MapReference":{"ReferenceId":"1210897594","Spot":0.0,"SideOfStreet":"right","CountryId":"23055544","StateId":"23055652","CountyId":"23055498","CityId":"20856338"}}}]}]}}