{"Response":{"MetaInfo":{"Timestamp":"2020-03-28T10:33:32.992+0000","NextPageInformation":"2"},"View":[{"_type":"SearchResultsViewType","ViewId":0,"Result":[{"Relevance":1.0,"Distance":0.0,"Direction":0.0,"MatchLevel":"district","MatchQuality":{"Country":1.0,"State":1.0,"County":1.0,"City":1.0,"District":1.0,"PostalCode":1.0},"Location":{"LocationId":"NT_zGdjWlTEU5BOn2DX39ek0A","LocationType":"point","DisplayPosition":{"Latitude":52.1862798,"Longitude":0.1549207},"MapView":{"TopLeft":{"Latitude":52.23882,"Longitude":0.07746},"BottomRight":{"Latitude":52.16444,"Longitude":0.18852}},"Address":{"Label":"Cambridge, England, United Kingdom","Country":"GBR","State":"England","County":"Cambridgeshire","City":"Cambridge","District":"Cambridge","PostalCode":"CB3 9","AdditionalData":[{"value":"United Kingdom","key":"CountryName"},{"value":"England","key":"StateName"},{"value":"Cambridgeshire","key":"CountyName"}]},"MapReference":{"ReferenceId":"1225638096","SideOfStreet":"neither","StateId":"20248595","CountyId":"20335089","CityId":"20335090","DistrictId":"20335091"}}},{"Relevance":1.0,"Distance":15.9,"MatchLevel":"houseNumber","MatchQuality":{"Country":1.0,"State":1.0,"County":1.0,"City":1.0,"District":1.0,"Street":[1.0],"HouseNumber":1.0,"PostalCode":1.0},"MatchType":"interpolated","Location":{"LocationId":"NT_ZNnPC.79pNWaJofvf3.UbA_l_565676835_L_zYjN","LocationType":"point","DisplayPosition":{"Latitude":52.186416,"Longitude":0.155171},"MapView":{"TopLeft":{"Latitude":52.1875402,"Longitude":0.1533374},"BottomRight":{"Latitude":52.1852918,"Longitude":0.1570046}},"Address":{"Label":"366 Cherry Hinton Road, Cambridge, CB1 8BA, United Kingdom","Country":"GBR","State":"England","County":"Cambridgeshire","City":"Cambridge","District":"Cambridge","Street":"Cherry Hinton Road","HouseNumber":"366","PostalCode":"CB1 8BA","AdditionalData":[{"value":"United Kingdom","key":"CountryName"},{"value":"England","key":"StateName"},{"value":"Cambridgeshire","key":"CountyName"}]},"MapReference":{"ReferenceId":"565676835","Spot":0.67,"SideOfStreet":"left","StateId":"20248595","CountyId":"20335089","CityId":"20335090","DistrictId":"20335091"}}},{"Relevance":1.0,"Distance":20.0,"MatchLevel":"landmark","MatchQuality":{"Country":1.0,"State":1.0,"County":1.0,"City":1.0,"District":1.0,"Street":[1.0],"PostalCode":1.0,"Name":1.0},"Location":{"LocationId":"NT_.d1nM2f9Gjr.a4gWGhDUUD_p_BuDI2ECcIJA6mjnfDLRNXB","LocationType":"shoppingCentre","Name":"The Paddocks","DisplayPosition":{"Latitude":52.18842,"Longitude":0.1557},"MapView":{"TopLeft":{"Latitude":52.18898,"Longitude":0.15409},"BottomRight":{"Latitude":52.18646,"Longitude":0.15671}},"Address":{"Label":"The Paddocks, Cambridge, CB1 8, United Kingdom","Country":"GBR","State":"England","County":"Cambridgeshire","City":"Cambridge","District":"Cambridge","Street":"The Paddocks","PostalCode":"CB1 8","AdditionalData":[{"value":"United Kingdom","key":"CountryName"},{"value":"England","key":"StateName"},{"value":"Cambridgeshire","key":"CountyName"}]},"MapReference":{"StateId":"20248595","CountyId":"20335089","CityId":"20335090","DistrictId":"20335091","PlaceId":"1001094876"}}},{"Relevance":1.0,"Distance":20.0,"MatchLevel":"street","MatchQuality":{"Country":1.0,"State":1.0,"County":1.0,"City":1.0,"District":1.0,"Street":[1.0],"PostalCode":1.0},"Location":{"LocationId":"NT_ksLLwLyPQC5aoFC3eNGxLA_l_774478010_L","LocationType":"point","DisplayPosition":{"Latitude":52.18646,"Longitude":0.15493},"MapView":{"TopLeft":{"Latitude":52.18648,"Longitude":0.1548},"BottomRight":{"Latitude":52.18646,"Longitude":0.15493}},"Address":{"Label":"Cherry Hinton Road, Cambridge, CB1 8, United Kingdom","Country":"GBR","State":"England","County":"Cambridgeshire","City":"Cambridge","District":"Cambridge","Street":"Cherry Hinton Road","PostalCode":"CB1 8","AdditionalData":[{"value":"United Kingdom","key":"CountryName"},{"value":"England","key":"StateName"},{"value":"Cambridgeshire","key":"CountyName"}]},"MapReference":{"ReferenceId":"774478010","Spot":0.0,"SideOfStreet":"left","StateId":"20248595","CountyId":"20335089","CityId":"20335090","DistrictId":"20335091"}}},{"Relevance":1.0,"Distance":20.0,"MatchLevel":"street","MatchQuality":{"Country":1.0,"State":1.0,"County":1.0,"City":1.0,"District":1.0,"Street":[1.0],"PostalCode":1.0},"Location":{"LocationId":"NT_jBi7Ai8eTIhn5bBnm7mSiA_l_774478013_R","LocationType":"point","DisplayPosition":{"Latitude":52.18646,"Longitude":0.15493},"MapView":{"TopLeft":{"Latitude":52.18711,"Longitude":0.15493},"BottomRight":{"Latitude":52.18646,"Longitude":0.15519}},"Address":{"Label":"The Paddocks, Cambridge, CB1 8, United Kingdom","Country":"GBR","State":"England","County":"Cambridgeshire","City":"Cambridge","District":"Cambridge","Street":"The Paddocks","PostalCode":"CB1 8","AdditionalData":[{"value":"United Kingdom","key":"CountryName"},{"value":"England","key":"StateName"},{"value":"Cambridgeshire","key":"CountyName"}]},"MapReference":{"ReferenceId":"774478013","Spot":0.0,"SideOfStreet":"right","StateId":"20248595","CountyId":"20335089","CityId":"20335090","DistrictId":"20335091"}}},{"Relevance":1.0,"Distance":21.5,"MatchLevel":"houseNumber","MatchQuality":{"Country":1.0,"State":1.0,"County":1.0,"City":1.0,"District":1.0,"Street":[1.0],"HouseNumber":1.0,"PostalCode":1.0},"MatchType":"interpolated","Location":{"LocationId":"NT_4T1Hztslmesb6I858K6HkD_l_774478011_L_zYDN","LocationType":"point","DisplayPosition":{"Latitude":52.186501,"Longitude":0.1546583},"MapView":{"TopLeft":{"Latitude":52.1876251,"Longitude":0.1528247},"BottomRight":{"Latitude":52.1853768,"Longitude":0.1564919}},"Address":{"Label":"364 Cherry Hinton Road, Cambridge, CB1 8BA, United Kingdom","Country":"GBR","State":"England","County":"Cambridgeshire","City":"Cambridge","District":"Cambridge","Street":"Cherry Hinton Road","HouseNumber":"364","PostalCode":"CB1 8BA","AdditionalData":[{"value":"United Kingdom","key":"CountryName"},{"value":"England","key":"StateName"},{"value":"Cambridgeshire","key":"CountyName"}]},"MapReference":{"ReferenceId":"774478011","Spot":0.52,"SideOfStreet":"left","StateId":"20248595","CountyId":"20335089","CityId":"20335090","DistrictId":"20335091"}}},{"Relevance":1.0,"Distance":35.5,"MatchLevel":"houseNumber","MatchQuality":{"Country":1.0,"State":1.0,"County":1.0,"City":1.0,"District":1.0,"Street":[1.0],"HouseNumber":1.0,"PostalCode":1.0},"MatchType":"interpolated","Location":{"LocationId":"NT_JX4vF697GGcQjoqP1d3HkD_l_746733208_L_zUDN","LocationType":"point","DisplayPosition":{"Latitude":52.1865312,"Longitude":0.1544569},"MapView":{"TopLeft":{"Latitude":52.1876554,"Longitude":0.1526233},"BottomRight":{"Latitude":52.1854071,"Longitude":0.1562905}},"Address":{"Label":"354 Cherry Hinton Road, Cambridge, CB1 7, United Kingdom","Country":"GBR","State":"England","County":"Cambridgeshire","City":"Cambridge","District":"Cambridge","Street":"Cherry Hinton Road","HouseNumber":"354","PostalCode":"CB1 7","AdditionalData":[{"value":"United Kingdom","key":"CountryName"},{"value":"England","key":"StateName"},{"value":"Cambridgeshire","key":"CountyName"}]},"MapReference":{"ReferenceId":"746733208","Spot":0.56,"SideOfStreet":"left","StateId":"20248595","CountyId":"20335089","CityId":"20335090","DistrictId":"20335091"}}},{"Relevance":1.0,"Distance":36.2,"MatchLevel":"houseNumber","MatchQuality":{"Country":1.0,"State":1.0,"County":1.0,"City":1.0,"District":1.0,"Street":[1.0],"HouseNumber":1.0,"PostalCode":1.0},"MatchType":"interpolated","Location":{"LocationId":"NT_OBfeilZK0nyFIEo1XfU-qB_l_1125380126_R_xA","LocationType":"point","DisplayPosition":{"Latitude":52.1861562,"Longitude":0.1543431},"MapView":{"TopLeft":{"Latitude":52.1872803,"Longitude":0.1525095},"BottomRight":{"Latitude":52.185032,"Longitude":0.1561766}},"Address":{"Label":"1 Wulfstan Way, Cambridge, CB1 8, United Kingdom","Country":"GBR","State":"England","County":"Cambridgeshire","City":"Cambridge","District":"Cambridge","Street":"Wulfstan Way","HouseNumber":"1","PostalCode":"CB1 8","AdditionalData":[{"value":"United Kingdom","key":"CountryName"},{"value":"England","key":"StateName"},{"value":"Cambridgeshire","key":"CountyName"}]},"MapReference":{"ReferenceId":"1125380126","Spot":0.69,"SideOfStreet":"right","StateId":"20248595","CountyId":"20335089","CityId":"20335090","DistrictId":"20335091"}}},{"Relevance":1.0,"Distance":45.8,"MatchLevel":"street","MatchQuality":{"Country":1.0,"State":1.0,"County":1.0,"City":1.0,"District":1.0,"Street":[1.0],"PostalCode":1.0},"Location":{"LocationId":"NT_YBAGlw2AWAa8aD00AbJjQD_l_746733210_R","LocationType":"point","DisplayPosition":{"Latitude":52.18654,"Longitude":0.1544},"MapView":{"TopLeft":{"Latitude":52.18674,"Longitude":0.15404},"BottomRight":{"Latitude":52.18654,"Longitude":0.15441}},"Address":{"Label":"Brooklyn Court, Cambridge, CB1 7, United Kingdom","Country":"GBR","State":"England","County":"Cambridgeshire","City":"Cambridge","District":"Cambridge","Street":"Brooklyn Court","PostalCode":"CB1 7","AdditionalData":[{"value":"United Kingdom","key":"CountryName"},{"value":"England","key":"StateName"},{"value":"Cambridgeshire","key":"CountyName"}]},"MapReference":{"ReferenceId":"746733210","Spot":0.0,"SideOfStreet":"right","StateId":"20248595","CountyId":"20335089","CityId":"20335090","DistrictId":"20335091"}}},{"Relevance":1.0,"Distance":46.8,"MatchLevel":"houseNumber","MatchQuality":{"Country":1.0,"State":1.0,"County":1.0,"City":1.0,"District":1.0,"Street":[1.0],"HouseNumber":1.0,"PostalCode":1.0},"MatchType":"interpolated","Location":{"LocationId":"NT_JX4vF697GGcQjoqP1d3HkD_l_1002689872_L_zUjM","LocationType":"point","DisplayPosition":{"Latitude":52.1865565,"Longitude":0.1542952},"MapView":{"TopLeft":{"Latitude":52.1876807,"Longitude":0.1524616},"BottomRight":{"Latitude":52.1854324,"Longitude":0.1561288}},"Address":{"Label":"352 Cherry Hinton Road, Cambridge, CB1 7, United Kingdom","Country":"GBR","State":"England","County":"Cambridgeshire","City":"Cambridge","District":"Cambridge","Street":"Cherry Hinton Road","HouseNumber":"352","PostalCode":"CB1 7","AdditionalData":[{"value":"United Kingdom","key":"CountryName"},{"value":"England","key":"StateName"},{"value":"Cambridgeshire","key":"CountyName"}]},"MapReference":{"ReferenceId":"1002689872","Spot":0.55,"SideOfStreet":"left","StateId":"20248595","CountyId":"20335089","CityId":"20335090","DistrictId":"20335091"}}}]}]}}