{"Response":{"MetaInfo":{"Timestamp":"2020-03-28T11:28:37.007+0000","NextPageInformation":"2"},"View":[{"_type":"SearchResultsViewType","ViewId":0,"Result":[{"Relevance":1.0,"Distance":0.0,"Direction":0.0,"MatchLevel":"city","MatchQuality":{"Country":1.0,"State":1.0,"County":1.0,"City":1.0,"PostalCode":1.0},"Location":{"LocationId":"NT_YrFdPoB9k6kvgzt9vrzXGC","LocationType":"point","DisplayPosition":{"Latitude":52.1553499,"Longitude":4.5408376},"MapView":{"TopLeft":{"Latitude":52.17563,"Longitude":4.51469},"BottomRight":{"Latitude":52.13958,"Longitude":4.55056}},"Address":{"Label":"Leiderdorp, Zuid-Holland, Nederland","Country":"NLD","State":"Zuid-Holland","County":"Leiderdorp","City":"Leiderdorp","PostalCode":"2351","AdditionalData":[{"value":"Nederland","key":"CountryName"},{"value":"Zuid-Holland","key":"StateName"},{"value":"Leiderdorp","key":"CountyName"}]},"MapReference":{"ReferenceId":"1222164953","SideOfStreet":"neither","CountryId":"23055544","StateId":"23055596","CountyId":"23055762","CityId":"20202123"}}},{"Relevance":1.0,"Distance":8.4,"MatchLevel":"street","MatchQuality":{"Country":1.0,"State":1.0,"County":1.0,"City":1.0,"PostalCode":1.0},"Location":{"LocationId":"NT_i2YjS96YovV0pPUSkmevVD_l_781766245_R","LocationType":"point","DisplayPosition":{"Latitude":52.1554,"Longitude":4.54093},"MapView":{"TopLeft":{"Latitude":52.1556,"Longitude":4.54093},"BottomRight":{"Latitude":52.1554,"Longitude":4.54136}},"Address":{"Label":"2353 Leiderdorp, Nederland","Country":"NLD","State":"Zuid-Holland","County":"Leiderdorp","City":"Leiderdorp","PostalCode":"2353","AdditionalData":[{"value":"Nederland","key":"CountryName"},{"value":"Zuid-Holland","key":"StateName"},{"value":"Leiderdorp","key":"CountyName"}]},"MapReference":{"ReferenceId":"781766245","Spot":0.0,"SideOfStreet":"right","CountryId":"23055544","StateId":"23055596","CountyId":"23055762","CityId":"20202123"}}},{"Relevance":1.0,"Distance":8.9,"MatchLevel":"landmark","MatchQuality":{"Country":1.0,"State":1.0,"County":1.0,"City":1.0,"Street":[1.0],"HouseNumber":1.0,"PostalCode":1.0,"Name":1.0},"Location":{"LocationId":"NT_2tt-ZjkN45-Oi1A5apZF9D_p_eCWb9HIOHWzBmol3iDuyRB","LocationType":"hospital","Name":"Alrijne Ziekenhuis Leiderdorp","DisplayPosition":{"Latitude":52.15736,"Longitude":4.54105},"MapView":{"TopLeft":{"Latitude":52.1584842,"Longitude":4.5392176},"BottomRight":{"Latitude":52.1562358,"Longitude":4.5428824}},"Address":{"Label":"Simon Smitweg 1, 2353 GA Leiderdorp, Nederland","Country":"NLD","State":"Zuid-Holland","County":"Leiderdorp","City":"Leiderdorp","Street":"Simon Smitweg","HouseNumber":"1","PostalCode":"2353 GA","AdditionalData":[{"value":"Nederland","key":"CountryName"},{"value":"Zuid-Holland","key":"StateName"},{"value":"Leiderdorp","key":"CountyName"}]},"MapReference":{"CountryId":"23055544","StateId":"23055596","CountyId":"23055762","CityId":"20202123","PlaceId":"50864652"}}},{"Relevance":1.0,"Distance":8.9,"MatchLevel":"street","MatchQuality":{"Country":1.0,"State":1.0,"County":1.0,"City":1.0,"PostalCode":1.0},"Location":{"LocationId":"NT_i2YjS96YovV0pPUSkmevVD_l_781766241_L","LocationType":"point","DisplayPosition":{"Latitude":52.1554265,"Longitude":4.5408737},"MapView":{"TopLeft":{"Latitude":52.15548,"Longitude":4.54076},"BottomRight":{"Latitude":52.1554,"Longitude":4.54093}},"Address":{"Label":"2353 Leiderdorp, Nederland","Country":"NLD","State":"Zuid-Holland","County":"Leiderdorp","City":"Leiderdorp","PostalCode":"2353","AdditionalData":[{"value":"Nederland","key":"CountryName"},{"value":"Zuid-Holland","key":"StateName"},{"value":"Leiderdorp","key":"CountyName"}]},"MapReference":{"ReferenceId":"781766241","Spot":0.33,"SideOfStreet":"left","CountryId":"23055544","StateId":"23055596","CountyId":"23055762","CityId":"20202123"}}},{"Relevance":1.0,"Distance":11.3,"MatchLevel":"street","MatchQuality":{"Country":1.0,"State":1.0,"County":1.0,"City":1.0,"Street":[1.0],"PostalCode":1.0},"Location":{"LocationId":"NT_yf93EYmgNhXJ4MuBnsYV9C_l_1272008866_L","LocationType":"point","DisplayPosition":{"Latitude":52.1552519,"Longitude":4.540884},"MapView":{"TopLeft":{"Latitude":52.15534,"Longitude":4.5405},"BottomRight":{"Latitude":52.15507,"Longitude":4.54107}},"Address":{"Label":"Simon Smitweg, 2353 Leiderdorp, Nederland","Country":"NLD","State":"Zuid-Holland","County":"Leiderdorp","City":"Leiderdorp","Street":"Simon Smitweg","PostalCode":"2353","AdditionalData":[{"value":"Nederland","key":"CountryName"},{"value":"Zuid-Holland","key":"StateName"},{"value":"Leiderdorp","key":"CountyName"}]},"MapReference":{"ReferenceId":"1272008866","Spot":0.67,"SideOfStreet":"left","CountryId":"23055544","StateId":"23055596","CountyId":"23055762","CityId":"20202123"}}},{"Relevance":1.0,"Distance":15.4,"MatchLevel":"street","MatchQuality":{"Country":1.0,"State":1.0,"County":1.0,"City":1.0,"PostalCode":1.0},"Location":{"LocationId":"NT_i2YjS96YovV0pPUSkmevVD_l_781766242_L","LocationType":"point","DisplayPosition":{"Latitude":52.15548,"Longitude":4.54076},"MapView":{"TopLeft":{"Latitude":52.15558,"Longitude":4.54055},"BottomRight":{"Latitude":52.15548,"Longitude":4.54076}},"Address":{"Label":"2353 Leiderdorp, Nederland","Country":"NLD","State":"Zuid-Holland","County":"Leiderdorp","City":"Leiderdorp","PostalCode":"2353","AdditionalData":[{"value":"Nederland","key":"CountryName"},{"value":"Zuid-Holland","key":"StateName"},{"value":"Leiderdorp","key":"CountyName"}]},"MapReference":{"ReferenceId":"781766242","Spot":0.0,"SideOfStreet":"left","CountryId":"23055544","StateId":"23055596","CountyId":"23055762","CityId":"20202123"}}},{"Relevance":1.0,"Distance":15.9,"MatchLevel":"street","MatchQuality":{"Country":1.0,"State":1.0,"County":1.0,"City":1.0,"PostalCode":1.0},"Location":{"LocationId":"NT_i2YjS96YovV0pPUSkmevVD_l_781766243_R","LocationType":"point","DisplayPosition":{"Latitude":52.1554876,"Longitude":4.5407774},"MapView":{"TopLeft":{"Latitude":52.15569,"Longitude":4.54076},"BottomRight":{"Latitude":52.15548,"Longitude":4.54124}},"Address":{"Label":"2353 Leiderdorp, Nederland","Country":"NLD","State":"Zuid-Holland","County":"Leiderdorp","City":"Leiderdorp","PostalCode":"2353","AdditionalData":[{"value":"Nederland","key":"CountryName"},{"value":"Zuid-Holland","key":"StateName"},{"value":"Leiderdorp","key":"CountyName"}]},"MapReference":{"ReferenceId":"781766243","Spot":0.04,"SideOfStreet":"right","CountryId":"23055544","StateId":"23055596","CountyId":"23055762","CityId":"20202123"}}},{"Relevance":1.0,"Distance":32.2,"MatchLevel":"street","MatchQuality":{"Country":1.0,"State":1.0,"County":1.0,"City":1.0,"PostalCode":1.0},"Location":{"LocationId":"NT_i2YjS96YovV0pPUSkmevVD_l_781766239_L","LocationType":"point","DisplayPosition":{"Latitude":52.15558,"Longitude":4.54055},"MapView":{"TopLeft":{"Latitude":52.15568,"Longitude":4.54034},"BottomRight":{"Latitude":52.15558,"Longitude":4.54055}},"Address":{"Label":"2353 Leiderdorp, Nederland","Country":"NLD","State":"Zuid-Holland","County":"Leiderdorp","City":"Leiderdorp","PostalCode":"2353","AdditionalData":[{"value":"Nederland","key":"CountryName"},{"value":"Zuid-Holland","key":"StateName"},{"value":"Leiderdorp","key":"CountyName"}]},"MapReference":{"ReferenceId":"781766239","Spot":0.0,"SideOfStreet":"left","CountryId":"23055544","StateId":"23055596","CountyId":"23055762","CityId":"20202123"}}},{"Relevance":1.0,"Distance":34.6,"MatchLevel":"street","MatchQuality":{"Country":1.0,"State":1.0,"County":1.0,"City":1.0,"PostalCode":1.0},"Location":{"LocationId":"NT_i2YjS96YovV0pPUSkmevVD_l_781766240_R","LocationType":"point","DisplayPosition":{"Latitude":52.155649,"Longitude":4.5406995},"MapView":{"TopLeft":{"Latitude":52.15582,"Longitude":4.54055},"BottomRight":{"Latitude":52.15558,"Longitude":4.54107}},"Address":{"Label":"2353 Leiderdorp, Nederland","Country":"NLD","State":"Zuid-Holland","County":"Leiderdorp","City":"Leiderdorp","PostalCode":"2353","AdditionalData":[{"value":"Nederland","key":"CountryName"},{"value":"Zuid-Holland","key":"StateName"},{"value":"Leiderdorp","key":"CountyName"}]},"MapReference":{"ReferenceId":"781766240","Spot":0.29,"SideOfStreet":"right","CountryId":"23055544","StateId":"23055596","CountyId":"23055762","CityId":"20202123"}}},{"Relevance":1.0,"Distance":38.7,"MatchLevel":"street","MatchQuality":{"Country":1.0,"State":1.0,"County":1.0,"City":1.0,"Street":[1.0],"PostalCode":1.0},"Location":{"LocationId":"NT_yf93EYmgNhXJ4MuBnsYV9C_l_1272008865_L","LocationType":"point","DisplayPosition":{"Latitude":52.15507,"Longitude":4.5405},"MapView":{"TopLeft":{"Latitude":52.15507,"Longitude":4.53957},"BottomRight":{"Latitude":52.15463,"Longitude":4.5405}},"Address":{"Label":"Simon Smitweg, 2353 Leiderdorp, Nederland","Country":"NLD","State":"Zuid-Holland","County":"Leiderdorp","City":"Leiderdorp","Street":"Simon Smitweg","PostalCode":"2353","AdditionalData":[{"value":"Nederland","key":"CountryName"},{"value":"Zuid-Holland","key":"StateName"},{"value":"Leiderdorp","key":"CountyName"}]},"MapReference":{"ReferenceId":"1272008865","Spot":1.0,"SideOfStreet":"left","CountryId":"23055544","StateId":"23055596","CountyId":"23055762","CityId":"20202123"}}}]}]}}