{"Response":{"MetaInfo":{"Timestamp":"2020-03-28T10:18:17.494+0000","NextPageInformation":"2"},"View":[{"_type":"SearchResultsViewType","ViewId":0,"Result":[{"Relevance":1.0,"Distance":0.0,"Direction":0.0,"MatchLevel":"district","MatchQuality":{"Country":1.0,"State":1.0,"County":1.0,"City":1.0,"District":1.0,"PostalCode":1.0},"Location":{"LocationId":"NT_apfoeOfTp8ukNUDddXhSKD","LocationType":"point","DisplayPosition":{"Latitude":52.1488471,"Longitude":7.335644},"MapView":{"TopLeft":{"Latitude":52.16163,"Longitude":7.30829},"BottomRight":{"Latitude":52.13166,"Longitude":7.35761}},"Address":{"Label":"Burgsteinfurt, Steinfurt, Nordrhein-Westfalen, Deutschland","Country":"DEU","State":"Nordrhein-Westfalen","County":"Steinfurt","City":"Steinfurt","District":"Burgsteinfurt","PostalCode":"48565","AdditionalData":[{"value":"Deutschland","key":"CountryName"},{"value":"Nordrhein-Westfalen","key":"StateName"},{"value":"Steinfurt","key":"CountyName"}]},"MapReference":{"ReferenceId":"1202874760","SideOfStreet":"neither","CountryId":"20147700","StateId":"20157369","CountyId":"20159347","CityId":"20159441","DistrictId":"20159443"}}},{"Relevance":1.0,"Distance":9.7,"MatchLevel":"houseNumber","MatchQuality":{"Country":1.0,"State":1.0,"County":1.0,"City":1.0,"District":1.0,"Street":[1.0],"HouseNumber":1.0,"PostalCode":1.0},"MatchType":"interpolated","Location":{"LocationId":"NT_48uXUhGXhO2trhn7HWzSqC_yAD","LocationType":"point","DisplayPosition":{"Latitude":52.14878,"Longitude":7.3354},"MapView":{"TopLeft":{"Latitude":52.1499042,"Longitude":7.333568},"BottomRight":{"Latitude":52.1476558,"Longitude":7.337232}},"Address":{"Label":"Alexander-Koenig-Straße 20, 48565 Steinfurt, Deutschland","Country":"DEU","State":"Nordrhein-Westfalen","County":"Steinfurt","City":"Steinfurt","District":"Burgsteinfurt","Street":"Alexander-Koenig-Straße","HouseNumber":"20","PostalCode":"48565","AdditionalData":[{"value":"Deutschland","key":"CountryName"},{"value":"Nordrhein-Westfalen","key":"StateName"},{"value":"Steinfurt","key":"CountyName"}]},"MapReference":{"ReferenceId":"1202860763","Spot":0.84,"SideOfStreet":"right","CountryId":"20147700","StateId":"20157369","CountyId":"20159347","CityId":"20159441","DistrictId":"20159443","AddressId":"196557961","RoadLinkId":"515775890"}}},{"Relevance":1.0,"Distance":15.1,"MatchLevel":"houseNumber","MatchQuality":{"Country":1.0,"State":1.0,"County":1.0,"City":1.0,"District":1.0,"Street":[1.0],"HouseNumber":1.0,"PostalCode":1.0},"MatchType":"interpolated","Location":{"LocationId":"NT_48uXUhGXhO2trhn7HWzSqC_yMD","LocationType":"point","DisplayPosition":{"Latitude":52.1489,"Longitude":7.33544},"MapView":{"TopLeft":{"Latitude":52.1500242,"Longitude":7.333608},"BottomRight":{"Latitude":52.1477758,"Longitude":7.337272}},"Address":{"Label":"Alexander-Koenig-Straße 23, 48565 Steinfurt, Deutschland","Country":"DEU","State":"Nordrhein-Westfalen","County":"Steinfurt","City":"Steinfurt","District":"Burgsteinfurt","Street":"Alexander-Koenig-Straße","HouseNumber":"23","PostalCode":"48565","AdditionalData":[{"value":"Deutschland","key":"CountryName"},{"value":"Nordrhein-Westfalen","key":"StateName"},{"value":"Steinfurt","key":"CountyName"}]},"MapReference":{"ReferenceId":"1202860390","Spot":0.19,"SideOfStreet":"left","CountryId":"20147700","StateId":"20157369","CountyId":"20159347","CityId":"20159441","DistrictId":"20159443","AddressId":"743426604","RoadLinkId":"515775440"}}},{"Relevance":1.0,"Distance":35.8,"MatchLevel":"houseNumber","MatchQuality":{"Country":1.0,"State":1.0,"County":1.0,"City":1.0,"District":1.0,"Street":[1.0],"HouseNumber":1.0,"PostalCode":1.0},"MatchType":"interpolated","Location":{"LocationId":"NT_LI2FvcdmC.nS5PkzDcKyAB_0A","LocationType":"point","DisplayPosition":{"Latitude":52.14916,"Longitude":7.33552},"MapView":{"TopLeft":{"Latitude":52.1502842,"Longitude":7.333688},"BottomRight":{"Latitude":52.1480358,"Longitude":7.337352}},"Address":{"Label":"Bahnhofstraße 4, 48565 Steinfurt, Deutschland","Country":"DEU","State":"Nordrhein-Westfalen","County":"Steinfurt","City":"Steinfurt","District":"Burgsteinfurt","Street":"Bahnhofstraße","HouseNumber":"4","PostalCode":"48565","AdditionalData":[{"value":"Deutschland","key":"CountryName"},{"value":"Nordrhein-Westfalen","key":"StateName"},{"value":"Steinfurt","key":"CountyName"}]},"MapReference":{"ReferenceId":"1202873350","Spot":0.0,"SideOfStreet":"right","CountryId":"20147700","StateId":"20157369","CountyId":"20159347","CityId":"20159441","DistrictId":"20159443","AddressId":"249454769","RoadLinkId":"515791641"}}},{"Relevance":1.0,"Distance":35.8,"MatchLevel":"street","MatchQuality":{"Country":1.0,"State":1.0,"County":1.0,"City":1.0,"District":1.0,"Street":[1.0],"PostalCode":1.0},"Location":{"LocationId":"NT_nYYesIFBprfqLTTSeaRKED_l_1202760217_R","LocationType":"point","DisplayPosition":{"Latitude":52.14916,"Longitude":7.33552},"MapView":{"TopLeft":{"Latitude":52.14933,"Longitude":7.33552},"BottomRight":{"Latitude":52.14916,"Longitude":7.3358}},"Address":{"Label":"Alexander-Koenig-Straße, 48565 Steinfurt, Deutschland","Country":"DEU","State":"Nordrhein-Westfalen","County":"Steinfurt","City":"Steinfurt","District":"Burgsteinfurt","Street":"Alexander-Koenig-Straße","PostalCode":"48565","AdditionalData":[{"value":"Deutschland","key":"CountryName"},{"value":"Nordrhein-Westfalen","key":"StateName"},{"value":"Steinfurt","key":"CountyName"}]},"MapReference":{"ReferenceId":"1202760217","Spot":0.0,"SideOfStreet":"right","CountryId":"20147700","StateId":"20157369","CountyId":"20159347","CityId":"20159441","DistrictId":"20159443"}}},{"Relevance":1.0,"Distance":45.1,"MatchLevel":"houseNumber","MatchQuality":{"Country":1.0,"State":1.0,"County":1.0,"City":1.0,"District":1.0,"Street":[1.0],"HouseNumber":1.0,"PostalCode":1.0},"MatchType":"interpolated","Location":{"LocationId":"NT_jPSwX81upsLUyiUc55nKpD_xkD","LocationType":"point","DisplayPosition":{"Latitude":52.14856,"Longitude":7.33631},"MapView":{"TopLeft":{"Latitude":52.1496842,"Longitude":7.334478},"BottomRight":{"Latitude":52.1474358,"Longitude":7.338142}},"Address":{"Label":"Wilhelmsplatz 19, 48565 Steinfurt, Deutschland","Country":"DEU","State":"Nordrhein-Westfalen","County":"Steinfurt","City":"Steinfurt","District":"Burgsteinfurt","Street":"Wilhelmsplatz","HouseNumber":"19","PostalCode":"48565","AdditionalData":[{"value":"Deutschland","key":"CountryName"},{"value":"Nordrhein-Westfalen","key":"StateName"},{"value":"Steinfurt","key":"CountyName"}]},"MapReference":{"ReferenceId":"74591091","Spot":0.43,"SideOfStreet":"left","CountryId":"20147700","StateId":"20157369","CountyId":"20159347","CityId":"20159441","DistrictId":"20159443","AddressId":"193468918","RoadLinkId":"35233904"}}},{"Relevance":1.0,"Distance":49.2,"MatchLevel":"houseNumber","MatchQuality":{"Country":1.0,"State":1.0,"County":1.0,"City":1.0,"District":1.0,"Street":[1.0],"HouseNumber":1.0,"PostalCode":1.0},"MatchType":"interpolated","Location":{"LocationId":"NT_Eq3a6-fPgKJ9xIxXqAhjKD_0ED","LocationType":"point","DisplayPosition":{"Latitude":52.14927,"Longitude":7.33636},"MapView":{"TopLeft":{"Latitude":52.1503942,"Longitude":7.334528},"BottomRight":{"Latitude":52.1481458,"Longitude":7.338192}},"Address":{"Label":"Steinstraße 41, 48565 Steinfurt, Deutschland","Country":"DEU","State":"Nordrhein-Westfalen","County":"Steinfurt","City":"Steinfurt","District":"Burgsteinfurt","Street":"Steinstraße","HouseNumber":"41","PostalCode":"48565","AdditionalData":[{"value":"Deutschland","key":"CountryName"},{"value":"Nordrhein-Westfalen","key":"StateName"},{"value":"Steinfurt","key":"CountyName"}]},"MapReference":{"ReferenceId":"74591093","Spot":0.53,"SideOfStreet":"left","CountryId":"20147700","StateId":"20157369","CountyId":"20159347","CityId":"20159441","DistrictId":"20159443","AddressId":"194429442","RoadLinkId":"34931901"}}},{"Relevance":1.0,"Distance":50.1,"MatchLevel":"houseNumber","MatchQuality":{"Country":1.0,"State":1.0,"County":1.0,"City":1.0,"District":1.0,"Street":[1.0],"HouseNumber":1.0,"PostalCode":1.0},"MatchType":"interpolated","Location":{"LocationId":"NT_48uXUhGXhO2trhn7HWzSqC_xYD","LocationType":"point","DisplayPosition":{"Latitude":52.14841,"Longitude":7.33533},"MapView":{"TopLeft":{"Latitude":52.1495342,"Longitude":7.333498},"BottomRight":{"Latitude":52.1472858,"Longitude":7.337162}},"Address":{"Label":"Alexander-Koenig-Straße 16, 48565 Steinfurt, Deutschland","Country":"DEU","State":"Nordrhein-Westfalen","County":"Steinfurt","City":"Steinfurt","District":"Burgsteinfurt","Street":"Alexander-Koenig-Straße","HouseNumber":"16","PostalCode":"48565","AdditionalData":[{"value":"Deutschland","key":"CountryName"},{"value":"Nordrhein-Westfalen","key":"StateName"},{"value":"Steinfurt","key":"CountyName"}]},"MapReference":{"ReferenceId":"1202860762","Spot":0.86,"SideOfStreet":"right","CountryId":"20147700","StateId":"20157369","CountyId":"20159347","CityId":"20159441","DistrictId":"20159443","AddressId":"196075264","RoadLinkId":"515775889"}}},{"Relevance":1.0,"Distance":54.7,"MatchLevel":"street","MatchQuality":{"Country":1.0,"State":1.0,"County":1.0,"City":1.0,"District":1.0,"Street":[1.0],"PostalCode":1.0},"Location":{"LocationId":"NT_48uXUhGXhO2trhn7HWzSqC_l_1202760218_R","LocationType":"point","DisplayPosition":{"Latitude":52.14933,"Longitude":7.3358},"MapView":{"TopLeft":{"Latitude":52.14942,"Longitude":7.3358},"BottomRight":{"Latitude":52.14933,"Longitude":7.3361}},"Address":{"Label":"Alexander-Koenig-Straße, 48565 Steinfurt, Deutschland","Country":"DEU","State":"Nordrhein-Westfalen","County":"Steinfurt","City":"Steinfurt","District":"Burgsteinfurt","Street":"Alexander-Koenig-Straße","PostalCode":"48565","AdditionalData":[{"value":"Deutschland","key":"CountryName"},{"value":"Nordrhein-Westfalen","key":"StateName"},{"value":"Steinfurt","key":"CountyName"}]},"MapReference":{"ReferenceId":"1202760218","Spot":0.0,"SideOfStreet":"right","CountryId":"20147700","StateId":"20157369","CountyId":"20159347","CityId":"20159441","DistrictId":"20159443"}}},{"Relevance":1.0,"Distance":56.8,"MatchLevel":"houseNumber","MatchQuality":{"Country":1.0,"State":1.0,"County":1.0,"City":1.0,"District":1.0,"Street":[1.0],"HouseNumber":1.0,"PostalCode":1.0},"MatchType":"interpolated","Location":{"LocationId":"NT_LI2FvcdmC.nS5PkzDcKyAB_zA","LocationType":"point","DisplayPosition":{"Latitude":52.14926,"Longitude":7.33492},"MapView":{"TopLeft":{"Latitude":52.1503842,"Longitude":7.333088},"BottomRight":{"Latitude":52.1481358,"Longitude":7.336752}},"Address":{"Label":"Bahnhofstraße 3, 48565 Steinfurt, Deutschland","Country":"DEU","State":"Nordrhein-Westfalen","County":"Steinfurt","City":"Steinfurt","District":"Burgsteinfurt","Street":"Bahnhofstraße","HouseNumber":"3","PostalCode":"48565","AdditionalData":[{"value":"Deutschland","key":"CountryName"},{"value":"Nordrhein-Westfalen","key":"StateName"},{"value":"Steinfurt","key":"CountyName"}]},"MapReference":{"ReferenceId":"1202873352","Spot":0.86,"SideOfStreet":"left","CountryId":"20147700","StateId":"20157369","CountyId":"20159347","CityId":"20159441","DistrictId":"20159443","AddressId":"196280298","RoadLinkId":"515791643"}}}]}]}}