{"Response":{"MetaInfo":{"Timestamp":"2020-03-28T10:38:20.555+0000","NextPageInformation":"2"},"View":[{"_type":"SearchResultsViewType","ViewId":0,"Result":[{"Relevance":1.0,"Distance":0.0,"Direction":0.0,"MatchLevel":"district","MatchQuality":{"Country":1.0,"State":1.0,"County":1.0,"City":1.0,"District":1.0,"PostalCode":1.0},"Location":{"LocationId":"NT_HwJJrYatDttd592STMGGQC","LocationType":"point","DisplayPosition":{"Latitude":52.1137164,"Longitude":-2.3090779},"MapView":{"TopLeft":{"Latitude":52.14421,"Longitude":-2.3546},"BottomRight":{"Latitude":52.0845,"Longitude":-2.2848}},"Address":{"Label":"Great Malvern, England, United Kingdom","Country":"GBR","State":"England","County":"Worcestershire","City":"Great Malvern","District":"Great Malvern","PostalCode":"WR14 4","AdditionalData":[{"value":"United Kingdom","key":"CountryName"},{"value":"England","key":"StateName"},{"value":"Worcestershire","key":"CountyName"}]},"MapReference":{"ReferenceId":"871517168","SideOfStreet":"neither","StateId":"20248595","CountyId":"20358640","CityId":"20358782","DistrictId":"20358783"}}},{"Relevance":1.0,"Distance":9.0,"MatchLevel":"postalCode","MatchQuality":{"PostalCode":1.0},"MatchType":"interpolated","Location":{"LocationId":"NT_a1ijTnIGinR5DI1s2QAaCD_l_26213761_R_zATM","LocationType":"point","DisplayPosition":{"Latitude":52.11372,"Longitude":-2.30921},"MapView":{"TopLeft":{"Latitude":52.1227132,"Longitude":-2.3238546},"BottomRight":{"Latitude":52.1047268,"Longitude":-2.2945654}},"Address":{"Label":"WR14 2GP, Great Malvern, England, United Kingdom","Country":"GBR","State":"England","County":"Worcestershire","City":"Great Malvern","PostalCode":"WR14 2GP","AdditionalData":[{"value":"United Kingdom","key":"CountryName"},{"value":"England","key":"StateName"},{"value":"Worcestershire","key":"CountyName"}]},"MapReference":{"ReferenceId":"26213761","Spot":0.53,"SideOfStreet":"neither","StateId":"20248595","CountyId":"20358640","CityId":"20358782"}}},{"Relevance":1.0,"Distance":14.1,"MatchLevel":"street","MatchQuality":{"Country":1.0,"State":1.0,"County":1.0,"City":1.0,"District":1.0,"Street":[1.0],"PostalCode":1.0},"Location":{"LocationId":"NT_.svLg0xpzVVSxDeYmGL17C_l_1034084837_R","LocationType":"point","DisplayPosition":{"Latitude":52.1138158,"Longitude":-2.3092071},"MapView":{"TopLeft":{"Latitude":52.11411,"Longitude":-2.30937},"BottomRight":{"Latitude":52.11368,"Longitude":-2.30912}},"Address":{"Label":"Prospect Close, Great Malvern, WR14 2, United Kingdom","Country":"GBR","State":"England","County":"Worcestershire","City":"Great Malvern","District":"Great Malvern","Street":"Prospect Close","PostalCode":"WR14 2","AdditionalData":[{"value":"United Kingdom","key":"CountryName"},{"value":"England","key":"StateName"},{"value":"Worcestershire","key":"CountyName"}]},"MapReference":{"ReferenceId":"1034084837","Spot":0.4,"SideOfStreet":"right","StateId":"20248595","CountyId":"20358640","CityId":"20358782","DistrictId":"20358783"}}},{"Relevance":1.0,"Distance":20.4,"MatchLevel":"street","MatchQuality":{"Country":1.0,"State":1.0,"County":1.0,"City":1.0,"District":1.0,"Street":[1.0],"PostalCode":1.0},"Location":{"LocationId":"NT_.svLg0xpzVVSxDeYmGL17C_l_1034084836_R","LocationType":"point","DisplayPosition":{"Latitude":52.11368,"Longitude":-2.30937},"MapView":{"TopLeft":{"Latitude":52.11368,"Longitude":-2.30987},"BottomRight":{"Latitude":52.11297,"Longitude":-2.30937}},"Address":{"Label":"Prospect Close, Great Malvern, WR14 2, United Kingdom","Country":"GBR","State":"England","County":"Worcestershire","City":"Great Malvern","District":"Great Malvern","Street":"Prospect Close","PostalCode":"WR14 2","AdditionalData":[{"value":"United Kingdom","key":"CountryName"},{"value":"England","key":"StateName"},{"value":"Worcestershire","key":"CountyName"}]},"MapReference":{"ReferenceId":"1034084836","Spot":1.0,"SideOfStreet":"right","StateId":"20248595","CountyId":"20358640","CityId":"20358782","DistrictId":"20358783"}}},{"Relevance":1.0,"Distance":43.9,"MatchLevel":"street","MatchQuality":{"Country":1.0,"State":1.0,"County":1.0,"City":1.0,"District":1.0,"PostalCode":1.0},"Location":{"LocationId":"NT_KaeAoUmGCQ02LCdQxVjQCB_l_756586498_R","LocationType":"point","DisplayPosition":{"Latitude":52.11411,"Longitude":-2.30912},"MapView":{"TopLeft":{"Latitude":52.11416,"Longitude":-2.30912},"BottomRight":{"Latitude":52.11411,"Longitude":-2.309}},"Address":{"Label":"Great Malvern, WR14 2, United Kingdom","Country":"GBR","State":"England","County":"Worcestershire","City":"Great Malvern","District":"Great Malvern","PostalCode":"WR14 2","AdditionalData":[{"value":"United Kingdom","key":"CountryName"},{"value":"England","key":"StateName"},{"value":"Worcestershire","key":"CountyName"}]},"MapReference":{"ReferenceId":"756586498","Spot":0.0,"SideOfStreet":"right","StateId":"20248595","CountyId":"20358640","CityId":"20358782","DistrictId":"20358783"}}},{"Relevance":1.0,"Distance":43.9,"MatchLevel":"street","MatchQuality":{"Country":1.0,"State":1.0,"County":1.0,"City":1.0,"District":1.0,"PostalCode":1.0},"Location":{"LocationId":"NT_KaeAoUmGCQ02LCdQxVjQCB_l_756586499_L","LocationType":"point","DisplayPosition":{"Latitude":52.11411,"Longitude":-2.30912},"MapView":{"TopLeft":{"Latitude":52.11419,"Longitude":-2.30925},"BottomRight":{"Latitude":52.11411,"Longitude":-2.30912}},"Address":{"Label":"Great Malvern, WR14 2, United Kingdom","Country":"GBR","State":"England","County":"Worcestershire","City":"Great Malvern","District":"Great Malvern","PostalCode":"WR14 2","AdditionalData":[{"value":"United Kingdom","key":"CountryName"},{"value":"England","key":"StateName"},{"value":"Worcestershire","key":"CountyName"}]},"MapReference":{"ReferenceId":"756586499","Spot":0.0,"SideOfStreet":"left","StateId":"20248595","CountyId":"20358640","CityId":"20358782","DistrictId":"20358783"}}},{"Relevance":1.0,"Distance":49.6,"MatchLevel":"street","MatchQuality":{"Country":1.0,"State":1.0,"County":1.0,"City":1.0,"District":1.0,"PostalCode":1.0},"Location":{"LocationId":"NT_KaeAoUmGCQ02LCdQxVjQCB_l_756586495_R","LocationType":"point","DisplayPosition":{"Latitude":52.11416,"Longitude":-2.309},"MapView":{"TopLeft":{"Latitude":52.11419,"Longitude":-2.309},"BottomRight":{"Latitude":52.11416,"Longitude":-2.30899}},"Address":{"Label":"Great Malvern, WR14 2, United Kingdom","Country":"GBR","State":"England","County":"Worcestershire","City":"Great Malvern","District":"Great Malvern","PostalCode":"WR14 2","AdditionalData":[{"value":"United Kingdom","key":"CountryName"},{"value":"England","key":"StateName"},{"value":"Worcestershire","key":"CountyName"}]},"MapReference":{"ReferenceId":"756586495","Spot":0.0,"SideOfStreet":"right","StateId":"20248595","CountyId":"20358640","CityId":"20358782","DistrictId":"20358783"}}},{"Relevance":1.0,"Distance":50.7,"MatchLevel":"houseNumber","MatchQuality":{"Country":1.0,"State":1.0,"County":1.0,"City":1.0,"District":1.0,"Street":[1.0],"HouseNumber":1.0,"PostalCode":1.0},"MatchType":"interpolated","Location":{"LocationId":"NT_a1ijTnIGinR5DI1s2QAaCD_l_26213761_R_zATM","LocationType":"point","DisplayPosition":{"Latitude":52.1141039,"Longitude":-2.3086864},"MapView":{"TopLeft":{"Latitude":52.1152281,"Longitude":-2.310517},"BottomRight":{"Latitude":52.1129798,"Longitude":-2.3068558}},"Address":{"Label":"301 Pickersleigh Road, Great Malvern, WR14 2QS, United Kingdom","Country":"GBR","State":"England","County":"Worcestershire","City":"Great Malvern","District":"Great Malvern","Street":"Pickersleigh Road","HouseNumber":"301","PostalCode":"WR14 2QS","AdditionalData":[{"value":"United Kingdom","key":"CountryName"},{"value":"England","key":"StateName"},{"value":"Worcestershire","key":"CountyName"}]},"MapReference":{"ReferenceId":"26213761","Spot":0.53,"SideOfStreet":"right","StateId":"20248595","CountyId":"20358640","CityId":"20358782","DistrictId":"20358783"}}},{"Relevance":1.0,"Distance":53.0,"MatchLevel":"street","MatchQuality":{"Country":1.0,"State":1.0,"County":1.0,"City":1.0,"District":1.0,"PostalCode":1.0},"Location":{"LocationId":"NT_KaeAoUmGCQ02LCdQxVjQCB_l_756586496_L","LocationType":"point","DisplayPosition":{"Latitude":52.11419,"Longitude":-2.30899},"MapView":{"TopLeft":{"Latitude":52.11427,"Longitude":-2.30919},"BottomRight":{"Latitude":52.11419,"Longitude":-2.30899}},"Address":{"Label":"Great Malvern, WR14 2, United Kingdom","Country":"GBR","State":"England","County":"Worcestershire","City":"Great Malvern","District":"Great Malvern","PostalCode":"WR14 2","AdditionalData":[{"value":"United Kingdom","key":"CountryName"},{"value":"England","key":"StateName"},{"value":"Worcestershire","key":"CountyName"}]},"MapReference":{"ReferenceId":"756586496","Spot":0.0,"SideOfStreet":"left","StateId":"20248595","CountyId":"20358640","CityId":"20358782","DistrictId":"20358783"}}},{"Relevance":1.0,"Distance":54.0,"MatchLevel":"street","MatchQuality":{"Country":1.0,"State":1.0,"County":1.0,"City":1.0,"District":1.0,"PostalCode":1.0},"Location":{"LocationId":"NT_KaeAoUmGCQ02LCdQxVjQCB_l_756586497_R","LocationType":"point","DisplayPosition":{"Latitude":52.11419,"Longitude":-2.30925},"MapView":{"TopLeft":{"Latitude":52.11426,"Longitude":-2.30925},"BottomRight":{"Latitude":52.11419,"Longitude":-2.30919}},"Address":{"Label":"Great Malvern, WR14 2, United Kingdom","Country":"GBR","State":"England","County":"Worcestershire","City":"Great Malvern","District":"Great Malvern","PostalCode":"WR14 2","AdditionalData":[{"value":"United Kingdom","key":"CountryName"},{"value":"England","key":"StateName"},{"value":"Worcestershire","key":"CountyName"}]},"MapReference":{"ReferenceId":"756586497","Spot":0.0,"SideOfStreet":"right","StateId":"20248595","CountyId":"20358640","CityId":"20358782","DistrictId":"20358783"}}}]}]}}