{"Response":{"MetaInfo":{"Timestamp":"2020-03-28T10:22:02.532+0000","NextPageInformation":"2"},"View":[{"_type":"SearchResultsViewType","ViewId":0,"Result":[{"Relevance":1.0,"Distance":0.0,"Direction":0.0,"MatchLevel":"district","MatchQuality":{"Country":1.0,"State":1.0,"County":1.0,"City":1.0,"District":1.0,"PostalCode":1.0},"Location":{"LocationId":"NT_FefliAV0VbEM607WcSJ1lD","LocationType":"point","DisplayPosition":{"Latitude":52.1257009,"Longitude":8.699848},"MapView":{"TopLeft":{"Latitude":52.14429,"Longitude":8.60955},"BottomRight":{"Latitude":52.08959,"Longitude":8.71704}},"Address":{"Label":"Herford, Nordrhein-Westfalen, Deutschland","Country":"DEU","State":"Nordrhein-Westfalen","County":"Herford","City":"Herford","District":"Herford","PostalCode":"32052","AdditionalData":[{"value":"Deutschland","key":"CountryName"},{"value":"Nordrhein-Westfalen","key":"StateName"},{"value":"Herford","key":"CountyName"}]},"MapReference":{"ReferenceId":"1240014330","SideOfStreet":"neither","CountryId":"20147700","StateId":"20157369","CountyId":"20159634","CityId":"20159648","DistrictId":"20159653"}}},{"Relevance":1.0,"Distance":35.1,"MatchLevel":"houseNumber","MatchQuality":{"Country":1.0,"State":1.0,"County":1.0,"City":1.0,"District":1.0,"Street":[1.0],"HouseNumber":1.0,"PostalCode":1.0},"MatchType":"interpolated","Location":{"LocationId":"NT_6KfgfrJIHo7ZB24PXW1-QA_0UD","LocationType":"point","DisplayPosition":{"Latitude":52.1254,"Longitude":8.70027},"MapView":{"TopLeft":{"Latitude":52.1265242,"Longitude":8.6984389},"BottomRight":{"Latitude":52.1242758,"Longitude":8.7021011}},"Address":{"Label":"Auf dem Dudel 45, 32049 Herford, Deutschland","Country":"DEU","State":"Nordrhein-Westfalen","County":"Herford","City":"Herford","District":"Herford","Street":"Auf dem Dudel","HouseNumber":"45","PostalCode":"32049","AdditionalData":[{"value":"Deutschland","key":"CountryName"},{"value":"Nordrhein-Westfalen","key":"StateName"},{"value":"Herford","key":"CountyName"}]},"MapReference":{"ReferenceId":"1219562254","Spot":0.51,"SideOfStreet":"right","CountryId":"20147700","StateId":"20157369","CountyId":"20159634","CityId":"20159648","DistrictId":"20159653","AddressId":"192784622","RoadLinkId":"536498303"}}},{"Relevance":1.0,"Distance":131.0,"MatchLevel":"houseNumber","MatchQuality":{"Country":1.0,"State":1.0,"County":1.0,"City":1.0,"District":1.0,"Street":[1.0],"HouseNumber":1.0,"PostalCode":1.0},"MatchType":"interpolated","Location":{"LocationId":"NT_g-kuJLjsFCo2ABshjlHsHB_zcD","LocationType":"point","DisplayPosition":{"Latitude":52.12446,"Longitude":8.69963},"MapView":{"TopLeft":{"Latitude":52.1255842,"Longitude":8.697799},"BottomRight":{"Latitude":52.1233358,"Longitude":8.701461}},"Address":{"Label":"Henri-Dunant-Straße 37, 32049 Herford, Deutschland","Country":"DEU","State":"Nordrhein-Westfalen","County":"Herford","City":"Herford","District":"Herford","Street":"Henri-Dunant-Straße","HouseNumber":"37","PostalCode":"32049","AdditionalData":[{"value":"Deutschland","key":"CountryName"},{"value":"Nordrhein-Westfalen","key":"StateName"},{"value":"Herford","key":"CountyName"}]},"MapReference":{"ReferenceId":"1219562269","Spot":0.81,"SideOfStreet":"left","CountryId":"20147700","StateId":"20157369","CountyId":"20159634","CityId":"20159648","DistrictId":"20159653","AddressId":"212889201","RoadLinkId":"536498318"}}},{"Relevance":1.0,"Distance":136.4,"MatchLevel":"houseNumber","MatchQuality":{"Country":1.0,"State":1.0,"County":1.0,"City":1.0,"District":1.0,"Street":[1.0],"HouseNumber":1.0,"PostalCode":1.0},"MatchType":"interpolated","Location":{"LocationId":"NT_OLJ0D8dtjRuk0lzNaeEChA_0AD","LocationType":"point","DisplayPosition":{"Latitude":52.12443,"Longitude":8.69995},"MapView":{"TopLeft":{"Latitude":52.1255542,"Longitude":8.698119},"BottomRight":{"Latitude":52.1233058,"Longitude":8.701781}},"Address":{"Label":"Kneippstraße 40, 32049 Herford, Deutschland","Country":"DEU","State":"Nordrhein-Westfalen","County":"Herford","City":"Herford","District":"Herford","Street":"Kneippstraße","HouseNumber":"40","PostalCode":"32049","AdditionalData":[{"value":"Deutschland","key":"CountryName"},{"value":"Nordrhein-Westfalen","key":"StateName"},{"value":"Herford","key":"CountyName"}]},"MapReference":{"ReferenceId":"839612499","Spot":0.56,"SideOfStreet":"right","CountryId":"20147700","StateId":"20157369","CountyId":"20159634","CityId":"20159648","DistrictId":"20159653","AddressId":"212889204","RoadLinkId":"221773646"}}},{"Relevance":1.0,"Distance":143.0,"MatchLevel":"street","MatchQuality":{"Country":1.0,"State":1.0,"County":1.0,"City":1.0,"District":1.0,"Street":[1.0],"PostalCode":1.0},"Location":{"LocationId":"NT_lc5WpWBkJWtc5pFnv8HzJA_l_61211302_R","LocationType":"point","DisplayPosition":{"Latitude":52.1269833,"Longitude":8.6999981},"MapView":{"TopLeft":{"Latitude":52.12705,"Longitude":8.69977},"BottomRight":{"Latitude":52.1269,"Longitude":8.70218}},"Address":{"Label":"Schwarzenmoorstraße, 32049 Herford, Deutschland","Country":"DEU","State":"Nordrhein-Westfalen","County":"Herford","City":"Herford","District":"Herford","Street":"Schwarzenmoorstraße","PostalCode":"32049","AdditionalData":[{"value":"Deutschland","key":"CountryName"},{"value":"Nordrhein-Westfalen","key":"StateName"},{"value":"Herford","key":"CountyName"}]},"MapReference":{"ReferenceId":"61211302","Spot":0.09,"SideOfStreet":"right","CountryId":"20147700","StateId":"20157369","CountyId":"20159634","CityId":"20159648","DistrictId":"20159653"}}},{"Relevance":1.0,"Distance":145.7,"MatchLevel":"houseNumber","MatchQuality":{"Country":1.0,"State":1.0,"County":1.0,"City":1.0,"District":1.0,"Street":[1.0],"HouseNumber":1.0,"PostalCode":1.0},"MatchType":"interpolated","Location":{"LocationId":"NT_lc5WpWBkJWtc5pFnv8HzJA_3AD","LocationType":"point","DisplayPosition":{"Latitude":52.12701,"Longitude":8.69977},"MapView":{"TopLeft":{"Latitude":52.1281342,"Longitude":8.6979389},"BottomRight":{"Latitude":52.1258858,"Longitude":8.7016011}},"Address":{"Label":"Schwarzenmoorstraße 70, 32049 Herford, Deutschland","Country":"DEU","State":"Nordrhein-Westfalen","County":"Herford","City":"Herford","District":"Herford","Street":"Schwarzenmoorstraße","HouseNumber":"70","PostalCode":"32049","AdditionalData":[{"value":"Deutschland","key":"CountryName"},{"value":"Nordrhein-Westfalen","key":"StateName"},{"value":"Herford","key":"CountyName"}]},"MapReference":{"ReferenceId":"61211292","Spot":0.0,"SideOfStreet":"left","CountryId":"20147700","StateId":"20157369","CountyId":"20159634","CityId":"20159648","DistrictId":"20159653","AddressId":"249389537","RoadLinkId":"34944530"}}},{"Relevance":1.0,"Distance":145.7,"MatchLevel":"street","MatchQuality":{"Country":1.0,"State":1.0,"County":1.0,"City":1.0,"District":1.0,"Street":[1.0],"PostalCode":1.0},"Location":{"LocationId":"NT_lc5WpWBkJWtc5pFnv8HzJA_l_1238707502_R","LocationType":"point","DisplayPosition":{"Latitude":52.12701,"Longitude":8.69977},"MapView":{"TopLeft":{"Latitude":52.1275,"Longitude":8.69977},"BottomRight":{"Latitude":52.12701,"Longitude":8.70014}},"Address":{"Label":"Schwarzenmoorstraße, 32049 Herford, Deutschland","Country":"DEU","State":"Nordrhein-Westfalen","County":"Herford","City":"Herford","District":"Herford","Street":"Schwarzenmoorstraße","PostalCode":"32049","AdditionalData":[{"value":"Deutschland","key":"CountryName"},{"value":"Nordrhein-Westfalen","key":"StateName"},{"value":"Herford","key":"CountyName"}]},"MapReference":{"ReferenceId":"1238707502","Spot":0.0,"SideOfStreet":"right","CountryId":"20147700","StateId":"20157369","CountyId":"20159634","CityId":"20159648","DistrictId":"20159653"}}},{"Relevance":1.0,"Distance":146.8,"MatchLevel":"street","MatchQuality":{"Country":1.0,"State":1.0,"County":1.0,"City":1.0,"District":1.0,"PostalCode":1.0},"Location":{"LocationId":"NT_Wtyk7B.EHI47cmzLdhsi6A_l_1219563124_R","LocationType":"point","DisplayPosition":{"Latitude":52.1247399,"Longitude":8.6983744},"MapView":{"TopLeft":{"Latitude":52.12543,"Longitude":8.69787},"BottomRight":{"Latitude":52.12421,"Longitude":8.69872}},"Address":{"Label":"32049 Herford, Deutschland","Country":"DEU","State":"Nordrhein-Westfalen","County":"Herford","City":"Herford","District":"Herford","PostalCode":"32049","AdditionalData":[{"value":"Deutschland","key":"CountryName"},{"value":"Nordrhein-Westfalen","key":"StateName"},{"value":"Herford","key":"CountyName"}]},"MapReference":{"ReferenceId":"1219563124","Spot":0.43,"SideOfStreet":"right","CountryId":"20147700","StateId":"20157369","CountyId":"20159634","CityId":"20159648","DistrictId":"20159653"}}},{"Relevance":1.0,"Distance":162.7,"MatchLevel":"houseNumber","MatchQuality":{"Country":1.0,"State":1.0,"County":1.0,"City":1.0,"District":1.0,"Street":[1.0],"HouseNumber":1.0,"PostalCode":1.0},"MatchType":"interpolated","Location":{"LocationId":"NT_OLJ0D8dtjRuk0lzNaeEChA_zYD","LocationType":"point","DisplayPosition":{"Latitude":52.12419,"Longitude":8.7003},"MapView":{"TopLeft":{"Latitude":52.1253142,"Longitude":8.698469},"BottomRight":{"Latitude":52.1230658,"Longitude":8.702131}},"Address":{"Label":"Kneippstraße 36, 32049 Herford, Deutschland","Country":"DEU","State":"Nordrhein-Westfalen","County":"Herford","City":"Herford","District":"Herford","Street":"Kneippstraße","HouseNumber":"36","PostalCode":"32049","AdditionalData":[{"value":"Deutschland","key":"CountryName"},{"value":"Nordrhein-Westfalen","key":"StateName"},{"value":"Herford","key":"CountyName"}]},"MapReference":{"ReferenceId":"839612498","Spot":0.7,"SideOfStreet":"right","CountryId":"20147700","StateId":"20157369","CountyId":"20159634","CityId":"20159648","DistrictId":"20159653","AddressId":"743416696","RoadLinkId":"221773645"}}},{"Relevance":1.0,"Distance":173.7,"MatchLevel":"houseNumber","MatchQuality":{"Country":1.0,"State":1.0,"County":1.0,"City":1.0,"District":1.0,"Street":[1.0],"HouseNumber":1.0,"PostalCode":1.0},"MatchType":"interpolated","Location":{"LocationId":"NT_OLJ0D8dtjRuk0lzNaeEChA_ycD","LocationType":"point","DisplayPosition":{"Latitude":52.12414,"Longitude":8.69994},"MapView":{"TopLeft":{"Latitude":52.1252642,"Longitude":8.698109},"BottomRight":{"Latitude":52.1230158,"Longitude":8.701771}},"Address":{"Label":"Kneippstraße 27, 32049 Herford, Deutschland","Country":"DEU","State":"Nordrhein-Westfalen","County":"Herford","City":"Herford","District":"Herford","Street":"Kneippstraße","HouseNumber":"27","PostalCode":"32049","AdditionalData":[{"value":"Deutschland","key":"CountryName"},{"value":"Nordrhein-Westfalen","key":"StateName"},{"value":"Herford","key":"CountyName"}]},"MapReference":{"ReferenceId":"839612500","Spot":0.12,"SideOfStreet":"right","CountryId":"20147700","StateId":"20157369","CountyId":"20159634","CityId":"20159648","DistrictId":"20159653","AddressId":"212889206","RoadLinkId":"221773647"}}}]}]}}