{"Response":{"MetaInfo":{"Timestamp":"2020-03-28T10:20:39.746+0000","NextPageInformation":"2"},"View":[{"_type":"SearchResultsViewType","ViewId":0,"Result":[{"Relevance":1.0,"Distance":0.0,"Direction":0.0,"MatchLevel":"district","MatchQuality":{"Country":1.0,"State":1.0,"County":1.0,"City":1.0,"District":1.0,"PostalCode":1.0},"Location":{"LocationId":"NT_xZ-pQzlWxSVMQJxt0QQCLB","LocationType":"point","DisplayPosition":{"Latitude":52.1964497,"Longitude":8.6425653},"MapView":{"TopLeft":{"Latitude":52.21397,"Longitude":8.61826},"BottomRight":{"Latitude":52.19246,"Longitude":8.6653}},"Address":{"Label":"Kirchlengern, Nordrhein-Westfalen, Deutschland","Country":"DEU","State":"Nordrhein-Westfalen","County":"Herford","City":"Kirchlengern","District":"Kirchlengern","PostalCode":"32278","AdditionalData":[{"value":"Deutschland","key":"CountryName"},{"value":"Nordrhein-Westfalen","key":"StateName"},{"value":"Herford","key":"CountyName"}]},"MapReference":{"ReferenceId":"74800742","SideOfStreet":"neither","CountryId":"20147700","StateId":"20157369","CountyId":"20159634","CityId":"20159661","DistrictId":"20159664"}}},{"Relevance":1.0,"Distance":9.6,"MatchLevel":"houseNumber","MatchQuality":{"Country":1.0,"State":1.0,"County":1.0,"City":1.0,"District":1.0,"Street":[1.0],"HouseNumber":1.0,"PostalCode":1.0},"MatchType":"interpolated","Location":{"LocationId":"NT_Lku7MlkJSOJx6h8QTltVNC_yA","LocationType":"point","DisplayPosition":{"Latitude":52.19651,"Longitude":8.64272},"MapView":{"TopLeft":{"Latitude":52.1976342,"Longitude":8.640886},"BottomRight":{"Latitude":52.1953858,"Longitude":8.644554}},"Address":{"Label":"Bahnhofstraße 2, 32278 Kirchlengern, Deutschland","Country":"DEU","State":"Nordrhein-Westfalen","County":"Herford","City":"Kirchlengern","District":"Kirchlengern","Street":"Bahnhofstraße","HouseNumber":"2","PostalCode":"32278","AdditionalData":[{"value":"Deutschland","key":"CountryName"},{"value":"Nordrhein-Westfalen","key":"StateName"},{"value":"Herford","key":"CountyName"}]},"MapReference":{"ReferenceId":"75431787","Spot":0.7,"SideOfStreet":"left","CountryId":"20147700","StateId":"20157369","CountyId":"20159634","CityId":"20159661","DistrictId":"20159664","AddressId":"622090696","RoadLinkId":"34961311"}}},{"Relevance":1.0,"Distance":20.2,"MatchLevel":"street","MatchQuality":{"Country":1.0,"State":1.0,"County":1.0,"City":1.0,"District":1.0,"Street":[1.0],"PostalCode":1.0},"Location":{"LocationId":"NT_Xft6akIpaeFDexGU626R9A_l_75347550_L","LocationType":"point","DisplayPosition":{"Latitude":52.19656,"Longitude":8.64233},"MapView":{"TopLeft":{"Latitude":52.19659,"Longitude":8.64203},"BottomRight":{"Latitude":52.19656,"Longitude":8.64233}},"Address":{"Label":"Bünder Feldweg, 32278 Kirchlengern, Deutschland","Country":"DEU","State":"Nordrhein-Westfalen","County":"Herford","City":"Kirchlengern","District":"Kirchlengern","Street":"Bünder Feldweg","PostalCode":"32278","AdditionalData":[{"value":"Deutschland","key":"CountryName"},{"value":"Nordrhein-Westfalen","key":"StateName"},{"value":"Herford","key":"CountyName"}]},"MapReference":{"ReferenceId":"75347550","Spot":0.0,"SideOfStreet":"left","CountryId":"20147700","StateId":"20157369","CountyId":"20159634","CityId":"20159661","DistrictId":"20159664"}}},{"Relevance":1.0,"Distance":20.2,"MatchLevel":"street","MatchQuality":{"Country":1.0,"State":1.0,"County":1.0,"City":1.0,"District":1.0,"Street":[1.0],"PostalCode":1.0},"Location":{"LocationId":"NT_z6QqWbL8JFFz-CMg4Nq08A_l_1198056205_R","LocationType":"point","DisplayPosition":{"Latitude":52.19656,"Longitude":8.64233},"MapView":{"TopLeft":{"Latitude":52.19676,"Longitude":8.64224},"BottomRight":{"Latitude":52.19656,"Longitude":8.64233}},"Address":{"Label":"Lübbecker Straße, 32278 Kirchlengern, Deutschland","Country":"DEU","State":"Nordrhein-Westfalen","County":"Herford","City":"Kirchlengern","District":"Kirchlengern","Street":"Lübbecker Straße","PostalCode":"32278","AdditionalData":[{"value":"Deutschland","key":"CountryName"},{"value":"Nordrhein-Westfalen","key":"StateName"},{"value":"Herford","key":"CountyName"}]},"MapReference":{"ReferenceId":"1198056205","Spot":0.0,"SideOfStreet":"right","CountryId":"20147700","StateId":"20157369","CountyId":"20159634","CityId":"20159661","DistrictId":"20159664"}}},{"Relevance":1.0,"Distance":34.1,"MatchLevel":"houseNumber","MatchQuality":{"Country":1.0,"State":1.0,"County":1.0,"City":1.0,"District":1.0,"Street":[1.0],"HouseNumber":1.0,"PostalCode":1.0},"MatchType":"interpolated","Location":{"LocationId":"NT_z6QqWbL8JFFz-CMg4Nq08A_yYD","LocationType":"point","DisplayPosition":{"Latitude":52.19618,"Longitude":8.6423},"MapView":{"TopLeft":{"Latitude":52.1973042,"Longitude":8.640466},"BottomRight":{"Latitude":52.1950558,"Longitude":8.644134}},"Address":{"Label":"Lübbecker Straße 26, 32278 Kirchlengern, Deutschland","Country":"DEU","State":"Nordrhein-Westfalen","County":"Herford","City":"Kirchlengern","District":"Kirchlengern","Street":"Lübbecker Straße","HouseNumber":"26","PostalCode":"32278","AdditionalData":[{"value":"Deutschland","key":"CountryName"},{"value":"Nordrhein-Westfalen","key":"StateName"},{"value":"Herford","key":"CountyName"}]},"MapReference":{"ReferenceId":"74800594","Spot":0.7,"SideOfStreet":"right","CountryId":"20147700","StateId":"20157369","CountyId":"20159634","CityId":"20159661","DistrictId":"20159664","AddressId":"196408644","RoadLinkId":"35748117"}}},{"Relevance":1.0,"Distance":41.0,"MatchLevel":"street","MatchQuality":{"Country":1.0,"State":1.0,"County":1.0,"City":1.0,"District":1.0,"Street":[1.0],"PostalCode":1.0},"Location":{"LocationId":"NT_z6QqWbL8JFFz-CMg4Nq08A_l_1198056206_R","LocationType":"point","DisplayPosition":{"Latitude":52.19676,"Longitude":8.64224},"MapView":{"TopLeft":{"Latitude":52.19695,"Longitude":8.64209},"BottomRight":{"Latitude":52.19676,"Longitude":8.64224}},"Address":{"Label":"Lübbecker Straße, 32278 Kirchlengern, Deutschland","Country":"DEU","State":"Nordrhein-Westfalen","County":"Herford","City":"Kirchlengern","District":"Kirchlengern","Street":"Lübbecker Straße","PostalCode":"32278","AdditionalData":[{"value":"Deutschland","key":"CountryName"},{"value":"Nordrhein-Westfalen","key":"StateName"},{"value":"Herford","key":"CountyName"}]},"MapReference":{"ReferenceId":"1198056206","Spot":0.0,"SideOfStreet":"right","CountryId":"20147700","StateId":"20157369","CountyId":"20159634","CityId":"20159661","DistrictId":"20159664"}}},{"Relevance":1.0,"Distance":60.1,"MatchLevel":"street","MatchQuality":{"Country":1.0,"State":1.0,"County":1.0,"City":1.0,"District":1.0,"Street":[1.0],"PostalCode":1.0},"Location":{"LocationId":"NT_Uie5hQFtHpUH3j9UgFPcPD_l_1245979719_L","LocationType":"point","DisplayPosition":{"Latitude":52.19591,"Longitude":8.64253},"MapView":{"TopLeft":{"Latitude":52.19591,"Longitude":8.64219},"BottomRight":{"Latitude":52.19544,"Longitude":8.64253}},"Address":{"Label":"Zum Bahnhof, 32278 Kirchlengern, Deutschland","Country":"DEU","State":"Nordrhein-Westfalen","County":"Herford","City":"Kirchlengern","District":"Kirchlengern","Street":"Zum Bahnhof","PostalCode":"32278","AdditionalData":[{"value":"Deutschland","key":"CountryName"},{"value":"Nordrhein-Westfalen","key":"StateName"},{"value":"Herford","key":"CountyName"}]},"MapReference":{"ReferenceId":"1245979719","Spot":1.0,"SideOfStreet":"left","CountryId":"20147700","StateId":"20157369","CountyId":"20159634","CityId":"20159661","DistrictId":"20159664"}}},{"Relevance":1.0,"Distance":64.4,"MatchLevel":"street","MatchQuality":{"Country":1.0,"State":1.0,"County":1.0,"City":1.0,"District":1.0,"Street":[1.0],"PostalCode":1.0},"Location":{"LocationId":"NT_z6QqWbL8JFFz-CMg4Nq08A_l_74811090_L","LocationType":"point","DisplayPosition":{"Latitude":52.19695,"Longitude":8.64209},"MapView":{"TopLeft":{"Latitude":52.19716,"Longitude":8.64189},"BottomRight":{"Latitude":52.19695,"Longitude":8.64209}},"Address":{"Label":"Lübbecker Straße, 32278 Kirchlengern, Deutschland","Country":"DEU","State":"Nordrhein-Westfalen","County":"Herford","City":"Kirchlengern","District":"Kirchlengern","Street":"Lübbecker Straße","PostalCode":"32278","AdditionalData":[{"value":"Deutschland","key":"CountryName"},{"value":"Nordrhein-Westfalen","key":"StateName"},{"value":"Herford","key":"CountyName"}]},"MapReference":{"ReferenceId":"74811090","Spot":0.0,"SideOfStreet":"left","CountryId":"20147700","StateId":"20157369","CountyId":"20159634","CityId":"20159661","DistrictId":"20159664"}}},{"Relevance":1.0,"Distance":69.5,"MatchLevel":"houseNumber","MatchQuality":{"Country":1.0,"State":1.0,"County":1.0,"City":1.0,"District":1.0,"Street":[1.0],"HouseNumber":1.0,"PostalCode":1.0},"MatchType":"interpolated","Location":{"LocationId":"NT_dCatsP-PdD.G9rTLqyLsuA_0A","LocationType":"point","DisplayPosition":{"Latitude":52.19573,"Longitude":8.64334},"MapView":{"TopLeft":{"Latitude":52.1968542,"Longitude":8.641506},"BottomRight":{"Latitude":52.1946058,"Longitude":8.645174}},"Address":{"Label":"Am Bahnhof 4, 32278 Kirchlengern, Deutschland","Country":"DEU","State":"Nordrhein-Westfalen","County":"Herford","City":"Kirchlengern","District":"Kirchlengern","Street":"Am Bahnhof","HouseNumber":"4","PostalCode":"32278","AdditionalData":[{"value":"Deutschland","key":"CountryName"},{"value":"Nordrhein-Westfalen","key":"StateName"},{"value":"Herford","key":"CountyName"}]},"MapReference":{"ReferenceId":"75431789","Spot":0.09,"SideOfStreet":"left","CountryId":"20147700","StateId":"20157369","CountyId":"20159634","CityId":"20159661","DistrictId":"20159664","AddressId":"193935607","RoadLinkId":"35552826"}}},{"Relevance":1.0,"Distance":70.0,"MatchLevel":"houseNumber","MatchQuality":{"Country":1.0,"State":1.0,"County":1.0,"City":1.0,"District":1.0,"Street":[1.0],"HouseNumber":1.0,"PostalCode":1.0},"MatchType":"interpolated","Location":{"LocationId":"NT_RUKIxjySoaBf3ympJpkGED_yA","LocationType":"point","DisplayPosition":{"Latitude":52.19613,"Longitude":8.64168},"MapView":{"TopLeft":{"Latitude":52.1972542,"Longitude":8.639846},"BottomRight":{"Latitude":52.1950058,"Longitude":8.643514}},"Address":{"Label":"Auf der Worth 2, 32278 Kirchlengern, Deutschland","Country":"DEU","State":"Nordrhein-Westfalen","County":"Herford","City":"Kirchlengern","District":"Kirchlengern","Street":"Auf der Worth","HouseNumber":"2","PostalCode":"32278","AdditionalData":[{"value":"Deutschland","key":"CountryName"},{"value":"Nordrhein-Westfalen","key":"StateName"},{"value":"Herford","key":"CountyName"}]},"MapReference":{"ReferenceId":"74800587","Spot":0.25,"SideOfStreet":"left","CountryId":"20147700","StateId":"20157369","CountyId":"20159634","CityId":"20159661","DistrictId":"20159664","AddressId":"199520353","RoadLinkId":"35715273"}}}]}]}}