{"Response":{"MetaInfo":{"Timestamp":"2020-03-28T11:41:19.391+0000","NextPageInformation":"2"},"View":[{"_type":"SearchResultsViewType","ViewId":0,"Result":[{"Relevance":1.0,"Distance":0.0,"Direction":0.0,"MatchLevel":"district","MatchQuality":{"Country":1.0,"State":1.0,"County":1.0,"City":1.0,"District":1.0,"PostalCode":1.0},"Location":{"LocationId":"NT_9mGJ-rEdKBkJ7rb7GqufMA","LocationType":"point","DisplayPosition":{"Latitude":52.1366536,"Longitude":7.0996519},"MapView":{"TopLeft":{"Latitude":52.14337,"Longitude":7.09145},"BottomRight":{"Latitude":52.1291,"Longitude":7.11836}},"Address":{"Label":"Nienborg, Heek, Nordrhein-Westfalen, Deutschland","Country":"DEU","State":"Nordrhein-Westfalen","County":"Borken","City":"Heek","District":"Nienborg","PostalCode":"48619","AdditionalData":[{"value":"Deutschland","key":"CountryName"},{"value":"Nordrhein-Westfalen","key":"StateName"},{"value":"Borken","key":"CountyName"}]},"MapReference":{"ReferenceId":"1063894426","SideOfStreet":"neither","CountryId":"20147700","StateId":"20157369","CountyId":"20159118","CityId":"20159152","DistrictId":"20159154"}}},{"Relevance":1.0,"Distance":7.8,"MatchLevel":"houseNumber","MatchQuality":{"Country":1.0,"State":1.0,"County":1.0,"City":1.0,"District":1.0,"Street":[1.0],"HouseNumber":1.0,"PostalCode":1.0},"MatchType":"interpolated","Location":{"LocationId":"NT_SN6xemvK6wTfRKW9bLqP3A_5A","LocationType":"point","DisplayPosition":{"Latitude":52.13671,"Longitude":7.09991},"MapView":{"TopLeft":{"Latitude":52.1378342,"Longitude":7.0980785},"BottomRight":{"Latitude":52.1355858,"Longitude":7.1017415}},"Address":{"Label":"Eper Straße 9, 48619 Heek, Deutschland","Country":"DEU","State":"Nordrhein-Westfalen","County":"Borken","City":"Heek","District":"Nienborg","Street":"Eper Straße","HouseNumber":"9","PostalCode":"48619","AdditionalData":[{"value":"Deutschland","key":"CountryName"},{"value":"Nordrhein-Westfalen","key":"StateName"},{"value":"Borken","key":"CountyName"}]},"MapReference":{"ReferenceId":"74629914","Spot":0.26,"SideOfStreet":"left","CountryId":"20147700","StateId":"20157369","CountyId":"20159118","CityId":"20159152","DistrictId":"20159154","AddressId":"195590626","RoadLinkId":"35299604"}}},{"Relevance":1.0,"Distance":28.2,"MatchLevel":"houseNumber","MatchQuality":{"Country":1.0,"State":1.0,"County":1.0,"City":1.0,"District":1.0,"Street":[1.0],"HouseNumber":1.0,"PostalCode":1.0},"MatchType":"interpolated","Location":{"LocationId":"NT_VjwxSJWp7hqZ8CKZmpaZdD_yA","LocationType":"point","DisplayPosition":{"Latitude":52.13662,"Longitude":7.09923},"MapView":{"TopLeft":{"Latitude":52.1377442,"Longitude":7.0973985},"BottomRight":{"Latitude":52.1354958,"Longitude":7.1010615}},"Address":{"Label":"Bernhardstraße 2, 48619 Heek, Deutschland","Country":"DEU","State":"Nordrhein-Westfalen","County":"Borken","City":"Heek","District":"Nienborg","Street":"Bernhardstraße","HouseNumber":"2","PostalCode":"48619","AdditionalData":[{"value":"Deutschland","key":"CountryName"},{"value":"Nordrhein-Westfalen","key":"StateName"},{"value":"Borken","key":"CountyName"}]},"MapReference":{"ReferenceId":"74626628","Spot":0.35,"SideOfStreet":"right","CountryId":"20147700","StateId":"20157369","CountyId":"20159118","CityId":"20159152","DistrictId":"20159154","AddressId":"193461234","RoadLinkId":"35154552"}}},{"Relevance":1.0,"Distance":28.5,"MatchLevel":"houseNumber","MatchQuality":{"Country":1.0,"State":1.0,"County":1.0,"City":1.0,"District":1.0,"Street":[1.0],"HouseNumber":1.0,"PostalCode":1.0},"MatchType":"interpolated","Location":{"LocationId":"NT_SN6xemvK6wTfRKW9bLqP3A_1A","LocationType":"point","DisplayPosition":{"Latitude":52.1364,"Longitude":7.09989},"MapView":{"TopLeft":{"Latitude":52.1375242,"Longitude":7.0980585},"BottomRight":{"Latitude":52.1352758,"Longitude":7.1017215}},"Address":{"Label":"Eper Straße 5, 48619 Heek, Deutschland","Country":"DEU","State":"Nordrhein-Westfalen","County":"Borken","City":"Heek","District":"Nienborg","Street":"Eper Straße","HouseNumber":"5","PostalCode":"48619","AdditionalData":[{"value":"Deutschland","key":"CountryName"},{"value":"Nordrhein-Westfalen","key":"StateName"},{"value":"Borken","key":"CountyName"}]},"MapReference":{"ReferenceId":"1193950557","Spot":0.15,"SideOfStreet":"left","CountryId":"20147700","StateId":"20157369","CountyId":"20159118","CityId":"20159152","DistrictId":"20159154","AddressId":"194643631","RoadLinkId":"503864340"}}},{"Relevance":1.0,"Distance":57.1,"MatchLevel":"houseNumber","MatchQuality":{"Country":1.0,"State":1.0,"County":1.0,"City":1.0,"District":1.0,"Street":[1.0],"HouseNumber":1.0,"PostalCode":1.0},"MatchType":"interpolated","Location":{"LocationId":"NT_SN6xemvK6wTfRKW9bLqP3A_xEE","LocationType":"point","DisplayPosition":{"Latitude":52.13616,"Longitude":7.09988},"MapView":{"TopLeft":{"Latitude":52.1372842,"Longitude":7.0980485},"BottomRight":{"Latitude":52.1350358,"Longitude":7.1017115}},"Address":{"Label":"Eper Straße 1A, 48619 Heek, Deutschland","Country":"DEU","State":"Nordrhein-Westfalen","County":"Borken","City":"Heek","District":"Nienborg","Street":"Eper Straße","HouseNumber":"1A","PostalCode":"48619","AdditionalData":[{"value":"Deutschland","key":"CountryName"},{"value":"Nordrhein-Westfalen","key":"StateName"},{"value":"Borken","key":"CountyName"}]},"MapReference":{"ReferenceId":"1193950556","Spot":0.49,"SideOfStreet":"left","CountryId":"20147700","StateId":"20157369","CountyId":"20159118","CityId":"20159152","DistrictId":"20159154","AddressId":"196142385","RoadLinkId":"503864339"}}},{"Relevance":1.0,"Distance":62.1,"MatchLevel":"houseNumber","MatchQuality":{"Country":1.0,"State":1.0,"County":1.0,"City":1.0,"District":1.0,"Street":[1.0],"HouseNumber":1.0,"PostalCode":1.0},"MatchType":"interpolated","Location":{"LocationId":"NT_7mRW4iKai7kGy7GTB.QrDA_zcD","LocationType":"point","DisplayPosition":{"Latitude":52.1369,"Longitude":7.10064},"MapView":{"TopLeft":{"Latitude":52.1380242,"Longitude":7.0988085},"BottomRight":{"Latitude":52.1357758,"Longitude":7.1024715}},"Address":{"Label":"Achter de Stadt 37, 48619 Heek, Deutschland","Country":"DEU","State":"Nordrhein-Westfalen","County":"Borken","City":"Heek","District":"Nienborg","Street":"Achter de Stadt","HouseNumber":"37","PostalCode":"48619","AdditionalData":[{"value":"Deutschland","key":"CountryName"},{"value":"Nordrhein-Westfalen","key":"StateName"},{"value":"Borken","key":"CountyName"}]},"MapReference":{"ReferenceId":"74626542","Spot":0.37,"SideOfStreet":"left","CountryId":"20147700","StateId":"20157369","CountyId":"20159118","CityId":"20159152","DistrictId":"20159154","AddressId":"196295911","RoadLinkId":"35143677"}}},{"Relevance":1.0,"Distance":80.5,"MatchLevel":"street","MatchQuality":{"Country":1.0,"State":1.0,"County":1.0,"City":1.0,"District":1.0,"Street":[1.0],"PostalCode":1.0},"Location":{"LocationId":"NT_nDSpRu-5TeynBwgiUl5l4C_l_74626622_L","LocationType":"point","DisplayPosition":{"Latitude":52.1359336,"Longitude":7.0997719},"MapView":{"TopLeft":{"Latitude":52.13595,"Longitude":7.09814},"BottomRight":{"Latitude":52.13584,"Longitude":7.09987}},"Address":{"Label":"Ossenkamp, 48619 Heek, Deutschland","Country":"DEU","State":"Nordrhein-Westfalen","County":"Borken","City":"Heek","District":"Nienborg","Street":"Ossenkamp","PostalCode":"48619","AdditionalData":[{"value":"Deutschland","key":"CountryName"},{"value":"Nordrhein-Westfalen","key":"StateName"},{"value":"Borken","key":"CountyName"}]},"MapReference":{"ReferenceId":"74626622","Spot":0.94,"SideOfStreet":"left","CountryId":"20147700","StateId":"20157369","CountyId":"20159118","CityId":"20159152","DistrictId":"20159154"}}},{"Relevance":1.0,"Distance":86.3,"MatchLevel":"houseNumber","MatchQuality":{"Country":1.0,"State":1.0,"County":1.0,"City":1.0,"District":1.0,"Street":[1.0],"HouseNumber":1.0,"PostalCode":1.0},"MatchType":"interpolated","Location":{"LocationId":"NT_pOVoW76up-f0Y2PysXHllB_xEE","LocationType":"point","DisplayPosition":{"Latitude":52.13616,"Longitude":7.10077},"MapView":{"TopLeft":{"Latitude":52.1372842,"Longitude":7.0989385},"BottomRight":{"Latitude":52.1350358,"Longitude":7.1026015}},"Address":{"Label":"Ochtruper Straße 1A, 48619 Heek, Deutschland","Country":"DEU","State":"Nordrhein-Westfalen","County":"Borken","City":"Heek","District":"Nienborg","Street":"Ochtruper Straße","HouseNumber":"1A","PostalCode":"48619","AdditionalData":[{"value":"Deutschland","key":"CountryName"},{"value":"Nordrhein-Westfalen","key":"StateName"},{"value":"Borken","key":"CountyName"}]},"MapReference":{"ReferenceId":"757132611","Spot":0.74,"SideOfStreet":"left","CountryId":"20147700","StateId":"20157369","CountyId":"20159118","CityId":"20159152","DistrictId":"20159154","AddressId":"194366215","RoadLinkId":"152174580"}}},{"Relevance":1.0,"Distance":90.9,"MatchLevel":"houseNumber","MatchQuality":{"Country":1.0,"State":1.0,"County":1.0,"City":1.0,"District":1.0,"Street":[1.0],"HouseNumber":1.0,"PostalCode":1.0},"MatchType":"interpolated","Location":{"LocationId":"NT_0JBezPjXdKik4Jo4TPrf9B_zA","LocationType":"point","DisplayPosition":{"Latitude":52.13747,"Longitude":7.09905},"MapView":{"TopLeft":{"Latitude":52.1385942,"Longitude":7.0972184},"BottomRight":{"Latitude":52.1363458,"Longitude":7.1008816}},"Address":{"Label":"Rönacker 3, 48619 Heek, Deutschland","Country":"DEU","State":"Nordrhein-Westfalen","County":"Borken","City":"Heek","District":"Nienborg","Street":"Rönacker","HouseNumber":"3","PostalCode":"48619","AdditionalData":[{"value":"Deutschland","key":"CountryName"},{"value":"Nordrhein-Westfalen","key":"StateName"},{"value":"Borken","key":"CountyName"}]},"MapReference":{"ReferenceId":"74626543","Spot":0.65,"SideOfStreet":"left","CountryId":"20147700","StateId":"20157369","CountyId":"20159118","CityId":"20159152","DistrictId":"20159154","AddressId":"195631115","RoadLinkId":"35073137"}}},{"Relevance":1.0,"Distance":99.3,"MatchLevel":"houseNumber","MatchQuality":{"Country":1.0,"State":1.0,"County":1.0,"City":1.0,"District":1.0,"Street":[1.0],"HouseNumber":1.0,"PostalCode":1.0},"MatchType":"interpolated","Location":{"LocationId":"NT_nqTrdwX6mSeYdoXC2HOVdB_2gD","LocationType":"point","DisplayPosition":{"Latitude":52.1357,"Longitude":7.10003},"MapView":{"TopLeft":{"Latitude":52.1368242,"Longitude":7.0981985},"BottomRight":{"Latitude":52.1345758,"Longitude":7.1018615}},"Address":{"Label":"Hauptstraße 68, 48619 Heek, Deutschland","Country":"DEU","State":"Nordrhein-Westfalen","County":"Borken","City":"Heek","District":"Nienborg","Street":"Hauptstraße","HouseNumber":"68","PostalCode":"48619","AdditionalData":[{"value":"Deutschland","key":"CountryName"},{"value":"Nordrhein-Westfalen","key":"StateName"},{"value":"Borken","key":"CountyName"}]},"MapReference":{"ReferenceId":"74626666","Spot":0.82,"SideOfStreet":"right","CountryId":"20147700","StateId":"20157369","CountyId":"20159118","CityId":"20159152","DistrictId":"20159154","AddressId":"672656223","RoadLinkId":"380939886"}}}]}]}}