{"Response":{"MetaInfo":{"Timestamp":"2020-03-28T10:19:18.858+0000","NextPageInformation":"2"},"View":[{"_type":"SearchResultsViewType","ViewId":0,"Result":[{"Relevance":1.0,"Distance":0.0,"Direction":0.0,"MatchLevel":"district","MatchQuality":{"Country":1.0,"State":1.0,"County":1.0,"City":1.0,"District":1.0,"PostalCode":1.0},"Location":{"LocationId":"NT_FefliAV0VbEM607WcSJ1lD","LocationType":"point","DisplayPosition":{"Latitude":52.1314073,"Longitude":8.7021117},"MapView":{"TopLeft":{"Latitude":52.14429,"Longitude":8.60955},"BottomRight":{"Latitude":52.08959,"Longitude":8.71704}},"Address":{"Label":"Herford, Nordrhein-Westfalen, Deutschland","Country":"DEU","State":"Nordrhein-Westfalen","County":"Herford","City":"Herford","District":"Herford","PostalCode":"32052","AdditionalData":[{"value":"Deutschland","key":"CountryName"},{"value":"Nordrhein-Westfalen","key":"StateName"},{"value":"Herford","key":"CountyName"}]},"MapReference":{"ReferenceId":"1240014330","SideOfStreet":"neither","CountryId":"20147700","StateId":"20157369","CountyId":"20159634","CityId":"20159648","DistrictId":"20159653"}}},{"Relevance":1.0,"Distance":11.9,"MatchLevel":"houseNumber","MatchQuality":{"Country":1.0,"State":1.0,"County":1.0,"City":1.0,"District":1.0,"Street":[1.0],"HouseNumber":1.0,"PostalCode":1.0},"MatchType":"interpolated","Location":{"LocationId":"NT_JjWdW7FIQ0QQt6aCmv3c.C_0ED","LocationType":"point","DisplayPosition":{"Latitude":52.13143,"Longitude":8.70191},"MapView":{"TopLeft":{"Latitude":52.1325542,"Longitude":8.7000787},"BottomRight":{"Latitude":52.1303058,"Longitude":8.7037413}},"Address":{"Label":"Landsberger Straße 41, 32049 Herford, Deutschland","Country":"DEU","State":"Nordrhein-Westfalen","County":"Herford","City":"Herford","District":"Herford","Street":"Landsberger Straße","HouseNumber":"41","PostalCode":"32049","AdditionalData":[{"value":"Deutschland","key":"CountryName"},{"value":"Nordrhein-Westfalen","key":"StateName"},{"value":"Herford","key":"CountyName"}]},"MapReference":{"ReferenceId":"61211085","Spot":0.11,"SideOfStreet":"right","CountryId":"20147700","StateId":"20157369","CountyId":"20159634","CityId":"20159648","DistrictId":"20159653","AddressId":"255679082","RoadLinkId":"240198651"}}},{"Relevance":1.0,"Distance":23.2,"MatchLevel":"street","MatchQuality":{"Country":1.0,"State":1.0,"County":1.0,"City":1.0,"District":1.0,"Street":[1.0],"PostalCode":1.0},"Location":{"LocationId":"NT_Q8Q1x1hZX0nqJN97bjumgA_l_61211107_R","LocationType":"point","DisplayPosition":{"Latitude":52.1312516,"Longitude":8.7018852},"MapView":{"TopLeft":{"Latitude":52.13139,"Longitude":8.70179},"BottomRight":{"Latitude":52.13091,"Longitude":8.70212}},"Address":{"Label":"Rodenroths Trift, 32049 Herford, Deutschland","Country":"DEU","State":"Nordrhein-Westfalen","County":"Herford","City":"Herford","District":"Herford","Street":"Rodenroths Trift","PostalCode":"32049","AdditionalData":[{"value":"Deutschland","key":"CountryName"},{"value":"Nordrhein-Westfalen","key":"StateName"},{"value":"Herford","key":"CountyName"}]},"MapReference":{"ReferenceId":"61211107","Spot":0.71,"SideOfStreet":"right","CountryId":"20147700","StateId":"20157369","CountyId":"20159634","CityId":"20159648","DistrictId":"20159653"}}},{"Relevance":1.0,"Distance":30.3,"MatchLevel":"houseNumber","MatchQuality":{"Country":1.0,"State":1.0,"County":1.0,"City":1.0,"District":1.0,"Street":[1.0],"HouseNumber":1.0,"PostalCode":1.0},"MatchType":"interpolated","Location":{"LocationId":"NT_JjWdW7FIQ0QQt6aCmv3c.C_zkD","LocationType":"point","DisplayPosition":{"Latitude":52.13154,"Longitude":8.70166},"MapView":{"TopLeft":{"Latitude":52.1326642,"Longitude":8.6998287},"BottomRight":{"Latitude":52.1304158,"Longitude":8.7034913}},"Address":{"Label":"Landsberger Straße 39, 32049 Herford, Deutschland","Country":"DEU","State":"Nordrhein-Westfalen","County":"Herford","City":"Herford","District":"Herford","Street":"Landsberger Straße","HouseNumber":"39","PostalCode":"32049","AdditionalData":[{"value":"Deutschland","key":"CountryName"},{"value":"Nordrhein-Westfalen","key":"StateName"},{"value":"Herford","key":"CountyName"}]},"MapReference":{"ReferenceId":"61211086","Spot":0.41,"SideOfStreet":"right","CountryId":"20147700","StateId":"20157369","CountyId":"20159634","CityId":"20159648","DistrictId":"20159653","AddressId":"255674929","RoadLinkId":"240198652"}}},{"Relevance":1.0,"Distance":42.4,"MatchLevel":"houseNumber","MatchQuality":{"Country":1.0,"State":1.0,"County":1.0,"City":1.0,"District":1.0,"Street":[1.0],"HouseNumber":1.0,"PostalCode":1.0},"MatchType":"interpolated","Location":{"LocationId":"NT_u04wrRGPsS3ls7BrrHMO4B_zcD","LocationType":"point","DisplayPosition":{"Latitude":52.13103,"Longitude":8.7026},"MapView":{"TopLeft":{"Latitude":52.1321542,"Longitude":8.7007687},"BottomRight":{"Latitude":52.1299058,"Longitude":8.7044313}},"Address":{"Label":"Amselstraße 37, 32049 Herford, Deutschland","Country":"DEU","State":"Nordrhein-Westfalen","County":"Herford","City":"Herford","District":"Herford","Street":"Amselstraße","HouseNumber":"37","PostalCode":"32049","AdditionalData":[{"value":"Deutschland","key":"CountryName"},{"value":"Nordrhein-Westfalen","key":"StateName"},{"value":"Herford","key":"CountyName"}]},"MapReference":{"ReferenceId":"61211106","Spot":0.36,"SideOfStreet":"left","CountryId":"20147700","StateId":"20157369","CountyId":"20159634","CityId":"20159648","DistrictId":"20159653","AddressId":"192834551","RoadLinkId":"35252936"}}},{"Relevance":1.0,"Distance":46.1,"MatchLevel":"houseNumber","MatchQuality":{"Country":1.0,"State":1.0,"County":1.0,"City":1.0,"District":1.0,"Street":[1.0],"HouseNumber":1.0,"PostalCode":1.0},"MatchType":"interpolated","Location":{"LocationId":"NT_u04wrRGPsS3ls7BrrHMO4B_zUD","LocationType":"point","DisplayPosition":{"Latitude":52.13084,"Longitude":8.70177},"MapView":{"TopLeft":{"Latitude":52.1319642,"Longitude":8.6999387},"BottomRight":{"Latitude":52.1297158,"Longitude":8.7036013}},"Address":{"Label":"Amselstraße 35, 32049 Herford, Deutschland","Country":"DEU","State":"Nordrhein-Westfalen","County":"Herford","City":"Herford","District":"Herford","Street":"Amselstraße","HouseNumber":"35","PostalCode":"32049","AdditionalData":[{"value":"Deutschland","key":"CountryName"},{"value":"Nordrhein-Westfalen","key":"StateName"},{"value":"Herford","key":"CountyName"}]},"MapReference":{"ReferenceId":"61211127","Spot":0.91,"SideOfStreet":"left","CountryId":"20147700","StateId":"20157369","CountyId":"20159634","CityId":"20159648","DistrictId":"20159653","AddressId":"196008177","RoadLinkId":"35783063"}}},{"Relevance":1.0,"Distance":58.0,"MatchLevel":"houseNumber","MatchQuality":{"Country":1.0,"State":1.0,"County":1.0,"City":1.0,"District":1.0,"Street":[1.0],"HouseNumber":1.0,"PostalCode":1.0},"MatchType":"interpolated","Location":{"LocationId":"NT_JjWdW7FIQ0QQt6aCmv3c.C_zQD","LocationType":"point","DisplayPosition":{"Latitude":52.13168,"Longitude":8.70127},"MapView":{"TopLeft":{"Latitude":52.1328042,"Longitude":8.6994387},"BottomRight":{"Latitude":52.1305558,"Longitude":8.7031013}},"Address":{"Label":"Landsberger Straße 34, 32049 Herford, Deutschland","Country":"DEU","State":"Nordrhein-Westfalen","County":"Herford","City":"Herford","District":"Herford","Street":"Landsberger Straße","HouseNumber":"34","PostalCode":"32049","AdditionalData":[{"value":"Deutschland","key":"CountryName"},{"value":"Nordrhein-Westfalen","key":"StateName"},{"value":"Herford","key":"CountyName"}]},"MapReference":{"ReferenceId":"1265737439","Spot":0.94,"SideOfStreet":"right","CountryId":"20147700","StateId":"20157369","CountyId":"20159634","CityId":"20159648","DistrictId":"20159653","AddressId":"193000906","RoadLinkId":"592108752"}}},{"Relevance":1.0,"Distance":77.0,"MatchLevel":"houseNumber","MatchQuality":{"Country":1.0,"State":1.0,"County":1.0,"City":1.0,"District":1.0,"Street":[1.0],"HouseNumber":1.0,"PostalCode":1.0},"MatchType":"interpolated","Location":{"LocationId":"NT_Q8Q1x1hZX0nqJN97bjumgA_yA","LocationType":"point","DisplayPosition":{"Latitude":52.13202,"Longitude":8.70143},"MapView":{"TopLeft":{"Latitude":52.1331442,"Longitude":8.6995987},"BottomRight":{"Latitude":52.1308958,"Longitude":8.7032613}},"Address":{"Label":"Rodenroths Trift 2, 32049 Herford, Deutschland","Country":"DEU","State":"Nordrhein-Westfalen","County":"Herford","City":"Herford","District":"Herford","Street":"Rodenroths Trift","HouseNumber":"2","PostalCode":"32049","AdditionalData":[{"value":"Deutschland","key":"CountryName"},{"value":"Nordrhein-Westfalen","key":"StateName"},{"value":"Herford","key":"CountyName"}]},"MapReference":{"ReferenceId":"61211073","Spot":0.24,"SideOfStreet":"right","CountryId":"20147700","StateId":"20157369","CountyId":"20159634","CityId":"20159648","DistrictId":"20159653","AddressId":"196456487","RoadLinkId":"35441374"}}},{"Relevance":1.0,"Distance":101.5,"MatchLevel":"houseNumber","MatchQuality":{"Country":1.0,"State":1.0,"County":1.0,"City":1.0,"District":1.0,"Street":[1.0],"HouseNumber":1.0,"PostalCode":1.0},"MatchType":"interpolated","Location":{"LocationId":"NT_u04wrRGPsS3ls7BrrHMO4B_0MD","LocationType":"point","DisplayPosition":{"Latitude":52.13138,"Longitude":8.70374},"MapView":{"TopLeft":{"Latitude":52.1325042,"Longitude":8.7019087},"BottomRight":{"Latitude":52.1302558,"Longitude":8.7055713}},"Address":{"Label":"Amselstraße 43, 32049 Herford, Deutschland","Country":"DEU","State":"Nordrhein-Westfalen","County":"Herford","City":"Herford","District":"Herford","Street":"Amselstraße","HouseNumber":"43","PostalCode":"32049","AdditionalData":[{"value":"Deutschland","key":"CountryName"},{"value":"Nordrhein-Westfalen","key":"StateName"},{"value":"Herford","key":"CountyName"}]},"MapReference":{"ReferenceId":"703703288","Spot":0.54,"SideOfStreet":"left","CountryId":"20147700","StateId":"20157369","CountyId":"20159634","CityId":"20159648","DistrictId":"20159653","AddressId":"196207431","RoadLinkId":"60835826"}}},{"Relevance":1.0,"Distance":110.4,"MatchLevel":"houseNumber","MatchQuality":{"Country":1.0,"State":1.0,"County":1.0,"City":1.0,"District":1.0,"Street":[1.0],"HouseNumber":1.0,"PostalCode":1.0},"MatchType":"interpolated","Location":{"LocationId":"NT_lKl4VXptWXayisObReJyVC_yA","LocationType":"point","DisplayPosition":{"Latitude":52.13087,"Longitude":8.70365},"MapView":{"TopLeft":{"Latitude":52.1319942,"Longitude":8.7018187},"BottomRight":{"Latitude":52.1297458,"Longitude":8.7054813}},"Address":{"Label":"Vorm Holzschlinge 2, 32049 Herford, Deutschland","Country":"DEU","State":"Nordrhein-Westfalen","County":"Herford","City":"Herford","District":"Herford","Street":"Vorm Holzschlinge","HouseNumber":"2","PostalCode":"32049","AdditionalData":[{"value":"Deutschland","key":"CountryName"},{"value":"Nordrhein-Westfalen","key":"StateName"},{"value":"Herford","key":"CountyName"}]},"MapReference":{"ReferenceId":"61211116","Spot":0.37,"SideOfStreet":"left","CountryId":"20147700","StateId":"20157369","CountyId":"20159634","CityId":"20159648","DistrictId":"20159653","AddressId":"193948223","RoadLinkId":"35089674"}}}]}]}}