{"Response":{"MetaInfo":{"Timestamp":"2020-03-28T11:31:17.619+0000","NextPageInformation":"2"},"View":[{"_type":"SearchResultsViewType","ViewId":0,"Result":[{"Relevance":1.0,"Distance":-24.5,"MatchLevel":"landmark","MatchQuality":{"Country":1.0,"State":1.0,"County":1.0,"City":1.0,"District":1.0,"Street":[1.0],"PostalCode":1.0,"Name":1.0},"Location":{"LocationId":"NT_z22bD1LdIELUqBwVzMu2mD_p_IKqPM4KnkDa4q9ecC4qGiD","LocationType":"hospital","Name":"Szpital Kolejowy im. W. Roeflera","DisplayPosition":{"Latitude":52.17538,"Longitude":20.80705},"MapView":{"TopLeft":{"Latitude":52.17593,"Longitude":20.80618},"BottomRight":{"Latitude":52.17362,"Longitude":20.80885}},"Address":{"Label":"ulica Warsztatowa, 05-800 Pruszków, Polska","Country":"POL","State":"Woj. Mazowieckie","County":"Powiat Pruszkowski","City":"Pruszków","District":"Pruszków","Street":"ulica Warsztatowa","PostalCode":"05-800","AdditionalData":[{"value":"Polska","key":"CountryName"},{"value":"Woj. Mazowieckie","key":"StateName"},{"value":"Powiat Pruszkowski","key":"CountyName"}]},"MapReference":{"CountryId":"20624059","StateId":"20627182","CountyId":"20627583","CityId":"20627594","DistrictId":"20633149","PlaceId":"559743838"}}},{"Relevance":1.0,"Distance":0.0,"Direction":0.0,"MatchLevel":"district","MatchQuality":{"Country":1.0,"State":1.0,"County":1.0,"City":1.0,"District":1.0,"PostalCode":1.0},"Location":{"LocationId":"NT_SI9eAj2xz0J.12W5gyq8LD","LocationType":"point","DisplayPosition":{"Latitude":52.1745009,"Longitude":20.8068768},"MapView":{"TopLeft":{"Latitude":52.19382,"Longitude":20.75247},"BottomRight":{"Latitude":52.14773,"Longitude":20.84519}},"Address":{"Label":"Pruszków, Woj. Mazowieckie, Polska","Country":"POL","State":"Woj. Mazowieckie","County":"Powiat Pruszkowski","City":"Pruszków","District":"Pruszków","PostalCode":"05-800","AdditionalData":[{"value":"Polska","key":"CountryName"},{"value":"Woj. Mazowieckie","key":"StateName"},{"value":"Powiat Pruszkowski","key":"CountyName"}]},"MapReference":{"ReferenceId":"961693326","SideOfStreet":"neither","CountryId":"20624059","StateId":"20627182","CountyId":"20627583","CityId":"20627594","DistrictId":"20633149"}}},{"Relevance":1.0,"Distance":15.6,"MatchLevel":"houseNumber","MatchQuality":{"Country":1.0,"State":1.0,"County":1.0,"City":1.0,"District":1.0,"Street":[1.0],"HouseNumber":1.0,"PostalCode":1.0},"MatchType":"interpolated","Location":{"LocationId":"NT_ZoLx3ATMB0njxedKZc3I2C_xEE","LocationType":"point","DisplayPosition":{"Latitude":52.17447,"Longitude":20.80651},"MapView":{"TopLeft":{"Latitude":52.1755942,"Longitude":20.8046769},"BottomRight":{"Latitude":52.1733458,"Longitude":20.8083431}},"Address":{"Label":"ulica Warsztatowa 1A, 05-800 Pruszków, Polska","Country":"POL","State":"Woj. Mazowieckie","County":"Powiat Pruszkowski","City":"Pruszków","District":"Pruszków","Street":"ulica Warsztatowa","HouseNumber":"1A","PostalCode":"05-800","AdditionalData":[{"value":"Polska","key":"CountryName"},{"value":"Woj. Mazowieckie","key":"StateName"},{"value":"Powiat Pruszkowski","key":"CountyName"}]},"MapReference":{"ReferenceId":"1103783805","Spot":0.1,"SideOfStreet":"right","CountryId":"20624059","StateId":"20627182","CountyId":"20627583","CityId":"20627594","DistrictId":"20633149","AddressId":"703669732","RoadLinkId":"415824310"}}},{"Relevance":1.0,"Distance":33.9,"MatchLevel":"houseNumber","MatchQuality":{"Country":1.0,"State":1.0,"County":1.0,"City":1.0,"District":1.0,"Street":[1.0],"HouseNumber":1.0,"PostalCode":1.0},"MatchType":"interpolated","Location":{"LocationId":"NT_ZoLx3ATMB0njxedKZc3I2C_xgTQ","LocationType":"point","DisplayPosition":{"Latitude":52.17428,"Longitude":20.8064},"MapView":{"TopLeft":{"Latitude":52.1754042,"Longitude":20.8045669},"BottomRight":{"Latitude":52.1731558,"Longitude":20.8082331}},"Address":{"Label":"ulica Warsztatowa 18A, 05-800 Pruszków, Polska","Country":"POL","State":"Woj. Mazowieckie","County":"Powiat Pruszkowski","City":"Pruszków","District":"Pruszków","Street":"ulica Warsztatowa","HouseNumber":"18A","PostalCode":"05-800","AdditionalData":[{"value":"Polska","key":"CountryName"},{"value":"Woj. Mazowieckie","key":"StateName"},{"value":"Powiat Pruszkowski","key":"CountyName"}]},"MapReference":{"ReferenceId":"1103783804","Spot":0.88,"SideOfStreet":"right","CountryId":"20624059","StateId":"20627182","CountyId":"20627583","CityId":"20627594","DistrictId":"20633149","AddressId":"732032722","RoadLinkId":"415824309"}}},{"Relevance":1.0,"Distance":51.2,"MatchLevel":"houseNumber","MatchQuality":{"Country":1.0,"State":1.0,"County":1.0,"City":1.0,"District":1.0,"Street":[1.0],"HouseNumber":1.0,"PostalCode":1.0},"MatchType":"interpolated","Location":{"LocationId":"NT_qtUcOWe1ZGpsG1p2ezErWC_4A","LocationType":"point","DisplayPosition":{"Latitude":52.17491,"Longitude":20.8063},"MapView":{"TopLeft":{"Latitude":52.1760342,"Longitude":20.8044669},"BottomRight":{"Latitude":52.1737858,"Longitude":20.8081331}},"Address":{"Label":"ulica Narodowa 8, 05-800 Pruszków, Polska","Country":"POL","State":"Woj. Mazowieckie","County":"Powiat Pruszkowski","City":"Pruszków","District":"Pruszków","Street":"ulica Narodowa","HouseNumber":"8","PostalCode":"05-800","AdditionalData":[{"value":"Polska","key":"CountryName"},{"value":"Woj. Mazowieckie","key":"StateName"},{"value":"Powiat Pruszkowski","key":"CountyName"}]},"MapReference":{"ReferenceId":"595609822","Spot":0.46,"SideOfStreet":"right","CountryId":"20624059","StateId":"20627182","CountyId":"20627583","CityId":"20627594","DistrictId":"20633149","AddressId":"211515363","RoadLinkId":"95431007"}}},{"Relevance":1.0,"Distance":69.2,"MatchLevel":"houseNumber","MatchQuality":{"Country":1.0,"State":1.0,"County":1.0,"City":1.0,"District":1.0,"Street":[1.0],"HouseNumber":1.0,"PostalCode":1.0},"MatchType":"interpolated","Location":{"LocationId":"NT_Yu0yfc2FW7xa1n2Z-phTnD_xgTQ","LocationType":"point","DisplayPosition":{"Latitude":52.1739,"Longitude":20.80714},"MapView":{"TopLeft":{"Latitude":52.1750242,"Longitude":20.8053069},"BottomRight":{"Latitude":52.1727758,"Longitude":20.8089731}},"Address":{"Label":"ulica 3 Maja 18A, 05-800 Pruszków, Polska","Country":"POL","State":"Woj. Mazowieckie","County":"Powiat Pruszkowski","City":"Pruszków","District":"Pruszków","Street":"ulica 3 Maja","HouseNumber":"18A","PostalCode":"05-800","AdditionalData":[{"value":"Polska","key":"CountryName"},{"value":"Woj. Mazowieckie","key":"StateName"},{"value":"Powiat Pruszkowski","key":"CountyName"}]},"MapReference":{"ReferenceId":"986372660","Spot":0.17,"SideOfStreet":"left","CountryId":"20624059","StateId":"20627182","CountyId":"20627583","CityId":"20627594","DistrictId":"20633149","AddressId":"703658552","RoadLinkId":"317007679"}}},{"Relevance":1.0,"Distance":81.1,"MatchLevel":"street","MatchQuality":{"Country":1.0,"State":1.0,"County":1.0,"City":1.0,"District":1.0,"Street":[1.0],"PostalCode":1.0},"Location":{"LocationId":"NT_ZoLx3ATMB0njxedKZc3I2C_l_595609866_R","LocationType":"point","DisplayPosition":{"Latitude":52.17391,"Longitude":20.80618},"MapView":{"TopLeft":{"Latitude":52.17391,"Longitude":20.8059},"BottomRight":{"Latitude":52.17369,"Longitude":20.80618}},"Address":{"Label":"ulica Warsztatowa, 05-800 Pruszków, Polska","Country":"POL","State":"Woj. Mazowieckie","County":"Powiat Pruszkowski","City":"Pruszków","District":"Pruszków","Street":"ulica Warsztatowa","PostalCode":"05-800","AdditionalData":[{"value":"Polska","key":"CountryName"},{"value":"Woj. Mazowieckie","key":"StateName"},{"value":"Powiat Pruszkowski","key":"CountyName"}]},"MapReference":{"ReferenceId":"595609866","Spot":1.0,"SideOfStreet":"right","CountryId":"20624059","StateId":"20627182","CountyId":"20627583","CityId":"20627594","DistrictId":"20633149"}}},{"Relevance":1.0,"Distance":84.9,"MatchLevel":"street","MatchQuality":{"Country":1.0,"State":1.0,"County":1.0,"City":1.0,"District":1.0,"PostalCode":1.0},"Location":{"LocationId":"NT_1kS0IKiEKUWBQzBo.kmoDD_l_985562660_L","LocationType":"point","DisplayPosition":{"Latitude":52.17375,"Longitude":20.8071},"MapView":{"TopLeft":{"Latitude":52.17375,"Longitude":20.80687},"BottomRight":{"Latitude":52.17311,"Longitude":20.8071}},"Address":{"Label":"05-800 Pruszków, Polska","Country":"POL","State":"Woj. Mazowieckie","County":"Powiat Pruszkowski","City":"Pruszków","District":"Pruszków","PostalCode":"05-800","AdditionalData":[{"value":"Polska","key":"CountryName"},{"value":"Woj. Mazowieckie","key":"StateName"},{"value":"Powiat Pruszkowski","key":"CountyName"}]},"MapReference":{"ReferenceId":"985562660","Spot":1.0,"SideOfStreet":"left","CountryId":"20624059","StateId":"20627182","CountyId":"20627583","CityId":"20627594","DistrictId":"20633149"}}},{"Relevance":1.0,"Distance":104.1,"MatchLevel":"houseNumber","MatchQuality":{"Country":1.0,"State":1.0,"County":1.0,"City":1.0,"District":1.0,"Street":[1.0],"HouseNumber":1.0,"PostalCode":1.0},"MatchType":"interpolated","Location":{"LocationId":"NT_Yu0yfc2FW7xa1n2Z-phTnD_yAD","LocationType":"point","DisplayPosition":{"Latitude":52.1739,"Longitude":20.80555},"MapView":{"TopLeft":{"Latitude":52.1750242,"Longitude":20.8037169},"BottomRight":{"Latitude":52.1727758,"Longitude":20.8073831}},"Address":{"Label":"ulica 3 Maja 20, 05-800 Pruszków, Polska","Country":"POL","State":"Woj. Mazowieckie","County":"Powiat Pruszkowski","City":"Pruszków","District":"Pruszków","Street":"ulica 3 Maja","HouseNumber":"20","PostalCode":"05-800","AdditionalData":[{"value":"Polska","key":"CountryName"},{"value":"Woj. Mazowieckie","key":"StateName"},{"value":"Powiat Pruszkowski","key":"CountyName"}]},"MapReference":{"ReferenceId":"772337999","Spot":0.42,"SideOfStreet":"right","CountryId":"20624059","StateId":"20627182","CountyId":"20627583","CityId":"20627594","DistrictId":"20633149","AddressId":"701820057","RoadLinkId":"165949209"}}},{"Relevance":1.0,"Distance":110.6,"MatchLevel":"landmark","MatchQuality":{"Country":1.0,"State":1.0,"County":1.0,"City":1.0,"District":1.0,"PostalCode":1.0,"Name":1.0},"Location":{"LocationId":"NT_ZhP.2TwyD6uEPHHcGCqRiC","LocationType":"industrialComplex","Name":"Mlp Pruszków I","DisplayPosition":{"Latitude":52.17551,"Longitude":20.81474},"MapView":{"TopLeft":{"Latitude":52.17923,"Longitude":20.80793},"BottomRight":{"Latitude":52.17179,"Longitude":20.82756}},"Address":{"Label":"05-800 Pruszków, Polska","Country":"POL","State":"Woj. Mazowieckie","County":"Powiat Pruszkowski","City":"Pruszków","District":"Pruszków","PostalCode":"05-800","AdditionalData":[{"value":"Polska","key":"CountryName"},{"value":"Woj. Mazowieckie","key":"StateName"},{"value":"Powiat Pruszkowski","key":"CountyName"}]},"MapReference":{"CountryId":"20624059","StateId":"20627182","CountyId":"20627583","CityId":"20627594","DistrictId":"20633149","PlaceId":"561325384"}}}]}]}}