{"Response":{"MetaInfo":{"Timestamp":"2020-03-28T11:18:07.045+0000","NextPageInformation":"2"},"View":[{"_type":"SearchResultsViewType","ViewId":0,"Result":[{"Relevance":1.0,"Distance":0.0,"Direction":0.0,"MatchLevel":"district","MatchQuality":{"Country":1.0,"State":1.0,"County":1.0,"City":1.0,"District":1.0,"PostalCode":1.0},"Location":{"LocationId":"NT_zGdjWlTEU5BOn2DX39ek0A","LocationType":"point","DisplayPosition":{"Latitude":52.1904322,"Longitude":0.124051},"MapView":{"TopLeft":{"Latitude":52.23882,"Longitude":0.07746},"BottomRight":{"Latitude":52.16444,"Longitude":0.18852}},"Address":{"Label":"Cambridge, England, United Kingdom","Country":"GBR","State":"England","County":"Cambridgeshire","City":"Cambridge","District":"Cambridge","PostalCode":"CB3 9","AdditionalData":[{"value":"United Kingdom","key":"CountryName"},{"value":"England","key":"StateName"},{"value":"Cambridgeshire","key":"CountyName"}]},"MapReference":{"ReferenceId":"1225638096","SideOfStreet":"neither","StateId":"20248595","CountyId":"20335089","CityId":"20335090","DistrictId":"20335091"}}},{"Relevance":1.0,"Distance":22.4,"MatchLevel":"houseNumber","MatchQuality":{"Country":1.0,"State":1.0,"County":1.0,"City":1.0,"District":1.0,"Street":[1.0],"HouseNumber":1.0,"PostalCode":1.0},"MatchType":"interpolated","Location":{"LocationId":"NT_rCPQpR1lJCZwkU.iyxpoGD_l_26188063_L_5A","LocationType":"point","DisplayPosition":{"Latitude":52.1906211,"Longitude":0.1236126},"MapView":{"TopLeft":{"Latitude":52.1917452,"Longitude":0.1217789},"BottomRight":{"Latitude":52.1894969,"Longitude":0.1254463}},"Address":{"Label":"9 Queensway, Cambridge, CB2 8AX, United Kingdom","Country":"GBR","State":"England","County":"Cambridgeshire","City":"Cambridge","District":"Cambridge","Street":"Queensway","HouseNumber":"9","PostalCode":"CB2 8AX","AdditionalData":[{"value":"United Kingdom","key":"CountryName"},{"value":"England","key":"StateName"},{"value":"Cambridgeshire","key":"CountyName"}]},"MapReference":{"ReferenceId":"26188063","Spot":0.81,"SideOfStreet":"left","StateId":"20248595","CountyId":"20335089","CityId":"20335090","DistrictId":"20335091"}}},{"Relevance":1.0,"Distance":36.5,"MatchLevel":"postalCode","MatchQuality":{"PostalCode":1.0},"MatchType":"interpolated","Location":{"LocationId":"NT_rCPQpR1lJCZwkU.iyxpoGD_l_26188063_L_5A","LocationType":"point","DisplayPosition":{"Latitude":52.19069,"Longitude":0.12372},"MapView":{"TopLeft":{"Latitude":52.1996832,"Longitude":0.10905},"BottomRight":{"Latitude":52.1816968,"Longitude":0.13839}},"Address":{"Label":"CB2 8AX, Cambridge, England, United Kingdom","Country":"GBR","State":"England","County":"Cambridgeshire","City":"Cambridge","PostalCode":"CB2 8AX","AdditionalData":[{"value":"United Kingdom","key":"CountryName"},{"value":"England","key":"StateName"},{"value":"Cambridgeshire","key":"CountyName"}]},"MapReference":{"ReferenceId":"26188063","Spot":0.81,"SideOfStreet":"neither","StateId":"20248595","CountyId":"20335089","CityId":"20335090"}}},{"Relevance":1.0,"Distance":70.5,"MatchLevel":"street","MatchQuality":{"Country":1.0,"State":1.0,"County":1.0,"City":1.0,"District":1.0,"Street":[1.0],"PostalCode":1.0},"Location":{"LocationId":"NT_24mf0HzZRnDVeCUTZI9vSB_l_1224975097_R","LocationType":"point","DisplayPosition":{"Latitude":52.19092,"Longitude":0.12339},"MapView":{"TopLeft":{"Latitude":52.19092,"Longitude":0.12312},"BottomRight":{"Latitude":52.19063,"Longitude":0.12339}},"Address":{"Label":"Trumpington Road, Cambridge, CB2 7, United Kingdom","Country":"GBR","State":"England","County":"Cambridgeshire","City":"Cambridge","District":"Cambridge","Street":"Trumpington Road","PostalCode":"CB2 7","AdditionalData":[{"value":"United Kingdom","key":"CountryName"},{"value":"England","key":"StateName"},{"value":"Cambridgeshire","key":"CountyName"}]},"MapReference":{"ReferenceId":"1224975097","Spot":1.0,"SideOfStreet":"right","StateId":"20248595","CountyId":"20335089","CityId":"20335090","DistrictId":"20335091"}}},{"Relevance":1.0,"Distance":74.5,"MatchLevel":"street","MatchQuality":{"Country":1.0,"State":1.0,"County":1.0,"City":1.0,"District":1.0,"Street":[1.0],"PostalCode":1.0},"Location":{"LocationId":"NT_24mf0HzZRnDVeCUTZI9vSB_l_1224975098_R","LocationType":"point","DisplayPosition":{"Latitude":52.1909975,"Longitude":0.1234647},"MapView":{"TopLeft":{"Latitude":52.1912,"Longitude":0.12339},"BottomRight":{"Latitude":52.19092,"Longitude":0.12366}},"Address":{"Label":"Trumpington Road, Cambridge, CB2 7, United Kingdom","Country":"GBR","State":"England","County":"Cambridgeshire","City":"Cambridge","District":"Cambridge","Street":"Trumpington Road","PostalCode":"CB2 7","AdditionalData":[{"value":"United Kingdom","key":"CountryName"},{"value":"England","key":"StateName"},{"value":"Cambridgeshire","key":"CountyName"}]},"MapReference":{"ReferenceId":"1224975098","Spot":0.28,"SideOfStreet":"right","StateId":"20248595","CountyId":"20335089","CityId":"20335090","DistrictId":"20335091"}}},{"Relevance":1.0,"Distance":84.5,"MatchLevel":"postalCode","MatchQuality":{"PostalCode":1.0},"Location":{"LocationId":"NT_24mf0HzZRnDVeCUTZI9vSB_l_1224975097_R","LocationType":"point","DisplayPosition":{"Latitude":52.18968,"Longitude":0.12387},"MapView":{"TopLeft":{"Latitude":52.1986732,"Longitude":0.1092004},"BottomRight":{"Latitude":52.1806868,"Longitude":0.1385396}},"Address":{"Label":"CB2 8AF, Cambridge, England, United Kingdom","Country":"GBR","State":"England","County":"Cambridgeshire","City":"Cambridge","PostalCode":"CB2 8AF","AdditionalData":[{"value":"United Kingdom","key":"CountryName"},{"value":"England","key":"StateName"},{"value":"Cambridgeshire","key":"CountyName"}]},"MapReference":{"ReferenceId":"1224975097","Spot":1.0,"SideOfStreet":"neither","StateId":"20248595","CountyId":"20335089","CityId":"20335090"}}},{"Relevance":1.0,"Distance":89.4,"MatchLevel":"street","MatchQuality":{"Country":1.0,"State":1.0,"County":1.0,"City":1.0,"District":1.0,"Street":[1.0],"PostalCode":1.0},"Location":{"LocationId":"NT_UFUJSOJI9zv7yGz.pJv.mA_l_26190966_R","LocationType":"point","DisplayPosition":{"Latitude":52.1912,"Longitude":0.12366},"MapView":{"TopLeft":{"Latitude":52.19157,"Longitude":0.12366},"BottomRight":{"Latitude":52.1912,"Longitude":0.12397}},"Address":{"Label":"Trumpington Road, Cambridge, CB2 8, United Kingdom","Country":"GBR","State":"England","County":"Cambridgeshire","City":"Cambridge","District":"Cambridge","Street":"Trumpington Road","PostalCode":"CB2 8","AdditionalData":[{"value":"United Kingdom","key":"CountryName"},{"value":"England","key":"StateName"},{"value":"Cambridgeshire","key":"CountyName"}]},"MapReference":{"ReferenceId":"26190966","Spot":0.0,"SideOfStreet":"right","StateId":"20248595","CountyId":"20335089","CityId":"20335090","DistrictId":"20335091"}}},{"Relevance":1.0,"Distance":89.4,"MatchLevel":"street","MatchQuality":{"Country":1.0,"State":1.0,"County":1.0,"City":1.0,"District":1.0,"Street":[1.0],"PostalCode":1.0},"Location":{"LocationId":"NT_eLVcRYrOCU0exsJ5vpArzD_l_26187997_L","LocationType":"point","DisplayPosition":{"Latitude":52.1912,"Longitude":0.12366},"MapView":{"TopLeft":{"Latitude":52.19129,"Longitude":0.12342},"BottomRight":{"Latitude":52.1912,"Longitude":0.12366}},"Address":{"Label":"Chaucer Road, Cambridge, CB2 7, United Kingdom","Country":"GBR","State":"England","County":"Cambridgeshire","City":"Cambridge","District":"Cambridge","Street":"Chaucer Road","PostalCode":"CB2 7","AdditionalData":[{"value":"United Kingdom","key":"CountryName"},{"value":"England","key":"StateName"},{"value":"Cambridgeshire","key":"CountyName"}]},"MapReference":{"ReferenceId":"26187997","Spot":0.0,"SideOfStreet":"left","StateId":"20248595","CountyId":"20335089","CityId":"20335090","DistrictId":"20335091"}}},{"Relevance":1.0,"Distance":89.5,"MatchLevel":"street","MatchQuality":{"Country":1.0,"State":1.0,"County":1.0,"City":1.0,"District":1.0,"Street":[1.0],"PostalCode":1.0},"Location":{"LocationId":"NT_lZbdix.9no946695s91E1A_l_26188149_R","LocationType":"point","DisplayPosition":{"Latitude":52.1896275,"Longitude":0.1240103},"MapView":{"TopLeft":{"Latitude":52.18971,"Longitude":0.12238},"BottomRight":{"Latitude":52.18959,"Longitude":0.12475}},"Address":{"Label":"Newton Road, Cambridge, CB2 8, United Kingdom","Country":"GBR","State":"England","County":"Cambridgeshire","City":"Cambridge","District":"Cambridge","Street":"Newton Road","PostalCode":"CB2 8","AdditionalData":[{"value":"United Kingdom","key":"CountryName"},{"value":"England","key":"StateName"},{"value":"Cambridgeshire","key":"CountyName"}]},"MapReference":{"ReferenceId":"26188149","Spot":0.31,"SideOfStreet":"right","StateId":"20248595","CountyId":"20335089","CityId":"20335090","DistrictId":"20335091"}}},{"Relevance":1.0,"Distance":92.4,"MatchLevel":"street","MatchQuality":{"Country":1.0,"State":1.0,"County":1.0,"City":1.0,"District":1.0,"PostalCode":1.0},"Location":{"LocationId":"NT_gjsDbotk5skXCS-UyqpL7A_l_26188148_L","LocationType":"point","DisplayPosition":{"Latitude":52.1897841,"Longitude":0.1248985},"MapView":{"TopLeft":{"Latitude":52.18998,"Longitude":0.12475},"BottomRight":{"Latitude":52.18959,"Longitude":0.12532}},"Address":{"Label":"Cambridge, CB2 8, United Kingdom","Country":"GBR","State":"England","County":"Cambridgeshire","City":"Cambridge","District":"Cambridge","PostalCode":"CB2 8","AdditionalData":[{"value":"United Kingdom","key":"CountryName"},{"value":"England","key":"StateName"},{"value":"Cambridgeshire","key":"CountyName"}]},"MapReference":{"ReferenceId":"26188148","Spot":0.33,"SideOfStreet":"left","StateId":"20248595","CountyId":"20335089","CityId":"20335090","DistrictId":"20335091"}}}]}]}}