{"Response":{"MetaInfo":{"Timestamp":"2020-03-28T10:46:32.092+0000","NextPageInformation":"2"},"View":[{"_type":"SearchResultsViewType","ViewId":0,"Result":[{"Relevance":1.0,"Distance":0.0,"Direction":0.0,"MatchLevel":"district","MatchQuality":{"Country":1.0,"State":1.0,"County":1.0,"City":1.0,"District":1.0,"PostalCode":1.0},"Location":{"LocationId":"NT_8LIPm1MhbUZDAgC1kn2i6C","LocationType":"point","DisplayPosition":{"Latitude":52.1217878,"Longitude":18.239019},"MapView":{"TopLeft":{"Latitude":52.12992,"Longitude":18.22464},"BottomRight":{"Latitude":52.10559,"Longitude":18.26428}},"Address":{"Label":"Lisiec Wielki, Stare Miasto, Woj. Wielkopolskie, Polska","Country":"POL","State":"Woj. Wielkopolskie","County":"Powiat Koniński","City":"Stare Miasto","District":"Lisiec Wielki","PostalCode":"62-571","AdditionalData":[{"value":"Polska","key":"CountryName"},{"value":"Woj. Wielkopolskie","key":"StateName"},{"value":"Powiat Koniński","key":"CountyName"}]},"MapReference":{"ReferenceId":"1261714094","SideOfStreet":"neither","CountryId":"20624059","StateId":"20629915","CountyId":"20631533","CityId":"20631558","DistrictId":"20696441"}}},{"Relevance":1.0,"Distance":13.1,"MatchLevel":"street","MatchQuality":{"Country":1.0,"State":1.0,"County":1.0,"City":1.0,"District":1.0,"PostalCode":1.0},"Location":{"LocationId":"NT_zmtrrAMgjs3w7dygCA.PVC_l_1261714130_L","LocationType":"point","DisplayPosition":{"Latitude":52.1219055,"Longitude":18.2390172},"MapView":{"TopLeft":{"Latitude":52.12191,"Longitude":18.23866},"BottomRight":{"Latitude":52.12131,"Longitude":18.23997}},"Address":{"Label":"62-571 Lisiec Wielki, Polska","Country":"POL","State":"Woj. Wielkopolskie","County":"Powiat Koniński","City":"Stare Miasto","District":"Lisiec Wielki","PostalCode":"62-571","AdditionalData":[{"value":"Polska","key":"CountryName"},{"value":"Woj. Wielkopolskie","key":"StateName"},{"value":"Powiat Koniński","key":"CountyName"}]},"MapReference":{"ReferenceId":"1261714130","Spot":0.8,"SideOfStreet":"left","CountryId":"20624059","StateId":"20629915","CountyId":"20631533","CityId":"20631558","DistrictId":"20696441"}}},{"Relevance":1.0,"Distance":14.8,"MatchLevel":"houseNumber","MatchQuality":{"Country":1.0,"State":1.0,"County":1.0,"City":1.0,"District":1.0,"Street":[1.0],"HouseNumber":1.0,"PostalCode":1.0},"MatchType":"interpolated","Location":{"LocationId":"NT_VI6Zq.K68sWupGkRWkxEPD_zA","LocationType":"point","DisplayPosition":{"Latitude":52.12161,"Longitude":18.23868},"MapView":{"TopLeft":{"Latitude":52.1227342,"Longitude":18.2368491},"BottomRight":{"Latitude":52.1204858,"Longitude":18.2405109}},"Address":{"Label":"ulica Długa 3, 62-571 Lisiec Wielki, Polska","Country":"POL","State":"Woj. Wielkopolskie","County":"Powiat Koniński","City":"Stare Miasto","District":"Lisiec Wielki","Street":"ulica Długa","HouseNumber":"3","PostalCode":"62-571","AdditionalData":[{"value":"Polska","key":"CountryName"},{"value":"Woj. Wielkopolskie","key":"StateName"},{"value":"Powiat Koniński","key":"CountyName"}]},"MapReference":{"ReferenceId":"1116899946","Spot":0.93,"SideOfStreet":"right","CountryId":"20624059","StateId":"20629915","CountyId":"20631533","CityId":"20631558","DistrictId":"20696441","AddressId":"731726486","RoadLinkId":"427179044"}}},{"Relevance":1.0,"Distance":24.7,"MatchLevel":"houseNumber","MatchQuality":{"Country":1.0,"State":1.0,"County":1.0,"City":1.0,"District":1.0,"Street":[1.0],"HouseNumber":1.0,"PostalCode":1.0},"MatchType":"interpolated","Location":{"LocationId":"NT_VI6Zq.K68sWupGkRWkxEPD_xID","LocationType":"point","DisplayPosition":{"Latitude":52.12176,"Longitude":18.23866},"MapView":{"TopLeft":{"Latitude":52.1228842,"Longitude":18.2368291},"BottomRight":{"Latitude":52.1206358,"Longitude":18.2404909}},"Address":{"Label":"ulica Długa 12, 62-571 Lisiec Wielki, Polska","Country":"POL","State":"Woj. Wielkopolskie","County":"Powiat Koniński","City":"Stare Miasto","District":"Lisiec Wielki","Street":"ulica Długa","HouseNumber":"12","PostalCode":"62-571","AdditionalData":[{"value":"Polska","key":"CountryName"},{"value":"Woj. Wielkopolskie","key":"StateName"},{"value":"Powiat Koniński","key":"CountyName"}]},"MapReference":{"ReferenceId":"1261714128","Spot":0.42,"SideOfStreet":"left","CountryId":"20624059","StateId":"20629915","CountyId":"20631533","CityId":"20631558","DistrictId":"20696441","AddressId":"731769871","RoadLinkId":"587285127"}}},{"Relevance":1.0,"Distance":27.5,"MatchLevel":"street","MatchQuality":{"Country":1.0,"State":1.0,"County":1.0,"City":1.0,"District":1.0,"Street":[1.0],"PostalCode":1.0},"Location":{"LocationId":"NT_VI6Zq.K68sWupGkRWkxEPD_l_1261714129_R","LocationType":"point","DisplayPosition":{"Latitude":52.1219,"Longitude":18.23866},"MapView":{"TopLeft":{"Latitude":52.12209,"Longitude":18.23866},"BottomRight":{"Latitude":52.1219,"Longitude":18.23867}},"Address":{"Label":"ulica Długa, 62-571 Lisiec Wielki, Polska","Country":"POL","State":"Woj. Wielkopolskie","County":"Powiat Koniński","City":"Stare Miasto","District":"Lisiec Wielki","Street":"ulica Długa","PostalCode":"62-571","AdditionalData":[{"value":"Polska","key":"CountryName"},{"value":"Woj. Wielkopolskie","key":"StateName"},{"value":"Powiat Koniński","key":"CountyName"}]},"MapReference":{"ReferenceId":"1261714129","Spot":0.0,"SideOfStreet":"right","CountryId":"20624059","StateId":"20629915","CountyId":"20631533","CityId":"20631558","DistrictId":"20696441"}}},{"Relevance":1.0,"Distance":47.4,"MatchLevel":"houseNumber","MatchQuality":{"Country":1.0,"State":1.0,"County":1.0,"City":1.0,"District":1.0,"Street":[1.0],"HouseNumber":1.0,"PostalCode":1.0},"MatchType":"interpolated","Location":{"LocationId":"NT_VI6Zq.K68sWupGkRWkxEPD_xAD","LocationType":"point","DisplayPosition":{"Latitude":52.12216,"Longitude":18.23868},"MapView":{"TopLeft":{"Latitude":52.1232842,"Longitude":18.2368491},"BottomRight":{"Latitude":52.1210358,"Longitude":18.2405109}},"Address":{"Label":"ulica Długa 10, 62-571 Lisiec Wielki, Polska","Country":"POL","State":"Woj. Wielkopolskie","County":"Powiat Koniński","City":"Stare Miasto","District":"Lisiec Wielki","Street":"ulica Długa","HouseNumber":"10","PostalCode":"62-571","AdditionalData":[{"value":"Polska","key":"CountryName"},{"value":"Woj. Wielkopolskie","key":"StateName"},{"value":"Powiat Koniński","key":"CountyName"}]},"MapReference":{"ReferenceId":"1261714233","Spot":0.17,"SideOfStreet":"left","CountryId":"20624059","StateId":"20629915","CountyId":"20631533","CityId":"20631558","DistrictId":"20696441","AddressId":"731767399","RoadLinkId":"587285190"}}},{"Relevance":1.0,"Distance":81.2,"MatchLevel":"houseNumber","MatchQuality":{"Country":1.0,"State":1.0,"County":1.0,"City":1.0,"District":1.0,"Street":[1.0],"HouseNumber":1.0,"PostalCode":1.0},"MatchType":"interpolated","Location":{"LocationId":"NT_Qf2ZzTQotq.DPnD6WH88qA_xA","LocationType":"point","DisplayPosition":{"Latitude":52.12095,"Longitude":18.23912},"MapView":{"TopLeft":{"Latitude":52.1220742,"Longitude":18.2372891},"BottomRight":{"Latitude":52.1198258,"Longitude":18.2409509}},"Address":{"Label":"ulica Makowa 1, 62-571 Lisiec Wielki, Polska","Country":"POL","State":"Woj. Wielkopolskie","County":"Powiat Koniński","City":"Stare Miasto","District":"Lisiec Wielki","Street":"ulica Makowa","HouseNumber":"1","PostalCode":"62-571","AdditionalData":[{"value":"Polska","key":"CountryName"},{"value":"Woj. Wielkopolskie","key":"StateName"},{"value":"Powiat Koniński","key":"CountyName"}]},"MapReference":{"ReferenceId":"772067689","Spot":0.8,"SideOfStreet":"right","CountryId":"20624059","StateId":"20629915","CountyId":"20631533","CityId":"20631558","DistrictId":"20696441","AddressId":"771612343","RoadLinkId":"165648402"}}},{"Relevance":1.0,"Distance":96.6,"MatchLevel":"houseNumber","MatchQuality":{"Country":1.0,"State":1.0,"County":1.0,"City":1.0,"District":1.0,"Street":[1.0],"HouseNumber":1.0,"PostalCode":1.0},"MatchType":"interpolated","Location":{"LocationId":"NT_VI6Zq.K68sWupGkRWkxEPD_4cD","LocationType":"point","DisplayPosition":{"Latitude":52.12092,"Longitude":18.23894},"MapView":{"TopLeft":{"Latitude":52.1220442,"Longitude":18.2371091},"BottomRight":{"Latitude":52.1197958,"Longitude":18.2407709}},"Address":{"Label":"ulica Długa 87, 62-571 Lisiec Wielki, Polska","Country":"POL","State":"Woj. Wielkopolskie","County":"Powiat Koniński","City":"Stare Miasto","District":"Lisiec Wielki","Street":"ulica Długa","HouseNumber":"87","PostalCode":"62-571","AdditionalData":[{"value":"Polska","key":"CountryName"},{"value":"Woj. Wielkopolskie","key":"StateName"},{"value":"Powiat Koniński","key":"CountyName"}]},"MapReference":{"ReferenceId":"1261714127","Spot":0.96,"SideOfStreet":"left","CountryId":"20624059","StateId":"20629915","CountyId":"20631533","CityId":"20631558","DistrictId":"20696441","AddressId":"731946082","RoadLinkId":"587285126"}}},{"Relevance":1.0,"Distance":124.4,"MatchLevel":"houseNumber","MatchQuality":{"Country":1.0,"State":1.0,"County":1.0,"City":1.0,"District":1.0,"Street":[1.0],"HouseNumber":1.0,"PostalCode":1.0},"MatchType":"interpolated","Location":{"LocationId":"NT_VI6Zq.K68sWupGkRWkxEPD_l_1261714234_R_xA","LocationType":"point","DisplayPosition":{"Latitude":52.1228872,"Longitude":18.2386842},"MapView":{"TopLeft":{"Latitude":52.1240113,"Longitude":18.2368532},"BottomRight":{"Latitude":52.121763,"Longitude":18.2405151}},"Address":{"Label":"ulica Długa 1, 62-571 Lisiec Wielki, Polska","Country":"POL","State":"Woj. Wielkopolskie","County":"Powiat Koniński","City":"Stare Miasto","District":"Lisiec Wielki","Street":"ulica Długa","HouseNumber":"1","PostalCode":"62-571","AdditionalData":[{"value":"Polska","key":"CountryName"},{"value":"Woj. Wielkopolskie","key":"StateName"},{"value":"Powiat Koniński","key":"CountyName"}]},"MapReference":{"ReferenceId":"1261714234","Spot":0.49,"SideOfStreet":"right","CountryId":"20624059","StateId":"20629915","CountyId":"20631533","CityId":"20631558","DistrictId":"20696441"}}},{"Relevance":1.0,"Distance":167.8,"MatchLevel":"houseNumber","MatchQuality":{"Country":1.0,"State":1.0,"County":1.0,"City":1.0,"District":1.0,"Street":[1.0],"HouseNumber":1.0,"PostalCode":1.0},"MatchType":"interpolated","Location":{"LocationId":"NT_Qf2ZzTQotq.DPnD6WH88qA_3A","LocationType":"point","DisplayPosition":{"Latitude":52.12096,"Longitude":18.24119},"MapView":{"TopLeft":{"Latitude":52.1220842,"Longitude":18.2393591},"BottomRight":{"Latitude":52.1198358,"Longitude":18.2430209}},"Address":{"Label":"ulica Makowa 7, 62-571 Lisiec Wielki, Polska","Country":"POL","State":"Woj. Wielkopolskie","County":"Powiat Koniński","City":"Stare Miasto","District":"Lisiec Wielki","Street":"ulica Makowa","HouseNumber":"7","PostalCode":"62-571","AdditionalData":[{"value":"Polska","key":"CountryName"},{"value":"Woj. Wielkopolskie","key":"StateName"},{"value":"Powiat Koniński","key":"CountyName"}]},"MapReference":{"ReferenceId":"1116899951","Spot":0.34,"SideOfStreet":"left","CountryId":"20624059","StateId":"20629915","CountyId":"20631533","CityId":"20631558","DistrictId":"20696441","AddressId":"267000851","RoadLinkId":"427179049"}}}]}]}}