{"Response":{"MetaInfo":{"Timestamp":"2020-03-28T10:40:40.962+0000","NextPageInformation":"2"},"View":[{"_type":"SearchResultsViewType","ViewId":0,"Result":[{"Relevance":1.0,"Distance":0.0,"Direction":0.0,"MatchLevel":"district","MatchQuality":{"Country":1.0,"State":1.0,"County":1.0,"City":1.0,"District":1.0,"PostalCode":1.0},"Location":{"LocationId":"NT_ZGs-IjhDRlyzQXUrSx9qrA","LocationType":"point","DisplayPosition":{"Latitude":52.1892462,"Longitude":0.1764192},"MapView":{"TopLeft":{"Latitude":52.19898,"Longitude":0.16355},"BottomRight":{"Latitude":52.17037,"Longitude":0.19078}},"Address":{"Label":"Cherry Hinton, Cambridge, England, United Kingdom","Country":"GBR","State":"England","County":"Cambridgeshire","City":"Cambridge","District":"Cherry Hinton","PostalCode":"CB1 9","AdditionalData":[{"value":"United Kingdom","key":"CountryName"},{"value":"England","key":"StateName"},{"value":"Cambridgeshire","key":"CountyName"}]},"MapReference":{"ReferenceId":"565676852","SideOfStreet":"neither","StateId":"20248595","CountyId":"20335089","CityId":"20335090","DistrictId":"20349931"}}},{"Relevance":1.0,"Distance":5.8,"MatchLevel":"houseNumber","MatchQuality":{"Country":1.0,"State":1.0,"County":1.0,"City":1.0,"District":1.0,"Street":[1.0],"HouseNumber":1.0,"PostalCode":1.0},"MatchType":"interpolated","Location":{"LocationId":"NT_M6H9uhgYi5wSw5z8.DcUTB_l_761917680_R_yADO","LocationType":"point","DisplayPosition":{"Latitude":52.1893912,"Longitude":0.1762267},"MapView":{"TopLeft":{"Latitude":52.1905153,"Longitude":0.174393},"BottomRight":{"Latitude":52.188267,"Longitude":0.1780604}},"Address":{"Label":"208 High Street, Cambridge, CB1 9HJ, United Kingdom","Country":"GBR","State":"England","County":"Cambridgeshire","City":"Cambridge","District":"Cherry Hinton","Street":"High Street","HouseNumber":"208","PostalCode":"CB1 9HJ","AdditionalData":[{"value":"United Kingdom","key":"CountryName"},{"value":"England","key":"StateName"},{"value":"Cambridgeshire","key":"CountyName"}]},"MapReference":{"ReferenceId":"761917680","Spot":0.31,"SideOfStreet":"right","StateId":"20248595","CountyId":"20335089","CityId":"20335090","DistrictId":"20349931"}}},{"Relevance":1.0,"Distance":17.1,"MatchLevel":"postalCode","MatchQuality":{"PostalCode":1.0},"MatchType":"interpolated","Location":{"LocationId":"NT_M6H9uhgYi5wSw5z8.DcUTB_l_761917680_R_yADO","LocationType":"point","DisplayPosition":{"Latitude":52.18923,"Longitude":0.17617},"MapView":{"TopLeft":{"Latitude":52.1982232,"Longitude":0.1615005},"BottomRight":{"Latitude":52.1802368,"Longitude":0.1908395}},"Address":{"Label":"CB1 9HJ, Cambridge, England, United Kingdom","Country":"GBR","State":"England","County":"Cambridgeshire","City":"Cambridge","PostalCode":"CB1 9HJ","AdditionalData":[{"value":"United Kingdom","key":"CountryName"},{"value":"England","key":"StateName"},{"value":"Cambridgeshire","key":"CountyName"}]},"MapReference":{"ReferenceId":"761917680","Spot":0.31,"SideOfStreet":"neither","StateId":"20248595","CountyId":"20335089","CityId":"20335090"}}},{"Relevance":1.0,"Distance":42.4,"MatchLevel":"houseNumber","MatchQuality":{"Country":1.0,"State":1.0,"County":1.0,"City":1.0,"District":1.0,"Street":[1.0],"HouseNumber":1.0,"PostalCode":1.0},"MatchType":"interpolated","Location":{"LocationId":"NT_M6H9uhgYi5wSw5z8.DcUTB_l_1225238357_R_yAjM","LocationType":"point","DisplayPosition":{"Latitude":52.1890097,"Longitude":0.1759322},"MapView":{"TopLeft":{"Latitude":52.1901338,"Longitude":0.1740985},"BottomRight":{"Latitude":52.1878855,"Longitude":0.1777659}},"Address":{"Label":"202 High Street, Cambridge, CB1 9HJ, United Kingdom","Country":"GBR","State":"England","County":"Cambridgeshire","City":"Cambridge","District":"Cherry Hinton","Street":"High Street","HouseNumber":"202","PostalCode":"CB1 9HJ","AdditionalData":[{"value":"United Kingdom","key":"CountryName"},{"value":"England","key":"StateName"},{"value":"Cambridgeshire","key":"CountyName"}]},"MapReference":{"ReferenceId":"1225238357","Spot":0.65,"SideOfStreet":"right","StateId":"20248595","CountyId":"20335089","CityId":"20335090","DistrictId":"20349931"}}},{"Relevance":1.0,"Distance":42.7,"MatchLevel":"postalCode","MatchQuality":{"PostalCode":1.0},"MatchType":"interpolated","Location":{"LocationId":"NT_M6H9uhgYi5wSw5z8.DcUTB_l_1225238357_R_yAjM","LocationType":"point","DisplayPosition":{"Latitude":52.18904,"Longitude":0.17589},"MapView":{"TopLeft":{"Latitude":52.1980332,"Longitude":0.1612206},"BottomRight":{"Latitude":52.1800468,"Longitude":0.1905594}},"Address":{"Label":"CB1 9LU, Cambridge, England, United Kingdom","Country":"GBR","State":"England","County":"Cambridgeshire","City":"Cambridge","PostalCode":"CB1 9LU","AdditionalData":[{"value":"United Kingdom","key":"CountryName"},{"value":"England","key":"StateName"},{"value":"Cambridgeshire","key":"CountyName"}]},"MapReference":{"ReferenceId":"1225238357","Spot":0.65,"SideOfStreet":"neither","StateId":"20248595","CountyId":"20335089","CityId":"20335090"}}},{"Relevance":1.0,"Distance":64.8,"MatchLevel":"street","MatchQuality":{"Country":1.0,"State":1.0,"County":1.0,"City":1.0,"District":1.0,"PostalCode":1.0},"Location":{"LocationId":"NT_Wls5Dw5nQBGiCKC6p47VpA_l_26188096_L","LocationType":"point","DisplayPosition":{"Latitude":52.18933,"Longitude":0.17736},"MapView":{"TopLeft":{"Latitude":52.18933,"Longitude":0.17736},"BottomRight":{"Latitude":52.18916,"Longitude":0.17789}},"Address":{"Label":"Cambridge, CB1 9, United Kingdom","Country":"GBR","State":"England","County":"Cambridgeshire","City":"Cambridge","District":"Cherry Hinton","PostalCode":"CB1 9","AdditionalData":[{"value":"United Kingdom","key":"CountryName"},{"value":"England","key":"StateName"},{"value":"Cambridgeshire","key":"CountyName"}]},"MapReference":{"ReferenceId":"26188096","Spot":1.0,"SideOfStreet":"left","StateId":"20248595","CountyId":"20335089","CityId":"20335090","DistrictId":"20349931"}}},{"Relevance":1.0,"Distance":77.9,"MatchLevel":"houseNumber","MatchQuality":{"Country":1.0,"State":1.0,"County":1.0,"City":1.0,"District":1.0,"Street":[1.0],"HouseNumber":1.0,"PostalCode":1.0},"MatchType":"interpolated","Location":{"LocationId":"NT_M6H9uhgYi5wSw5z8.DcUTB_l_1225238356_L_5ED","LocationType":"point","DisplayPosition":{"Latitude":52.1887,"Longitude":0.175585},"MapView":{"TopLeft":{"Latitude":52.1898242,"Longitude":0.1737513},"BottomRight":{"Latitude":52.1875759,"Longitude":0.1774187}},"Address":{"Label":"91 High Street, Cambridge, CB1 9LU, United Kingdom","Country":"GBR","State":"England","County":"Cambridgeshire","City":"Cambridge","District":"Cherry Hinton","Street":"High Street","HouseNumber":"91","PostalCode":"CB1 9LU","AdditionalData":[{"value":"United Kingdom","key":"CountryName"},{"value":"England","key":"StateName"},{"value":"Cambridgeshire","key":"CountyName"}]},"MapReference":{"ReferenceId":"1225238356","Spot":0.5,"SideOfStreet":"left","StateId":"20248595","CountyId":"20335089","CityId":"20335090","DistrictId":"20349931"}}},{"Relevance":1.0,"Distance":83.1,"MatchLevel":"street","MatchQuality":{"Country":1.0,"State":1.0,"County":1.0,"City":1.0,"District":1.0,"Street":[1.0],"PostalCode":1.0},"Location":{"LocationId":"NT_4MPatNkKoSxURJx7cQK0FB_l_1199785539_R","LocationType":"point","DisplayPosition":{"Latitude":52.18852,"Longitude":0.17671},"MapView":{"TopLeft":{"Latitude":52.18852,"Longitude":0.17671},"BottomRight":{"Latitude":52.18837,"Longitude":0.17721}},"Address":{"Label":"Wenvoe Close, Cambridge, CB1 9, United Kingdom","Country":"GBR","State":"England","County":"Cambridgeshire","City":"Cambridge","District":"Cherry Hinton","Street":"Wenvoe Close","PostalCode":"CB1 9","AdditionalData":[{"value":"United Kingdom","key":"CountryName"},{"value":"England","key":"StateName"},{"value":"Cambridgeshire","key":"CountyName"}]},"MapReference":{"ReferenceId":"1199785539","Spot":1.0,"SideOfStreet":"right","StateId":"20248595","CountyId":"20335089","CityId":"20335090","DistrictId":"20349931"}}},{"Relevance":1.0,"Distance":85.7,"MatchLevel":"houseNumber","MatchQuality":{"Country":1.0,"State":1.0,"County":1.0,"City":1.0,"District":1.0,"Street":[1.0],"HouseNumber":1.0,"PostalCode":1.0},"MatchType":"interpolated","Location":{"LocationId":"NT_M6H9uhgYi5wSw5z8.DcUTB_l_26188042_L_xIzN","LocationType":"point","DisplayPosition":{"Latitude":52.1899976,"Longitude":0.1767011},"MapView":{"TopLeft":{"Latitude":52.1911217,"Longitude":0.1748674},"BottomRight":{"Latitude":52.1888734,"Longitude":0.1785349}},"Address":{"Label":"127 High Street, Cambridge, CB1 9, United Kingdom","Country":"GBR","State":"England","County":"Cambridgeshire","City":"Cambridge","District":"Cherry Hinton","Street":"High Street","HouseNumber":"127","PostalCode":"CB1 9","AdditionalData":[{"value":"United Kingdom","key":"CountryName"},{"value":"England","key":"StateName"},{"value":"Cambridgeshire","key":"CountyName"}]},"MapReference":{"ReferenceId":"26188042","Spot":0.55,"SideOfStreet":"left","StateId":"20248595","CountyId":"20335089","CityId":"20335090","DistrictId":"20349931"}}},{"Relevance":1.0,"Distance":91.2,"MatchLevel":"houseNumber","MatchQuality":{"Country":1.0,"State":1.0,"County":1.0,"City":1.0,"District":1.0,"Street":[1.0],"HouseNumber":1.0,"PostalCode":1.0},"MatchType":"interpolated","Location":{"LocationId":"NT_7N98yA03eirpEK92Z2r5yA_l_26188213_R_zA","LocationType":"point","DisplayPosition":{"Latitude":52.1883461,"Longitude":0.1758976},"MapView":{"TopLeft":{"Latitude":52.1894703,"Longitude":0.1740639},"BottomRight":{"Latitude":52.187222,"Longitude":0.1777312}},"Address":{"Label":"3 Fishers Lane, Cambridge, CB1 9HL, United Kingdom","Country":"GBR","State":"England","County":"Cambridgeshire","City":"Cambridge","District":"Cherry Hinton","Street":"Fishers Lane","HouseNumber":"3","PostalCode":"CB1 9HL","AdditionalData":[{"value":"United Kingdom","key":"CountryName"},{"value":"England","key":"StateName"},{"value":"Cambridgeshire","key":"CountyName"}]},"MapReference":{"ReferenceId":"26188213","Spot":0.7,"SideOfStreet":"right","StateId":"20248595","CountyId":"20335089","CityId":"20335090","DistrictId":"20349931"}}}]}]}}