{"Response":{"MetaInfo":{"Timestamp":"2020-03-28T10:59:33.191+0000","NextPageInformation":"2"},"View":[{"_type":"SearchResultsViewType","ViewId":0,"Result":[{"Relevance":1.0,"Distance":0.0,"Direction":0.0,"MatchLevel":"district","MatchQuality":{"Country":1.0,"State":1.0,"County":1.0,"City":1.0,"District":1.0,"PostalCode":1.0},"Location":{"LocationId":"NT_J7Z7boFqS6TCSH5Y982RvD","LocationType":"point","DisplayPosition":{"Latitude":52.1973344,"Longitude":7.8540669},"MapView":{"TopLeft":{"Latitude":52.20017,"Longitude":7.8329},"BottomRight":{"Latitude":52.17108,"Longitude":7.8861}},"Address":{"Label":"Lengerich, Nordrhein-Westfalen, Deutschland","Country":"DEU","State":"Nordrhein-Westfalen","County":"Steinfurt","City":"Lengerich","District":"Lengerich","PostalCode":"49525","AdditionalData":[{"value":"Deutschland","key":"CountryName"},{"value":"Nordrhein-Westfalen","key":"StateName"},{"value":"Steinfurt","key":"CountyName"}]},"MapReference":{"ReferenceId":"1211284391","SideOfStreet":"neither","CountryId":"20147700","StateId":"20157369","CountyId":"20159347","CityId":"20159390","DistrictId":"20159393"}}},{"Relevance":1.0,"Distance":3.8,"MatchLevel":"street","MatchQuality":{"Country":1.0,"State":1.0,"County":1.0,"City":1.0,"District":1.0,"PostalCode":1.0},"Location":{"LocationId":"NT_nc688SRbf2tLOg8AtpdfED_l_993319108_L","LocationType":"point","DisplayPosition":{"Latitude":52.1973009,"Longitude":7.8540546},"MapView":{"TopLeft":{"Latitude":52.19759,"Longitude":7.85316},"BottomRight":{"Latitude":52.1971,"Longitude":7.8546}},"Address":{"Label":"49525 Lengerich, Deutschland","Country":"DEU","State":"Nordrhein-Westfalen","County":"Steinfurt","City":"Lengerich","District":"Lengerich","PostalCode":"49525","AdditionalData":[{"value":"Deutschland","key":"CountryName"},{"value":"Nordrhein-Westfalen","key":"StateName"},{"value":"Steinfurt","key":"CountyName"}]},"MapReference":{"ReferenceId":"993319108","Spot":0.38,"SideOfStreet":"neither","CountryId":"20147700","StateId":"20157369","CountyId":"20159347","CityId":"20159390","DistrictId":"20159393"}}},{"Relevance":1.0,"Distance":51.0,"MatchLevel":"street","MatchQuality":{"Country":1.0,"State":1.0,"County":1.0,"City":1.0,"District":1.0,"Street":[1.0],"PostalCode":1.0},"Location":{"LocationId":"NT_9mrkHfvMZ8kvLsWwDzWbOA_l_993319096_L","LocationType":"point","DisplayPosition":{"Latitude":52.19693,"Longitude":7.85442},"MapView":{"TopLeft":{"Latitude":52.1971,"Longitude":7.85424},"BottomRight":{"Latitude":52.19672,"Longitude":7.8546}},"Address":{"Label":"Am Waldrand, 49525 Lengerich, Deutschland","Country":"DEU","State":"Nordrhein-Westfalen","County":"Steinfurt","City":"Lengerich","District":"Lengerich","Street":"Am Waldrand","PostalCode":"49525","AdditionalData":[{"value":"Deutschland","key":"CountryName"},{"value":"Nordrhein-Westfalen","key":"StateName"},{"value":"Steinfurt","key":"CountyName"}]},"MapReference":{"ReferenceId":"993319096","Spot":0.53,"SideOfStreet":"left","CountryId":"20147700","StateId":"20157369","CountyId":"20159347","CityId":"20159390","DistrictId":"20159393"}}},{"Relevance":1.0,"Distance":53.5,"MatchLevel":"street","MatchQuality":{"Country":1.0,"State":1.0,"County":1.0,"City":1.0,"District":1.0,"Street":[1.0],"PostalCode":1.0},"Location":{"LocationId":"NT_9mrkHfvMZ8kvLsWwDzWbOA_l_76186449_R","LocationType":"point","DisplayPosition":{"Latitude":52.1968672,"Longitude":7.8538773},"MapView":{"TopLeft":{"Latitude":52.19713,"Longitude":7.85323},"BottomRight":{"Latitude":52.19672,"Longitude":7.85424}},"Address":{"Label":"Am Waldrand, 49525 Lengerich, Deutschland","Country":"DEU","State":"Nordrhein-Westfalen","County":"Steinfurt","City":"Lengerich","District":"Lengerich","Street":"Am Waldrand","PostalCode":"49525","AdditionalData":[{"value":"Deutschland","key":"CountryName"},{"value":"Nordrhein-Westfalen","key":"StateName"},{"value":"Steinfurt","key":"CountyName"}]},"MapReference":{"ReferenceId":"76186449","Spot":0.36,"SideOfStreet":"right","CountryId":"20147700","StateId":"20157369","CountyId":"20159347","CityId":"20159390","DistrictId":"20159393"}}},{"Relevance":1.0,"Distance":68.0,"MatchLevel":"street","MatchQuality":{"Country":1.0,"State":1.0,"County":1.0,"City":1.0,"District":1.0,"PostalCode":1.0},"Location":{"LocationId":"NT_nc688SRbf2tLOg8AtpdfED_l_993319107_R","LocationType":"point","DisplayPosition":{"Latitude":52.19759,"Longitude":7.85316},"MapView":{"TopLeft":{"Latitude":52.19759,"Longitude":7.85232},"BottomRight":{"Latitude":52.19617,"Longitude":7.85316}},"Address":{"Label":"49525 Lengerich, Deutschland","Country":"DEU","State":"Nordrhein-Westfalen","County":"Steinfurt","City":"Lengerich","District":"Lengerich","PostalCode":"49525","AdditionalData":[{"value":"Deutschland","key":"CountryName"},{"value":"Nordrhein-Westfalen","key":"StateName"},{"value":"Steinfurt","key":"CountyName"}]},"MapReference":{"ReferenceId":"993319107","Spot":1.0,"SideOfStreet":"right","CountryId":"20147700","StateId":"20157369","CountyId":"20159347","CityId":"20159390","DistrictId":"20159393"}}},{"Relevance":1.0,"Distance":69.3,"MatchLevel":"street","MatchQuality":{"Country":1.0,"State":1.0,"County":1.0,"City":1.0,"District":1.0,"Street":[1.0],"PostalCode":1.0},"Location":{"LocationId":"NT_ahG74wvcwCeEeqjAdMRYaB_l_993319098_R","LocationType":"point","DisplayPosition":{"Latitude":52.19672,"Longitude":7.85424},"MapView":{"TopLeft":{"Latitude":52.19672,"Longitude":7.85424},"BottomRight":{"Latitude":52.19659,"Longitude":7.85461}},"Address":{"Label":"Gärtnereistraße, 49525 Lengerich, Deutschland","Country":"DEU","State":"Nordrhein-Westfalen","County":"Steinfurt","City":"Lengerich","District":"Lengerich","Street":"Gärtnereistraße","PostalCode":"49525","AdditionalData":[{"value":"Deutschland","key":"CountryName"},{"value":"Nordrhein-Westfalen","key":"StateName"},{"value":"Steinfurt","key":"CountyName"}]},"MapReference":{"ReferenceId":"993319098","Spot":1.0,"SideOfStreet":"right","CountryId":"20147700","StateId":"20157369","CountyId":"20159347","CityId":"20159390","DistrictId":"20159393"}}},{"Relevance":1.0,"Distance":90.7,"MatchLevel":"street","MatchQuality":{"Country":1.0,"State":1.0,"County":1.0,"City":1.0,"District":1.0,"Street":[1.0],"PostalCode":1.0},"Location":{"LocationId":"NT_tuP2vFz9U98LHyz7eIvLxC_l_76186442_L","LocationType":"point","DisplayPosition":{"Latitude":52.19659,"Longitude":7.85461},"MapView":{"TopLeft":{"Latitude":52.19659,"Longitude":7.85304},"BottomRight":{"Latitude":52.19485,"Longitude":7.85461}},"Address":{"Label":"Gutshofstraße, 49525 Lengerich, Deutschland","Country":"DEU","State":"Nordrhein-Westfalen","County":"Steinfurt","City":"Lengerich","District":"Lengerich","Street":"Gutshofstraße","PostalCode":"49525","AdditionalData":[{"value":"Deutschland","key":"CountryName"},{"value":"Nordrhein-Westfalen","key":"StateName"},{"value":"Steinfurt","key":"CountyName"}]},"MapReference":{"ReferenceId":"76186442","Spot":1.0,"SideOfStreet":"left","CountryId":"20147700","StateId":"20157369","CountyId":"20159347","CityId":"20159390","DistrictId":"20159393"}}},{"Relevance":1.0,"Distance":90.7,"MatchLevel":"street","MatchQuality":{"Country":1.0,"State":1.0,"County":1.0,"City":1.0,"District":1.0,"Street":[1.0],"PostalCode":1.0},"Location":{"LocationId":"NT_ahG74wvcwCeEeqjAdMRYaB_l_993319097_R","LocationType":"point","DisplayPosition":{"Latitude":52.19659,"Longitude":7.85461},"MapView":{"TopLeft":{"Latitude":52.19659,"Longitude":7.85461},"BottomRight":{"Latitude":52.19529,"Longitude":7.85853}},"Address":{"Label":"Gärtnereistraße, 49525 Lengerich, Deutschland","Country":"DEU","State":"Nordrhein-Westfalen","County":"Steinfurt","City":"Lengerich","District":"Lengerich","Street":"Gärtnereistraße","PostalCode":"49525","AdditionalData":[{"value":"Deutschland","key":"CountryName"},{"value":"Nordrhein-Westfalen","key":"StateName"},{"value":"Steinfurt","key":"CountyName"}]},"MapReference":{"ReferenceId":"993319097","Spot":1.0,"SideOfStreet":"right","CountryId":"20147700","StateId":"20157369","CountyId":"20159347","CityId":"20159390","DistrictId":"20159393"}}},{"Relevance":1.0,"Distance":143.9,"MatchLevel":"houseNumber","MatchQuality":{"Country":1.0,"State":1.0,"County":1.0,"City":1.0,"Street":[1.0],"HouseNumber":1.0,"PostalCode":1.0},"MatchType":"interpolated","Location":{"LocationId":"NT_nJY2NuA-5t17tHh4JdaGWB_xkD","LocationType":"point","DisplayPosition":{"Latitude":52.19831,"Longitude":7.85268},"MapView":{"TopLeft":{"Latitude":52.1994342,"Longitude":7.8508459},"BottomRight":{"Latitude":52.1971858,"Longitude":7.8545141}},"Address":{"Label":"Stapenhorststraße 19, 49525 Lengerich, Deutschland","Country":"DEU","State":"Nordrhein-Westfalen","County":"Steinfurt","City":"Lengerich","Street":"Stapenhorststraße","HouseNumber":"19","PostalCode":"49525","AdditionalData":[{"value":"Deutschland","key":"CountryName"},{"value":"Nordrhein-Westfalen","key":"StateName"},{"value":"Steinfurt","key":"CountyName"}]},"MapReference":{"ReferenceId":"69268998","Spot":0.12,"SideOfStreet":"right","CountryId":"20147700","StateId":"20157369","CountyId":"20159347","CityId":"20159390","AddressId":"622068932","RoadLinkId":"34948008"}}},{"Relevance":1.0,"Distance":148.3,"MatchLevel":"houseNumber","MatchQuality":{"Country":1.0,"State":1.0,"County":1.0,"City":1.0,"District":1.0,"Street":[1.0],"HouseNumber":1.0,"PostalCode":1.0},"MatchType":"interpolated","Location":{"LocationId":"NT_4Ac3yrA4-rFs1jcSNhg5YA_xgD","LocationType":"point","DisplayPosition":{"Latitude":52.19646,"Longitude":7.85147},"MapView":{"TopLeft":{"Latitude":52.1975842,"Longitude":7.849636},"BottomRight":{"Latitude":52.1953358,"Longitude":7.853304}},"Address":{"Label":"Stapenhorststraße 18, 49525 Lengerich, Deutschland","Country":"DEU","State":"Nordrhein-Westfalen","County":"Steinfurt","City":"Lengerich","District":"Lengerich","Street":"Stapenhorststraße","HouseNumber":"18","PostalCode":"49525","AdditionalData":[{"value":"Deutschland","key":"CountryName"},{"value":"Nordrhein-Westfalen","key":"StateName"},{"value":"Steinfurt","key":"CountyName"}]},"MapReference":{"ReferenceId":"993319103","Spot":0.43,"SideOfStreet":"right","CountryId":"20147700","StateId":"20157369","CountyId":"20159347","CityId":"20159390","DistrictId":"20159393","AddressId":"755709877","RoadLinkId":"527925415"}}}]}]}}