{"Response":{"MetaInfo":{"Timestamp":"2020-03-28T10:38:52.196+0000","NextPageInformation":"2"},"View":[{"_type":"SearchResultsViewType","ViewId":0,"Result":[{"Relevance":1.0,"Distance":0.0,"Direction":0.0,"MatchLevel":"district","MatchQuality":{"Country":1.0,"State":1.0,"County":1.0,"City":1.0,"District":1.0,"PostalCode":1.0},"Location":{"LocationId":"NT_5SfaVALZ1zoq0.DDHN1OCC","LocationType":"point","DisplayPosition":{"Latitude":52.1302099,"Longitude":-0.2871157},"MapView":{"TopLeft":{"Latitude":52.14516,"Longitude":-0.30507},"BottomRight":{"Latitude":52.12113,"Longitude":-0.27912}},"Address":{"Label":"Sandy, England, United Kingdom","Country":"GBR","State":"England","County":"Bedfordshire","City":"Sandy","District":"Sandy","PostalCode":"SG19 1","AdditionalData":[{"value":"United Kingdom","key":"CountryName"},{"value":"England","key":"StateName"},{"value":"Bedfordshire","key":"CountyName"}]},"MapReference":{"ReferenceId":"744240277","SideOfStreet":"neither","StateId":"20248595","CountyId":"20334253","CityId":"20334425","DistrictId":"20334426"}}},{"Relevance":1.0,"Distance":28.9,"MatchLevel":"houseNumber","MatchQuality":{"Country":1.0,"State":1.0,"County":1.0,"City":1.0,"District":1.0,"Street":[1.0],"HouseNumber":1.0,"PostalCode":1.0},"MatchType":"interpolated","Location":{"LocationId":"NT_rM-mPcRSNj6gzSVaUkMMiD_l_864245349_L_xkD","LocationType":"point","DisplayPosition":{"Latitude":52.1298588,"Longitude":-0.2868437},"MapView":{"TopLeft":{"Latitude":52.1309829,"Longitude":-0.2886749},"BottomRight":{"Latitude":52.1287346,"Longitude":-0.2850124}},"Address":{"Label":"19 Northcroft, Sandy, SG19 1, United Kingdom","Country":"GBR","State":"England","County":"Bedfordshire","City":"Sandy","District":"Sandy","Street":"Northcroft","HouseNumber":"19","PostalCode":"SG19 1","AdditionalData":[{"value":"United Kingdom","key":"CountryName"},{"value":"England","key":"StateName"},{"value":"Bedfordshire","key":"CountyName"}]},"MapReference":{"ReferenceId":"864245349","Spot":0.51,"SideOfStreet":"left","StateId":"20248595","CountyId":"20334253","CityId":"20334425","DistrictId":"20334426"}}},{"Relevance":1.0,"Distance":32.5,"MatchLevel":"houseNumber","MatchQuality":{"Country":1.0,"State":1.0,"County":1.0,"City":1.0,"District":1.0,"Street":[1.0],"HouseNumber":1.0,"PostalCode":1.0},"MatchType":"interpolated","Location":{"LocationId":"NT_rM-mPcRSNj6gzSVaUkMMiD_l_880229806_L_yUD","LocationType":"point","DisplayPosition":{"Latitude":52.13048,"Longitude":-0.28658},"MapView":{"TopLeft":{"Latitude":52.1316042,"Longitude":-0.2884113},"BottomRight":{"Latitude":52.1293559,"Longitude":-0.2847488}},"Address":{"Label":"25 Northcroft, Sandy, SG19 1, United Kingdom","Country":"GBR","State":"England","County":"Bedfordshire","City":"Sandy","District":"Sandy","Street":"Northcroft","HouseNumber":"25","PostalCode":"SG19 1","AdditionalData":[{"value":"United Kingdom","key":"CountryName"},{"value":"England","key":"StateName"},{"value":"Bedfordshire","key":"CountyName"}]},"MapReference":{"ReferenceId":"880229806","Spot":0.3,"SideOfStreet":"left","StateId":"20248595","CountyId":"20334253","CityId":"20334425","DistrictId":"20334426"}}},{"Relevance":1.0,"Distance":34.5,"MatchLevel":"houseNumber","MatchQuality":{"Country":1.0,"State":1.0,"County":1.0,"City":1.0,"District":1.0,"Street":[1.0],"HouseNumber":1.0,"PostalCode":1.0},"MatchType":"interpolated","Location":{"LocationId":"NT_rM-mPcRSNj6gzSVaUkMMiD_l_880229805_L_yMD","LocationType":"point","DisplayPosition":{"Latitude":52.1303104,"Longitude":-0.2864653},"MapView":{"TopLeft":{"Latitude":52.1314346,"Longitude":-0.2882966},"BottomRight":{"Latitude":52.1291863,"Longitude":-0.284634}},"Address":{"Label":"23 Northcroft, Sandy, SG19 1, United Kingdom","Country":"GBR","State":"England","County":"Bedfordshire","City":"Sandy","District":"Sandy","Street":"Northcroft","HouseNumber":"23","PostalCode":"SG19 1","AdditionalData":[{"value":"United Kingdom","key":"CountryName"},{"value":"England","key":"StateName"},{"value":"Bedfordshire","key":"CountyName"}]},"MapReference":{"ReferenceId":"880229805","Spot":0.5,"SideOfStreet":"left","StateId":"20248595","CountyId":"20334253","CityId":"20334425","DistrictId":"20334426"}}},{"Relevance":1.0,"Distance":36.5,"MatchLevel":"postalCode","MatchQuality":{"PostalCode":1.0},"Location":{"LocationId":"NT_rM-mPcRSNj6gzSVaUkMMiD_l_864245348_R","LocationType":"point","DisplayPosition":{"Latitude":52.13007,"Longitude":-0.2876},"MapView":{"TopLeft":{"Latitude":52.1390632,"Longitude":-0.30225},"BottomRight":{"Latitude":52.1210768,"Longitude":-0.27295}},"Address":{"Label":"SG19 1JQ, Sandy, England, United Kingdom","Country":"GBR","State":"England","County":"Bedfordshire","City":"Sandy","PostalCode":"SG19 1JQ","AdditionalData":[{"value":"United Kingdom","key":"CountryName"},{"value":"England","key":"StateName"},{"value":"Bedfordshire","key":"CountyName"}]},"MapReference":{"ReferenceId":"864245348","Spot":0.33,"SideOfStreet":"neither","StateId":"20248595","CountyId":"20334253","CityId":"20334425"}}},{"Relevance":1.0,"Distance":41.3,"MatchLevel":"houseNumber","MatchQuality":{"Country":1.0,"State":1.0,"County":1.0,"City":1.0,"District":1.0,"Street":[1.0],"HouseNumber":1.0,"PostalCode":1.0},"MatchType":"interpolated","Location":{"LocationId":"NT_rM-mPcRSNj6gzSVaUkMMiD_l_566022070_L_yED","LocationType":"point","DisplayPosition":{"Latitude":52.1301749,"Longitude":-0.2863827},"MapView":{"TopLeft":{"Latitude":52.131299,"Longitude":-0.288214},"BottomRight":{"Latitude":52.1290507,"Longitude":-0.2845515}},"Address":{"Label":"21 Northcroft, Sandy, SG19 1, United Kingdom","Country":"GBR","State":"England","County":"Bedfordshire","City":"Sandy","District":"Sandy","Street":"Northcroft","HouseNumber":"21","PostalCode":"SG19 1","AdditionalData":[{"value":"United Kingdom","key":"CountryName"},{"value":"England","key":"StateName"},{"value":"Bedfordshire","key":"CountyName"}]},"MapReference":{"ReferenceId":"566022070","Spot":0.53,"SideOfStreet":"left","StateId":"20248595","CountyId":"20334253","CityId":"20334425","DistrictId":"20334426"}}},{"Relevance":1.0,"Distance":45.2,"MatchLevel":"street","MatchQuality":{"Country":1.0,"State":1.0,"County":1.0,"City":1.0,"District":1.0,"PostalCode":1.0},"Location":{"LocationId":"NT_Du8fVlVgFUdMY9kgBt-WnD_l_880229807_L","LocationType":"point","DisplayPosition":{"Latitude":52.13036,"Longitude":-0.2865},"MapView":{"TopLeft":{"Latitude":52.13061,"Longitude":-0.2865},"BottomRight":{"Latitude":52.13036,"Longitude":-0.28552}},"Address":{"Label":"Sandy, SG19 1, United Kingdom","Country":"GBR","State":"England","County":"Bedfordshire","City":"Sandy","District":"Sandy","PostalCode":"SG19 1","AdditionalData":[{"value":"United Kingdom","key":"CountryName"},{"value":"England","key":"StateName"},{"value":"Bedfordshire","key":"CountyName"}]},"MapReference":{"ReferenceId":"880229807","Spot":0.0,"SideOfStreet":"left","StateId":"20248595","CountyId":"20334253","CityId":"20334425","DistrictId":"20334426"}}},{"Relevance":1.0,"Distance":46.2,"MatchLevel":"street","MatchQuality":{"Country":1.0,"State":1.0,"County":1.0,"City":1.0,"District":1.0,"Street":[1.0],"PostalCode":1.0},"Location":{"LocationId":"NT_rM-mPcRSNj6gzSVaUkMMiD_l_864245348_R","LocationType":"point","DisplayPosition":{"Latitude":52.1298656,"Longitude":-0.2874957},"MapView":{"TopLeft":{"Latitude":52.13008,"Longitude":-0.28769},"BottomRight":{"Latitude":52.12976,"Longitude":-0.2874}},"Address":{"Label":"Northcroft, Sandy, SG19 1, United Kingdom","Country":"GBR","State":"England","County":"Bedfordshire","City":"Sandy","District":"Sandy","Street":"Northcroft","PostalCode":"SG19 1","AdditionalData":[{"value":"United Kingdom","key":"CountryName"},{"value":"England","key":"StateName"},{"value":"Bedfordshire","key":"CountyName"}]},"MapReference":{"ReferenceId":"864245348","Spot":0.33,"SideOfStreet":"right","StateId":"20248595","CountyId":"20334253","CityId":"20334425","DistrictId":"20334426"}}},{"Relevance":1.0,"Distance":47.1,"MatchLevel":"street","MatchQuality":{"Country":1.0,"State":1.0,"County":1.0,"City":1.0,"District":1.0,"Street":[1.0],"PostalCode":1.0},"Location":{"LocationId":"NT_N7eeigcqMmRJN1NtOuc.AA_l_880229820_L","LocationType":"point","DisplayPosition":{"Latitude":52.13026,"Longitude":-0.28643},"MapView":{"TopLeft":{"Latitude":52.1304,"Longitude":-0.28643},"BottomRight":{"Latitude":52.13026,"Longitude":-0.28542}},"Address":{"Label":"Malaunay Place, Sandy, SG19 1, United Kingdom","Country":"GBR","State":"England","County":"Bedfordshire","City":"Sandy","District":"Sandy","Street":"Malaunay Place","PostalCode":"SG19 1","AdditionalData":[{"value":"United Kingdom","key":"CountryName"},{"value":"England","key":"StateName"},{"value":"Bedfordshire","key":"CountyName"}]},"MapReference":{"ReferenceId":"880229820","Spot":0.0,"SideOfStreet":"left","StateId":"20248595","CountyId":"20334253","CityId":"20334425","DistrictId":"20334426"}}},{"Relevance":1.0,"Distance":51.1,"MatchLevel":"houseNumber","MatchQuality":{"Country":1.0,"State":1.0,"County":1.0,"City":1.0,"District":1.0,"Street":[1.0],"HouseNumber":1.0,"PostalCode":1.0},"MatchType":"interpolated","Location":{"LocationId":"NT_bcHqk.CRy5KHP-yxjqiCLC_l_880229808_R_0ID","LocationType":"point","DisplayPosition":{"Latitude":52.1307759,"Longitude":-0.2873985},"MapView":{"TopLeft":{"Latitude":52.1319,"Longitude":-0.2892298},"BottomRight":{"Latitude":52.1296517,"Longitude":-0.2855672}},"Address":{"Label":"42 Sunderland Road, Sandy, SG19 1JZ, United Kingdom","Country":"GBR","State":"England","County":"Bedfordshire","City":"Sandy","District":"Sandy","Street":"Sunderland Road","HouseNumber":"42","PostalCode":"SG19 1JZ","AdditionalData":[{"value":"United Kingdom","key":"CountryName"},{"value":"England","key":"StateName"},{"value":"Bedfordshire","key":"CountyName"}]},"MapReference":{"ReferenceId":"880229808","Spot":0.71,"SideOfStreet":"right","StateId":"20248595","CountyId":"20334253","CityId":"20334425","DistrictId":"20334426"}}}]}]}}