{"Response":{"MetaInfo":{"Timestamp":"2020-03-28T10:49:59.300+0000","NextPageInformation":"2"},"View":[{"_type":"SearchResultsViewType","ViewId":0,"Result":[{"Relevance":1.0,"Distance":0.0,"Direction":0.0,"MatchLevel":"district","MatchQuality":{"Country":1.0,"State":1.0,"County":1.0,"City":1.0,"District":1.0,"Subdistrict":1.0,"PostalCode":1.0},"Location":{"LocationId":"NT_BJjxStI.twtg3doBX4c9qC","LocationType":"point","DisplayPosition":{"Latitude":52.2465775,"Longitude":21.0603236},"MapView":{"TopLeft":{"Latitude":52.2563,"Longitude":21.03925},"BottomRight":{"Latitude":52.23642,"Longitude":21.07098}},"Address":{"Label":"Kamionek, Praga-Południe, Warszawa, Woj. Mazowieckie, Polska","Country":"POL","State":"Woj. Mazowieckie","County":"Warszawa","City":"Warszawa","District":"Praga-Południe","Subdistrict":"Kamionek","PostalCode":"03-939","AdditionalData":[{"value":"Polska","key":"CountryName"},{"value":"Woj. Mazowieckie","key":"StateName"},{"value":"Warszawa","key":"CountyName"}]},"MapReference":{"ReferenceId":"828800656","SideOfStreet":"neither","CountryId":"20624059","StateId":"20627182","CountyId":"20627769","CityId":"20627780","DistrictId":"20633157"}}},{"Relevance":1.0,"Distance":15.9,"MatchLevel":"houseNumber","MatchQuality":{"Country":1.0,"State":1.0,"County":1.0,"City":1.0,"District":1.0,"Subdistrict":1.0,"Street":[1.0],"HouseNumber":1.0,"PostalCode":1.0},"MatchType":"interpolated","Location":{"LocationId":"NT_xVV1C-C9ScX6yGAf4yYO0D_zMTOBB","LocationType":"point","DisplayPosition":{"Latitude":52.24672,"Longitude":21.0603},"MapView":{"TopLeft":{"Latitude":52.2478442,"Longitude":21.0584639},"BottomRight":{"Latitude":52.2455958,"Longitude":21.0621361}},"Address":{"Label":"ulica Grochowska 339A, 03-822 Warszawa, Polska","Country":"POL","State":"Woj. Mazowieckie","County":"Warszawa","City":"Warszawa","District":"Praga-Południe","Subdistrict":"Kamionek","Street":"ulica Grochowska","HouseNumber":"339A","PostalCode":"03-822","AdditionalData":[{"value":"Polska","key":"CountryName"},{"value":"Woj. Mazowieckie","key":"StateName"},{"value":"Warszawa","key":"CountyName"}]},"MapReference":{"ReferenceId":"595625110","Spot":0.41,"SideOfStreet":"left","CountryId":"20624059","StateId":"20627182","CountyId":"20627769","CityId":"20627780","DistrictId":"20633157","AddressId":"209573631","RoadLinkId":"95438699"}}},{"Relevance":1.0,"Distance":32.2,"MatchLevel":"street","MatchQuality":{"Country":1.0,"State":1.0,"County":1.0,"City":1.0,"District":1.0,"Subdistrict":1.0,"PostalCode":1.0},"Location":{"LocationId":"NT_-28e8pAqxQLwoD9uumRubB_l_828667808_L","LocationType":"point","DisplayPosition":{"Latitude":52.2465014,"Longitude":21.0607802},"MapView":{"TopLeft":{"Latitude":52.24668,"Longitude":21.06073},"BottomRight":{"Latitude":52.2462,"Longitude":21.06081}},"Address":{"Label":"03-822 Warszawa, Polska","Country":"POL","State":"Woj. Mazowieckie","County":"Warszawa","City":"Warszawa","District":"Praga-Południe","Subdistrict":"Kamionek","PostalCode":"03-822","AdditionalData":[{"value":"Polska","key":"CountryName"},{"value":"Woj. Mazowieckie","key":"StateName"},{"value":"Warszawa","key":"CountyName"}]},"MapReference":{"ReferenceId":"828667808","Spot":0.63,"SideOfStreet":"left","CountryId":"20624059","StateId":"20627182","CountyId":"20627769","CityId":"20627780","DistrictId":"20633157"}}},{"Relevance":1.0,"Distance":32.8,"MatchLevel":"street","MatchQuality":{"Country":1.0,"State":1.0,"County":1.0,"City":1.0,"District":1.0,"Subdistrict":1.0,"Street":[1.0],"PostalCode":1.0},"Location":{"LocationId":"NT_MxCIQN8O45f5Qw3aPBLKNA_l_1171115848_L","LocationType":"point","DisplayPosition":{"Latitude":52.2468721,"Longitude":21.0603426},"MapView":{"TopLeft":{"Latitude":52.24688,"Longitude":21.06022},"BottomRight":{"Latitude":52.24684,"Longitude":21.06084}},"Address":{"Label":"ulica Grochowska, 03-839 Warszawa, Polska","Country":"POL","State":"Woj. Mazowieckie","County":"Warszawa","City":"Warszawa","District":"Praga-Południe","Subdistrict":"Kamionek","Street":"ulica Grochowska","PostalCode":"03-839","AdditionalData":[{"value":"Polska","key":"CountryName"},{"value":"Woj. Mazowieckie","key":"StateName"},{"value":"Warszawa","key":"CountyName"}]},"MapReference":{"ReferenceId":"1171115848","Spot":0.8,"SideOfStreet":"left","CountryId":"20624059","StateId":"20627182","CountyId":"20627769","CityId":"20627780","DistrictId":"20633157"}}},{"Relevance":1.0,"Distance":35.0,"MatchLevel":"street","MatchQuality":{"Country":1.0,"State":1.0,"County":1.0,"City":1.0,"District":1.0,"Subdistrict":1.0,"Street":[1.0],"PostalCode":1.0},"Location":{"LocationId":"NT_xVV1C-C9ScX6yGAf4yYO0D_l_1170597397_L","LocationType":"point","DisplayPosition":{"Latitude":52.24668,"Longitude":21.06081},"MapView":{"TopLeft":{"Latitude":52.24668,"Longitude":21.06081},"BottomRight":{"Latitude":52.24665,"Longitude":21.06114}},"Address":{"Label":"ulica Grochowska, 03-822 Warszawa, Polska","Country":"POL","State":"Woj. Mazowieckie","County":"Warszawa","City":"Warszawa","District":"Praga-Południe","Subdistrict":"Kamionek","Street":"ulica Grochowska","PostalCode":"03-822","AdditionalData":[{"value":"Polska","key":"CountryName"},{"value":"Woj. Mazowieckie","key":"StateName"},{"value":"Warszawa","key":"CountyName"}]},"MapReference":{"ReferenceId":"1170597397","Spot":1.0,"SideOfStreet":"left","CountryId":"20624059","StateId":"20627182","CountyId":"20627769","CityId":"20627780","DistrictId":"20633157"}}},{"Relevance":1.0,"Distance":35.7,"MatchLevel":"houseNumber","MatchQuality":{"Country":1.0,"State":1.0,"County":1.0,"City":1.0,"District":1.0,"Subdistrict":1.0,"Street":[1.0],"HouseNumber":1.0,"PostalCode":1.0},"MatchType":"interpolated","Location":{"LocationId":"NT_MxCIQN8O45f5Qw3aPBLKNA_zIDMBB","LocationType":"point","DisplayPosition":{"Latitude":52.24688,"Longitude":21.06015},"MapView":{"TopLeft":{"Latitude":52.2480042,"Longitude":21.0583139},"BottomRight":{"Latitude":52.2457558,"Longitude":21.0619861}},"Address":{"Label":"ulica Grochowska 320A, 03-839 Warszawa, Polska","Country":"POL","State":"Woj. Mazowieckie","County":"Warszawa","City":"Warszawa","District":"Praga-Południe","Subdistrict":"Kamionek","Street":"ulica Grochowska","HouseNumber":"320A","PostalCode":"03-839","AdditionalData":[{"value":"Polska","key":"CountryName"},{"value":"Woj. Mazowieckie","key":"StateName"},{"value":"Warszawa","key":"CountyName"}]},"MapReference":{"ReferenceId":"1171115849","Spot":0.12,"SideOfStreet":"right","CountryId":"20624059","StateId":"20627182","CountyId":"20627769","CityId":"20627780","DistrictId":"20633157","AddressId":"419057296","RoadLinkId":"478089460"}}},{"Relevance":1.0,"Distance":40.2,"MatchLevel":"street","MatchQuality":{"Country":1.0,"State":1.0,"County":1.0,"City":1.0,"District":1.0,"Subdistrict":1.0,"PostalCode":1.0},"Location":{"LocationId":"NT_-28e8pAqxQLwoD9uumRubB_l_828667809_R","LocationType":"point","DisplayPosition":{"Latitude":52.2462157,"Longitude":21.06031},"MapView":{"TopLeft":{"Latitude":52.24623,"Longitude":21.05993},"BottomRight":{"Latitude":52.2462,"Longitude":21.06073}},"Address":{"Label":"03-822 Warszawa, Polska","Country":"POL","State":"Woj. Mazowieckie","County":"Warszawa","City":"Warszawa","District":"Praga-Południe","Subdistrict":"Kamionek","PostalCode":"03-822","AdditionalData":[{"value":"Polska","key":"CountryName"},{"value":"Woj. Mazowieckie","key":"StateName"},{"value":"Warszawa","key":"CountyName"}]},"MapReference":{"ReferenceId":"828667809","Spot":0.52,"SideOfStreet":"right","CountryId":"20624059","StateId":"20627182","CountyId":"20627769","CityId":"20627780","DistrictId":"20633157"}}},{"Relevance":1.0,"Distance":54.7,"MatchLevel":"houseNumber","MatchQuality":{"Country":1.0,"State":1.0,"County":1.0,"City":1.0,"District":1.0,"Subdistrict":1.0,"Street":[1.0],"HouseNumber":1.0,"PostalCode":1.0},"MatchType":"interpolated","Location":{"LocationId":"NT_xVV1C-C9ScX6yGAf4yYO0D_zMTN","LocationType":"point","DisplayPosition":{"Latitude":52.24664,"Longitude":21.06114},"MapView":{"TopLeft":{"Latitude":52.2477642,"Longitude":21.0593039},"BottomRight":{"Latitude":52.2455158,"Longitude":21.0629761}},"Address":{"Label":"ulica Grochowska 335, 03-822 Warszawa, Polska","Country":"POL","State":"Woj. Mazowieckie","County":"Warszawa","City":"Warszawa","District":"Praga-Południe","Subdistrict":"Kamionek","Street":"ulica Grochowska","HouseNumber":"335","PostalCode":"03-822","AdditionalData":[{"value":"Polska","key":"CountryName"},{"value":"Woj. Mazowieckie","key":"StateName"},{"value":"Warszawa","key":"CountyName"}]},"MapReference":{"ReferenceId":"1170597396","Spot":1.0,"SideOfStreet":"left","CountryId":"20624059","StateId":"20627182","CountyId":"20627769","CityId":"20627780","DistrictId":"20633157","AddressId":"209740711","RoadLinkId":"477505266"}}},{"Relevance":1.0,"Distance":55.6,"MatchLevel":"street","MatchQuality":{"Country":1.0,"State":1.0,"County":1.0,"City":1.0,"District":1.0,"Subdistrict":1.0,"Street":[1.0],"PostalCode":1.0},"Location":{"LocationId":"NT_A4s5FZq4ykk0ajomyaOZ6D_l_595625111_L","LocationType":"point","DisplayPosition":{"Latitude":52.24677,"Longitude":21.05957},"MapView":{"TopLeft":{"Latitude":52.2468,"Longitude":21.059},"BottomRight":{"Latitude":52.24677,"Longitude":21.05957}},"Address":{"Label":"ulica Grochowska, 03-822 Warszawa, Polska","Country":"POL","State":"Woj. Mazowieckie","County":"Warszawa","City":"Warszawa","District":"Praga-Południe","Subdistrict":"Kamionek","Street":"ulica Grochowska","PostalCode":"03-822","AdditionalData":[{"value":"Polska","key":"CountryName"},{"value":"Woj. Mazowieckie","key":"StateName"},{"value":"Warszawa","key":"CountyName"}]},"MapReference":{"ReferenceId":"595625111","Spot":0.0,"SideOfStreet":"left","CountryId":"20624059","StateId":"20627182","CountyId":"20627769","CityId":"20627780","DistrictId":"20633157"}}},{"Relevance":1.0,"Distance":59.5,"MatchLevel":"houseNumber","MatchQuality":{"Country":1.0,"State":1.0,"County":1.0,"City":1.0,"District":1.0,"Subdistrict":1.0,"Street":[1.0],"HouseNumber":1.0,"PostalCode":1.0},"MatchType":"interpolated","Location":{"LocationId":"NT_MxCIQN8O45f5Qw3aPBLKNA_zEjNvMjMwA","LocationType":"point","DisplayPosition":{"Latitude":52.24681,"Longitude":21.06111},"MapView":{"TopLeft":{"Latitude":52.2479342,"Longitude":21.0592739},"BottomRight":{"Latitude":52.2456858,"Longitude":21.0629461}},"Address":{"Label":"ulica Grochowska 316/320, 03-839 Warszawa, Polska","Country":"POL","State":"Woj. Mazowieckie","County":"Warszawa","City":"Warszawa","District":"Praga-Południe","Subdistrict":"Kamionek","Street":"ulica Grochowska","HouseNumber":"316/320","PostalCode":"03-839","AdditionalData":[{"value":"Polska","key":"CountryName"},{"value":"Woj. Mazowieckie","key":"StateName"},{"value":"Warszawa","key":"CountyName"}]},"MapReference":{"ReferenceId":"595625114","Spot":0.8,"SideOfStreet":"right","CountryId":"20624059","StateId":"20627182","CountyId":"20627769","CityId":"20627780","DistrictId":"20633157","AddressId":"419015797","RoadLinkId":"95643244"}}}]}]}}