{"Response":{"MetaInfo":{"Timestamp":"2020-03-28T10:42:00.695+0000","NextPageInformation":"2"},"View":[{"_type":"SearchResultsViewType","ViewId":0,"Result":[{"Relevance":1.0,"Distance":0.0,"Direction":0.0,"MatchLevel":"district","MatchQuality":{"Country":1.0,"State":1.0,"County":1.0,"City":1.0,"District":1.0,"PostalCode":1.0},"Location":{"LocationId":"NT_zGdjWlTEU5BOn2DX39ek0A","LocationType":"point","DisplayPosition":{"Latitude":52.2071053,"Longitude":0.1404905},"MapView":{"TopLeft":{"Latitude":52.23882,"Longitude":0.07746},"BottomRight":{"Latitude":52.16444,"Longitude":0.18852}},"Address":{"Label":"Cambridge, England, United Kingdom","Country":"GBR","State":"England","County":"Cambridgeshire","City":"Cambridge","District":"Cambridge","PostalCode":"CB3 9","AdditionalData":[{"value":"United Kingdom","key":"CountryName"},{"value":"England","key":"StateName"},{"value":"Cambridgeshire","key":"CountyName"}]},"MapReference":{"ReferenceId":"1225638096","SideOfStreet":"neither","StateId":"20248595","CountyId":"20335089","CityId":"20335090","DistrictId":"20335091"}}},{"Relevance":1.0,"Distance":10.4,"MatchLevel":"houseNumber","MatchQuality":{"Country":1.0,"State":1.0,"County":1.0,"City":1.0,"District":1.0,"Street":[1.0],"HouseNumber":1.0,"PostalCode":1.0},"MatchType":"interpolated","Location":{"LocationId":"NT_bQLwwMz73.7HaepQkvkCGC_l_565661775_R_xQjN","LocationType":"point","DisplayPosition":{"Latitude":52.2069216,"Longitude":0.1402781},"MapView":{"TopLeft":{"Latitude":52.2080457,"Longitude":0.1384436},"BottomRight":{"Latitude":52.2057974,"Longitude":0.1421125}},"Address":{"Label":"146 York Street, Cambridge, CB1 2PY, United Kingdom","Country":"GBR","State":"England","County":"Cambridgeshire","City":"Cambridge","District":"Cambridge","Street":"York Street","HouseNumber":"146","PostalCode":"CB1 2PY","AdditionalData":[{"value":"United Kingdom","key":"CountryName"},{"value":"England","key":"StateName"},{"value":"Cambridgeshire","key":"CountyName"}]},"MapReference":{"ReferenceId":"565661775","Spot":0.5,"SideOfStreet":"right","StateId":"20248595","CountyId":"20335089","CityId":"20335090","DistrictId":"20335091"}}},{"Relevance":1.0,"Distance":51.0,"MatchLevel":"street","MatchQuality":{"Country":1.0,"State":1.0,"County":1.0,"City":1.0,"District":1.0,"Street":[1.0],"PostalCode":1.0},"Location":{"LocationId":"NT_9z7VmLNsP75hzBusCu-8YB_l_577361205_L","LocationType":"point","DisplayPosition":{"Latitude":52.20723,"Longitude":0.14121},"MapView":{"TopLeft":{"Latitude":52.20757,"Longitude":0.14121},"BottomRight":{"Latitude":52.20668,"Longitude":0.14249}},"Address":{"Label":"St Matthew's Gardens, Cambridge, CB1 2, United Kingdom","Country":"GBR","State":"England","County":"Cambridgeshire","City":"Cambridge","District":"Cambridge","Street":"St Matthew's Gardens","PostalCode":"CB1 2","AdditionalData":[{"value":"United Kingdom","key":"CountryName"},{"value":"England","key":"StateName"},{"value":"Cambridgeshire","key":"CountyName"}]},"MapReference":{"ReferenceId":"577361205","Spot":0.26,"SideOfStreet":"left","StateId":"20248595","CountyId":"20335089","CityId":"20335090","DistrictId":"20335091"}}},{"Relevance":1.0,"Distance":54.4,"MatchLevel":"houseNumber","MatchQuality":{"Country":1.0,"State":1.0,"County":1.0,"City":1.0,"District":1.0,"Street":[1.0],"HouseNumber":1.0,"PostalCode":1.0},"MatchType":"interpolated","Location":{"LocationId":"NT_x5YpPWU6c67EDPr-QStxGC_l_877470241_R_xMDM","LocationType":"point","DisplayPosition":{"Latitude":52.20768,"Longitude":0.1401101},"MapView":{"TopLeft":{"Latitude":52.2088042,"Longitude":0.1382756},"BottomRight":{"Latitude":52.2065559,"Longitude":0.1419445}},"Address":{"Label":"130 New Street, Cambridge, CB1 2QX, United Kingdom","Country":"GBR","State":"England","County":"Cambridgeshire","City":"Cambridge","District":"Cambridge","Street":"New Street","HouseNumber":"130","PostalCode":"CB1 2QX","AdditionalData":[{"value":"United Kingdom","key":"CountryName"},{"value":"England","key":"StateName"},{"value":"Cambridgeshire","key":"CountyName"}]},"MapReference":{"ReferenceId":"877470241","Spot":0.26,"SideOfStreet":"right","StateId":"20248595","CountyId":"20335089","CityId":"20335090","DistrictId":"20335091"}}},{"Relevance":1.0,"Distance":64.2,"MatchLevel":"street","MatchQuality":{"Country":1.0,"State":1.0,"County":1.0,"City":1.0,"District":1.0,"PostalCode":1.0},"Location":{"LocationId":"NT_bkwdpigPImXgfjnwGKDtQD_l_1235565261_L","LocationType":"point","DisplayPosition":{"Latitude":52.20754,"Longitude":0.13987},"MapView":{"TopLeft":{"Latitude":52.20757,"Longitude":0.13971},"BottomRight":{"Latitude":52.20753,"Longitude":0.13987}},"Address":{"Label":"Cambridge, CB1 2, United Kingdom","Country":"GBR","State":"England","County":"Cambridgeshire","City":"Cambridge","District":"Cambridge","PostalCode":"CB1 2","AdditionalData":[{"value":"United Kingdom","key":"CountryName"},{"value":"England","key":"StateName"},{"value":"Cambridgeshire","key":"CountyName"}]},"MapReference":{"ReferenceId":"1235565261","Spot":0.0,"SideOfStreet":"left","StateId":"20248595","CountyId":"20335089","CityId":"20335090","DistrictId":"20335091"}}},{"Relevance":1.0,"Distance":65.1,"MatchLevel":"street","MatchQuality":{"Country":1.0,"State":1.0,"County":1.0,"City":1.0,"District":1.0,"PostalCode":1.0},"Location":{"LocationId":"NT_bkwdpigPImXgfjnwGKDtQD_l_1235565262_R","LocationType":"point","DisplayPosition":{"Latitude":52.20757,"Longitude":0.13991},"MapView":{"TopLeft":{"Latitude":52.20763,"Longitude":0.13987},"BottomRight":{"Latitude":52.20754,"Longitude":0.13992}},"Address":{"Label":"Cambridge, CB1 2, United Kingdom","Country":"GBR","State":"England","County":"Cambridgeshire","City":"Cambridge","District":"Cambridge","PostalCode":"CB1 2","AdditionalData":[{"value":"United Kingdom","key":"CountryName"},{"value":"England","key":"StateName"},{"value":"Cambridgeshire","key":"CountyName"}]},"MapReference":{"ReferenceId":"1235565262","Spot":0.44,"SideOfStreet":"right","StateId":"20248595","CountyId":"20335089","CityId":"20335090","DistrictId":"20335091"}}},{"Relevance":1.0,"Distance":67.6,"MatchLevel":"street","MatchQuality":{"Country":1.0,"State":1.0,"County":1.0,"City":1.0,"District":1.0,"Street":[1.0],"PostalCode":1.0},"Location":{"LocationId":"NT_H9ewZVvjVUUrpLdXP-XY5A_l_565661776_L","LocationType":"point","DisplayPosition":{"Latitude":52.20656,"Longitude":0.14093},"MapView":{"TopLeft":{"Latitude":52.20656,"Longitude":0.14093},"BottomRight":{"Latitude":52.20641,"Longitude":0.14101}},"Address":{"Label":"York Street, Cambridge, CB1 2, United Kingdom","Country":"GBR","State":"England","County":"Cambridgeshire","City":"Cambridge","District":"Cambridge","Street":"York Street","PostalCode":"CB1 2","AdditionalData":[{"value":"United Kingdom","key":"CountryName"},{"value":"England","key":"StateName"},{"value":"Cambridgeshire","key":"CountyName"}]},"MapReference":{"ReferenceId":"565661776","Spot":1.0,"SideOfStreet":"left","StateId":"20248595","CountyId":"20335089","CityId":"20335090","DistrictId":"20335091"}}},{"Relevance":1.0,"Distance":67.6,"MatchLevel":"street","MatchQuality":{"Country":1.0,"State":1.0,"County":1.0,"City":1.0,"District":1.0,"Street":[1.0],"PostalCode":1.0},"Location":{"LocationId":"NT_9z7VmLNsP75hzBusCu-8YB_l_577361208_L","LocationType":"point","DisplayPosition":{"Latitude":52.20656,"Longitude":0.14093},"MapView":{"TopLeft":{"Latitude":52.20668,"Longitude":0.14093},"BottomRight":{"Latitude":52.20656,"Longitude":0.14152}},"Address":{"Label":"St Matthew's Gardens, Cambridge, CB1 2, United Kingdom","Country":"GBR","State":"England","County":"Cambridgeshire","City":"Cambridge","District":"Cambridge","Street":"St Matthew's Gardens","PostalCode":"CB1 2","AdditionalData":[{"value":"United Kingdom","key":"CountryName"},{"value":"England","key":"StateName"},{"value":"Cambridgeshire","key":"CountyName"}]},"MapReference":{"ReferenceId":"577361208","Spot":0.0,"SideOfStreet":"left","StateId":"20248595","CountyId":"20335089","CityId":"20335090","DistrictId":"20335091"}}},{"Relevance":1.0,"Distance":70.5,"MatchLevel":"street","MatchQuality":{"Country":1.0,"State":1.0,"County":1.0,"City":1.0,"District":1.0,"PostalCode":1.0},"Location":{"LocationId":"NT_bkwdpigPImXgfjnwGKDtQD_l_1235565259_L","LocationType":"point","DisplayPosition":{"Latitude":52.20763,"Longitude":0.13991},"MapView":{"TopLeft":{"Latitude":52.20767,"Longitude":0.13975},"BottomRight":{"Latitude":52.20763,"Longitude":0.13991}},"Address":{"Label":"Cambridge, CB1 2, United Kingdom","Country":"GBR","State":"England","County":"Cambridgeshire","City":"Cambridge","District":"Cambridge","PostalCode":"CB1 2","AdditionalData":[{"value":"United Kingdom","key":"CountryName"},{"value":"England","key":"StateName"},{"value":"Cambridgeshire","key":"CountyName"}]},"MapReference":{"ReferenceId":"1235565259","Spot":0.0,"SideOfStreet":"left","StateId":"20248595","CountyId":"20335089","CityId":"20335090","DistrictId":"20335091"}}},{"Relevance":1.0,"Distance":74.2,"MatchLevel":"street","MatchQuality":{"Country":1.0,"State":1.0,"County":1.0,"City":1.0,"District":1.0,"PostalCode":1.0},"Location":{"LocationId":"NT_bkwdpigPImXgfjnwGKDtQD_l_1235565260_R","LocationType":"point","DisplayPosition":{"Latitude":52.20757,"Longitude":0.13971},"MapView":{"TopLeft":{"Latitude":52.20766,"Longitude":0.1397},"BottomRight":{"Latitude":52.20757,"Longitude":0.13975}},"Address":{"Label":"Cambridge, CB1 2, United Kingdom","Country":"GBR","State":"England","County":"Cambridgeshire","City":"Cambridge","District":"Cambridge","PostalCode":"CB1 2","AdditionalData":[{"value":"United Kingdom","key":"CountryName"},{"value":"England","key":"StateName"},{"value":"Cambridgeshire","key":"CountyName"}]},"MapReference":{"ReferenceId":"1235565260","Spot":0.0,"SideOfStreet":"right","StateId":"20248595","CountyId":"20335089","CityId":"20335090","DistrictId":"20335091"}}}]}]}}