{"Response":{"MetaInfo":{"Timestamp":"2020-03-28T09:36:49.914+0000","NextPageInformation":"2"},"View":[{"_type":"SearchResultsViewType","ViewId":0,"Result":[{"Relevance":1.0,"Distance":0.0,"Direction":0.0,"MatchLevel":"district","MatchQuality":{"Country":1.0,"State":1.0,"County":1.0,"City":1.0,"District":1.0,"PostalCode":1.0},"Location":{"LocationId":"NT_Yx9-45-JU1NqjyAmC78ymB","LocationType":"point","DisplayPosition":{"Latitude":52.2232653,"Longitude":8.7963292},"MapView":{"TopLeft":{"Latitude":52.24627,"Longitude":8.75514},"BottomRight":{"Latitude":52.17824,"Longitude":8.854}},"Address":{"Label":"Bad Oeynhausen, Nordrhein-Westfalen, Deutschland","Country":"DEU","State":"Nordrhein-Westfalen","County":"Minden-Lübbecke","City":"Bad Oeynhausen","District":"Bad Oeynhausen","PostalCode":"32545","AdditionalData":[{"value":"Deutschland","key":"CountryName"},{"value":"Nordrhein-Westfalen","key":"StateName"},{"value":"Minden-Lübbecke","key":"CountyName"}]},"MapReference":{"ReferenceId":"74607958","SideOfStreet":"neither","CountryId":"20147700","StateId":"20157369","CountyId":"20159946","CityId":"20159947","DistrictId":"20159954"}}},{"Relevance":1.0,"Distance":10.3,"MatchLevel":"houseNumber","MatchQuality":{"Country":1.0,"State":1.0,"County":1.0,"City":1.0,"District":1.0,"Street":[1.0],"HouseNumber":1.0,"PostalCode":1.0},"MatchType":"interpolated","Location":{"LocationId":"NT_qaO7Odp0s6DaiGKVCwbOaB_yA","LocationType":"point","DisplayPosition":{"Latitude":52.22336,"Longitude":8.79615},"MapView":{"TopLeft":{"Latitude":52.2244842,"Longitude":8.7943149},"BottomRight":{"Latitude":52.2222358,"Longitude":8.7979851}},"Address":{"Label":"Eidingsen 2, 32549 Bad Oeynhausen, Deutschland","Country":"DEU","State":"Nordrhein-Westfalen","County":"Minden-Lübbecke","City":"Bad Oeynhausen","District":"Bad Oeynhausen","Street":"Eidingsen","HouseNumber":"2","PostalCode":"32549","AdditionalData":[{"value":"Deutschland","key":"CountryName"},{"value":"Nordrhein-Westfalen","key":"StateName"},{"value":"Minden-Lübbecke","key":"CountyName"}]},"MapReference":{"ReferenceId":"1266291093","Spot":0.37,"SideOfStreet":"right","CountryId":"20147700","StateId":"20157369","CountyId":"20159946","CityId":"20159947","DistrictId":"20159954","AddressId":"196402006","RoadLinkId":"592814500"}}},{"Relevance":1.0,"Distance":31.1,"MatchLevel":"street","MatchQuality":{"Country":1.0,"State":1.0,"County":1.0,"City":1.0,"District":1.0,"Street":[1.0],"PostalCode":1.0},"Location":{"LocationId":"NT_NSRkfYf9Nsb03pKkThX-6C_l_841781845_L","LocationType":"point","DisplayPosition":{"Latitude":52.22341,"Longitude":8.79672},"MapView":{"TopLeft":{"Latitude":52.22341,"Longitude":8.79672},"BottomRight":{"Latitude":52.22327,"Longitude":8.79686}},"Address":{"Label":"Eidinghausener Straße, 32549 Bad Oeynhausen, Deutschland","Country":"DEU","State":"Nordrhein-Westfalen","County":"Minden-Lübbecke","City":"Bad Oeynhausen","District":"Bad Oeynhausen","Street":"Eidinghausener Straße","PostalCode":"32549","AdditionalData":[{"value":"Deutschland","key":"CountryName"},{"value":"Nordrhein-Westfalen","key":"StateName"},{"value":"Minden-Lübbecke","key":"CountyName"}]},"MapReference":{"ReferenceId":"841781845","Spot":1.0,"SideOfStreet":"left","CountryId":"20147700","StateId":"20157369","CountyId":"20159946","CityId":"20159947","DistrictId":"20159954"}}},{"Relevance":1.0,"Distance":33.5,"MatchLevel":"houseNumber","MatchQuality":{"Country":1.0,"State":1.0,"County":1.0,"City":1.0,"District":1.0,"Street":[1.0],"HouseNumber":1.0,"PostalCode":1.0},"MatchType":"interpolated","Location":{"LocationId":"NT_NSRkfYf9Nsb03pKkThX-6C_xMzM","LocationType":"point","DisplayPosition":{"Latitude":52.22347,"Longitude":8.79669},"MapView":{"TopLeft":{"Latitude":52.2245942,"Longitude":8.7948549},"BottomRight":{"Latitude":52.2223458,"Longitude":8.7985251}},"Address":{"Label":"Eidinghausener Straße 133, 32549 Bad Oeynhausen, Deutschland","Country":"DEU","State":"Nordrhein-Westfalen","County":"Minden-Lübbecke","City":"Bad Oeynhausen","District":"Bad Oeynhausen","Street":"Eidinghausener Straße","HouseNumber":"133","PostalCode":"32549","AdditionalData":[{"value":"Deutschland","key":"CountryName"},{"value":"Nordrhein-Westfalen","key":"StateName"},{"value":"Minden-Lübbecke","key":"CountyName"}]},"MapReference":{"ReferenceId":"841783173","Spot":0.24,"SideOfStreet":"right","CountryId":"20147700","StateId":"20157369","CountyId":"20159946","CityId":"20159947","DistrictId":"20159954","AddressId":"194248108","RoadLinkId":"223669997"}}},{"Relevance":1.0,"Distance":35.6,"MatchLevel":"houseNumber","MatchQuality":{"Country":1.0,"State":1.0,"County":1.0,"City":1.0,"District":1.0,"Street":[1.0],"HouseNumber":1.0,"PostalCode":1.0},"MatchType":"interpolated","Location":{"LocationId":"NT_NSRkfYf9Nsb03pKkThX-6C_xQDM","LocationType":"point","DisplayPosition":{"Latitude":52.2232,"Longitude":8.79694},"MapView":{"TopLeft":{"Latitude":52.2243242,"Longitude":8.7951049},"BottomRight":{"Latitude":52.2220758,"Longitude":8.7987751}},"Address":{"Label":"Eidinghausener Straße 140, 32549 Bad Oeynhausen, Deutschland","Country":"DEU","State":"Nordrhein-Westfalen","County":"Minden-Lübbecke","City":"Bad Oeynhausen","District":"Bad Oeynhausen","Street":"Eidinghausener Straße","HouseNumber":"140","PostalCode":"32549","AdditionalData":[{"value":"Deutschland","key":"CountryName"},{"value":"Nordrhein-Westfalen","key":"StateName"},{"value":"Minden-Lübbecke","key":"CountyName"}]},"MapReference":{"ReferenceId":"841781844","Spot":0.87,"SideOfStreet":"left","CountryId":"20147700","StateId":"20157369","CountyId":"20159946","CityId":"20159947","DistrictId":"20159954","AddressId":"195731653","RoadLinkId":"223668124"}}},{"Relevance":1.0,"Distance":35.7,"MatchLevel":"street","MatchQuality":{"Country":1.0,"State":1.0,"County":1.0,"City":1.0,"District":1.0,"PostalCode":1.0},"Location":{"LocationId":"NT_0o7.IU8abuPRZHB--4yuGB_l_1266291095_R","LocationType":"point","DisplayPosition":{"Latitude":52.22334,"Longitude":8.79582},"MapView":{"TopLeft":{"Latitude":52.22334,"Longitude":8.79575},"BottomRight":{"Latitude":52.22242,"Longitude":8.79603}},"Address":{"Label":"32549 Bad Oeynhausen, Deutschland","Country":"DEU","State":"Nordrhein-Westfalen","County":"Minden-Lübbecke","City":"Bad Oeynhausen","District":"Bad Oeynhausen","PostalCode":"32549","AdditionalData":[{"value":"Deutschland","key":"CountryName"},{"value":"Nordrhein-Westfalen","key":"StateName"},{"value":"Minden-Lübbecke","key":"CountyName"}]},"MapReference":{"ReferenceId":"1266291095","Spot":1.0,"SideOfStreet":"right","CountryId":"20147700","StateId":"20157369","CountyId":"20159946","CityId":"20159947","DistrictId":"20159954"}}},{"Relevance":1.0,"Distance":42.1,"MatchLevel":"houseNumber","MatchQuality":{"Country":1.0,"State":1.0,"County":1.0,"City":1.0,"District":1.0,"Street":[1.0],"HouseNumber":1.0,"PostalCode":1.0},"MatchType":"interpolated","Location":{"LocationId":"NT_qaO7Odp0s6DaiGKVCwbOaB_1A","LocationType":"point","DisplayPosition":{"Latitude":52.22334,"Longitude":8.79576},"MapView":{"TopLeft":{"Latitude":52.2244642,"Longitude":8.7939249},"BottomRight":{"Latitude":52.2222158,"Longitude":8.7975951}},"Address":{"Label":"Eidingsen 5, 32549 Bad Oeynhausen, Deutschland","Country":"DEU","State":"Nordrhein-Westfalen","County":"Minden-Lübbecke","City":"Bad Oeynhausen","District":"Bad Oeynhausen","Street":"Eidingsen","HouseNumber":"5","PostalCode":"32549","AdditionalData":[{"value":"Deutschland","key":"CountryName"},{"value":"Nordrhein-Westfalen","key":"StateName"},{"value":"Minden-Lübbecke","key":"CountyName"}]},"MapReference":{"ReferenceId":"1266291094","Spot":0.07,"SideOfStreet":"right","CountryId":"20147700","StateId":"20157369","CountyId":"20159946","CityId":"20159947","DistrictId":"20159954","AddressId":"196560064","RoadLinkId":"592814501"}}},{"Relevance":1.0,"Distance":45.0,"MatchLevel":"houseNumber","MatchQuality":{"Country":1.0,"State":1.0,"County":1.0,"City":1.0,"District":1.0,"Street":[1.0],"HouseNumber":1.0,"PostalCode":1.0},"MatchType":"interpolated","Location":{"LocationId":"NT_NSRkfYf9Nsb03pKkThX-6C_xQDN","LocationType":"point","DisplayPosition":{"Latitude":52.22371,"Longitude":8.79658},"MapView":{"TopLeft":{"Latitude":52.2248342,"Longitude":8.7947449},"BottomRight":{"Latitude":52.2225858,"Longitude":8.7984151}},"Address":{"Label":"Eidinghausener Straße 144, 32549 Bad Oeynhausen, Deutschland","Country":"DEU","State":"Nordrhein-Westfalen","County":"Minden-Lübbecke","City":"Bad Oeynhausen","District":"Bad Oeynhausen","Street":"Eidinghausener Straße","HouseNumber":"144","PostalCode":"32549","AdditionalData":[{"value":"Deutschland","key":"CountryName"},{"value":"Nordrhein-Westfalen","key":"StateName"},{"value":"Minden-Lübbecke","key":"CountyName"}]},"MapReference":{"ReferenceId":"841783174","Spot":0.18,"SideOfStreet":"left","CountryId":"20147700","StateId":"20157369","CountyId":"20159946","CityId":"20159947","DistrictId":"20159954","AddressId":"192937188","RoadLinkId":"223669998"}}},{"Relevance":1.0,"Distance":46.2,"MatchLevel":"houseNumber","MatchQuality":{"Country":1.0,"State":1.0,"County":1.0,"City":1.0,"District":1.0,"Street":[1.0],"HouseNumber":1.0,"PostalCode":1.0},"MatchType":"interpolated","Location":{"LocationId":"NT_7OmwYbIKAL3LgctIvhWPLA_xA","LocationType":"point","DisplayPosition":{"Latitude":52.22259,"Longitude":8.79654},"MapView":{"TopLeft":{"Latitude":52.2237142,"Longitude":8.7947049},"BottomRight":{"Latitude":52.2214658,"Longitude":8.7983751}},"Address":{"Label":"Apostelweg 1, 32549 Bad Oeynhausen, Deutschland","Country":"DEU","State":"Nordrhein-Westfalen","County":"Minden-Lübbecke","City":"Bad Oeynhausen","District":"Bad Oeynhausen","Street":"Apostelweg","HouseNumber":"1","PostalCode":"32549","AdditionalData":[{"value":"Deutschland","key":"CountryName"},{"value":"Nordrhein-Westfalen","key":"StateName"},{"value":"Minden-Lübbecke","key":"CountyName"}]},"MapReference":{"ReferenceId":"74602018","Spot":0.35,"SideOfStreet":"left","CountryId":"20147700","StateId":"20157369","CountyId":"20159946","CityId":"20159947","DistrictId":"20159954","AddressId":"192774592","RoadLinkId":"35109480"}}},{"Relevance":1.0,"Distance":69.4,"MatchLevel":"street","MatchQuality":{"Country":1.0,"State":1.0,"County":1.0,"City":1.0,"District":1.0,"Street":[1.0],"PostalCode":1.0},"Location":{"LocationId":"NT_27mJx5f0QC2HzZTMv7gR4A_l_74597459_R","LocationType":"point","DisplayPosition":{"Latitude":52.2238862,"Longitude":8.7962232},"MapView":{"TopLeft":{"Latitude":52.22393,"Longitude":8.79495},"BottomRight":{"Latitude":52.22342,"Longitude":8.79648}},"Address":{"Label":"Eduard-Kiel-Straße, 32549 Bad Oeynhausen, Deutschland","Country":"DEU","State":"Nordrhein-Westfalen","County":"Minden-Lübbecke","City":"Bad Oeynhausen","District":"Bad Oeynhausen","Street":"Eduard-Kiel-Straße","PostalCode":"32549","AdditionalData":[{"value":"Deutschland","key":"CountryName"},{"value":"Nordrhein-Westfalen","key":"StateName"},{"value":"Minden-Lübbecke","key":"CountyName"}]},"MapReference":{"ReferenceId":"74597459","Spot":0.84,"SideOfStreet":"right","CountryId":"20147700","StateId":"20157369","CountyId":"20159946","CityId":"20159947","DistrictId":"20159954"}}}]}]}}