{"Response":{"MetaInfo":{"Timestamp":"2020-03-28T10:46:15.617+0000","NextPageInformation":"2"},"View":[{"_type":"SearchResultsViewType","ViewId":0,"Result":[{"Relevance":1.0,"Distance":0.0,"Direction":0.0,"MatchLevel":"district","MatchQuality":{"Country":1.0,"State":1.0,"County":1.0,"City":1.0,"District":1.0,"Subdistrict":1.0,"PostalCode":1.0},"Location":{"LocationId":"NT_IRi-.SA5mUoKRFGQc2fmcC","LocationType":"point","DisplayPosition":{"Latitude":52.2705051,"Longitude":20.9886973},"MapView":{"TopLeft":{"Latitude":52.27616,"Longitude":20.97398},"BottomRight":{"Latitude":52.259,"Longitude":21.01275}},"Address":{"Label":"Stary Żoliborz, Żoliborz, Warszawa, Woj. Mazowieckie, Polska","Country":"POL","State":"Woj. Mazowieckie","County":"Warszawa","City":"Warszawa","District":"Żoliborz","Subdistrict":"Stary Żoliborz","PostalCode":"01-551","AdditionalData":[{"value":"Polska","key":"CountryName"},{"value":"Woj. Mazowieckie","key":"StateName"},{"value":"Warszawa","key":"CountyName"}]},"MapReference":{"ReferenceId":"878044909","SideOfStreet":"neither","CountryId":"20624059","StateId":"20627182","CountyId":"20627769","CityId":"20627780","DistrictId":"20633168"}}},{"Relevance":1.0,"Distance":3.6,"MatchLevel":"houseNumber","MatchQuality":{"Country":1.0,"State":1.0,"County":1.0,"City":1.0,"District":1.0,"Subdistrict":1.0,"Street":[1.0],"HouseNumber":1.0,"PostalCode":1.0},"MatchType":"interpolated","Location":{"LocationId":"NT_X1FWPzga3N2gBFA-StpglD_xID","LocationType":"point","DisplayPosition":{"Latitude":52.2704,"Longitude":20.98881},"MapView":{"TopLeft":{"Latitude":52.2715242,"Longitude":20.986973},"BottomRight":{"Latitude":52.2692758,"Longitude":20.990647}},"Address":{"Label":"ulica Tucholska 12, 01-608 Warszawa, Polska","Country":"POL","State":"Woj. Mazowieckie","County":"Warszawa","City":"Warszawa","District":"Żoliborz","Subdistrict":"Stary Żoliborz","Street":"ulica Tucholska","HouseNumber":"12","PostalCode":"01-608","AdditionalData":[{"value":"Polska","key":"CountryName"},{"value":"Woj. Mazowieckie","key":"StateName"},{"value":"Warszawa","key":"CountyName"}]},"MapReference":{"ReferenceId":"595623313","Spot":0.37,"SideOfStreet":"left","CountryId":"20624059","StateId":"20627182","CountyId":"20627769","CityId":"20627780","DistrictId":"20633168","AddressId":"210352318","RoadLinkId":"95360411"}}},{"Relevance":1.0,"Distance":36.4,"MatchLevel":"street","MatchQuality":{"Country":1.0,"State":1.0,"County":1.0,"City":1.0,"District":1.0,"Subdistrict":1.0,"PostalCode":1.0},"Location":{"LocationId":"NT_ka1X58egCN54QHJLgc-4iB_l_928445423_R","LocationType":"point","DisplayPosition":{"Latitude":52.2703,"Longitude":20.98828},"MapView":{"TopLeft":{"Latitude":52.27038,"Longitude":20.98747},"BottomRight":{"Latitude":52.2703,"Longitude":20.98828}},"Address":{"Label":"01-607 Warszawa, Polska","Country":"POL","State":"Woj. Mazowieckie","County":"Warszawa","City":"Warszawa","District":"Żoliborz","Subdistrict":"Stary Żoliborz","PostalCode":"01-607","AdditionalData":[{"value":"Polska","key":"CountryName"},{"value":"Woj. Mazowieckie","key":"StateName"},{"value":"Warszawa","key":"CountyName"}]},"MapReference":{"ReferenceId":"928445423","Spot":0.0,"SideOfStreet":"right","CountryId":"20624059","StateId":"20627182","CountyId":"20627769","CityId":"20627780","DistrictId":"20633168"}}},{"Relevance":1.0,"Distance":39.4,"MatchLevel":"street","MatchQuality":{"Country":1.0,"State":1.0,"County":1.0,"City":1.0,"District":1.0,"Subdistrict":1.0,"Street":[1.0],"PostalCode":1.0},"Location":{"LocationId":"NT_Wu8Knw9nCb.NKTL7UqDZeB_l_595625308_R","LocationType":"point","DisplayPosition":{"Latitude":52.2702284,"Longitude":20.9883346},"MapView":{"TopLeft":{"Latitude":52.2703,"Longitude":20.98828},"BottomRight":{"Latitude":52.26971,"Longitude":20.98873}},"Address":{"Label":"ulica Franciszka Karpińskiego, 01-609 Warszawa, Polska","Country":"POL","State":"Woj. Mazowieckie","County":"Warszawa","City":"Warszawa","District":"Żoliborz","Subdistrict":"Stary Żoliborz","Street":"ulica Franciszka Karpińskiego","PostalCode":"01-609","AdditionalData":[{"value":"Polska","key":"CountryName"},{"value":"Woj. Mazowieckie","key":"StateName"},{"value":"Warszawa","key":"CountyName"}]},"MapReference":{"ReferenceId":"595625308","Spot":0.88,"SideOfStreet":"right","CountryId":"20624059","StateId":"20627182","CountyId":"20627769","CityId":"20627780","DistrictId":"20633168"}}},{"Relevance":1.0,"Distance":44.8,"MatchLevel":"houseNumber","MatchQuality":{"Country":1.0,"State":1.0,"County":1.0,"City":1.0,"District":1.0,"Subdistrict":1.0,"Street":[1.0],"HouseNumber":1.0,"PostalCode":1.0},"MatchType":"interpolated","Location":{"LocationId":"NT_Wu8Knw9nCb.NKTL7UqDZeB_xAD","LocationType":"point","DisplayPosition":{"Latitude":52.27066,"Longitude":20.98797},"MapView":{"TopLeft":{"Latitude":52.2717842,"Longitude":20.9861329},"BottomRight":{"Latitude":52.2695358,"Longitude":20.9898071}},"Address":{"Label":"ulica Franciszka Karpińskiego 10, 01-609 Warszawa, Polska","Country":"POL","State":"Woj. Mazowieckie","County":"Warszawa","City":"Warszawa","District":"Żoliborz","Subdistrict":"Stary Żoliborz","Street":"ulica Franciszka Karpińskiego","HouseNumber":"10","PostalCode":"01-609","AdditionalData":[{"value":"Polska","key":"CountryName"},{"value":"Woj. Mazowieckie","key":"StateName"},{"value":"Warszawa","key":"CountyName"}]},"MapReference":{"ReferenceId":"928445394","Spot":0.62,"SideOfStreet":"right","CountryId":"20624059","StateId":"20627182","CountyId":"20627769","CityId":"20627780","DistrictId":"20633168","AddressId":"222144191","RoadLinkId":"283464072"}}},{"Relevance":1.0,"Distance":58.9,"MatchLevel":"houseNumber","MatchQuality":{"Country":1.0,"State":1.0,"County":1.0,"City":1.0,"District":1.0,"Subdistrict":1.0,"Street":[1.0],"HouseNumber":1.0,"PostalCode":1.0},"MatchType":"interpolated","Location":{"LocationId":"NT_V2yFb6WgJns6.PCP43rAwD_xUD","LocationType":"point","DisplayPosition":{"Latitude":52.27116,"Longitude":20.98899},"MapView":{"TopLeft":{"Latitude":52.2722842,"Longitude":20.9871529},"BottomRight":{"Latitude":52.2700358,"Longitude":20.9908271}},"Address":{"Label":"ulica Józefa Sułkowskiego 15, 01-610 Warszawa, Polska","Country":"POL","State":"Woj. Mazowieckie","County":"Warszawa","City":"Warszawa","District":"Żoliborz","Subdistrict":"Stary Żoliborz","Street":"ulica Józefa Sułkowskiego","HouseNumber":"15","PostalCode":"01-610","AdditionalData":[{"value":"Polska","key":"CountryName"},{"value":"Woj. Mazowieckie","key":"StateName"},{"value":"Warszawa","key":"CountyName"}]},"MapReference":{"ReferenceId":"595598304","Spot":0.46,"SideOfStreet":"left","CountryId":"20624059","StateId":"20627182","CountyId":"20627769","CityId":"20627780","DistrictId":"20633168","AddressId":"222159247","RoadLinkId":"95743554"}}},{"Relevance":1.0,"Distance":67.9,"MatchLevel":"houseNumber","MatchQuality":{"Country":1.0,"State":1.0,"County":1.0,"City":1.0,"District":1.0,"Subdistrict":1.0,"Street":[1.0],"HouseNumber":1.0,"PostalCode":1.0},"MatchType":"interpolated","Location":{"LocationId":"NT_Wu8Knw9nCb.NKTL7UqDZeB_xQD","LocationType":"point","DisplayPosition":{"Latitude":52.27101,"Longitude":20.98787},"MapView":{"TopLeft":{"Latitude":52.2721342,"Longitude":20.9860329},"BottomRight":{"Latitude":52.2698858,"Longitude":20.9897071}},"Address":{"Label":"ulica Franciszka Karpińskiego 14, 01-609 Warszawa, Polska","Country":"POL","State":"Woj. Mazowieckie","County":"Warszawa","City":"Warszawa","District":"Żoliborz","Subdistrict":"Stary Żoliborz","Street":"ulica Franciszka Karpińskiego","HouseNumber":"14","PostalCode":"01-609","AdditionalData":[{"value":"Polska","key":"CountryName"},{"value":"Woj. Mazowieckie","key":"StateName"},{"value":"Warszawa","key":"CountyName"}]},"MapReference":{"ReferenceId":"928445395","Spot":0.3,"SideOfStreet":"right","CountryId":"20624059","StateId":"20627182","CountyId":"20627769","CityId":"20627780","DistrictId":"20633168","AddressId":"222144189","RoadLinkId":"283464073"}}},{"Relevance":1.0,"Distance":71.8,"MatchLevel":"houseNumber","MatchQuality":{"Country":1.0,"State":1.0,"County":1.0,"City":1.0,"District":1.0,"Subdistrict":1.0,"Street":[1.0],"HouseNumber":1.0,"PostalCode":1.0},"MatchType":"interpolated","Location":{"LocationId":"NT_ezUFw5g5BfvzdOPqwx.4WD_0A","LocationType":"point","DisplayPosition":{"Latitude":52.27046,"Longitude":20.98975},"MapView":{"TopLeft":{"Latitude":52.2715842,"Longitude":20.987913},"BottomRight":{"Latitude":52.2693358,"Longitude":20.991587}},"Address":{"Label":"ulica Dziennikarska 4, 01-605 Warszawa, Polska","Country":"POL","State":"Woj. Mazowieckie","County":"Warszawa","City":"Warszawa","District":"Żoliborz","Subdistrict":"Stary Żoliborz","Street":"ulica Dziennikarska","HouseNumber":"4","PostalCode":"01-605","AdditionalData":[{"value":"Polska","key":"CountryName"},{"value":"Woj. Mazowieckie","key":"StateName"},{"value":"Warszawa","key":"CountyName"}]},"MapReference":{"ReferenceId":"595625306","Spot":0.87,"SideOfStreet":"right","CountryId":"20624059","StateId":"20627182","CountyId":"20627769","CityId":"20627780","DistrictId":"20633168","AddressId":"209224143","RoadLinkId":"95624660"}}},{"Relevance":1.0,"Distance":73.6,"MatchLevel":"houseNumber","MatchQuality":{"Country":1.0,"State":1.0,"County":1.0,"City":1.0,"District":1.0,"Subdistrict":1.0,"Street":[1.0],"HouseNumber":1.0,"PostalCode":1.0},"MatchType":"interpolated","Location":{"LocationId":"NT_ezUFw5g5BfvzdOPqwx.4WD_3A","LocationType":"point","DisplayPosition":{"Latitude":52.27083,"Longitude":20.98978},"MapView":{"TopLeft":{"Latitude":52.2719542,"Longitude":20.9879429},"BottomRight":{"Latitude":52.2697058,"Longitude":20.9916171}},"Address":{"Label":"ulica Dziennikarska 7, 01-605 Warszawa, Polska","Country":"POL","State":"Woj. Mazowieckie","County":"Warszawa","City":"Warszawa","District":"Żoliborz","Subdistrict":"Stary Żoliborz","Street":"ulica Dziennikarska","HouseNumber":"7","PostalCode":"01-605","AdditionalData":[{"value":"Polska","key":"CountryName"},{"value":"Woj. Mazowieckie","key":"StateName"},{"value":"Warszawa","key":"CountyName"}]},"MapReference":{"ReferenceId":"595598347","Spot":0.54,"SideOfStreet":"left","CountryId":"20624059","StateId":"20627182","CountyId":"20627769","CityId":"20627780","DistrictId":"20633168","AddressId":"210386516","RoadLinkId":"95774501"}}},{"Relevance":1.0,"Distance":74.8,"MatchLevel":"street","MatchQuality":{"Country":1.0,"State":1.0,"County":1.0,"City":1.0,"District":1.0,"Subdistrict":1.0,"PostalCode":1.0},"Location":{"LocationId":"NT_ka1X58egCN54QHJLgc-4iB_l_928445402_L","LocationType":"point","DisplayPosition":{"Latitude":52.27091,"Longitude":20.98782},"MapView":{"TopLeft":{"Latitude":52.27094,"Longitude":20.98761},"BottomRight":{"Latitude":52.27091,"Longitude":20.98782}},"Address":{"Label":"01-607 Warszawa, Polska","Country":"POL","State":"Woj. Mazowieckie","County":"Warszawa","City":"Warszawa","District":"Żoliborz","Subdistrict":"Stary Żoliborz","PostalCode":"01-607","AdditionalData":[{"value":"Polska","key":"CountryName"},{"value":"Woj. Mazowieckie","key":"StateName"},{"value":"Warszawa","key":"CountyName"}]},"MapReference":{"ReferenceId":"928445402","Spot":0.0,"SideOfStreet":"left","CountryId":"20624059","StateId":"20627182","CountyId":"20627769","CityId":"20627780","DistrictId":"20633168"}}}]}]}}