{"Response":{"MetaInfo":{"Timestamp":"2020-03-28T10:55:59.764+0000","NextPageInformation":"2"},"View":[{"_type":"SearchResultsViewType","ViewId":0,"Result":[{"Relevance":1.0,"Distance":0.0,"Direction":0.0,"MatchLevel":"district","MatchQuality":{"Country":1.0,"State":1.0,"County":1.0,"City":1.0,"District":1.0,"PostalCode":1.0},"Location":{"LocationId":"NT_vujbMA.u09r71T3Ez5QQBB","LocationType":"point","DisplayPosition":{"Latitude":52.2173099,"Longitude":7.0304104},"MapView":{"TopLeft":{"Latitude":52.22996,"Longitude":6.97896},"BottomRight":{"Latitude":52.19748,"Longitude":7.08656}},"Address":{"Label":"Gronau (Westfalen), Nordrhein-Westfalen, Deutschland","Country":"DEU","State":"Nordrhein-Westfalen","County":"Borken","City":"Gronau (Westfalen)","District":"Gronau (Westfalen)","PostalCode":"48599","AdditionalData":[{"value":"Deutschland","key":"CountryName"},{"value":"Nordrhein-Westfalen","key":"StateName"},{"value":"Borken","key":"CountyName"}]},"MapReference":{"ReferenceId":"51516242","SideOfStreet":"neither","CountryId":"20147700","StateId":"20157369","CountyId":"20159118","CityId":"20159148","DistrictId":"20159151"}}},{"Relevance":1.0,"Distance":39.4,"MatchLevel":"street","MatchQuality":{"Country":1.0,"State":1.0,"County":1.0,"City":1.0,"District":1.0,"Street":[1.0],"PostalCode":1.0},"Location":{"LocationId":"NT_Gl6Dbm3b-YvWHZKbhlH9yC_l_69258825_L","LocationType":"point","DisplayPosition":{"Latitude":52.21766,"Longitude":7.0305},"MapView":{"TopLeft":{"Latitude":52.21807,"Longitude":7.02933},"BottomRight":{"Latitude":52.21766,"Longitude":7.0305}},"Address":{"Label":"Zum Lukas-Krankenhaus, 48599 Gronau (Westfalen), Deutschland","Country":"DEU","State":"Nordrhein-Westfalen","County":"Borken","City":"Gronau (Westfalen)","District":"Gronau (Westfalen)","Street":"Zum Lukas-Krankenhaus","PostalCode":"48599","AdditionalData":[{"value":"Deutschland","key":"CountryName"},{"value":"Nordrhein-Westfalen","key":"StateName"},{"value":"Borken","key":"CountyName"}]},"MapReference":{"ReferenceId":"69258825","Spot":0.0,"SideOfStreet":"left","CountryId":"20147700","StateId":"20157369","CountyId":"20159118","CityId":"20159148","DistrictId":"20159151"}}},{"Relevance":1.0,"Distance":40.2,"MatchLevel":"houseNumber","MatchQuality":{"Country":1.0,"State":1.0,"County":1.0,"City":1.0,"District":1.0,"Street":[1.0],"HouseNumber":1.0,"PostalCode":1.0},"MatchType":"interpolated","Location":{"LocationId":"NT_Gl6Dbm3b-YvWHZKbhlH9yC_xA","LocationType":"point","DisplayPosition":{"Latitude":52.21753,"Longitude":7.0311},"MapView":{"TopLeft":{"Latitude":52.2186542,"Longitude":7.0292651},"BottomRight":{"Latitude":52.2164058,"Longitude":7.0329349}},"Address":{"Label":"Zum Lukas-Krankenhaus 1, 48599 Gronau (Westfalen), Deutschland","Country":"DEU","State":"Nordrhein-Westfalen","County":"Borken","City":"Gronau (Westfalen)","District":"Gronau (Westfalen)","Street":"Zum Lukas-Krankenhaus","HouseNumber":"1","PostalCode":"48599","AdditionalData":[{"value":"Deutschland","key":"CountryName"},{"value":"Nordrhein-Westfalen","key":"StateName"},{"value":"Borken","key":"CountyName"}]},"MapReference":{"ReferenceId":"75384333","Spot":0.83,"SideOfStreet":"left","CountryId":"20147700","StateId":"20157369","CountyId":"20159118","CityId":"20159148","DistrictId":"20159151","AddressId":"195024115","RoadLinkId":"35098872"}}},{"Relevance":1.0,"Distance":81.0,"MatchLevel":"houseNumber","MatchQuality":{"Country":1.0,"State":1.0,"County":1.0,"City":1.0,"District":1.0,"Street":[1.0],"HouseNumber":1.0,"PostalCode":1.0},"MatchType":"interpolated","Location":{"LocationId":"NT_Gl6Dbm3b-YvWHZKbhlH9yC_zA","LocationType":"point","DisplayPosition":{"Latitude":52.2176,"Longitude":7.02932},"MapView":{"TopLeft":{"Latitude":52.2187242,"Longitude":7.0274851},"BottomRight":{"Latitude":52.2164758,"Longitude":7.0311549}},"Address":{"Label":"Zum Lukas-Krankenhaus 3, 48599 Gronau (Westfalen), Deutschland","Country":"DEU","State":"Nordrhein-Westfalen","County":"Borken","City":"Gronau (Westfalen)","District":"Gronau (Westfalen)","Street":"Zum Lukas-Krankenhaus","HouseNumber":"3","PostalCode":"48599","AdditionalData":[{"value":"Deutschland","key":"CountryName"},{"value":"Nordrhein-Westfalen","key":"StateName"},{"value":"Borken","key":"CountyName"}]},"MapReference":{"ReferenceId":"76178808","Spot":0.0,"SideOfStreet":"right","CountryId":"20147700","StateId":"20157369","CountyId":"20159118","CityId":"20159148","DistrictId":"20159151","AddressId":"209465610","RoadLinkId":"35426056"}}},{"Relevance":1.0,"Distance":84.7,"MatchLevel":"street","MatchQuality":{"Country":1.0,"State":1.0,"County":1.0,"City":1.0,"District":1.0,"PostalCode":1.0},"Location":{"LocationId":"NT_WSKl7wEU52HLdv7PRD0ipD_l_69263657_L","LocationType":"point","DisplayPosition":{"Latitude":52.21666,"Longitude":7.03106},"MapView":{"TopLeft":{"Latitude":52.21666,"Longitude":7.03106},"BottomRight":{"Latitude":52.21558,"Longitude":7.03111}},"Address":{"Label":"48599 Gronau (Westfalen), Deutschland","Country":"DEU","State":"Nordrhein-Westfalen","County":"Borken","City":"Gronau (Westfalen)","District":"Gronau (Westfalen)","PostalCode":"48599","AdditionalData":[{"value":"Deutschland","key":"CountryName"},{"value":"Nordrhein-Westfalen","key":"StateName"},{"value":"Borken","key":"CountyName"}]},"MapReference":{"ReferenceId":"69263657","Spot":1.0,"SideOfStreet":"left","CountryId":"20147700","StateId":"20157369","CountyId":"20159118","CityId":"20159148","DistrictId":"20159151"}}},{"Relevance":1.0,"Distance":110.6,"MatchLevel":"houseNumber","MatchQuality":{"Country":1.0,"State":1.0,"County":1.0,"City":1.0,"District":1.0,"Street":[1.0],"HouseNumber":1.0,"PostalCode":1.0},"MatchType":"interpolated","Location":{"LocationId":"NT_Z6R5mnEPgs9k0ImzonalzD_yAD","LocationType":"point","DisplayPosition":{"Latitude":52.21592,"Longitude":7.02971},"MapView":{"TopLeft":{"Latitude":52.2170442,"Longitude":7.0278752},"BottomRight":{"Latitude":52.2147958,"Longitude":7.0315448}},"Address":{"Label":"Bentheimer Straße 20, 48599 Gronau (Westfalen), Deutschland","Country":"DEU","State":"Nordrhein-Westfalen","County":"Borken","City":"Gronau (Westfalen)","District":"Gronau (Westfalen)","Street":"Bentheimer Straße","HouseNumber":"20","PostalCode":"48599","AdditionalData":[{"value":"Deutschland","key":"CountryName"},{"value":"Nordrhein-Westfalen","key":"StateName"},{"value":"Borken","key":"CountyName"}]},"MapReference":{"ReferenceId":"1064281772","Spot":0.27,"SideOfStreet":"right","CountryId":"20147700","StateId":"20157369","CountyId":"20159118","CityId":"20159148","DistrictId":"20159151","AddressId":"196260565","RoadLinkId":"386491851"}}},{"Relevance":1.0,"Distance":147.2,"MatchLevel":"houseNumber","MatchQuality":{"Country":1.0,"State":1.0,"County":1.0,"City":1.0,"District":1.0,"Street":[1.0],"HouseNumber":1.0,"PostalCode":1.0},"MatchType":"interpolated","Location":{"LocationId":"NT_uVg0cpDkNLHtmgiA6cot4A_xQD","LocationType":"point","DisplayPosition":{"Latitude":52.21779,"Longitude":7.0281},"MapView":{"TopLeft":{"Latitude":52.2189142,"Longitude":7.0262651},"BottomRight":{"Latitude":52.2166658,"Longitude":7.0299349}},"Address":{"Label":"Dr.-Sander-Straße 14, 48599 Gronau (Westfalen), Deutschland","Country":"DEU","State":"Nordrhein-Westfalen","County":"Borken","City":"Gronau (Westfalen)","District":"Gronau (Westfalen)","Street":"Dr.-Sander-Straße","HouseNumber":"14","PostalCode":"48599","AdditionalData":[{"value":"Deutschland","key":"CountryName"},{"value":"Nordrhein-Westfalen","key":"StateName"},{"value":"Borken","key":"CountyName"}]},"MapReference":{"ReferenceId":"1064281777","Spot":1.0,"SideOfStreet":"right","CountryId":"20147700","StateId":"20157369","CountyId":"20159118","CityId":"20159148","DistrictId":"20159151","AddressId":"622113708","RoadLinkId":"386491856"}}},{"Relevance":1.0,"Distance":176.4,"MatchLevel":"houseNumber","MatchQuality":{"Country":1.0,"State":1.0,"County":1.0,"City":1.0,"District":1.0,"Street":[1.0],"HouseNumber":1.0,"PostalCode":1.0},"MatchType":"interpolated","Location":{"LocationId":"NT_uVg0cpDkNLHtmgiA6cot4A_yAD","LocationType":"point","DisplayPosition":{"Latitude":52.21782,"Longitude":7.02796},"MapView":{"TopLeft":{"Latitude":52.2189442,"Longitude":7.0261251},"BottomRight":{"Latitude":52.2166958,"Longitude":7.0297949}},"Address":{"Label":"Dr.-Sander-Straße 20, 48599 Gronau (Westfalen), Deutschland","Country":"DEU","State":"Nordrhein-Westfalen","County":"Borken","City":"Gronau (Westfalen)","District":"Gronau (Westfalen)","Street":"Dr.-Sander-Straße","HouseNumber":"20","PostalCode":"48599","AdditionalData":[{"value":"Deutschland","key":"CountryName"},{"value":"Nordrhein-Westfalen","key":"StateName"},{"value":"Borken","key":"CountyName"}]},"MapReference":{"ReferenceId":"1064281778","Spot":0.88,"SideOfStreet":"left","CountryId":"20147700","StateId":"20157369","CountyId":"20159118","CityId":"20159148","DistrictId":"20159151","AddressId":"622113729","RoadLinkId":"386491857"}}},{"Relevance":1.0,"Distance":192.9,"MatchLevel":"houseNumber","MatchQuality":{"Country":1.0,"State":1.0,"County":1.0,"City":1.0,"District":1.0,"Street":[1.0],"HouseNumber":1.0,"PostalCode":1.0},"MatchType":"interpolated","Location":{"LocationId":"NT_St0-DZcJhXF-GvqokseAIC_xAD","LocationType":"point","DisplayPosition":{"Latitude":52.21556,"Longitude":7.03134},"MapView":{"TopLeft":{"Latitude":52.2166842,"Longitude":7.0295052},"BottomRight":{"Latitude":52.2144358,"Longitude":7.0331748}},"Address":{"Label":"Spinnereistraße 10, 48599 Gronau (Westfalen), Deutschland","Country":"DEU","State":"Nordrhein-Westfalen","County":"Borken","City":"Gronau (Westfalen)","District":"Gronau (Westfalen)","Street":"Spinnereistraße","HouseNumber":"10","PostalCode":"48599","AdditionalData":[{"value":"Deutschland","key":"CountryName"},{"value":"Nordrhein-Westfalen","key":"StateName"},{"value":"Borken","key":"CountyName"}]},"MapReference":{"ReferenceId":"1194124920","Spot":0.43,"SideOfStreet":"right","CountryId":"20147700","StateId":"20157369","CountyId":"20159118","CityId":"20159148","DistrictId":"20159151","AddressId":"209694889","RoadLinkId":"504091124"}}},{"Relevance":1.0,"Distance":196.9,"MatchLevel":"houseNumber","MatchQuality":{"Country":1.0,"State":1.0,"County":1.0,"City":1.0,"District":1.0,"Street":[1.0],"HouseNumber":1.0,"PostalCode":1.0},"MatchType":"interpolated","Location":{"LocationId":"NT_St0-DZcJhXF-GvqokseAIC_xMD","LocationType":"point","DisplayPosition":{"Latitude":52.21557,"Longitude":7.03095},"MapView":{"TopLeft":{"Latitude":52.2166942,"Longitude":7.0291152},"BottomRight":{"Latitude":52.2144458,"Longitude":7.0327848}},"Address":{"Label":"Spinnereistraße 13, 48599 Gronau (Westfalen), Deutschland","Country":"DEU","State":"Nordrhein-Westfalen","County":"Borken","City":"Gronau (Westfalen)","District":"Gronau (Westfalen)","Street":"Spinnereistraße","HouseNumber":"13","PostalCode":"48599","AdditionalData":[{"value":"Deutschland","key":"CountryName"},{"value":"Nordrhein-Westfalen","key":"StateName"},{"value":"Borken","key":"CountyName"}]},"MapReference":{"ReferenceId":"75351027","Spot":0.68,"SideOfStreet":"right","CountryId":"20147700","StateId":"20157369","CountyId":"20159118","CityId":"20159148","DistrictId":"20159151","AddressId":"195649431","RoadLinkId":"35325353"}}}]}]}}