{"Response":{"MetaInfo":{"Timestamp":"2020-03-28T10:39:01.238+0000","NextPageInformation":"2"},"View":[{"_type":"SearchResultsViewType","ViewId":0,"Result":[{"Relevance":1.0,"Distance":0.0,"Direction":0.0,"MatchLevel":"district","MatchQuality":{"Country":1.0,"State":1.0,"County":1.0,"City":1.0,"District":1.0,"PostalCode":1.0},"Location":{"LocationId":"NT_W7Gva5L9CAJ9XGxLwJ0FdB","LocationType":"point","DisplayPosition":{"Latitude":52.2245245,"Longitude":-0.5344109},"MapView":{"TopLeft":{"Latitude":52.23441,"Longitude":-0.56085},"BottomRight":{"Latitude":52.22047,"Longitude":-0.52783}},"Address":{"Label":"Sharnbrook, Bedford, England, United Kingdom","Country":"GBR","State":"England","County":"Bedfordshire","City":"Bedford","District":"Sharnbrook","PostalCode":"MK44 1","AdditionalData":[{"value":"United Kingdom","key":"CountryName"},{"value":"England","key":"StateName"},{"value":"Bedfordshire","key":"CountyName"}]},"MapReference":{"ReferenceId":"25924518","SideOfStreet":"neither","StateId":"20248595","CountyId":"20334253","CityId":"20334256","DistrictId":"20334314"}}},{"Relevance":1.0,"Distance":17.9,"MatchLevel":"street","MatchQuality":{"Country":1.0,"State":1.0,"County":1.0,"City":1.0,"District":1.0,"Street":[1.0],"PostalCode":1.0},"Location":{"LocationId":"NT_scASAt9rvWdOHF-Ndqs7qC_l_25909432_R","LocationType":"point","DisplayPosition":{"Latitude":52.2246777,"Longitude":-0.5344892},"MapView":{"TopLeft":{"Latitude":52.2248,"Longitude":-0.5347},"BottomRight":{"Latitude":52.22457,"Longitude":-0.53425}},"Address":{"Label":"Templars Way, Bedford, MK44 1, United Kingdom","Country":"GBR","State":"England","County":"Bedfordshire","City":"Bedford","District":"Sharnbrook","Street":"Templars Way","PostalCode":"MK44 1","AdditionalData":[{"value":"United Kingdom","key":"CountryName"},{"value":"England","key":"StateName"},{"value":"Bedfordshire","key":"CountyName"}]},"MapReference":{"ReferenceId":"25909432","Spot":0.47,"SideOfStreet":"right","StateId":"20248595","CountyId":"20334253","CityId":"20334256","DistrictId":"20334314"}}},{"Relevance":1.0,"Distance":18.5,"MatchLevel":"street","MatchQuality":{"Country":1.0,"State":1.0,"County":1.0,"City":1.0,"District":1.0,"PostalCode":1.0},"Location":{"LocationId":"NT_PtJmQoi1YDc8lktnt1RSlA_l_25909436_R","LocationType":"point","DisplayPosition":{"Latitude":52.2244107,"Longitude":-0.5346081},"MapView":{"TopLeft":{"Latitude":52.22457,"Longitude":-0.5347},"BottomRight":{"Latitude":52.22431,"Longitude":-0.53455}},"Address":{"Label":"Bedford, MK44 1, United Kingdom","Country":"GBR","State":"England","County":"Bedfordshire","City":"Bedford","District":"Sharnbrook","PostalCode":"MK44 1","AdditionalData":[{"value":"United Kingdom","key":"CountryName"},{"value":"England","key":"StateName"},{"value":"Bedfordshire","key":"CountyName"}]},"MapReference":{"ReferenceId":"25909436","Spot":0.39,"SideOfStreet":"right","StateId":"20248595","CountyId":"20334253","CityId":"20334256","DistrictId":"20334314"}}},{"Relevance":1.0,"Distance":20.3,"MatchLevel":"street","MatchQuality":{"Country":1.0,"State":1.0,"County":1.0,"City":1.0,"District":1.0,"Street":[1.0],"PostalCode":1.0},"Location":{"LocationId":"NT_scASAt9rvWdOHF-Ndqs7qC_l_25909434_R","LocationType":"point","DisplayPosition":{"Latitude":52.22457,"Longitude":-0.5347},"MapView":{"TopLeft":{"Latitude":52.22457,"Longitude":-0.53499},"BottomRight":{"Latitude":52.22444,"Longitude":-0.5347}},"Address":{"Label":"Templars Way, Bedford, MK44 1, United Kingdom","Country":"GBR","State":"England","County":"Bedfordshire","City":"Bedford","District":"Sharnbrook","Street":"Templars Way","PostalCode":"MK44 1","AdditionalData":[{"value":"United Kingdom","key":"CountryName"},{"value":"England","key":"StateName"},{"value":"Bedfordshire","key":"CountyName"}]},"MapReference":{"ReferenceId":"25909434","Spot":1.0,"SideOfStreet":"right","StateId":"20248595","CountyId":"20334253","CityId":"20334256","DistrictId":"20334314"}}},{"Relevance":1.0,"Distance":24.3,"MatchLevel":"postalCode","MatchQuality":{"PostalCode":1.0},"Location":{"LocationId":"NT_scASAt9rvWdOHF-Ndqs7qC_l_25909434_R","LocationType":"point","DisplayPosition":{"Latitude":52.22461,"Longitude":-0.53474},"MapView":{"TopLeft":{"Latitude":52.2336032,"Longitude":-0.5494212},"BottomRight":{"Latitude":52.2156168,"Longitude":-0.5200588}},"Address":{"Label":"MK44 1PX, Bedford, England, United Kingdom","Country":"GBR","State":"England","County":"Bedfordshire","City":"Bedford","PostalCode":"MK44 1PX","AdditionalData":[{"value":"United Kingdom","key":"CountryName"},{"value":"England","key":"StateName"},{"value":"Bedfordshire","key":"CountyName"}]},"MapReference":{"ReferenceId":"25909434","Spot":1.0,"SideOfStreet":"neither","StateId":"20248595","CountyId":"20334253","CityId":"20334256"}}},{"Relevance":1.0,"Distance":25.7,"MatchLevel":"street","MatchQuality":{"Country":1.0,"State":1.0,"County":1.0,"City":1.0,"District":1.0,"Street":[1.0],"PostalCode":1.0},"Location":{"LocationId":"NT_4fogR-AddgC7z2MknmLatA_l_25909437_R","LocationType":"point","DisplayPosition":{"Latitude":52.22431,"Longitude":-0.53455},"MapView":{"TopLeft":{"Latitude":52.22439,"Longitude":-0.53476},"BottomRight":{"Latitude":52.22431,"Longitude":-0.53455}},"Address":{"Label":"Mill Road, Bedford, MK44 1, United Kingdom","Country":"GBR","State":"England","County":"Bedfordshire","City":"Bedford","District":"Sharnbrook","Street":"Mill Road","PostalCode":"MK44 1","AdditionalData":[{"value":"United Kingdom","key":"CountryName"},{"value":"England","key":"StateName"},{"value":"Bedfordshire","key":"CountyName"}]},"MapReference":{"ReferenceId":"25909437","Spot":0.0,"SideOfStreet":"right","StateId":"20248595","CountyId":"20334253","CityId":"20334256","DistrictId":"20334314"}}},{"Relevance":1.0,"Distance":28.1,"MatchLevel":"street","MatchQuality":{"Country":1.0,"State":1.0,"County":1.0,"City":1.0,"District":1.0,"Street":[1.0],"PostalCode":1.0},"Location":{"LocationId":"NT_3XaALOtV.NDE86kjSKBucA_l_25909435_R","LocationType":"point","DisplayPosition":{"Latitude":52.22439,"Longitude":-0.53476},"MapView":{"TopLeft":{"Latitude":52.22444,"Longitude":-0.53499},"BottomRight":{"Latitude":52.22439,"Longitude":-0.53476}},"Address":{"Label":"Kennell Hill, Bedford, MK44 1, United Kingdom","Country":"GBR","State":"England","County":"Bedfordshire","City":"Bedford","District":"Sharnbrook","Street":"Kennell Hill","PostalCode":"MK44 1","AdditionalData":[{"value":"United Kingdom","key":"CountryName"},{"value":"England","key":"StateName"},{"value":"Bedfordshire","key":"CountyName"}]},"MapReference":{"ReferenceId":"25909435","Spot":0.0,"SideOfStreet":"right","StateId":"20248595","CountyId":"20334253","CityId":"20334256","DistrictId":"20334314"}}},{"Relevance":1.0,"Distance":30.3,"MatchLevel":"houseNumber","MatchQuality":{"Country":1.0,"State":1.0,"County":1.0,"City":1.0,"District":1.0,"Street":[1.0],"HouseNumber":1.0,"PostalCode":1.0},"MatchType":"interpolated","Location":{"LocationId":"NT_L-fQF.dnIot1ze-4OBAudD_l_25909433_L_xA","LocationType":"point","DisplayPosition":{"Latitude":52.22468,"Longitude":-0.5338683},"MapView":{"TopLeft":{"Latitude":52.2258042,"Longitude":-0.5357035},"BottomRight":{"Latitude":52.2235559,"Longitude":-0.5320332}},"Address":{"Label":"1 Tythe Close, Bedford, MK44 1DB, United Kingdom","Country":"GBR","State":"England","County":"Bedfordshire","City":"Bedford","District":"Sharnbrook","Street":"Tythe Close","HouseNumber":"1","PostalCode":"MK44 1DB","AdditionalData":[{"value":"United Kingdom","key":"CountryName"},{"value":"England","key":"StateName"},{"value":"Bedfordshire","key":"CountyName"}]},"MapReference":{"ReferenceId":"25909433","Spot":0.55,"SideOfStreet":"left","StateId":"20248595","CountyId":"20334253","CityId":"20334256","DistrictId":"20334314"}}},{"Relevance":1.0,"Distance":32.5,"MatchLevel":"street","MatchQuality":{"Country":1.0,"State":1.0,"County":1.0,"City":1.0,"District":1.0,"Street":[1.0],"PostalCode":1.0},"Location":{"LocationId":"NT_GhqYSGJW7TcSuYnrx.9abD_l_25909428_R","LocationType":"point","DisplayPosition":{"Latitude":52.2248,"Longitude":-0.53425},"MapView":{"TopLeft":{"Latitude":52.2248,"Longitude":-0.53425},"BottomRight":{"Latitude":52.2248,"Longitude":-0.53402}},"Address":{"Label":"Station Road, Bedford, MK44 1, United Kingdom","Country":"GBR","State":"England","County":"Bedfordshire","City":"Bedford","District":"Sharnbrook","Street":"Station Road","PostalCode":"MK44 1","AdditionalData":[{"value":"United Kingdom","key":"CountryName"},{"value":"England","key":"StateName"},{"value":"Bedfordshire","key":"CountyName"}]},"MapReference":{"ReferenceId":"25909428","Spot":0.0,"SideOfStreet":"right","StateId":"20248595","CountyId":"20334253","CityId":"20334256","DistrictId":"20334314"}}},{"Relevance":1.0,"Distance":32.5,"MatchLevel":"street","MatchQuality":{"Country":1.0,"State":1.0,"County":1.0,"City":1.0,"District":1.0,"Street":[1.0],"PostalCode":1.0},"Location":{"LocationId":"NT_scASAt9rvWdOHF-Ndqs7qC_l_25909426_R","LocationType":"point","DisplayPosition":{"Latitude":52.2248,"Longitude":-0.53425},"MapView":{"TopLeft":{"Latitude":52.22581,"Longitude":-0.53425},"BottomRight":{"Latitude":52.2248,"Longitude":-0.53202}},"Address":{"Label":"Templars Way, Bedford, MK44 1, United Kingdom","Country":"GBR","State":"England","County":"Bedfordshire","City":"Bedford","District":"Sharnbrook","Street":"Templars Way","PostalCode":"MK44 1","AdditionalData":[{"value":"United Kingdom","key":"CountryName"},{"value":"England","key":"StateName"},{"value":"Bedfordshire","key":"CountyName"}]},"MapReference":{"ReferenceId":"25909426","Spot":0.0,"SideOfStreet":"right","StateId":"20248595","CountyId":"20334253","CityId":"20334256","DistrictId":"20334314"}}}]}]}}