{"Response":{"MetaInfo":{"Timestamp":"2020-03-28T11:57:05.971+0000","NextPageInformation":"2"},"View":[{"_type":"SearchResultsViewType","ViewId":0,"Result":[{"Relevance":1.0,"Distance":0.0,"Direction":0.0,"MatchLevel":"district","MatchQuality":{"Country":1.0,"State":1.0,"County":1.0,"City":1.0,"District":1.0,"PostalCode":1.0},"Location":{"LocationId":"NT_fwit.HT-SlMoKlsWDNC35C","LocationType":"point","DisplayPosition":{"Latitude":52.2140898,"Longitude":1.4918776},"MapView":{"TopLeft":{"Latitude":52.23427,"Longitude":1.47678},"BottomRight":{"Latitude":52.21101,"Longitude":1.50115}},"Address":{"Label":"Saxmundham, England, United Kingdom","Country":"GBR","State":"England","County":"Suffolk","City":"Saxmundham","District":"Saxmundham","PostalCode":"IP17 1","AdditionalData":[{"value":"United Kingdom","key":"CountryName"},{"value":"England","key":"StateName"},{"value":"Suffolk","key":"CountyName"}]},"MapReference":{"ReferenceId":"966538168","SideOfStreet":"neither","StateId":"20248595","CountyId":"20338322","CityId":"20351332","DistrictId":"20351333"}}},{"Relevance":1.0,"Distance":6.0,"MatchLevel":"houseNumber","MatchQuality":{"Country":1.0,"State":1.0,"County":1.0,"City":1.0,"District":1.0,"Street":[1.0],"HouseNumber":1.0,"PostalCode":1.0},"MatchType":"interpolated","Location":{"LocationId":"NT_YsuYw7elYBKM4fyhFj0kIC_l_1005139074_L_3A","LocationType":"point","DisplayPosition":{"Latitude":52.21402,"Longitude":1.4919494},"MapView":{"TopLeft":{"Latitude":52.2151441,"Longitude":1.4901147},"BottomRight":{"Latitude":52.2128958,"Longitude":1.4937842}},"Address":{"Label":"7 High Street, Saxmundham, IP17 1DF, United Kingdom","Country":"GBR","State":"England","County":"Suffolk","City":"Saxmundham","District":"Saxmundham","Street":"High Street","HouseNumber":"7","PostalCode":"IP17 1DF","AdditionalData":[{"value":"United Kingdom","key":"CountryName"},{"value":"England","key":"StateName"},{"value":"Suffolk","key":"CountyName"}]},"MapReference":{"ReferenceId":"1005139074","Spot":0.34,"SideOfStreet":"left","StateId":"20248595","CountyId":"20338322","CityId":"20351332","DistrictId":"20351333"}}},{"Relevance":1.0,"Distance":8.9,"MatchLevel":"postalCode","MatchQuality":{"PostalCode":1.0},"MatchType":"interpolated","Location":{"LocationId":"NT_YsuYw7elYBKM4fyhFj0kIC_l_1005139074_L_3A","LocationType":"point","DisplayPosition":{"Latitude":52.21414,"Longitude":1.49198},"MapView":{"TopLeft":{"Latitude":52.2231332,"Longitude":1.4773023},"BottomRight":{"Latitude":52.2051468,"Longitude":1.5066577}},"Address":{"Label":"IP17 1DF, Saxmundham, England, United Kingdom","Country":"GBR","State":"England","County":"Suffolk","City":"Saxmundham","PostalCode":"IP17 1DF","AdditionalData":[{"value":"United Kingdom","key":"CountryName"},{"value":"England","key":"StateName"},{"value":"Suffolk","key":"CountyName"}]},"MapReference":{"ReferenceId":"1005139074","Spot":0.34,"SideOfStreet":"neither","StateId":"20248595","CountyId":"20338322","CityId":"20351332"}}},{"Relevance":1.0,"Distance":17.4,"MatchLevel":"postalCode","MatchQuality":{"PostalCode":1.0},"MatchType":"interpolated","Location":{"LocationId":"NT_OcXNyDjtYLQXGIsinsft9D_l_821601334_R_zMD","LocationType":"point","DisplayPosition":{"Latitude":52.21394,"Longitude":1.49195},"MapView":{"TopLeft":{"Latitude":52.2229332,"Longitude":1.4772723},"BottomRight":{"Latitude":52.2049468,"Longitude":1.5066277}},"Address":{"Label":"IP17 1XS, Saxmundham, England, United Kingdom","Country":"GBR","State":"England","County":"Suffolk","City":"Saxmundham","PostalCode":"IP17 1XS","AdditionalData":[{"value":"United Kingdom","key":"CountryName"},{"value":"England","key":"StateName"},{"value":"Suffolk","key":"CountyName"}]},"MapReference":{"ReferenceId":"821601334","Spot":0.51,"SideOfStreet":"neither","StateId":"20248595","CountyId":"20338322","CityId":"20351332"}}},{"Relevance":1.0,"Distance":29.5,"MatchLevel":"houseNumber","MatchQuality":{"Country":1.0,"State":1.0,"County":1.0,"City":1.0,"District":1.0,"Street":[1.0],"HouseNumber":1.0,"PostalCode":1.0},"MatchType":"interpolated","Location":{"LocationId":"NT_HJn.b34Y8HfcnOE4Az6nKB_l_26147072_R_xA","LocationType":"point","DisplayPosition":{"Latitude":52.21378,"Longitude":1.4915299},"MapView":{"TopLeft":{"Latitude":52.2149042,"Longitude":1.4896952},"BottomRight":{"Latitude":52.2126559,"Longitude":1.4933646}},"Address":{"Label":"1 Chantry Road, Saxmundham, IP17 1DJ, United Kingdom","Country":"GBR","State":"England","County":"Suffolk","City":"Saxmundham","District":"Saxmundham","Street":"Chantry Road","HouseNumber":"1","PostalCode":"IP17 1DJ","AdditionalData":[{"value":"United Kingdom","key":"CountryName"},{"value":"England","key":"StateName"},{"value":"Suffolk","key":"CountyName"}]},"MapReference":{"ReferenceId":"26147072","Spot":0.14,"SideOfStreet":"right","StateId":"20248595","CountyId":"20338322","CityId":"20351332","DistrictId":"20351333"}}},{"Relevance":1.0,"Distance":37.4,"MatchLevel":"houseNumber","MatchQuality":{"Country":1.0,"State":1.0,"County":1.0,"City":1.0,"District":1.0,"Street":[1.0],"HouseNumber":1.0,"PostalCode":1.0},"MatchType":"interpolated","Location":{"LocationId":"NT_cB8cMiSyzS33oOlZSPsPdD_l_821600178_L_5A","LocationType":"point","DisplayPosition":{"Latitude":52.21436,"Longitude":1.49155},"MapView":{"TopLeft":{"Latitude":52.2154842,"Longitude":1.4897153},"BottomRight":{"Latitude":52.2132359,"Longitude":1.4933848}},"Address":{"Label":"9 Bell Close, Saxmundham, IP17 1, United Kingdom","Country":"GBR","State":"England","County":"Suffolk","City":"Saxmundham","District":"Saxmundham","Street":"Bell Close","HouseNumber":"9","PostalCode":"IP17 1","AdditionalData":[{"value":"United Kingdom","key":"CountryName"},{"value":"England","key":"StateName"},{"value":"Suffolk","key":"CountyName"}]},"MapReference":{"ReferenceId":"821600178","Spot":0.43,"SideOfStreet":"left","StateId":"20248595","CountyId":"20338322","CityId":"20351332","DistrictId":"20351333"}}},{"Relevance":1.0,"Distance":40.2,"MatchLevel":"houseNumber","MatchQuality":{"Country":1.0,"State":1.0,"County":1.0,"City":1.0,"District":1.0,"Street":[1.0],"HouseNumber":1.0,"PostalCode":1.0},"MatchType":"interpolated","Location":{"LocationId":"NT_OcXNyDjtYLQXGIsinsft9D_l_821601334_R_zMD","LocationType":"point","DisplayPosition":{"Latitude":52.2136615,"Longitude":1.4921913},"MapView":{"TopLeft":{"Latitude":52.2147856,"Longitude":1.4903566},"BottomRight":{"Latitude":52.2125373,"Longitude":1.494026}},"Address":{"Label":"33 Church Street, Saxmundham, IP17 1EP, United Kingdom","Country":"GBR","State":"England","County":"Suffolk","City":"Saxmundham","District":"Saxmundham","Street":"Church Street","HouseNumber":"33","PostalCode":"IP17 1EP","AdditionalData":[{"value":"United Kingdom","key":"CountryName"},{"value":"England","key":"StateName"},{"value":"Suffolk","key":"CountyName"}]},"MapReference":{"ReferenceId":"821601334","Spot":0.51,"SideOfStreet":"right","StateId":"20248595","CountyId":"20338322","CityId":"20351332","DistrictId":"20351333"}}},{"Relevance":1.0,"Distance":50.5,"MatchLevel":"postalCode","MatchQuality":{"PostalCode":1.0},"MatchType":"interpolated","Location":{"LocationId":"NT_cB8cMiSyzS33oOlZSPsPdD_l_821600178_L_5A","LocationType":"point","DisplayPosition":{"Latitude":52.2145,"Longitude":1.49156},"MapView":{"TopLeft":{"Latitude":52.2234932,"Longitude":1.4768822},"BottomRight":{"Latitude":52.2055068,"Longitude":1.5062378}},"Address":{"Label":"IP17 1AZ, Saxmundham, England, United Kingdom","Country":"GBR","State":"England","County":"Suffolk","City":"Saxmundham","PostalCode":"IP17 1AZ","AdditionalData":[{"value":"United Kingdom","key":"CountryName"},{"value":"England","key":"StateName"},{"value":"Suffolk","key":"CountyName"}]},"MapReference":{"ReferenceId":"821600178","Spot":0.43,"SideOfStreet":"neither","StateId":"20248595","CountyId":"20338322","CityId":"20351332"}}},{"Relevance":1.0,"Distance":54.9,"MatchLevel":"postalCode","MatchQuality":{"PostalCode":1.0},"MatchType":"interpolated","Location":{"LocationId":"NT_YsuYw7elYBKM4fyhFj0kIC_l_1005139075_L_yMD","LocationType":"point","DisplayPosition":{"Latitude":52.21449,"Longitude":1.49235},"MapView":{"TopLeft":{"Latitude":52.2234832,"Longitude":1.4776722},"BottomRight":{"Latitude":52.2054968,"Longitude":1.5070278}},"Address":{"Label":"IP17 1DB, Saxmundham, England, United Kingdom","Country":"GBR","State":"England","County":"Suffolk","City":"Saxmundham","PostalCode":"IP17 1DB","AdditionalData":[{"value":"United Kingdom","key":"CountryName"},{"value":"England","key":"StateName"},{"value":"Suffolk","key":"CountyName"}]},"MapReference":{"ReferenceId":"1005139075","Spot":0.28,"SideOfStreet":"neither","StateId":"20248595","CountyId":"20338322","CityId":"20351332"}}},{"Relevance":1.0,"Distance":56.5,"MatchLevel":"houseNumber","MatchQuality":{"Country":1.0,"State":1.0,"County":1.0,"City":1.0,"District":1.0,"Street":[1.0],"HouseNumber":1.0,"PostalCode":1.0},"MatchType":"interpolated","Location":{"LocationId":"NT_6usswjUvjrwLaF9A-j9hrA_l_872036462_L_yA","LocationType":"point","DisplayPosition":{"Latitude":52.2135698,"Longitude":1.4916513},"MapView":{"TopLeft":{"Latitude":52.214694,"Longitude":1.4898167},"BottomRight":{"Latitude":52.2124457,"Longitude":1.493486}},"Address":{"Label":"2 South Entrance, Saxmundham, IP17 1DQ, United Kingdom","Country":"GBR","State":"England","County":"Suffolk","City":"Saxmundham","District":"Saxmundham","Street":"South Entrance","HouseNumber":"2","PostalCode":"IP17 1DQ","AdditionalData":[{"value":"United Kingdom","key":"CountryName"},{"value":"England","key":"StateName"},{"value":"Suffolk","key":"CountyName"}]},"MapReference":{"ReferenceId":"872036462","Spot":0.48,"SideOfStreet":"left","StateId":"20248595","CountyId":"20338322","CityId":"20351332","DistrictId":"20351333"}}}]}]}}