{"Response":{"MetaInfo":{"Timestamp":"2020-03-28T10:23:57.185+0000","NextPageInformation":"2"},"View":[{"_type":"SearchResultsViewType","ViewId":0,"Result":[{"Relevance":1.0,"Distance":0.0,"Direction":0.0,"MatchLevel":"district","MatchQuality":{"Country":1.0,"State":1.0,"County":1.0,"City":1.0,"District":1.0,"PostalCode":1.0},"Location":{"LocationId":"NT_FDB.xRkyxW-Co.nW7J4sPC","LocationType":"point","DisplayPosition":{"Latitude":52.2875226,"Longitude":10.5294187},"MapView":{"TopLeft":{"Latitude":52.33025,"Longitude":10.45966},"BottomRight":{"Latitude":52.22206,"Longitude":10.5822}},"Address":{"Label":"Braunschweig, Niedersachsen, Deutschland","Country":"DEU","State":"Niedersachsen","County":"Braunschweig","City":"Braunschweig","District":"Braunschweig","PostalCode":"38100","AdditionalData":[{"value":"Deutschland","key":"CountryName"},{"value":"Niedersachsen","key":"StateName"},{"value":"Braunschweig","key":"CountyName"}]},"MapReference":{"ReferenceId":"586484518","SideOfStreet":"neither","CountryId":"20147700","StateId":"20151542","CountyId":"20151543","CityId":"20151544","DistrictId":"20151562"}}},{"Relevance":1.0,"Distance":2.3,"MatchLevel":"houseNumber","MatchQuality":{"Country":1.0,"State":1.0,"County":1.0,"City":1.0,"District":1.0,"Street":[1.0],"HouseNumber":1.0,"PostalCode":1.0},"MatchType":"interpolated","Location":{"LocationId":"NT_sd5n0i1620TrQeUUiVtzZA_zUD","LocationType":"point","DisplayPosition":{"Latitude":52.28768,"Longitude":10.52949},"MapView":{"TopLeft":{"Latitude":52.2888042,"Longitude":10.5276522},"BottomRight":{"Latitude":52.2865558,"Longitude":10.5313278}},"Address":{"Label":"Siegfriedstraße 35, 38106 Braunschweig, Deutschland","Country":"DEU","State":"Niedersachsen","County":"Braunschweig","City":"Braunschweig","District":"Braunschweig","Street":"Siegfriedstraße","HouseNumber":"35","PostalCode":"38106","AdditionalData":[{"value":"Deutschland","key":"CountryName"},{"value":"Niedersachsen","key":"StateName"},{"value":"Braunschweig","key":"CountyName"}]},"MapReference":{"ReferenceId":"51812004","Spot":0.87,"SideOfStreet":"left","CountryId":"20147700","StateId":"20151542","CountyId":"20151543","CityId":"20151544","DistrictId":"20151562","AddressId":"181510831","RoadLinkId":"36400330"}}},{"Relevance":1.0,"Distance":34.3,"MatchLevel":"houseNumber","MatchQuality":{"Country":1.0,"State":1.0,"County":1.0,"City":1.0,"District":1.0,"Street":[1.0],"HouseNumber":1.0,"PostalCode":1.0},"MatchType":"interpolated","Location":{"LocationId":"NT_sd5n0i1620TrQeUUiVtzZA_zYD","LocationType":"point","DisplayPosition":{"Latitude":52.28774,"Longitude":10.52906},"MapView":{"TopLeft":{"Latitude":52.2888642,"Longitude":10.5272222},"BottomRight":{"Latitude":52.2866158,"Longitude":10.5308978}},"Address":{"Label":"Siegfriedstraße 36, 38106 Braunschweig, Deutschland","Country":"DEU","State":"Niedersachsen","County":"Braunschweig","City":"Braunschweig","District":"Braunschweig","Street":"Siegfriedstraße","HouseNumber":"36","PostalCode":"38106","AdditionalData":[{"value":"Deutschland","key":"CountryName"},{"value":"Niedersachsen","key":"StateName"},{"value":"Braunschweig","key":"CountyName"}]},"MapReference":{"ReferenceId":"1238185101","Spot":0.09,"SideOfStreet":"left","CountryId":"20147700","StateId":"20151542","CountyId":"20151543","CityId":"20151544","DistrictId":"20151562","AddressId":"181409603","RoadLinkId":"559000918"}}},{"Relevance":1.0,"Distance":51.4,"MatchLevel":"houseNumber","MatchQuality":{"Country":1.0,"State":1.0,"County":1.0,"City":1.0,"District":1.0,"Street":[1.0],"HouseNumber":1.0,"PostalCode":1.0},"MatchType":"interpolated","Location":{"LocationId":"NT_RIDt5hU1sITrhjnf65hJlA_ygD","LocationType":"point","DisplayPosition":{"Latitude":52.28704,"Longitude":10.5293},"MapView":{"TopLeft":{"Latitude":52.2881642,"Longitude":10.5274623},"BottomRight":{"Latitude":52.2859158,"Longitude":10.5311377}},"Address":{"Label":"Walkürenring 28, 38106 Braunschweig, Deutschland","Country":"DEU","State":"Niedersachsen","County":"Braunschweig","City":"Braunschweig","District":"Braunschweig","Street":"Walkürenring","HouseNumber":"28","PostalCode":"38106","AdditionalData":[{"value":"Deutschland","key":"CountryName"},{"value":"Niedersachsen","key":"StateName"},{"value":"Braunschweig","key":"CountyName"}]},"MapReference":{"ReferenceId":"51812006","Spot":0.54,"SideOfStreet":"right","CountryId":"20147700","StateId":"20151542","CountyId":"20151543","CityId":"20151544","DistrictId":"20151562","AddressId":"177084415","RoadLinkId":"36466448"}}},{"Relevance":1.0,"Distance":78.7,"MatchLevel":"houseNumber","MatchQuality":{"Country":1.0,"State":1.0,"County":1.0,"City":1.0,"District":1.0,"Street":[1.0],"HouseNumber":1.0,"PostalCode":1.0},"MatchType":"interpolated","Location":{"LocationId":"NT_BpqA53N3rwdEwanZCGi7uB_xA","LocationType":"point","DisplayPosition":{"Latitude":52.28823,"Longitude":10.52946},"MapView":{"TopLeft":{"Latitude":52.2893542,"Longitude":10.5276222},"BottomRight":{"Latitude":52.2871058,"Longitude":10.5312978}},"Address":{"Label":"Brunhildenstraße 1, 38112 Braunschweig, Deutschland","Country":"DEU","State":"Niedersachsen","County":"Braunschweig","City":"Braunschweig","District":"Braunschweig","Street":"Brunhildenstraße","HouseNumber":"1","PostalCode":"38112","AdditionalData":[{"value":"Deutschland","key":"CountryName"},{"value":"Niedersachsen","key":"StateName"},{"value":"Braunschweig","key":"CountyName"}]},"MapReference":{"ReferenceId":"51812007","Spot":0.64,"SideOfStreet":"left","CountryId":"20147700","StateId":"20151542","CountyId":"20151543","CityId":"20151544","DistrictId":"20151562","AddressId":"181002354","RoadLinkId":"36482553"}}},{"Relevance":1.0,"Distance":96.0,"MatchLevel":"houseNumber","MatchQuality":{"Country":1.0,"State":1.0,"County":1.0,"City":1.0,"District":1.0,"Street":[1.0],"HouseNumber":1.0,"PostalCode":1.0},"MatchType":"interpolated","Location":{"LocationId":"NT_Il891Xgo8nyHHkeO10eVgD_xYD","LocationType":"point","DisplayPosition":{"Latitude":52.28849,"Longitude":10.52986},"MapView":{"TopLeft":{"Latitude":52.2896142,"Longitude":10.5280222},"BottomRight":{"Latitude":52.2873658,"Longitude":10.5316978}},"Address":{"Label":"Hildebrandstraße 16, 38112 Braunschweig, Deutschland","Country":"DEU","State":"Niedersachsen","County":"Braunschweig","City":"Braunschweig","District":"Braunschweig","Street":"Hildebrandstraße","HouseNumber":"16","PostalCode":"38112","AdditionalData":[{"value":"Deutschland","key":"CountryName"},{"value":"Niedersachsen","key":"StateName"},{"value":"Braunschweig","key":"CountyName"}]},"MapReference":{"ReferenceId":"51812045","Spot":0.88,"SideOfStreet":"left","CountryId":"20147700","StateId":"20151542","CountyId":"20151543","CityId":"20151544","DistrictId":"20151562","AddressId":"177583404","RoadLinkId":"36933192"}}},{"Relevance":1.0,"Distance":100.6,"MatchLevel":"houseNumber","MatchQuality":{"Country":1.0,"State":1.0,"County":1.0,"City":1.0,"District":1.0,"Street":[1.0],"HouseNumber":1.0,"PostalCode":1.0},"MatchType":"interpolated","Location":{"LocationId":"NT_jZ82oOFL3Ckui0-0aK8L8B_1A","LocationType":"point","DisplayPosition":{"Latitude":52.28665,"Longitude":10.53026},"MapView":{"TopLeft":{"Latitude":52.2877742,"Longitude":10.5284223},"BottomRight":{"Latitude":52.2855258,"Longitude":10.5320977}},"Address":{"Label":"Siegmundstraße 5, 38106 Braunschweig, Deutschland","Country":"DEU","State":"Niedersachsen","County":"Braunschweig","City":"Braunschweig","District":"Braunschweig","Street":"Siegmundstraße","HouseNumber":"5","PostalCode":"38106","AdditionalData":[{"value":"Deutschland","key":"CountryName"},{"value":"Niedersachsen","key":"StateName"},{"value":"Braunschweig","key":"CountyName"}]},"MapReference":{"ReferenceId":"51812002","Spot":0.25,"SideOfStreet":"left","CountryId":"20147700","StateId":"20151542","CountyId":"20151543","CityId":"20151544","DistrictId":"20151562","AddressId":"177667638","RoadLinkId":"37116760"}}},{"Relevance":1.0,"Distance":111.6,"MatchLevel":"houseNumber","MatchQuality":{"Country":1.0,"State":1.0,"County":1.0,"City":1.0,"District":1.0,"Street":[1.0],"HouseNumber":1.0,"PostalCode":1.0},"MatchType":"interpolated","Location":{"LocationId":"NT_BpqA53N3rwdEwanZCGi7uB_3A","LocationType":"point","DisplayPosition":{"Latitude":52.28852,"Longitude":10.5296},"MapView":{"TopLeft":{"Latitude":52.2896442,"Longitude":10.5277622},"BottomRight":{"Latitude":52.2873958,"Longitude":10.5314378}},"Address":{"Label":"Brunhildenstraße 7, 38112 Braunschweig, Deutschland","Country":"DEU","State":"Niedersachsen","County":"Braunschweig","City":"Braunschweig","District":"Braunschweig","Street":"Brunhildenstraße","HouseNumber":"7","PostalCode":"38112","AdditionalData":[{"value":"Deutschland","key":"CountryName"},{"value":"Niedersachsen","key":"StateName"},{"value":"Braunschweig","key":"CountyName"}]},"MapReference":{"ReferenceId":"51812008","Spot":0.0,"SideOfStreet":"left","CountryId":"20147700","StateId":"20151542","CountyId":"20151543","CityId":"20151544","DistrictId":"20151562","AddressId":"249850851","RoadLinkId":"37279087"}}},{"Relevance":1.0,"Distance":117.1,"MatchLevel":"houseNumber","MatchQuality":{"Country":1.0,"State":1.0,"County":1.0,"City":1.0,"District":1.0,"Street":[1.0],"HouseNumber":1.0,"PostalCode":1.0},"MatchType":"interpolated","Location":{"LocationId":"NT_jZ82oOFL3Ckui0-0aK8L8B_yEE","LocationType":"point","DisplayPosition":{"Latitude":52.28621,"Longitude":10.52923},"MapView":{"TopLeft":{"Latitude":52.2873342,"Longitude":10.5273923},"BottomRight":{"Latitude":52.2850858,"Longitude":10.5310677}},"Address":{"Label":"Siegmundstraße 2A, 38106 Braunschweig, Deutschland","Country":"DEU","State":"Niedersachsen","County":"Braunschweig","City":"Braunschweig","District":"Braunschweig","Street":"Siegmundstraße","HouseNumber":"2A","PostalCode":"38106","AdditionalData":[{"value":"Deutschland","key":"CountryName"},{"value":"Niedersachsen","key":"StateName"},{"value":"Braunschweig","key":"CountyName"}]},"MapReference":{"ReferenceId":"51811990","Spot":0.5,"SideOfStreet":"left","CountryId":"20147700","StateId":"20151542","CountyId":"20151543","CityId":"20151544","DistrictId":"20151562","AddressId":"177701703","RoadLinkId":"36453353"}}},{"Relevance":1.0,"Distance":130.6,"MatchLevel":"houseNumber","MatchQuality":{"Country":1.0,"State":1.0,"County":1.0,"City":1.0,"District":1.0,"Street":[1.0],"HouseNumber":1.0,"PostalCode":1.0},"MatchType":"interpolated","Location":{"LocationId":"NT_sd5n0i1620TrQeUUiVtzZA_0ID","LocationType":"point","DisplayPosition":{"Latitude":52.28785,"Longitude":10.52752},"MapView":{"TopLeft":{"Latitude":52.2889742,"Longitude":10.5256822},"BottomRight":{"Latitude":52.2867258,"Longitude":10.5293578}},"Address":{"Label":"Siegfriedstraße 42, 38106 Braunschweig, Deutschland","Country":"DEU","State":"Niedersachsen","County":"Braunschweig","City":"Braunschweig","District":"Braunschweig","Street":"Siegfriedstraße","HouseNumber":"42","PostalCode":"38106","AdditionalData":[{"value":"Deutschland","key":"CountryName"},{"value":"Niedersachsen","key":"StateName"},{"value":"Braunschweig","key":"CountyName"}]},"MapReference":{"ReferenceId":"1238185102","Spot":0.43,"SideOfStreet":"right","CountryId":"20147700","StateId":"20151542","CountyId":"20151543","CityId":"20151544","DistrictId":"20151562","AddressId":"181409602","RoadLinkId":"559000919"}}}]}]}}