{"Response":{"MetaInfo":{"Timestamp":"2020-03-31T17:04:02.171+0000","NextPageInformation":"2"},"View":[{"_type":"SearchResultsViewType","ViewId":0,"Result":[{"Relevance":1.0,"Distance":0.0,"Direction":0.0,"MatchLevel":"district","MatchQuality":{"Country":1.0,"County":1.0,"City":1.0,"District":1.0,"PostalCode":1.0},"Location":{"LocationId":"NT_NU4T-dTp4YexDMt7wGNi5D","LocationType":"point","DisplayPosition":{"Latitude":52.2704,"Longitude":-9.7026},"MapView":{"TopLeft":{"Latitude":52.29868,"Longitude":-9.73811},"BottomRight":{"Latitude":52.24839,"Longitude":-9.65667}},"Address":{"Label":"Tralee, Ireland","Country":"IRL","County":"County Kerry","City":"Tralee","District":"Tralee","AdditionalData":[{"value":"Ireland","key":"CountryName"},{"value":"County Kerry","key":"CountyName"}]},"MapReference":{"ReferenceId":"562698275","SideOfStreet":"neither","CountryId":"20403667","CountyId":"20411192","CityId":"20526458","DistrictId":"20527415"}}},{"Relevance":1.0,"Distance":33.2,"MatchLevel":"houseNumber","MatchQuality":{"Country":1.0,"County":1.0,"City":1.0,"District":1.0,"Street":[1.0],"HouseNumber":1.0,"PostalCode":1.0},"MatchType":"interpolated","Location":{"LocationId":"NT_igDGcKO.WLxU16weFTPtkC_xYD","LocationType":"point","DisplayPosition":{"Latitude":52.27062,"Longitude":-9.70293},"MapView":{"TopLeft":{"Latitude":52.2717442,"Longitude":-9.7047671},"BottomRight":{"Latitude":52.2694958,"Longitude":-9.7010929}},"Address":{"Label":"16 Ashe Street, Tralee, County Kerry, V92 D42Y, Ireland","Country":"IRL","County":"County Kerry","City":"Tralee","District":"Tralee","Street":"Ashe Street","HouseNumber":"16","PostalCode":"V92 D42Y","AdditionalData":[{"value":"Ireland","key":"CountryName"},{"value":"County Kerry","key":"CountyName"}]},"MapReference":{"ReferenceId":"869034805","Spot":0.0,"SideOfStreet":"right","CountryId":"20403667","CountyId":"20411192","CityId":"20526458","DistrictId":"20527415","AddressId":"214279272","RoadLinkId":"241549383"}}},{"Relevance":1.0,"Distance":33.4,"MatchLevel":"houseNumber","MatchQuality":{"Country":1.0,"County":1.0,"City":1.0,"District":1.0,"Street":[1.0],"HouseNumber":1.0,"PostalCode":1.0},"MatchType":"interpolated","Location":{"LocationId":"NT_igDGcKO.WLxU16weFTPtkC_xUD","LocationType":"point","DisplayPosition":{"Latitude":52.27059,"Longitude":-9.70298},"MapView":{"TopLeft":{"Latitude":52.2717142,"Longitude":-9.7048171},"BottomRight":{"Latitude":52.2694658,"Longitude":-9.7011429}},"Address":{"Label":"15 Ashe Street, Tralee, County Kerry, V92 WD56, Ireland","Country":"IRL","County":"County Kerry","City":"Tralee","District":"Tralee","Street":"Ashe Street","HouseNumber":"15","PostalCode":"V92 WD56","AdditionalData":[{"value":"Ireland","key":"CountryName"},{"value":"County Kerry","key":"CountyName"}]},"MapReference":{"ReferenceId":"590507432","Spot":0.92,"SideOfStreet":"right","CountryId":"20403667","CountyId":"20411192","CityId":"20526458","DistrictId":"20527415","AddressId":"214355649","RoadLinkId":"86733132"}}},{"Relevance":1.0,"Distance":34.6,"MatchLevel":"postalCode","MatchQuality":{"PostalCode":1.0},"MatchType":"interpolated","Location":{"LocationId":"NT_igDGcKO.WLxU16weFTPtkC_xYD","LocationType":"point","DisplayPosition":{"Latitude":52.27066,"Longitude":-9.70288},"MapView":{"TopLeft":{"Latitude":52.2796532,"Longitude":-9.7175764},"BottomRight":{"Latitude":52.2616668,"Longitude":-9.6881836}},"Address":{"Label":"V92 D76R, Tralee, Ireland","Country":"IRL","County":"County Kerry","City":"Tralee","PostalCode":"V92 D76R","AdditionalData":[{"value":"Ireland","key":"CountryName"},{"value":"County Kerry","key":"CountyName"}]},"MapReference":{"ReferenceId":"869034805","Spot":0.0,"SideOfStreet":"neither","CountryId":"20403667","CountyId":"20411192","CityId":"20526458"}}},{"Relevance":1.0,"Distance":35.7,"MatchLevel":"postalCode","MatchQuality":{"PostalCode":1.0},"MatchType":"interpolated","Location":{"LocationId":"NT_igDGcKO.WLxU16weFTPtkC_xUD","LocationType":"point","DisplayPosition":{"Latitude":52.27053,"Longitude":-9.70308},"MapView":{"TopLeft":{"Latitude":52.2795232,"Longitude":-9.7177764},"BottomRight":{"Latitude":52.2615368,"Longitude":-9.6883836}},"Address":{"Label":"V92 AY71, Tralee, Ireland","Country":"IRL","County":"County Kerry","City":"Tralee","PostalCode":"V92 AY71","AdditionalData":[{"value":"Ireland","key":"CountryName"},{"value":"County Kerry","key":"CountyName"}]},"MapReference":{"ReferenceId":"590507432","Spot":0.92,"SideOfStreet":"neither","CountryId":"20403667","CountyId":"20411192","CityId":"20526458"}}},{"Relevance":1.0,"Distance":42.2,"MatchLevel":"houseNumber","MatchQuality":{"Country":1.0,"County":1.0,"City":1.0,"District":1.0,"Street":[1.0],"PostalCode":1.0},"MatchType":"interpolated","Location":{"LocationId":"NT_iEws1kMVaWs0gIkpsBfXDA","LocationType":"point","DisplayPosition":{"Latitude":52.26996,"Longitude":-9.70196},"MapView":{"TopLeft":{"Latitude":52.2710842,"Longitude":-9.703797},"BottomRight":{"Latitude":52.2688358,"Longitude":-9.700123}},"Address":{"Label":"\"Duchas House\" Edward Street, Tralee, County Kerry, V92 W653, Ireland","Country":"IRL","County":"County Kerry","City":"Tralee","District":"Tralee","Street":"Edward Street","PostalCode":"V92 W653","AdditionalData":[{"value":"Ireland","key":"CountryName"},{"value":"County Kerry","key":"CountyName"}],"Building":"Duchas House"},"MapReference":{"ReferenceId":"780475182","Spot":0.74,"SideOfStreet":"left","CountryId":"20403667","CountyId":"20411192","CityId":"20526458","DistrictId":"20527415","AddressId":"743647765","RoadLinkId":"173761188"}}},{"Relevance":1.0,"Distance":44.8,"MatchLevel":"houseNumber","MatchQuality":{"Country":1.0,"County":1.0,"City":1.0,"District":1.0,"Street":[1.0],"HouseNumber":1.0,"PostalCode":1.0},"MatchType":"interpolated","Location":{"LocationId":"NT_7Ntt0HnbTJ0oMqon0UJb8D_zA","LocationType":"point","DisplayPosition":{"Latitude":52.2707,"Longitude":-9.70304},"MapView":{"TopLeft":{"Latitude":52.2718242,"Longitude":-9.7048771},"BottomRight":{"Latitude":52.2695758,"Longitude":-9.7012029}},"Address":{"Label":"3 Church Terrace, Tralee, County Kerry, V92, Ireland","Country":"IRL","County":"County Kerry","City":"Tralee","District":"Tralee","Street":"Church Terrace","HouseNumber":"3","PostalCode":"V92","AdditionalData":[{"value":"Ireland","key":"CountryName"},{"value":"County Kerry","key":"CountyName"}]},"MapReference":{"ReferenceId":"590507433","Spot":1.0,"SideOfStreet":"left","CountryId":"20403667","CountyId":"20411192","CityId":"20526458","DistrictId":"20527415","AddressId":"214247332","RoadLinkId":"86701175"}}},{"Relevance":1.0,"Distance":48.5,"MatchLevel":"houseNumber","MatchQuality":{"Country":1.0,"County":1.0,"City":1.0,"District":1.0,"Street":[1.0],"PostalCode":1.0},"MatchType":"interpolated","Location":{"LocationId":"NT_iEws1kMVaWs0gIkpsBfXDA","LocationType":"point","DisplayPosition":{"Latitude":52.27022,"Longitude":-9.70191},"MapView":{"TopLeft":{"Latitude":52.2713442,"Longitude":-9.703747},"BottomRight":{"Latitude":52.2690958,"Longitude":-9.700073}},"Address":{"Label":"\"Edward Court\" Edward Street, Tralee, County Kerry, V92, Ireland","Country":"IRL","County":"County Kerry","City":"Tralee","District":"Tralee","Street":"Edward Street","PostalCode":"V92","AdditionalData":[{"value":"Ireland","key":"CountryName"},{"value":"County Kerry","key":"CountyName"}],"Building":"Edward Court"},"MapReference":{"ReferenceId":"562698202","Spot":1.0,"SideOfStreet":"right","CountryId":"20403667","CountyId":"20411192","CityId":"20526458","DistrictId":"20527415","AddressId":"358855622","RoadLinkId":"86700710"}}},{"Relevance":1.0,"Distance":55.2,"MatchLevel":"houseNumber","MatchQuality":{"Country":1.0,"County":1.0,"City":1.0,"District":1.0,"Street":[1.0],"HouseNumber":1.0,"PostalCode":1.0},"MatchType":"interpolated","Location":{"LocationId":"NT_igDGcKO.WLxU16weFTPtkC_yID","LocationType":"point","DisplayPosition":{"Latitude":52.27092,"Longitude":-9.70242},"MapView":{"TopLeft":{"Latitude":52.2720442,"Longitude":-9.7042571},"BottomRight":{"Latitude":52.2697958,"Longitude":-9.7005829}},"Address":{"Label":"22 Ashe Street, Tralee, County Kerry, V92 VW22, Ireland","Country":"IRL","County":"County Kerry","City":"Tralee","District":"Tralee","Street":"Ashe Street","HouseNumber":"22","PostalCode":"V92 VW22","AdditionalData":[{"value":"Ireland","key":"CountryName"},{"value":"County Kerry","key":"CountyName"}]},"MapReference":{"ReferenceId":"869034806","Spot":0.04,"SideOfStreet":"right","CountryId":"20403667","CountyId":"20411192","CityId":"20526458","DistrictId":"20527415","AddressId":"743561707","RoadLinkId":"241549384"}}},{"Relevance":1.0,"Distance":63.0,"MatchLevel":"houseNumber","MatchQuality":{"Country":1.0,"County":1.0,"City":1.0,"District":1.0,"Street":[1.0],"HouseNumber":1.0,"PostalCode":1.0},"MatchType":"interpolated","Location":{"LocationId":"NT_igDGcKO.WLxU16weFTPtkC_4A","LocationType":"point","DisplayPosition":{"Latitude":52.27025,"Longitude":-9.70356},"MapView":{"TopLeft":{"Latitude":52.2713742,"Longitude":-9.705397},"BottomRight":{"Latitude":52.2691258,"Longitude":-9.701723}},"Address":{"Label":"8 Ashe Street, Tralee, County Kerry, V92 C9CV, Ireland","Country":"IRL","County":"County Kerry","City":"Tralee","District":"Tralee","Street":"Ashe Street","HouseNumber":"8","PostalCode":"V92 C9CV","AdditionalData":[{"value":"Ireland","key":"CountryName"},{"value":"County Kerry","key":"CountyName"}]},"MapReference":{"ReferenceId":"590507424","Spot":1.0,"SideOfStreet":"right","CountryId":"20403667","CountyId":"20411192","CityId":"20526458","DistrictId":"20527415","AddressId":"214814910","RoadLinkId":"86588921"}}}]}]}}