{"Response":{"MetaInfo":{"Timestamp":"2020-03-28T10:49:26.681+0000","NextPageInformation":"2"},"View":[{"_type":"SearchResultsViewType","ViewId":0,"Result":[{"Relevance":1.0,"Distance":0.0,"Direction":0.0,"MatchLevel":"district","MatchQuality":{"Country":1.0,"State":1.0,"County":1.0,"City":1.0,"District":1.0,"Subdistrict":1.0,"PostalCode":1.0},"Location":{"LocationId":"NT_kJFeOsS7jdEBvAlhgng.9C","LocationType":"point","DisplayPosition":{"Latitude":52.2324991,"Longitude":21.0595451},"MapView":{"TopLeft":{"Latitude":52.2407,"Longitude":21.04287},"BottomRight":{"Latitude":52.21728,"Longitude":21.08131}},"Address":{"Label":"Saska Kępa, Praga-Południe, Warszawa, Woj. Mazowieckie, Polska","Country":"POL","State":"Woj. Mazowieckie","County":"Warszawa","City":"Warszawa","District":"Praga-Południe","Subdistrict":"Saska Kępa","PostalCode":"03-914","AdditionalData":[{"value":"Polska","key":"CountryName"},{"value":"Woj. Mazowieckie","key":"StateName"},{"value":"Warszawa","key":"CountyName"}]},"MapReference":{"ReferenceId":"878273858","SideOfStreet":"neither","CountryId":"20624059","StateId":"20627182","CountyId":"20627769","CityId":"20627780","DistrictId":"20633157"}}},{"Relevance":1.0,"Distance":17.9,"MatchLevel":"houseNumber","MatchQuality":{"Country":1.0,"State":1.0,"County":1.0,"City":1.0,"District":1.0,"Subdistrict":1.0,"Street":[1.0],"HouseNumber":1.0,"PostalCode":1.0},"MatchType":"interpolated","Location":{"LocationId":"NT_etpmXSqeAyiyq48HPwe3yB_yA","LocationType":"point","DisplayPosition":{"Latitude":52.23262,"Longitude":21.05931},"MapView":{"TopLeft":{"Latitude":52.2337442,"Longitude":21.0574745},"BottomRight":{"Latitude":52.2314958,"Longitude":21.0611455}},"Address":{"Label":"ulica Alfreda Nobla 2, 03-930 Warszawa, Polska","Country":"POL","State":"Woj. Mazowieckie","County":"Warszawa","City":"Warszawa","District":"Praga-Południe","Subdistrict":"Saska Kępa","Street":"ulica Alfreda Nobla","HouseNumber":"2","PostalCode":"03-930","AdditionalData":[{"value":"Polska","key":"CountryName"},{"value":"Woj. Mazowieckie","key":"StateName"},{"value":"Warszawa","key":"CountyName"}]},"MapReference":{"ReferenceId":"1163052247","Spot":0.37,"SideOfStreet":"right","CountryId":"20624059","StateId":"20627182","CountyId":"20627769","CityId":"20627780","DistrictId":"20633157","AddressId":"731806820","RoadLinkId":"469446274"}}},{"Relevance":1.0,"Distance":21.2,"MatchLevel":"street","MatchQuality":{"Country":1.0,"State":1.0,"County":1.0,"City":1.0,"District":1.0,"Subdistrict":1.0,"Street":[1.0],"PostalCode":1.0},"Location":{"LocationId":"NT_etpmXSqeAyiyq48HPwe3yB_l_1163052246_R","LocationType":"point","DisplayPosition":{"Latitude":52.23232,"Longitude":21.05944},"MapView":{"TopLeft":{"Latitude":52.23232,"Longitude":21.05944},"BottomRight":{"Latitude":52.2322,"Longitude":21.05947}},"Address":{"Label":"ulica Alfreda Nobla, 03-930 Warszawa, Polska","Country":"POL","State":"Woj. Mazowieckie","County":"Warszawa","City":"Warszawa","District":"Praga-Południe","Subdistrict":"Saska Kępa","Street":"ulica Alfreda Nobla","PostalCode":"03-930","AdditionalData":[{"value":"Polska","key":"CountryName"},{"value":"Woj. Mazowieckie","key":"StateName"},{"value":"Warszawa","key":"CountyName"}]},"MapReference":{"ReferenceId":"1163052246","Spot":1.0,"SideOfStreet":"right","CountryId":"20624059","StateId":"20627182","CountyId":"20627769","CityId":"20627780","DistrictId":"20633157"}}},{"Relevance":1.0,"Distance":31.8,"MatchLevel":"street","MatchQuality":{"Country":1.0,"State":1.0,"County":1.0,"City":1.0,"District":1.0,"Subdistrict":1.0,"Street":[1.0],"PostalCode":1.0},"Location":{"LocationId":"NT_k.5-FsE4XD-pgT9RXv0EbB_l_863888634_L","LocationType":"point","DisplayPosition":{"Latitude":52.2322141,"Longitude":21.0595813},"MapView":{"TopLeft":{"Latitude":52.23228,"Longitude":21.05947},"BottomRight":{"Latitude":52.2322,"Longitude":21.0601}},"Address":{"Label":"ulica Zwycięzców, 03-938 Warszawa, Polska","Country":"POL","State":"Woj. Mazowieckie","County":"Warszawa","City":"Warszawa","District":"Praga-Południe","Subdistrict":"Saska Kępa","Street":"ulica Zwycięzców","PostalCode":"03-938","AdditionalData":[{"value":"Polska","key":"CountryName"},{"value":"Woj. Mazowieckie","key":"StateName"},{"value":"Warszawa","key":"CountyName"}]},"MapReference":{"ReferenceId":"863888634","Spot":0.18,"SideOfStreet":"left","CountryId":"20624059","StateId":"20627182","CountyId":"20627769","CityId":"20627780","DistrictId":"20633157"}}},{"Relevance":1.0,"Distance":33.6,"MatchLevel":"street","MatchQuality":{"Country":1.0,"State":1.0,"County":1.0,"City":1.0,"District":1.0,"Subdistrict":1.0,"PostalCode":1.0},"Location":{"LocationId":"NT_84TT3JaMpMaoNrfTV1sXcD_l_828261782_R","LocationType":"point","DisplayPosition":{"Latitude":52.2322,"Longitude":21.05947},"MapView":{"TopLeft":{"Latitude":52.2322,"Longitude":21.05947},"BottomRight":{"Latitude":52.23211,"Longitude":21.0595}},"Address":{"Label":"03-949 Warszawa, Polska","Country":"POL","State":"Woj. Mazowieckie","County":"Warszawa","City":"Warszawa","District":"Praga-Południe","Subdistrict":"Saska Kępa","PostalCode":"03-949","AdditionalData":[{"value":"Polska","key":"CountryName"},{"value":"Woj. Mazowieckie","key":"StateName"},{"value":"Warszawa","key":"CountyName"}]},"MapReference":{"ReferenceId":"828261782","Spot":1.0,"SideOfStreet":"right","CountryId":"20624059","StateId":"20627182","CountyId":"20627769","CityId":"20627780","DistrictId":"20633157"}}},{"Relevance":1.0,"Distance":33.9,"MatchLevel":"houseNumber","MatchQuality":{"Country":1.0,"State":1.0,"County":1.0,"City":1.0,"District":1.0,"Subdistrict":1.0,"Street":[1.0],"HouseNumber":1.0,"PostalCode":1.0},"MatchType":"interpolated","Location":{"LocationId":"NT_JCNFxraCcDoqhbtoFTaBFD_zkD","LocationType":"point","DisplayPosition":{"Latitude":52.23216,"Longitude":21.05918},"MapView":{"TopLeft":{"Latitude":52.2332842,"Longitude":21.0573445},"BottomRight":{"Latitude":52.2310358,"Longitude":21.0610155}},"Address":{"Label":"ulica Zwycięzców 39, 03-929 Warszawa, Polska","Country":"POL","State":"Woj. Mazowieckie","County":"Warszawa","City":"Warszawa","District":"Praga-Południe","Subdistrict":"Saska Kępa","Street":"ulica Zwycięzców","HouseNumber":"39","PostalCode":"03-929","AdditionalData":[{"value":"Polska","key":"CountryName"},{"value":"Woj. Mazowieckie","key":"StateName"},{"value":"Warszawa","key":"CountyName"}]},"MapReference":{"ReferenceId":"863888629","Spot":0.27,"SideOfStreet":"left","CountryId":"20624059","StateId":"20627182","CountyId":"20627769","CityId":"20627780","DistrictId":"20633157","AddressId":"222138049","RoadLinkId":"237406052"}}},{"Relevance":1.0,"Distance":42.6,"MatchLevel":"street","MatchQuality":{"Country":1.0,"State":1.0,"County":1.0,"City":1.0,"District":1.0,"Subdistrict":1.0,"PostalCode":1.0},"Location":{"LocationId":"NT_84TT3JaMpMaoNrfTV1sXcD_l_828261781_L","LocationType":"point","DisplayPosition":{"Latitude":52.232116,"Longitude":21.0595755},"MapView":{"TopLeft":{"Latitude":52.23216,"Longitude":21.0595},"BottomRight":{"Latitude":52.23211,"Longitude":21.06013}},"Address":{"Label":"03-949 Warszawa, Polska","Country":"POL","State":"Woj. Mazowieckie","County":"Warszawa","City":"Warszawa","District":"Praga-Południe","Subdistrict":"Saska Kępa","PostalCode":"03-949","AdditionalData":[{"value":"Polska","key":"CountryName"},{"value":"Woj. Mazowieckie","key":"StateName"},{"value":"Warszawa","key":"CountyName"}]},"MapReference":{"ReferenceId":"828261781","Spot":0.12,"SideOfStreet":"left","CountryId":"20624059","StateId":"20627182","CountyId":"20627769","CityId":"20627780","DistrictId":"20633157"}}},{"Relevance":1.0,"Distance":43.4,"MatchLevel":"street","MatchQuality":{"Country":1.0,"State":1.0,"County":1.0,"City":1.0,"District":1.0,"Subdistrict":1.0,"PostalCode":1.0},"Location":{"LocationId":"NT_84TT3JaMpMaoNrfTV1sXcD_l_863888631_L","LocationType":"point","DisplayPosition":{"Latitude":52.23211,"Longitude":21.0595},"MapView":{"TopLeft":{"Latitude":52.23211,"Longitude":21.0591},"BottomRight":{"Latitude":52.23206,"Longitude":21.0595}},"Address":{"Label":"03-949 Warszawa, Polska","Country":"POL","State":"Woj. Mazowieckie","County":"Warszawa","City":"Warszawa","District":"Praga-Południe","Subdistrict":"Saska Kępa","PostalCode":"03-949","AdditionalData":[{"value":"Polska","key":"CountryName"},{"value":"Woj. Mazowieckie","key":"StateName"},{"value":"Warszawa","key":"CountyName"}]},"MapReference":{"ReferenceId":"863888631","Spot":1.0,"SideOfStreet":"left","CountryId":"20624059","StateId":"20627182","CountyId":"20627769","CityId":"20627780","DistrictId":"20633157"}}},{"Relevance":1.0,"Distance":45.0,"MatchLevel":"street","MatchQuality":{"Country":1.0,"State":1.0,"County":1.0,"City":1.0,"District":1.0,"Subdistrict":1.0,"Street":[1.0],"PostalCode":1.0},"Location":{"LocationId":"NT_k.5-FsE4XD-pgT9RXv0EbB_l_863888635_L","LocationType":"point","DisplayPosition":{"Latitude":52.23228,"Longitude":21.0601},"MapView":{"TopLeft":{"Latitude":52.2323,"Longitude":21.0601},"BottomRight":{"Latitude":52.23228,"Longitude":21.06027}},"Address":{"Label":"ulica Zwycięzców, 03-938 Warszawa, Polska","Country":"POL","State":"Woj. Mazowieckie","County":"Warszawa","City":"Warszawa","District":"Praga-Południe","Subdistrict":"Saska Kępa","Street":"ulica Zwycięzców","PostalCode":"03-938","AdditionalData":[{"value":"Polska","key":"CountryName"},{"value":"Woj. Mazowieckie","key":"StateName"},{"value":"Warszawa","key":"CountyName"}]},"MapReference":{"ReferenceId":"863888635","Spot":0.0,"SideOfStreet":"left","CountryId":"20624059","StateId":"20627182","CountyId":"20627769","CityId":"20627780","DistrictId":"20633157"}}},{"Relevance":1.0,"Distance":45.0,"MatchLevel":"street","MatchQuality":{"Country":1.0,"State":1.0,"County":1.0,"City":1.0,"District":1.0,"Subdistrict":1.0,"PostalCode":1.0},"Location":{"LocationId":"NT_fKIv3YY3.Wj7wIhrJQGbKA_l_863888636_L","LocationType":"point","DisplayPosition":{"Latitude":52.23228,"Longitude":21.0601},"MapView":{"TopLeft":{"Latitude":52.23228,"Longitude":21.0601},"BottomRight":{"Latitude":52.23216,"Longitude":21.06013}},"Address":{"Label":"03-938 Warszawa, Polska","Country":"POL","State":"Woj. Mazowieckie","County":"Warszawa","City":"Warszawa","District":"Praga-Południe","Subdistrict":"Saska Kępa","PostalCode":"03-938","AdditionalData":[{"value":"Polska","key":"CountryName"},{"value":"Woj. Mazowieckie","key":"StateName"},{"value":"Warszawa","key":"CountyName"}]},"MapReference":{"ReferenceId":"863888636","Spot":1.0,"SideOfStreet":"left","CountryId":"20624059","StateId":"20627182","CountyId":"20627769","CityId":"20627780","DistrictId":"20633157"}}}]}]}}