{"Response":{"MetaInfo":{"Timestamp":"2020-03-28T10:06:07.174+0000","NextPageInformation":"2"},"View":[{"_type":"SearchResultsViewType","ViewId":0,"Result":[{"Relevance":1.0,"Distance":0.0,"Direction":0.0,"MatchLevel":"district","MatchQuality":{"Country":1.0,"State":1.0,"County":1.0,"City":1.0,"District":1.0,"PostalCode":1.0},"Location":{"LocationId":"NT_EBJXkwOGGSle.3VrS3QKhC","LocationType":"point","DisplayPosition":{"Latitude":52.2527055,"Longitude":10.8242057},"MapView":{"TopLeft":{"Latitude":52.26515,"Longitude":10.79474},"BottomRight":{"Latitude":52.24062,"Longitude":10.83132}},"Address":{"Label":"Königslutter am Elm, Niedersachsen, Deutschland","Country":"DEU","State":"Niedersachsen","County":"Helmstedt","City":"Königslutter am Elm","District":"Königslutter am Elm","PostalCode":"38154","AdditionalData":[{"value":"Deutschland","key":"CountryName"},{"value":"Niedersachsen","key":"StateName"},{"value":"Helmstedt","key":"CountyName"}]},"MapReference":{"ReferenceId":"51756727","SideOfStreet":"neither","CountryId":"20147700","StateId":"20151542","CountyId":"20152115","CityId":"20152160","DistrictId":"20152172"}}},{"Relevance":1.0,"Distance":6.4,"MatchLevel":"houseNumber","MatchQuality":{"Country":1.0,"State":1.0,"County":1.0,"City":1.0,"District":1.0,"Street":[1.0],"HouseNumber":1.0,"PostalCode":1.0},"MatchType":"interpolated","Location":{"LocationId":"NT_cNNdocC-kcToby1FrzibCA_2IE","LocationType":"point","DisplayPosition":{"Latitude":52.25266,"Longitude":10.82403},"MapView":{"TopLeft":{"Latitude":52.2537842,"Longitude":10.8221937},"BottomRight":{"Latitude":52.2515358,"Longitude":10.8258663}},"Address":{"Label":"Arndtstraße 6B, 38154 Königslutter am Elm, Deutschland","Country":"DEU","State":"Niedersachsen","County":"Helmstedt","City":"Königslutter am Elm","District":"Königslutter am Elm","Street":"Arndtstraße","HouseNumber":"6B","PostalCode":"38154","AdditionalData":[{"value":"Deutschland","key":"CountryName"},{"value":"Niedersachsen","key":"StateName"},{"value":"Helmstedt","key":"CountyName"}]},"MapReference":{"ReferenceId":"875167771","Spot":0.47,"SideOfStreet":"right","CountryId":"20147700","StateId":"20151542","CountyId":"20152115","CityId":"20152160","DistrictId":"20152172","AddressId":"181205028","RoadLinkId":"245990540"}}},{"Relevance":1.0,"Distance":27.7,"MatchLevel":"street","MatchQuality":{"Country":1.0,"State":1.0,"County":1.0,"City":1.0,"District":1.0,"Street":[1.0],"PostalCode":1.0},"Location":{"LocationId":"NT_cNNdocC-kcToby1FrzibCA_l_875167770_R","LocationType":"point","DisplayPosition":{"Latitude":52.25249,"Longitude":10.82441},"MapView":{"TopLeft":{"Latitude":52.25249,"Longitude":10.82441},"BottomRight":{"Latitude":52.25199,"Longitude":10.82509}},"Address":{"Label":"Arndtstraße, 38154 Königslutter am Elm, Deutschland","Country":"DEU","State":"Niedersachsen","County":"Helmstedt","City":"Königslutter am Elm","District":"Königslutter am Elm","Street":"Arndtstraße","PostalCode":"38154","AdditionalData":[{"value":"Deutschland","key":"CountryName"},{"value":"Niedersachsen","key":"StateName"},{"value":"Helmstedt","key":"CountyName"}]},"MapReference":{"ReferenceId":"875167770","Spot":1.0,"SideOfStreet":"right","CountryId":"20147700","StateId":"20151542","CountyId":"20152115","CityId":"20152160","DistrictId":"20152172"}}},{"Relevance":1.0,"Distance":36.1,"MatchLevel":"houseNumber","MatchQuality":{"Country":1.0,"State":1.0,"County":1.0,"City":1.0,"District":1.0,"Street":[1.0],"HouseNumber":1.0,"PostalCode":1.0},"MatchType":"interpolated","Location":{"LocationId":"NT_4jRmijQAyyRMwcCAyzyJ-A_5A","LocationType":"point","DisplayPosition":{"Latitude":52.25252,"Longitude":10.82359},"MapView":{"TopLeft":{"Latitude":52.2536442,"Longitude":10.8217537},"BottomRight":{"Latitude":52.2513958,"Longitude":10.8254263}},"Address":{"Label":"Am Dönnekenberg 9, 38154 Königslutter am Elm, Deutschland","Country":"DEU","State":"Niedersachsen","County":"Helmstedt","City":"Königslutter am Elm","District":"Königslutter am Elm","Street":"Am Dönnekenberg","HouseNumber":"9","PostalCode":"38154","AdditionalData":[{"value":"Deutschland","key":"CountryName"},{"value":"Niedersachsen","key":"StateName"},{"value":"Helmstedt","key":"CountyName"}]},"MapReference":{"ReferenceId":"586487824","Spot":0.72,"SideOfStreet":"right","CountryId":"20147700","StateId":"20151542","CountyId":"20152115","CityId":"20152160","DistrictId":"20152172","AddressId":"181177541","RoadLinkId":"36663393"}}},{"Relevance":1.0,"Distance":64.3,"MatchLevel":"houseNumber","MatchQuality":{"Country":1.0,"State":1.0,"County":1.0,"City":1.0,"District":1.0,"Street":[1.0],"HouseNumber":1.0,"PostalCode":1.0},"MatchType":"interpolated","Location":{"LocationId":"NT_cNNdocC-kcToby1FrzibCA_2EE","LocationType":"point","DisplayPosition":{"Latitude":52.25291,"Longitude":10.82336},"MapView":{"TopLeft":{"Latitude":52.2540342,"Longitude":10.8215237},"BottomRight":{"Latitude":52.2517858,"Longitude":10.8251963}},"Address":{"Label":"Arndtstraße 6A, 38154 Königslutter am Elm, Deutschland","Country":"DEU","State":"Niedersachsen","County":"Helmstedt","City":"Königslutter am Elm","District":"Königslutter am Elm","Street":"Arndtstraße","HouseNumber":"6A","PostalCode":"38154","AdditionalData":[{"value":"Deutschland","key":"CountryName"},{"value":"Niedersachsen","key":"StateName"},{"value":"Helmstedt","key":"CountyName"}]},"MapReference":{"ReferenceId":"68153947","Spot":0.12,"SideOfStreet":"right","CountryId":"20147700","StateId":"20151542","CountyId":"20152115","CityId":"20152160","DistrictId":"20152172","AddressId":"177695983","RoadLinkId":"36344923"}}},{"Relevance":1.0,"Distance":89.9,"MatchLevel":"houseNumber","MatchQuality":{"Country":1.0,"State":1.0,"County":1.0,"City":1.0,"District":1.0,"Street":[1.0],"HouseNumber":1.0,"PostalCode":1.0},"MatchType":"interpolated","Location":{"LocationId":"NT_IPCU0JD.GO5ySKCxA2f.hD_0EE","LocationType":"point","DisplayPosition":{"Latitude":52.25185,"Longitude":10.82465},"MapView":{"TopLeft":{"Latitude":52.2529742,"Longitude":10.8228137},"BottomRight":{"Latitude":52.2507258,"Longitude":10.8264863}},"Address":{"Label":"Rottorfer Straße 4A, 38154 Königslutter am Elm, Deutschland","Country":"DEU","State":"Niedersachsen","County":"Helmstedt","City":"Königslutter am Elm","District":"Königslutter am Elm","Street":"Rottorfer Straße","HouseNumber":"4A","PostalCode":"38154","AdditionalData":[{"value":"Deutschland","key":"CountryName"},{"value":"Niedersachsen","key":"StateName"},{"value":"Helmstedt","key":"CountyName"}]},"MapReference":{"ReferenceId":"68153951","Spot":0.75,"SideOfStreet":"left","CountryId":"20147700","StateId":"20151542","CountyId":"20152115","CityId":"20152160","DistrictId":"20152172","AddressId":"178510017","RoadLinkId":"36867769"}}},{"Relevance":1.0,"Distance":99.8,"MatchLevel":"street","MatchQuality":{"Country":1.0,"State":1.0,"County":1.0,"City":1.0,"District":1.0,"Street":[1.0],"PostalCode":1.0},"Location":{"LocationId":"NT_L.uII7BR8xMdzHhBoXiJNC_l_1233469119_L","LocationType":"point","DisplayPosition":{"Latitude":52.25199,"Longitude":10.82509},"MapView":{"TopLeft":{"Latitude":52.25205,"Longitude":10.82509},"BottomRight":{"Latitude":52.25199,"Longitude":10.8253}},"Address":{"Label":"Rottorfer Straße, 38154 Königslutter am Elm, Deutschland","Country":"DEU","State":"Niedersachsen","County":"Helmstedt","City":"Königslutter am Elm","District":"Königslutter am Elm","Street":"Rottorfer Straße","PostalCode":"38154","AdditionalData":[{"value":"Deutschland","key":"CountryName"},{"value":"Niedersachsen","key":"StateName"},{"value":"Helmstedt","key":"CountyName"}]},"MapReference":{"ReferenceId":"1233469119","Spot":0.0,"SideOfStreet":"left","CountryId":"20147700","StateId":"20151542","CountyId":"20152115","CityId":"20152160","DistrictId":"20152172"}}},{"Relevance":1.0,"Distance":104.2,"MatchLevel":"street","MatchQuality":{"Country":1.0,"State":1.0,"County":1.0,"City":1.0,"District":1.0,"Street":[1.0],"PostalCode":1.0},"Location":{"LocationId":"NT_L.uII7BR8xMdzHhBoXiJNC_l_1233469120_L","LocationType":"point","DisplayPosition":{"Latitude":52.25205,"Longitude":10.8253},"MapView":{"TopLeft":{"Latitude":52.25223,"Longitude":10.8253},"BottomRight":{"Latitude":52.25205,"Longitude":10.82588}},"Address":{"Label":"Rottorfer Straße, 38154 Königslutter am Elm, Deutschland","Country":"DEU","State":"Niedersachsen","County":"Helmstedt","City":"Königslutter am Elm","District":"Königslutter am Elm","Street":"Rottorfer Straße","PostalCode":"38154","AdditionalData":[{"value":"Deutschland","key":"CountryName"},{"value":"Niedersachsen","key":"StateName"},{"value":"Helmstedt","key":"CountyName"}]},"MapReference":{"ReferenceId":"1233469120","Spot":0.0,"SideOfStreet":"left","CountryId":"20147700","StateId":"20151542","CountyId":"20152115","CityId":"20152160","DistrictId":"20152172"}}},{"Relevance":1.0,"Distance":104.2,"MatchLevel":"street","MatchQuality":{"Country":1.0,"State":1.0,"County":1.0,"City":1.0,"PostalCode":1.0},"Location":{"LocationId":"NT_ODQIENK42B9Rt.k7Sl2..A_l_1233469125_L","LocationType":"point","DisplayPosition":{"Latitude":52.25205,"Longitude":10.8253},"MapView":{"TopLeft":{"Latitude":52.25205,"Longitude":10.8253},"BottomRight":{"Latitude":52.25191,"Longitude":10.82542}},"Address":{"Label":"38154 Königslutter am Elm, Deutschland","Country":"DEU","State":"Niedersachsen","County":"Helmstedt","City":"Königslutter am Elm","PostalCode":"38154","AdditionalData":[{"value":"Deutschland","key":"CountryName"},{"value":"Niedersachsen","key":"StateName"},{"value":"Helmstedt","key":"CountyName"}]},"MapReference":{"ReferenceId":"1233469125","Spot":1.0,"SideOfStreet":"left","CountryId":"20147700","StateId":"20151542","CountyId":"20152115","CityId":"20152160"}}},{"Relevance":1.0,"Distance":121.1,"MatchLevel":"street","MatchQuality":{"Country":1.0,"State":1.0,"County":1.0,"City":1.0,"District":1.0,"PostalCode":1.0},"Location":{"LocationId":"NT_QOmHfT6A1meRLbAbmF00xC_l_1233469124_L","LocationType":"point","DisplayPosition":{"Latitude":52.25191,"Longitude":10.82542},"MapView":{"TopLeft":{"Latitude":52.25191,"Longitude":10.82542},"BottomRight":{"Latitude":52.25126,"Longitude":10.82581}},"Address":{"Label":"38154 Königslutter am Elm, Deutschland","Country":"DEU","State":"Niedersachsen","County":"Helmstedt","City":"Königslutter am Elm","District":"Königslutter am Elm","PostalCode":"38154","AdditionalData":[{"value":"Deutschland","key":"CountryName"},{"value":"Niedersachsen","key":"StateName"},{"value":"Helmstedt","key":"CountyName"}]},"MapReference":{"ReferenceId":"1233469124","Spot":1.0,"SideOfStreet":"left","CountryId":"20147700","StateId":"20151542","CountyId":"20152115","CityId":"20152160","DistrictId":"20152172"}}}]}]}}