{"Response":{"MetaInfo":{"Timestamp":"2020-03-28T10:48:38.623+0000","NextPageInformation":"2"},"View":[{"_type":"SearchResultsViewType","ViewId":0,"Result":[{"Relevance":1.0,"Distance":0.0,"Direction":0.0,"MatchLevel":"district","MatchQuality":{"Country":1.0,"State":1.0,"County":1.0,"City":1.0,"District":1.0,"PostalCode":1.0},"Location":{"LocationId":"NT_tEex0yMtvzgIOvUw7aZmGD","LocationType":"point","DisplayPosition":{"Latitude":52.2514792,"Longitude":17.0853065},"MapView":{"TopLeft":{"Latitude":52.25732,"Longitude":17.07568},"BottomRight":{"Latitude":52.21976,"Longitude":17.10689}},"Address":{"Label":"Kórnik, Woj. Wielkopolskie, Polska","Country":"POL","State":"Woj. Wielkopolskie","County":"Powiat Poznański","City":"Kórnik","District":"Kórnik","PostalCode":"62-035","AdditionalData":[{"value":"Polska","key":"CountryName"},{"value":"Woj. Wielkopolskie","key":"StateName"},{"value":"Powiat Poznański","key":"CountyName"}]},"MapReference":{"ReferenceId":"595424184","SideOfStreet":"neither","CountryId":"20624059","StateId":"20629915","CountyId":"20631712","CityId":"20631723","DistrictId":"20697155"}}},{"Relevance":1.0,"Distance":9.3,"MatchLevel":"street","MatchQuality":{"Country":1.0,"State":1.0,"County":1.0,"City":1.0,"District":1.0,"Street":[1.0],"PostalCode":1.0},"Location":{"LocationId":"NT_K-8B7qjsrDkvOxDVmxHG8A_l_1069992209_L","LocationType":"point","DisplayPosition":{"Latitude":52.25154,"Longitude":17.0854},"MapView":{"TopLeft":{"Latitude":52.25169,"Longitude":17.0854},"BottomRight":{"Latitude":52.25141,"Longitude":17.08581}},"Address":{"Label":"ulica Poznańska, 62-035 Kórnik, Polska","Country":"POL","State":"Woj. Wielkopolskie","County":"Powiat Poznański","City":"Kórnik","District":"Kórnik","Street":"ulica Poznańska","PostalCode":"62-035","AdditionalData":[{"value":"Polska","key":"CountryName"},{"value":"Woj. Wielkopolskie","key":"StateName"},{"value":"Powiat Poznański","key":"CountyName"}]},"MapReference":{"ReferenceId":"1069992209","Spot":0.29,"SideOfStreet":"left","CountryId":"20624059","StateId":"20629915","CountyId":"20631712","CityId":"20631723","DistrictId":"20697155"}}},{"Relevance":1.0,"Distance":19.4,"MatchLevel":"houseNumber","MatchQuality":{"Country":1.0,"State":1.0,"County":1.0,"City":1.0,"District":1.0,"Street":[1.0],"HouseNumber":1.0,"PostalCode":1.0},"MatchType":"interpolated","Location":{"LocationId":"NT_K-8B7qjsrDkvOxDVmxHG8A_zQTQ","LocationType":"point","DisplayPosition":{"Latitude":52.25122,"Longitude":17.08429},"MapView":{"TopLeft":{"Latitude":52.2523442,"Longitude":17.0824538},"BottomRight":{"Latitude":52.2500958,"Longitude":17.0861262}},"Address":{"Label":"ulica Poznańska 34A, 62-035 Kórnik, Polska","Country":"POL","State":"Woj. Wielkopolskie","County":"Powiat Poznański","City":"Kórnik","District":"Kórnik","Street":"ulica Poznańska","HouseNumber":"34A","PostalCode":"62-035","AdditionalData":[{"value":"Polska","key":"CountryName"},{"value":"Woj. Wielkopolskie","key":"StateName"},{"value":"Powiat Poznański","key":"CountyName"}]},"MapReference":{"ReferenceId":"1091921211","Spot":0.11,"SideOfStreet":"right","CountryId":"20624059","StateId":"20629915","CountyId":"20631712","CityId":"20631723","DistrictId":"20697155","AddressId":"210759986","RoadLinkId":"406854961"}}},{"Relevance":1.0,"Distance":20.1,"MatchLevel":"street","MatchQuality":{"Country":1.0,"State":1.0,"County":1.0,"City":1.0,"District":1.0,"Street":[1.0],"PostalCode":1.0},"Location":{"LocationId":"NT_K-8B7qjsrDkvOxDVmxHG8A_l_1069992208_L","LocationType":"point","DisplayPosition":{"Latitude":52.25141,"Longitude":17.08558},"MapView":{"TopLeft":{"Latitude":52.25153,"Longitude":17.08558},"BottomRight":{"Latitude":52.25141,"Longitude":17.08581}},"Address":{"Label":"ulica Poznańska, 62-035 Kórnik, Polska","Country":"POL","State":"Woj. Wielkopolskie","County":"Powiat Poznański","City":"Kórnik","District":"Kórnik","Street":"ulica Poznańska","PostalCode":"62-035","AdditionalData":[{"value":"Polska","key":"CountryName"},{"value":"Woj. Wielkopolskie","key":"StateName"},{"value":"Powiat Poznański","key":"CountyName"}]},"MapReference":{"ReferenceId":"1069992208","Spot":0.0,"SideOfStreet":"left","CountryId":"20624059","StateId":"20629915","CountyId":"20631712","CityId":"20631723","DistrictId":"20697155"}}},{"Relevance":1.0,"Distance":34.7,"MatchLevel":"street","MatchQuality":{"Country":1.0,"State":1.0,"County":1.0,"City":1.0,"District":1.0,"Street":[1.0],"PostalCode":1.0},"Location":{"LocationId":"NT_K-8B7qjsrDkvOxDVmxHG8A_l_1069992210_L","LocationType":"point","DisplayPosition":{"Latitude":52.25153,"Longitude":17.08581},"MapView":{"TopLeft":{"Latitude":52.25159,"Longitude":17.08581},"BottomRight":{"Latitude":52.25153,"Longitude":17.08581}},"Address":{"Label":"ulica Poznańska, 62-035 Kórnik, Polska","Country":"POL","State":"Woj. Wielkopolskie","County":"Powiat Poznański","City":"Kórnik","District":"Kórnik","Street":"ulica Poznańska","PostalCode":"62-035","AdditionalData":[{"value":"Polska","key":"CountryName"},{"value":"Woj. Wielkopolskie","key":"StateName"},{"value":"Powiat Poznański","key":"CountyName"}]},"MapReference":{"ReferenceId":"1069992210","Spot":0.0,"SideOfStreet":"left","CountryId":"20624059","StateId":"20629915","CountyId":"20631712","CityId":"20631723","DistrictId":"20697155"}}},{"Relevance":1.0,"Distance":50.6,"MatchLevel":"houseNumber","MatchQuality":{"Country":1.0,"State":1.0,"County":1.0,"City":1.0,"District":1.0,"Street":[1.0],"HouseNumber":1.0,"PostalCode":1.0},"MatchType":"interpolated","Location":{"LocationId":"NT_K-8B7qjsrDkvOxDVmxHG8A_zITQ","LocationType":"point","DisplayPosition":{"Latitude":52.25107,"Longitude":17.08498},"MapView":{"TopLeft":{"Latitude":52.2521942,"Longitude":17.0831438},"BottomRight":{"Latitude":52.2499458,"Longitude":17.0868162}},"Address":{"Label":"ulica Poznańska 32A, 62-035 Kórnik, Polska","Country":"POL","State":"Woj. Wielkopolskie","County":"Powiat Poznański","City":"Kórnik","District":"Kórnik","Street":"ulica Poznańska","HouseNumber":"32A","PostalCode":"62-035","AdditionalData":[{"value":"Polska","key":"CountryName"},{"value":"Woj. Wielkopolskie","key":"StateName"},{"value":"Powiat Poznański","key":"CountyName"}]},"MapReference":{"ReferenceId":"1069992207","Spot":0.33,"SideOfStreet":"left","CountryId":"20624059","StateId":"20629915","CountyId":"20631712","CityId":"20631723","DistrictId":"20697155","AddressId":"731890240","RoadLinkId":"392365892"}}},{"Relevance":1.0,"Distance":56.9,"MatchLevel":"houseNumber","MatchQuality":{"Country":1.0,"State":1.0,"County":1.0,"City":1.0,"District":1.0,"Street":[1.0],"HouseNumber":1.0,"PostalCode":1.0},"MatchType":"interpolated","Location":{"LocationId":"NT_K-8B7qjsrDkvOxDVmxHG8A_zID","LocationType":"point","DisplayPosition":{"Latitude":52.25105,"Longitude":17.08449},"MapView":{"TopLeft":{"Latitude":52.2521742,"Longitude":17.0826538},"BottomRight":{"Latitude":52.2499258,"Longitude":17.0863262}},"Address":{"Label":"ulica Poznańska 32, 62-035 Kórnik, Polska","Country":"POL","State":"Woj. Wielkopolskie","County":"Powiat Poznański","City":"Kórnik","District":"Kórnik","Street":"ulica Poznańska","HouseNumber":"32","PostalCode":"62-035","AdditionalData":[{"value":"Polska","key":"CountryName"},{"value":"Woj. Wielkopolskie","key":"StateName"},{"value":"Powiat Poznański","key":"CountyName"}]},"MapReference":{"ReferenceId":"1091921210","Spot":0.67,"SideOfStreet":"right","CountryId":"20624059","StateId":"20629915","CountyId":"20631712","CityId":"20631723","DistrictId":"20697155","AddressId":"210295875","RoadLinkId":"406854960"}}},{"Relevance":1.0,"Distance":65.8,"MatchLevel":"houseNumber","MatchQuality":{"Country":1.0,"State":1.0,"County":1.0,"City":1.0,"District":1.0,"Street":[1.0],"HouseNumber":1.0,"PostalCode":1.0},"MatchType":"interpolated","Location":{"LocationId":"NT_K-8B7qjsrDkvOxDVmxHG8A_zAD","LocationType":"point","DisplayPosition":{"Latitude":52.25082,"Longitude":17.08476},"MapView":{"TopLeft":{"Latitude":52.2519442,"Longitude":17.0829238},"BottomRight":{"Latitude":52.2496958,"Longitude":17.0865962}},"Address":{"Label":"ulica Poznańska 30, 62-035 Kórnik, Polska","Country":"POL","State":"Woj. Wielkopolskie","County":"Powiat Poznański","City":"Kórnik","District":"Kórnik","Street":"ulica Poznańska","HouseNumber":"30","PostalCode":"62-035","AdditionalData":[{"value":"Polska","key":"CountryName"},{"value":"Woj. Wielkopolskie","key":"StateName"},{"value":"Powiat Poznański","key":"CountyName"}]},"MapReference":{"ReferenceId":"778759652","Spot":0.67,"SideOfStreet":"right","CountryId":"20624059","StateId":"20629915","CountyId":"20631712","CityId":"20631723","DistrictId":"20697155","AddressId":"210499950","RoadLinkId":"172236937"}}},{"Relevance":1.0,"Distance":80.1,"MatchLevel":"houseNumber","MatchQuality":{"Country":1.0,"State":1.0,"County":1.0,"City":1.0,"District":1.0,"Street":[1.0],"HouseNumber":1.0,"PostalCode":1.0},"MatchType":"interpolated","Location":{"LocationId":"NT_r13mpaOpgu-.Tr4UE-SzUA_yID","LocationType":"point","DisplayPosition":{"Latitude":52.25065,"Longitude":17.08515},"MapView":{"TopLeft":{"Latitude":52.2517742,"Longitude":17.0833138},"BottomRight":{"Latitude":52.2495258,"Longitude":17.0869862}},"Address":{"Label":"ulica Poprzeczna 22, 62-035 Kórnik, Polska","Country":"POL","State":"Woj. Wielkopolskie","County":"Powiat Poznański","City":"Kórnik","District":"Kórnik","Street":"ulica Poprzeczna","HouseNumber":"22","PostalCode":"62-035","AdditionalData":[{"value":"Polska","key":"CountryName"},{"value":"Woj. Wielkopolskie","key":"StateName"},{"value":"Powiat Poznański","key":"CountyName"}]},"MapReference":{"ReferenceId":"977315362","Spot":0.91,"SideOfStreet":"right","CountryId":"20624059","StateId":"20629915","CountyId":"20631712","CityId":"20631723","DistrictId":"20697155","AddressId":"210520482","RoadLinkId":"311746024"}}},{"Relevance":1.0,"Distance":89.1,"MatchLevel":"houseNumber","MatchQuality":{"Country":1.0,"State":1.0,"County":1.0,"City":1.0,"District":1.0,"Street":[1.0],"HouseNumber":1.0,"PostalCode":1.0},"MatchType":"interpolated","Location":{"LocationId":"NT_XWvzOpYobyD15cmTekAjND_xcD","LocationType":"point","DisplayPosition":{"Latitude":52.25239,"Longitude":17.08514},"MapView":{"TopLeft":{"Latitude":52.2535142,"Longitude":17.0833037},"BottomRight":{"Latitude":52.2512658,"Longitude":17.0869763}},"Address":{"Label":"ulica Adama Asnyka 17, 62-035 Kórnik, Polska","Country":"POL","State":"Woj. Wielkopolskie","County":"Powiat Poznański","City":"Kórnik","District":"Kórnik","Street":"ulica Adama Asnyka","HouseNumber":"17","PostalCode":"62-035","AdditionalData":[{"value":"Polska","key":"CountryName"},{"value":"Woj. Wielkopolskie","key":"StateName"},{"value":"Powiat Poznański","key":"CountyName"}]},"MapReference":{"ReferenceId":"774057652","Spot":0.84,"SideOfStreet":"left","CountryId":"20624059","StateId":"20629915","CountyId":"20631712","CityId":"20631723","DistrictId":"20697155","AddressId":"785818021","RoadLinkId":"167687409"}}}]}]}}