{"Response":{"MetaInfo":{"Timestamp":"2020-03-28T11:56:50.204+0000","NextPageInformation":"2"},"View":[{"_type":"SearchResultsViewType","ViewId":0,"Result":[{"Relevance":1.0,"Distance":0.0,"Direction":0.0,"MatchLevel":"district","MatchQuality":{"Country":1.0,"State":1.0,"County":1.0,"City":1.0,"District":1.0,"PostalCode":1.0},"Location":{"LocationId":"NT_EeDOQzenFGiwp4Ykm2kbKB","LocationType":"point","DisplayPosition":{"Latitude":52.2111846,"Longitude":-1.0072368},"MapView":{"TopLeft":{"Latitude":52.21493,"Longitude":-1.01636},"BottomRight":{"Latitude":52.20437,"Longitude":-0.99832}},"Address":{"Label":"Bugbrooke, Northampton, England, United Kingdom","Country":"GBR","State":"England","County":"Northamptonshire","City":"Northampton","District":"Bugbrooke","PostalCode":"NN7 3","AdditionalData":[{"value":"United Kingdom","key":"CountryName"},{"value":"England","key":"StateName"},{"value":"Northamptonshire","key":"CountyName"}]},"MapReference":{"ReferenceId":"26005854","SideOfStreet":"neither","StateId":"20248595","CountyId":"20337655","CityId":"20337690","DistrictId":"20337697"}}},{"Relevance":1.0,"Distance":45.5,"MatchLevel":"postalCode","MatchQuality":{"PostalCode":1.0},"Location":{"LocationId":"NT_0jJaX7.4tChuA9K6BGmKLA_l_586294984_L","LocationType":"point","DisplayPosition":{"Latitude":52.2108,"Longitude":-1.00701},"MapView":{"TopLeft":{"Latitude":52.2197932,"Longitude":-1.0216866},"BottomRight":{"Latitude":52.2018068,"Longitude":-0.9923334}},"Address":{"Label":"NN7 3RN, Northampton, England, United Kingdom","Country":"GBR","State":"England","County":"Northamptonshire","City":"Northampton","PostalCode":"NN7 3RN","AdditionalData":[{"value":"United Kingdom","key":"CountryName"},{"value":"England","key":"StateName"},{"value":"Northamptonshire","key":"CountyName"}]},"MapReference":{"ReferenceId":"586294984","Spot":0.43,"SideOfStreet":"neither","StateId":"20248595","CountyId":"20337655","CityId":"20337690"}}},{"Relevance":1.0,"Distance":46.1,"MatchLevel":"houseNumber","MatchQuality":{"Country":1.0,"State":1.0,"County":1.0,"City":1.0,"District":1.0,"Street":[1.0],"HouseNumber":1.0,"PostalCode":1.0},"MatchType":"interpolated","Location":{"LocationId":"NT_nR5h-uFVnKfnXTiqUTzmFB_l_25836912_R_0UD","LocationType":"point","DisplayPosition":{"Latitude":52.2114,"Longitude":-1.0065999},"MapView":{"TopLeft":{"Latitude":52.2125242,"Longitude":-1.0084345},"BottomRight":{"Latitude":52.2102759,"Longitude":-1.0047653}},"Address":{"Label":"45 Levitts Road, Northampton, NN7 3, United Kingdom","Country":"GBR","State":"England","County":"Northamptonshire","City":"Northampton","District":"Bugbrooke","Street":"Levitts Road","HouseNumber":"45","PostalCode":"NN7 3","AdditionalData":[{"value":"United Kingdom","key":"CountryName"},{"value":"England","key":"StateName"},{"value":"Northamptonshire","key":"CountyName"}]},"MapReference":{"ReferenceId":"25836912","Spot":0.18,"SideOfStreet":"right","StateId":"20248595","CountyId":"20337655","CityId":"20337690","DistrictId":"20337697"}}},{"Relevance":1.0,"Distance":49.3,"MatchLevel":"street","MatchQuality":{"Country":1.0,"State":1.0,"County":1.0,"City":1.0,"District":1.0,"Street":[1.0],"PostalCode":1.0},"Location":{"LocationId":"NT_0jJaX7.4tChuA9K6BGmKLA_l_586294984_L","LocationType":"point","DisplayPosition":{"Latitude":52.21077,"Longitude":-1.00698},"MapView":{"TopLeft":{"Latitude":52.2108,"Longitude":-1.00705},"BottomRight":{"Latitude":52.21063,"Longitude":-1.00676}},"Address":{"Label":"Meadway, Northampton, NN7 3, United Kingdom","Country":"GBR","State":"England","County":"Northamptonshire","City":"Northampton","District":"Bugbrooke","Street":"Meadway","PostalCode":"NN7 3","AdditionalData":[{"value":"United Kingdom","key":"CountryName"},{"value":"England","key":"StateName"},{"value":"Northamptonshire","key":"CountyName"}]},"MapReference":{"ReferenceId":"586294984","Spot":0.43,"SideOfStreet":"left","StateId":"20248595","CountyId":"20337655","CityId":"20337690","DistrictId":"20337697"}}},{"Relevance":1.0,"Distance":52.5,"MatchLevel":"houseNumber","MatchQuality":{"Country":1.0,"State":1.0,"County":1.0,"City":1.0,"District":1.0,"Street":[1.0],"HouseNumber":1.0,"PostalCode":1.0},"MatchType":"interpolated","Location":{"LocationId":"NT_9NlwAgAyiLcbyshPICtpWC_l_25836952_R_xA","LocationType":"point","DisplayPosition":{"Latitude":52.2106732,"Longitude":-1.0067506},"MapView":{"TopLeft":{"Latitude":52.2117974,"Longitude":-1.0085852},"BottomRight":{"Latitude":52.2095491,"Longitude":-1.0049161}},"Address":{"Label":"1 Beech Close, Northampton, NN7 3, United Kingdom","Country":"GBR","State":"England","County":"Northamptonshire","City":"Northampton","District":"Bugbrooke","Street":"Beech Close","HouseNumber":"1","PostalCode":"NN7 3","AdditionalData":[{"value":"United Kingdom","key":"CountryName"},{"value":"England","key":"StateName"},{"value":"Northamptonshire","key":"CountyName"}]},"MapReference":{"ReferenceId":"25836952","Spot":0.75,"SideOfStreet":"right","StateId":"20248595","CountyId":"20337655","CityId":"20337690","DistrictId":"20337697"}}},{"Relevance":1.0,"Distance":75.5,"MatchLevel":"houseNumber","MatchQuality":{"Country":1.0,"State":1.0,"County":1.0,"City":1.0,"District":1.0,"Street":[1.0],"HouseNumber":1.0,"PostalCode":1.0},"MatchType":"interpolated","Location":{"LocationId":"NT_XZ0l-YcjIlEmbVJgz6.bEB_l_25836897_R_zED","LocationType":"point","DisplayPosition":{"Latitude":52.2118301,"Longitude":-1.00758},"MapView":{"TopLeft":{"Latitude":52.2129543,"Longitude":-1.0094147},"BottomRight":{"Latitude":52.210706,"Longitude":-1.0057454}},"Address":{"Label":"31 Chipsey Avenue, Northampton, NN7 3QW, United Kingdom","Country":"GBR","State":"England","County":"Northamptonshire","City":"Northampton","District":"Bugbrooke","Street":"Chipsey Avenue","HouseNumber":"31","PostalCode":"NN7 3QW","AdditionalData":[{"value":"United Kingdom","key":"CountryName"},{"value":"England","key":"StateName"},{"value":"Northamptonshire","key":"CountyName"}]},"MapReference":{"ReferenceId":"25836897","Spot":0.07,"SideOfStreet":"right","StateId":"20248595","CountyId":"20337655","CityId":"20337690","DistrictId":"20337697"}}},{"Relevance":1.0,"Distance":79.9,"MatchLevel":"houseNumber","MatchQuality":{"Country":1.0,"State":1.0,"County":1.0,"City":1.0,"District":1.0,"Street":[1.0],"HouseNumber":1.0,"PostalCode":1.0},"MatchType":"interpolated","Location":{"LocationId":"NT_swLXgwE.T62s4WwUhbOEXD_l_25836958_L_xcD","LocationType":"point","DisplayPosition":{"Latitude":52.21048,"Longitude":-1.007008},"MapView":{"TopLeft":{"Latitude":52.2116042,"Longitude":-1.0088426},"BottomRight":{"Latitude":52.2093559,"Longitude":-1.0051734}},"Address":{"Label":"17 Meadway, Northampton, NN7 3, United Kingdom","Country":"GBR","State":"England","County":"Northamptonshire","City":"Northampton","District":"Bugbrooke","Street":"Meadway","HouseNumber":"17","PostalCode":"NN7 3","AdditionalData":[{"value":"United Kingdom","key":"CountryName"},{"value":"England","key":"StateName"},{"value":"Northamptonshire","key":"CountyName"}]},"MapReference":{"ReferenceId":"25836958","Spot":0.53,"SideOfStreet":"left","StateId":"20248595","CountyId":"20337655","CityId":"20337690","DistrictId":"20337697"}}},{"Relevance":1.0,"Distance":83.4,"MatchLevel":"houseNumber","MatchQuality":{"Country":1.0,"State":1.0,"County":1.0,"City":1.0,"District":1.0,"Street":[1.0],"HouseNumber":1.0,"PostalCode":1.0},"MatchType":"interpolated","Location":{"LocationId":"NT_.sU1U4.YRjbn0o5pet6hbA_l_25836963_L_xgD","LocationType":"point","DisplayPosition":{"Latitude":52.2103,"Longitude":-1.0072628},"MapView":{"TopLeft":{"Latitude":52.2114242,"Longitude":-1.0090974},"BottomRight":{"Latitude":52.2091758,"Longitude":-1.0054283}},"Address":{"Label":"18 Maple Close, Northampton, NN7 3RE, United Kingdom","Country":"GBR","State":"England","County":"Northamptonshire","City":"Northampton","District":"Bugbrooke","Street":"Maple Close","HouseNumber":"18","PostalCode":"NN7 3RE","AdditionalData":[{"value":"United Kingdom","key":"CountryName"},{"value":"England","key":"StateName"},{"value":"Northamptonshire","key":"CountyName"}]},"MapReference":{"ReferenceId":"25836963","Spot":0.71,"SideOfStreet":"left","StateId":"20248595","CountyId":"20337655","CityId":"20337690","DistrictId":"20337697"}}},{"Relevance":1.0,"Distance":95.8,"MatchLevel":"postalCode","MatchQuality":{"PostalCode":1.0},"MatchType":"interpolated","Location":{"LocationId":"NT_9NlwAgAyiLcbyshPICtpWC_l_25836952_R_xA","LocationType":"point","DisplayPosition":{"Latitude":52.21063,"Longitude":-1.00616},"MapView":{"TopLeft":{"Latitude":52.2196232,"Longitude":-1.0208366},"BottomRight":{"Latitude":52.2016368,"Longitude":-0.9914834}},"Address":{"Label":"NN7 3RB, Northampton, England, United Kingdom","Country":"GBR","State":"England","County":"Northamptonshire","City":"Northampton","PostalCode":"NN7 3RB","AdditionalData":[{"value":"United Kingdom","key":"CountryName"},{"value":"England","key":"StateName"},{"value":"Northamptonshire","key":"CountyName"}]},"MapReference":{"ReferenceId":"25836952","Spot":0.75,"SideOfStreet":"neither","StateId":"20248595","CountyId":"20337655","CityId":"20337690"}}},{"Relevance":1.0,"Distance":105.1,"MatchLevel":"houseNumber","MatchQuality":{"Country":1.0,"State":1.0,"County":1.0,"City":1.0,"District":1.0,"Street":[1.0],"HouseNumber":1.0,"PostalCode":1.0},"MatchType":"interpolated","Location":{"LocationId":"NT_XZ0l-YcjIlEmbVJgz6.bEB_l_25836902_L_xA","LocationType":"point","DisplayPosition":{"Latitude":52.21171,"Longitude":-1.0057},"MapView":{"TopLeft":{"Latitude":52.2128342,"Longitude":-1.0075346},"BottomRight":{"Latitude":52.2105859,"Longitude":-1.0038654}},"Address":{"Label":"1 Chipsey Avenue, Northampton, NN7 3, United Kingdom","Country":"GBR","State":"England","County":"Northamptonshire","City":"Northampton","District":"Bugbrooke","Street":"Chipsey Avenue","HouseNumber":"1","PostalCode":"NN7 3","AdditionalData":[{"value":"United Kingdom","key":"CountryName"},{"value":"England","key":"StateName"},{"value":"Northamptonshire","key":"CountyName"}]},"MapReference":{"ReferenceId":"25836902","Spot":0.15,"SideOfStreet":"left","StateId":"20248595","CountyId":"20337655","CityId":"20337690","DistrictId":"20337697"}}}]}]}}