{"Response":{"MetaInfo":{"Timestamp":"2020-03-28T10:39:54.191+0000","NextPageInformation":"2"},"View":[{"_type":"SearchResultsViewType","ViewId":0,"Result":[{"Relevance":1.0,"Distance":0.0,"Direction":0.0,"MatchLevel":"district","MatchQuality":{"Country":1.0,"State":1.0,"County":1.0,"City":1.0,"District":1.0,"PostalCode":1.0},"Location":{"LocationId":"NT_9kPqB1iT6VY2s4RDXA-AiD","LocationType":"point","DisplayPosition":{"Latitude":52.289024,"Longitude":-0.0036024},"MapView":{"TopLeft":{"Latitude":52.30637,"Longitude":-0.01095},"BottomRight":{"Latitude":52.28387,"Longitude":6.8E-4}},"Address":{"Label":"Swavesey, Cambridge, England, United Kingdom","Country":"GBR","State":"England","County":"Cambridgeshire","City":"Cambridge","District":"Swavesey","PostalCode":"CB24 4","AdditionalData":[{"value":"United Kingdom","key":"CountryName"},{"value":"England","key":"StateName"},{"value":"Cambridgeshire","key":"CountyName"}]},"MapReference":{"ReferenceId":"1002302573","SideOfStreet":"neither","StateId":"20248595","CountyId":"20335089","CityId":"20335090","DistrictId":"20349988"}}},{"Relevance":1.0,"Distance":25.0,"MatchLevel":"houseNumber","MatchQuality":{"Country":1.0,"State":1.0,"County":1.0,"City":1.0,"District":1.0,"Street":[1.0],"HouseNumber":1.0,"PostalCode":1.0},"MatchType":"interpolated","Location":{"LocationId":"NT_O8ohPdFlpzW.w73TY9FzfC_l_756752944_L_1ID","LocationType":"point","DisplayPosition":{"Latitude":52.2888623,"Longitude":-0.0030939},"MapView":{"TopLeft":{"Latitude":52.2899864,"Longitude":-0.0049318},"BottomRight":{"Latitude":52.2877381,"Longitude":-0.0012561}},"Address":{"Label":"52 Boxworth End, Cambridge, CB24 4, United Kingdom","Country":"GBR","State":"England","County":"Cambridgeshire","City":"Cambridge","District":"Swavesey","Street":"Boxworth End","HouseNumber":"52","PostalCode":"CB24 4","AdditionalData":[{"value":"United Kingdom","key":"CountryName"},{"value":"England","key":"StateName"},{"value":"Cambridgeshire","key":"CountyName"}]},"MapReference":{"ReferenceId":"756752944","Spot":0.67,"SideOfStreet":"left","StateId":"20248595","CountyId":"20335089","CityId":"20335090","DistrictId":"20349988"}}},{"Relevance":1.0,"Distance":45.6,"MatchLevel":"street","MatchQuality":{"Country":1.0,"State":1.0,"County":1.0,"City":1.0,"District":1.0,"Street":[1.0],"PostalCode":1.0},"Location":{"LocationId":"NT_pv8qQ5jqD6A1dis-zDdQsB_l_756752946_L","LocationType":"point","DisplayPosition":{"Latitude":52.28912,"Longitude":-0.00295},"MapView":{"TopLeft":{"Latitude":52.28912,"Longitude":-0.00295},"BottomRight":{"Latitude":52.28779,"Longitude":-1.5E-4}},"Address":{"Label":"Pine Grove Park, Cambridge, CB24 4, United Kingdom","Country":"GBR","State":"England","County":"Cambridgeshire","City":"Cambridge","District":"Swavesey","Street":"Pine Grove Park","PostalCode":"CB24 4","AdditionalData":[{"value":"United Kingdom","key":"CountryName"},{"value":"England","key":"StateName"},{"value":"Cambridgeshire","key":"CountyName"}]},"MapReference":{"ReferenceId":"756752946","Spot":1.0,"SideOfStreet":"left","StateId":"20248595","CountyId":"20335089","CityId":"20335090","DistrictId":"20349988"}}},{"Relevance":1.0,"Distance":50.8,"MatchLevel":"houseNumber","MatchQuality":{"Country":1.0,"State":1.0,"County":1.0,"City":1.0,"District":1.0,"Street":[1.0],"HouseNumber":1.0,"PostalCode":1.0},"MatchType":"interpolated","Location":{"LocationId":"NT_O8ohPdFlpzW.w73TY9FzfC_l_756752945_L_0gD","LocationType":"point","DisplayPosition":{"Latitude":52.2892402,"Longitude":-0.0028699},"MapView":{"TopLeft":{"Latitude":52.2903644,"Longitude":-0.0047077},"BottomRight":{"Latitude":52.2881161,"Longitude":-0.0010321}},"Address":{"Label":"48 Boxworth End, Cambridge, CB24 4RA, United Kingdom","Country":"GBR","State":"England","County":"Cambridgeshire","City":"Cambridge","District":"Swavesey","Street":"Boxworth End","HouseNumber":"48","PostalCode":"CB24 4RA","AdditionalData":[{"value":"United Kingdom","key":"CountryName"},{"value":"England","key":"StateName"},{"value":"Cambridgeshire","key":"CountyName"}]},"MapReference":{"ReferenceId":"756752945","Spot":0.05,"SideOfStreet":"left","StateId":"20248595","CountyId":"20335089","CityId":"20335090","DistrictId":"20349988"}}},{"Relevance":1.0,"Distance":69.1,"MatchLevel":"street","MatchQuality":{"Country":1.0,"State":1.0,"County":1.0,"City":1.0,"District":1.0,"Street":[1.0],"PostalCode":1.0},"Location":{"LocationId":"NT_UXXHRXj0kwNA7ANKGXJeXC_l_1155266775_R","LocationType":"point","DisplayPosition":{"Latitude":52.28845,"Longitude":-0.00399},"MapView":{"TopLeft":{"Latitude":52.28876,"Longitude":-0.00591},"BottomRight":{"Latitude":52.28845,"Longitude":-0.00399}},"Address":{"Label":"Rose and Crown Road, Cambridge, CB24 4, United Kingdom","Country":"GBR","State":"England","County":"Cambridgeshire","City":"Cambridge","District":"Swavesey","Street":"Rose and Crown Road","PostalCode":"CB24 4","AdditionalData":[{"value":"United Kingdom","key":"CountryName"},{"value":"England","key":"StateName"},{"value":"Cambridgeshire","key":"CountyName"}]},"MapReference":{"ReferenceId":"1155266775","Spot":0.0,"SideOfStreet":"right","StateId":"20248595","CountyId":"20335089","CityId":"20335090","DistrictId":"20349988"}}},{"Relevance":1.0,"Distance":69.2,"MatchLevel":"street","MatchQuality":{"Country":1.0,"State":1.0,"County":1.0,"City":1.0,"District":1.0,"Street":[1.0],"PostalCode":1.0},"Location":{"LocationId":"NT_UXXHRXj0kwNA7ANKGXJeXC_l_1155266774_R","LocationType":"point","DisplayPosition":{"Latitude":52.2884048,"Longitude":-0.0036985},"MapView":{"TopLeft":{"Latitude":52.28845,"Longitude":-0.00399},"BottomRight":{"Latitude":52.28836,"Longitude":-0.00341}},"Address":{"Label":"Rose and Crown Road, Cambridge, CB24 4, United Kingdom","Country":"GBR","State":"England","County":"Cambridgeshire","City":"Cambridge","District":"Swavesey","Street":"Rose and Crown Road","PostalCode":"CB24 4","AdditionalData":[{"value":"United Kingdom","key":"CountryName"},{"value":"England","key":"StateName"},{"value":"Cambridgeshire","key":"CountyName"}]},"MapReference":{"ReferenceId":"1155266774","Spot":0.5,"SideOfStreet":"right","StateId":"20248595","CountyId":"20335089","CityId":"20335090","DistrictId":"20349988"}}},{"Relevance":1.0,"Distance":133.1,"MatchLevel":"houseNumber","MatchQuality":{"Country":1.0,"State":1.0,"County":1.0,"City":1.0,"District":1.0,"Street":[1.0],"HouseNumber":1.0,"PostalCode":1.0},"MatchType":"interpolated","Location":{"LocationId":"NT_O8ohPdFlpzW.w73TY9FzfC_l_781726156_L_2YD","LocationType":"point","DisplayPosition":{"Latitude":52.2877486,"Longitude":-0.0037814},"MapView":{"TopLeft":{"Latitude":52.2888727,"Longitude":-0.0056192},"BottomRight":{"Latitude":52.2866244,"Longitude":-0.0019437}},"Address":{"Label":"66 Boxworth End, Cambridge, CB24 4RA, United Kingdom","Country":"GBR","State":"England","County":"Cambridgeshire","City":"Cambridge","District":"Swavesey","Street":"Boxworth End","HouseNumber":"66","PostalCode":"CB24 4RA","AdditionalData":[{"value":"United Kingdom","key":"CountryName"},{"value":"England","key":"StateName"},{"value":"Cambridgeshire","key":"CountyName"}]},"MapReference":{"ReferenceId":"781726156","Spot":0.77,"SideOfStreet":"left","StateId":"20248595","CountyId":"20335089","CityId":"20335090","DistrictId":"20349988"}}},{"Relevance":1.0,"Distance":147.1,"MatchLevel":"postalCode","MatchQuality":{"PostalCode":1.0},"MatchType":"interpolated","Location":{"LocationId":"NT_O8ohPdFlpzW.w73TY9FzfC_l_781726156_L_2YD","LocationType":"point","DisplayPosition":{"Latitude":52.28771,"Longitude":-0.00385},"MapView":{"TopLeft":{"Latitude":52.2967032,"Longitude":-0.0185521},"BottomRight":{"Latitude":52.2787168,"Longitude":0.0108521}},"Address":{"Label":"CB24 4RA, Cambridge, England, United Kingdom","Country":"GBR","State":"England","County":"Cambridgeshire","City":"Cambridge","PostalCode":"CB24 4RA","AdditionalData":[{"value":"United Kingdom","key":"CountryName"},{"value":"England","key":"StateName"},{"value":"Cambridgeshire","key":"CountyName"}]},"MapReference":{"ReferenceId":"781726156","Spot":0.77,"SideOfStreet":"neither","StateId":"20248595","CountyId":"20335089","CityId":"20335090"}}},{"Relevance":1.0,"Distance":159.7,"MatchLevel":"street","MatchQuality":{"Country":1.0,"State":1.0,"County":1.0,"City":1.0,"District":1.0,"Street":[1.0],"PostalCode":1.0},"Location":{"LocationId":"NT_UXXHRXj0kwNA7ANKGXJeXC_l_26181200_R","LocationType":"point","DisplayPosition":{"Latitude":52.28876,"Longitude":-0.00591},"MapView":{"TopLeft":{"Latitude":52.28945,"Longitude":-0.02181},"BottomRight":{"Latitude":52.28876,"Longitude":-0.00591}},"Address":{"Label":"Rose and Crown Road, Cambridge, CB24 4, United Kingdom","Country":"GBR","State":"England","County":"Cambridgeshire","City":"Cambridge","District":"Swavesey","Street":"Rose and Crown Road","PostalCode":"CB24 4","AdditionalData":[{"value":"United Kingdom","key":"CountryName"},{"value":"England","key":"StateName"},{"value":"Cambridgeshire","key":"CountyName"}]},"MapReference":{"ReferenceId":"26181200","Spot":0.0,"SideOfStreet":"right","StateId":"20248595","CountyId":"20335089","CityId":"20335090","DistrictId":"20349988"}}},{"Relevance":1.0,"Distance":194.0,"MatchLevel":"postalCode","MatchQuality":{"PostalCode":1.0},"MatchType":"interpolated","Location":{"LocationId":"NT_O8ohPdFlpzW.w73TY9FzfC_l_756752945_L_0gD","LocationType":"point","DisplayPosition":{"Latitude":52.2906,"Longitude":-0.00238},"MapView":{"TopLeft":{"Latitude":52.2995932,"Longitude":-0.017083},"BottomRight":{"Latitude":52.2816068,"Longitude":0.012323}},"Address":{"Label":"CB24 4QT, Cambridge, England, United Kingdom","Country":"GBR","State":"England","County":"Cambridgeshire","City":"Cambridge","PostalCode":"CB24 4QT","AdditionalData":[{"value":"United Kingdom","key":"CountryName"},{"value":"England","key":"StateName"},{"value":"Cambridgeshire","key":"CountyName"}]},"MapReference":{"ReferenceId":"756752945","Spot":0.05,"SideOfStreet":"neither","StateId":"20248595","CountyId":"20335089","CityId":"20335090"}}}]}]}}