{"Response":{"MetaInfo":{"Timestamp":"2020-03-28T10:22:34.635+0000","NextPageInformation":"2"},"View":[{"_type":"SearchResultsViewType","ViewId":0,"Result":[{"Relevance":1.0,"Distance":0.0,"Direction":0.0,"MatchLevel":"district","MatchQuality":{"Country":1.0,"State":1.0,"County":1.0,"City":1.0,"District":1.0,"PostalCode":1.0},"Location":{"LocationId":"NT_UHkQblYp-gQDxw8iM8bRUC","LocationType":"point","DisplayPosition":{"Latitude":52.2996889,"Longitude":8.0314851},"MapView":{"TopLeft":{"Latitude":52.31657,"Longitude":7.94177},"BottomRight":{"Latitude":52.24194,"Longitude":8.11465}},"Address":{"Label":"Osnabrück, Niedersachsen, Deutschland","Country":"DEU","State":"Niedersachsen","County":"Osnabrück (Stadt)","City":"Osnabrück","District":"Osnabrück","PostalCode":"49074","AdditionalData":[{"value":"Deutschland","key":"CountryName"},{"value":"Niedersachsen","key":"StateName"},{"value":"Osnabrück (Stadt)","key":"CountyName"}]},"MapReference":{"ReferenceId":"1134657941","SideOfStreet":"neither","CountryId":"20147700","StateId":"20151542","CountyId":"20155918","CityId":"20155919","DistrictId":"20155929"}}},{"Relevance":1.0,"Distance":15.5,"MatchLevel":"houseNumber","MatchQuality":{"Country":1.0,"State":1.0,"County":1.0,"City":1.0,"District":1.0,"Street":[1.0],"HouseNumber":1.0,"PostalCode":1.0},"MatchType":"interpolated","Location":{"LocationId":"NT_CChJ.oUnwAhCpn6L1ZjEPC_yAzQ","LocationType":"point","DisplayPosition":{"Latitude":52.29974,"Longitude":8.03128},"MapView":{"TopLeft":{"Latitude":52.3008642,"Longitude":8.0294417},"BottomRight":{"Latitude":52.2986158,"Longitude":8.0331183}},"Address":{"Label":"Winkelhausenstraße 20C, 49090 Osnabrück, Deutschland","Country":"DEU","State":"Niedersachsen","County":"Osnabrück (Stadt)","City":"Osnabrück","District":"Osnabrück","Street":"Winkelhausenstraße","HouseNumber":"20C","PostalCode":"49090","AdditionalData":[{"value":"Deutschland","key":"CountryName"},{"value":"Niedersachsen","key":"StateName"},{"value":"Osnabrück (Stadt)","key":"CountyName"}]},"MapReference":{"ReferenceId":"1053273825","Spot":0.61,"SideOfStreet":"right","CountryId":"20147700","StateId":"20151542","CountyId":"20155918","CityId":"20155919","DistrictId":"20155929","AddressId":"790148415","RoadLinkId":"372904400"}}},{"Relevance":1.0,"Distance":39.6,"MatchLevel":"street","MatchQuality":{"Country":1.0,"State":1.0,"County":1.0,"City":1.0,"District":1.0,"Street":[1.0],"PostalCode":1.0},"Location":{"LocationId":"NT_CChJ.oUnwAhCpn6L1ZjEPC_l_1053273828_R","LocationType":"point","DisplayPosition":{"Latitude":52.29998,"Longitude":8.03182},"MapView":{"TopLeft":{"Latitude":52.30006,"Longitude":8.03182},"BottomRight":{"Latitude":52.29998,"Longitude":8.03199}},"Address":{"Label":"Winkelhausenstraße, 49090 Osnabrück, Deutschland","Country":"DEU","State":"Niedersachsen","County":"Osnabrück (Stadt)","City":"Osnabrück","District":"Osnabrück","Street":"Winkelhausenstraße","PostalCode":"49090","AdditionalData":[{"value":"Deutschland","key":"CountryName"},{"value":"Niedersachsen","key":"StateName"},{"value":"Osnabrück (Stadt)","key":"CountyName"}]},"MapReference":{"ReferenceId":"1053273828","Spot":0.0,"SideOfStreet":"right","CountryId":"20147700","StateId":"20151542","CountyId":"20155918","CityId":"20155919","DistrictId":"20155929"}}},{"Relevance":1.0,"Distance":40.6,"MatchLevel":"houseNumber","MatchQuality":{"Country":1.0,"State":1.0,"County":1.0,"City":1.0,"District":1.0,"Street":[1.0],"HouseNumber":1.0,"PostalCode":1.0},"MatchType":"interpolated","Location":{"LocationId":"NT_XqxeVdftJyukKvt2vTABOB_yUD","LocationType":"point","DisplayPosition":{"Latitude":52.29982,"Longitude":8.03229},"MapView":{"TopLeft":{"Latitude":52.3009442,"Longitude":8.0304517},"BottomRight":{"Latitude":52.2986958,"Longitude":8.0341283}},"Address":{"Label":"An der Netter Heide 25, 49090 Osnabrück, Deutschland","Country":"DEU","State":"Niedersachsen","County":"Osnabrück (Stadt)","City":"Osnabrück","District":"Osnabrück","Street":"An der Netter Heide","HouseNumber":"25","PostalCode":"49090","AdditionalData":[{"value":"Deutschland","key":"CountryName"},{"value":"Niedersachsen","key":"StateName"},{"value":"Osnabrück (Stadt)","key":"CountyName"}]},"MapReference":{"ReferenceId":"51828078","Spot":0.85,"SideOfStreet":"left","CountryId":"20147700","StateId":"20151542","CountyId":"20155918","CityId":"20155919","DistrictId":"20155929","AddressId":"181234792","RoadLinkId":"37242521"}}},{"Relevance":1.0,"Distance":54.1,"MatchLevel":"houseNumber","MatchQuality":{"Country":1.0,"State":1.0,"County":1.0,"City":1.0,"District":1.0,"Street":[1.0],"HouseNumber":1.0,"PostalCode":1.0},"MatchType":"interpolated","Location":{"LocationId":"NT_XqxeVdftJyukKvt2vTABOB_xMD","LocationType":"point","DisplayPosition":{"Latitude":52.30006,"Longitude":8.032},"MapView":{"TopLeft":{"Latitude":52.3011842,"Longitude":8.0301617},"BottomRight":{"Latitude":52.2989358,"Longitude":8.0338383}},"Address":{"Label":"An der Netter Heide 13, 49090 Osnabrück, Deutschland","Country":"DEU","State":"Niedersachsen","County":"Osnabrück (Stadt)","City":"Osnabrück","District":"Osnabrück","Street":"An der Netter Heide","HouseNumber":"13","PostalCode":"49090","AdditionalData":[{"value":"Deutschland","key":"CountryName"},{"value":"Niedersachsen","key":"StateName"},{"value":"Osnabrück (Stadt)","key":"CountyName"}]},"MapReference":{"ReferenceId":"1053273826","Spot":0.96,"SideOfStreet":"right","CountryId":"20147700","StateId":"20151542","CountyId":"20155918","CityId":"20155919","DistrictId":"20155929","AddressId":"180929887","RoadLinkId":"372904397"}}},{"Relevance":1.0,"Distance":62.3,"MatchLevel":"houseNumber","MatchQuality":{"Country":1.0,"State":1.0,"County":1.0,"City":1.0,"District":1.0,"Street":[1.0],"HouseNumber":1.0,"PostalCode":1.0},"MatchType":"interpolated","Location":{"LocationId":"NT_XqxeVdftJyukKvt2vTABOB_xQD","LocationType":"point","DisplayPosition":{"Latitude":52.30021,"Longitude":8.03182},"MapView":{"TopLeft":{"Latitude":52.3013342,"Longitude":8.0299817},"BottomRight":{"Latitude":52.2990858,"Longitude":8.0336583}},"Address":{"Label":"An der Netter Heide 14, 49090 Osnabrück, Deutschland","Country":"DEU","State":"Niedersachsen","County":"Osnabrück (Stadt)","City":"Osnabrück","District":"Osnabrück","Street":"An der Netter Heide","HouseNumber":"14","PostalCode":"49090","AdditionalData":[{"value":"Deutschland","key":"CountryName"},{"value":"Niedersachsen","key":"StateName"},{"value":"Osnabrück (Stadt)","key":"CountyName"}]},"MapReference":{"ReferenceId":"1053273827","Spot":0.09,"SideOfStreet":"right","CountryId":"20147700","StateId":"20151542","CountyId":"20155918","CityId":"20155919","DistrictId":"20155929","AddressId":"177264813","RoadLinkId":"372904398"}}},{"Relevance":1.0,"Distance":77.5,"MatchLevel":"houseNumber","MatchQuality":{"Country":1.0,"State":1.0,"County":1.0,"City":1.0,"District":1.0,"Street":[1.0],"HouseNumber":1.0,"PostalCode":1.0},"MatchType":"interpolated","Location":{"LocationId":"NT_dsaKHmZeLJnqo3tyCfmwmB_xMD","LocationType":"point","DisplayPosition":{"Latitude":52.30007,"Longitude":8.03244},"MapView":{"TopLeft":{"Latitude":52.3011942,"Longitude":8.0306017},"BottomRight":{"Latitude":52.2989458,"Longitude":8.0342783}},"Address":{"Label":"Ankumer Weg 13, 49090 Osnabrück, Deutschland","Country":"DEU","State":"Niedersachsen","County":"Osnabrück (Stadt)","City":"Osnabrück","District":"Osnabrück","Street":"Ankumer Weg","HouseNumber":"13","PostalCode":"49090","AdditionalData":[{"value":"Deutschland","key":"CountryName"},{"value":"Niedersachsen","key":"StateName"},{"value":"Osnabrück (Stadt)","key":"CountyName"}]},"MapReference":{"ReferenceId":"51828082","Spot":0.41,"SideOfStreet":"right","CountryId":"20147700","StateId":"20151542","CountyId":"20155918","CityId":"20155919","DistrictId":"20155929","AddressId":"181698664","RoadLinkId":"36507796"}}},{"Relevance":1.0,"Distance":87.2,"MatchLevel":"street","MatchQuality":{"Country":1.0,"State":1.0,"County":1.0,"City":1.0,"District":1.0,"Street":[1.0],"PostalCode":1.0},"Location":{"LocationId":"NT_CChJ.oUnwAhCpn6L1ZjEPC_l_1053273823_R","LocationType":"point","DisplayPosition":{"Latitude":52.2989785,"Longitude":8.0309428},"MapView":{"TopLeft":{"Latitude":52.29937,"Longitude":8.03043},"BottomRight":{"Latitude":52.29837,"Longitude":8.03174}},"Address":{"Label":"Winkelhausenstraße, 49090 Osnabrück, Deutschland","Country":"DEU","State":"Niedersachsen","County":"Osnabrück (Stadt)","City":"Osnabrück","District":"Osnabrück","Street":"Winkelhausenstraße","PostalCode":"49090","AdditionalData":[{"value":"Deutschland","key":"CountryName"},{"value":"Niedersachsen","key":"StateName"},{"value":"Osnabrück (Stadt)","key":"CountyName"}]},"MapReference":{"ReferenceId":"1053273823","Spot":0.61,"SideOfStreet":"right","CountryId":"20147700","StateId":"20151542","CountyId":"20155918","CityId":"20155919","DistrictId":"20155929"}}},{"Relevance":1.0,"Distance":118.3,"MatchLevel":"houseNumber","MatchQuality":{"Country":1.0,"State":1.0,"County":1.0,"City":1.0,"District":1.0,"Street":[1.0],"HouseNumber":1.0,"PostalCode":1.0},"MatchType":"interpolated","Location":{"LocationId":"NT_dsaKHmZeLJnqo3tyCfmwmB_1A","LocationType":"point","DisplayPosition":{"Latitude":52.30052,"Longitude":8.03272},"MapView":{"TopLeft":{"Latitude":52.3016442,"Longitude":8.0308817},"BottomRight":{"Latitude":52.2993958,"Longitude":8.0345583}},"Address":{"Label":"Ankumer Weg 5, 49090 Osnabrück, Deutschland","Country":"DEU","State":"Niedersachsen","County":"Osnabrück (Stadt)","City":"Osnabrück","District":"Osnabrück","Street":"Ankumer Weg","HouseNumber":"5","PostalCode":"49090","AdditionalData":[{"value":"Deutschland","key":"CountryName"},{"value":"Niedersachsen","key":"StateName"},{"value":"Osnabrück (Stadt)","key":"CountyName"}]},"MapReference":{"ReferenceId":"51828083","Spot":0.17,"SideOfStreet":"left","CountryId":"20147700","StateId":"20151542","CountyId":"20155918","CityId":"20155919","DistrictId":"20155929","AddressId":"181294323","RoadLinkId":"36993040"}}},{"Relevance":1.0,"Distance":148.1,"MatchLevel":"houseNumber","MatchQuality":{"Country":1.0,"State":1.0,"County":1.0,"City":1.0,"District":1.0,"Street":[1.0],"HouseNumber":1.0,"PostalCode":1.0},"MatchType":"interpolated","Location":{"LocationId":"NT_dsaKHmZeLJnqo3tyCfmwmB_xAD","LocationType":"point","DisplayPosition":{"Latitude":52.30044,"Longitude":8.03327},"MapView":{"TopLeft":{"Latitude":52.3015642,"Longitude":8.0314317},"BottomRight":{"Latitude":52.2993158,"Longitude":8.0351083}},"Address":{"Label":"Ankumer Weg 10, 49090 Osnabrück, Deutschland","Country":"DEU","State":"Niedersachsen","County":"Osnabrück (Stadt)","City":"Osnabrück","District":"Osnabrück","Street":"Ankumer Weg","HouseNumber":"10","PostalCode":"49090","AdditionalData":[{"value":"Deutschland","key":"CountryName"},{"value":"Niedersachsen","key":"StateName"},{"value":"Osnabrück (Stadt)","key":"CountyName"}]},"MapReference":{"ReferenceId":"51828085","Spot":0.36,"SideOfStreet":"left","CountryId":"20147700","StateId":"20151542","CountyId":"20155918","CityId":"20155919","DistrictId":"20155929","AddressId":"181487545","RoadLinkId":"37026688"}}}]}]}}