{"Response":{"MetaInfo":{"Timestamp":"2020-03-28T10:23:05.867+0000","NextPageInformation":"2"},"View":[{"_type":"SearchResultsViewType","ViewId":0,"Result":[{"Relevance":1.0,"Distance":0.0,"Direction":0.0,"MatchLevel":"district","MatchQuality":{"Country":1.0,"State":1.0,"County":1.0,"City":1.0,"District":1.0,"PostalCode":1.0},"Location":{"LocationId":"NT_Yx9-45-JU1NqjyAmC78ymB","LocationType":"point","DisplayPosition":{"Latitude":52.2088855,"Longitude":8.8039591},"MapView":{"TopLeft":{"Latitude":52.24627,"Longitude":8.75514},"BottomRight":{"Latitude":52.17824,"Longitude":8.854}},"Address":{"Label":"Bad Oeynhausen, Nordrhein-Westfalen, Deutschland","Country":"DEU","State":"Nordrhein-Westfalen","County":"Minden-Lübbecke","City":"Bad Oeynhausen","District":"Bad Oeynhausen","PostalCode":"32545","AdditionalData":[{"value":"Deutschland","key":"CountryName"},{"value":"Nordrhein-Westfalen","key":"StateName"},{"value":"Minden-Lübbecke","key":"CountyName"}]},"MapReference":{"ReferenceId":"74607958","SideOfStreet":"neither","CountryId":"20147700","StateId":"20157369","CountyId":"20159946","CityId":"20159947","DistrictId":"20159954"}}},{"Relevance":1.0,"Distance":16.5,"MatchLevel":"houseNumber","MatchQuality":{"Country":1.0,"State":1.0,"County":1.0,"City":1.0,"District":1.0,"Street":[1.0],"HouseNumber":1.0,"PostalCode":1.0},"MatchType":"interpolated","Location":{"LocationId":"NT_NSRkfYf9Nsb03pKkThX-6C_1A","LocationType":"point","DisplayPosition":{"Latitude":52.20872,"Longitude":8.80369},"MapView":{"TopLeft":{"Latitude":52.2098442,"Longitude":8.8018555},"BottomRight":{"Latitude":52.2075958,"Longitude":8.8055245}},"Address":{"Label":"Eidinghausener Straße 5, 32549 Bad Oeynhausen, Deutschland","Country":"DEU","State":"Nordrhein-Westfalen","County":"Minden-Lübbecke","City":"Bad Oeynhausen","District":"Bad Oeynhausen","Street":"Eidinghausener Straße","HouseNumber":"5","PostalCode":"32549","AdditionalData":[{"value":"Deutschland","key":"CountryName"},{"value":"Nordrhein-Westfalen","key":"StateName"},{"value":"Minden-Lübbecke","key":"CountyName"}]},"MapReference":{"ReferenceId":"1207000950","Spot":0.26,"SideOfStreet":"right","CountryId":"20147700","StateId":"20157369","CountyId":"20159946","CityId":"20159947","DistrictId":"20159954","AddressId":"195703795","RoadLinkId":"521083067"}}},{"Relevance":1.0,"Distance":35.9,"MatchLevel":"houseNumber","MatchQuality":{"Country":1.0,"State":1.0,"County":1.0,"City":1.0,"District":1.0,"Street":[1.0],"HouseNumber":1.0,"PostalCode":1.0},"MatchType":"interpolated","Location":{"LocationId":"NT_NSRkfYf9Nsb03pKkThX-6C_0A","LocationType":"point","DisplayPosition":{"Latitude":52.20858,"Longitude":8.80379},"MapView":{"TopLeft":{"Latitude":52.2097042,"Longitude":8.8019555},"BottomRight":{"Latitude":52.2074558,"Longitude":8.8056245}},"Address":{"Label":"Eidinghausener Straße 4, 32549 Bad Oeynhausen, Deutschland","Country":"DEU","State":"Nordrhein-Westfalen","County":"Minden-Lübbecke","City":"Bad Oeynhausen","District":"Bad Oeynhausen","Street":"Eidinghausener Straße","HouseNumber":"4","PostalCode":"32549","AdditionalData":[{"value":"Deutschland","key":"CountryName"},{"value":"Nordrhein-Westfalen","key":"StateName"},{"value":"Minden-Lübbecke","key":"CountyName"}]},"MapReference":{"ReferenceId":"75330808","Spot":1.0,"SideOfStreet":"left","CountryId":"20147700","StateId":"20157369","CountyId":"20159946","CityId":"20159947","DistrictId":"20159954","AddressId":"195534164","RoadLinkId":"35165507"}}},{"Relevance":1.0,"Distance":46.2,"MatchLevel":"street","MatchQuality":{"Country":1.0,"State":1.0,"County":1.0,"City":1.0,"District":1.0,"Street":[1.0],"PostalCode":1.0},"Location":{"LocationId":"NT_kqNKuJtVTfpzmRLbdbaLuA_l_1207000951_R","LocationType":"point","DisplayPosition":{"Latitude":52.20913,"Longitude":8.80341},"MapView":{"TopLeft":{"Latitude":52.20926,"Longitude":8.80332},"BottomRight":{"Latitude":52.20913,"Longitude":8.80341}},"Address":{"Label":"Eidinghausener Straße, 32549 Bad Oeynhausen, Deutschland","Country":"DEU","State":"Nordrhein-Westfalen","County":"Minden-Lübbecke","City":"Bad Oeynhausen","District":"Bad Oeynhausen","Street":"Eidinghausener Straße","PostalCode":"32549","AdditionalData":[{"value":"Deutschland","key":"CountryName"},{"value":"Nordrhein-Westfalen","key":"StateName"},{"value":"Minden-Lübbecke","key":"CountyName"}]},"MapReference":{"ReferenceId":"1207000951","Spot":0.0,"SideOfStreet":"right","CountryId":"20147700","StateId":"20157369","CountyId":"20159946","CityId":"20159947","DistrictId":"20159954"}}},{"Relevance":1.0,"Distance":46.2,"MatchLevel":"street","MatchQuality":{"Country":1.0,"State":1.0,"County":1.0,"City":1.0,"District":1.0,"PostalCode":1.0},"Location":{"LocationId":"NT_B1SEBIreReEljWADG7C5PA_l_1208390431_R","LocationType":"point","DisplayPosition":{"Latitude":52.20913,"Longitude":8.80341},"MapView":{"TopLeft":{"Latitude":52.20913,"Longitude":8.80233},"BottomRight":{"Latitude":52.20822,"Longitude":8.80341}},"Address":{"Label":"32545 Bad Oeynhausen, Deutschland","Country":"DEU","State":"Nordrhein-Westfalen","County":"Minden-Lübbecke","City":"Bad Oeynhausen","District":"Bad Oeynhausen","PostalCode":"32545","AdditionalData":[{"value":"Deutschland","key":"CountryName"},{"value":"Nordrhein-Westfalen","key":"StateName"},{"value":"Minden-Lübbecke","key":"CountyName"}]},"MapReference":{"ReferenceId":"1208390431","Spot":1.0,"SideOfStreet":"right","CountryId":"20147700","StateId":"20157369","CountyId":"20159946","CityId":"20159947","DistrictId":"20159954"}}},{"Relevance":1.0,"Distance":50.6,"MatchLevel":"street","MatchQuality":{"Country":1.0,"State":1.0,"County":1.0,"City":1.0,"District":1.0,"PostalCode":1.0},"Location":{"LocationId":"NT_gBQkqIX8zg5Z.jJgYyx1pA_l_1208952636_R","LocationType":"point","DisplayPosition":{"Latitude":52.2093235,"Longitude":8.8037591},"MapView":{"TopLeft":{"Latitude":52.21071,"Longitude":8.80341},"BottomRight":{"Latitude":52.20913,"Longitude":8.80859}},"Address":{"Label":"32547 Bad Oeynhausen, Deutschland","Country":"DEU","State":"Nordrhein-Westfalen","County":"Minden-Lübbecke","City":"Bad Oeynhausen","District":"Bad Oeynhausen","PostalCode":"32547","AdditionalData":[{"value":"Deutschland","key":"CountryName"},{"value":"Nordrhein-Westfalen","key":"StateName"},{"value":"Minden-Lübbecke","key":"CountyName"}]},"MapReference":{"ReferenceId":"1208952636","Spot":0.07,"SideOfStreet":"right","CountryId":"20147700","StateId":"20157369","CountyId":"20159946","CityId":"20159947","DistrictId":"20159954"}}},{"Relevance":1.0,"Distance":56.0,"MatchLevel":"landmark","MatchQuality":{"Country":1.0,"State":1.0,"Name":1.0},"Location":{"LocationId":"NT_Fo-qJJnHrEHanrWj3qHTiA","LocationType":"river","Name":"Werre","DisplayPosition":{"Latitude":52.21377,"Longitude":8.80508},"MapView":{"TopLeft":{"Latitude":52.22182,"Longitude":8.76027},"BottomRight":{"Latitude":52.20571,"Longitude":8.82811}},"Address":{"Label":"Deutschland","Country":"DEU","State":"Nordrhein-Westfalen","AdditionalData":[{"value":"Deutschland","key":"CountryName"},{"value":"Nordrhein-Westfalen","key":"StateName"}]},"MapReference":{"CountryId":"20147700","StateId":"20157369","PlaceId":"53316743"}}},{"Relevance":1.0,"Distance":56.2,"MatchLevel":"street","MatchQuality":{"Country":1.0,"State":1.0,"County":1.0,"City":1.0,"District":1.0,"Street":[1.0],"PostalCode":1.0},"Location":{"LocationId":"NT_kqNKuJtVTfpzmRLbdbaLuA_l_75330807_R","LocationType":"point","DisplayPosition":{"Latitude":52.20838,"Longitude":8.80396},"MapView":{"TopLeft":{"Latitude":52.20838,"Longitude":8.80396},"BottomRight":{"Latitude":52.20797,"Longitude":8.80437}},"Address":{"Label":"Eidinghausener Straße, 32549 Bad Oeynhausen, Deutschland","Country":"DEU","State":"Nordrhein-Westfalen","County":"Minden-Lübbecke","City":"Bad Oeynhausen","District":"Bad Oeynhausen","Street":"Eidinghausener Straße","PostalCode":"32549","AdditionalData":[{"value":"Deutschland","key":"CountryName"},{"value":"Nordrhein-Westfalen","key":"StateName"},{"value":"Minden-Lübbecke","key":"CountyName"}]},"MapReference":{"ReferenceId":"75330807","Spot":1.0,"SideOfStreet":"right","CountryId":"20147700","StateId":"20157369","CountyId":"20159946","CityId":"20159947","DistrictId":"20159954"}}},{"Relevance":1.0,"Distance":60.3,"MatchLevel":"street","MatchQuality":{"Country":1.0,"State":1.0,"County":1.0,"City":1.0,"District":1.0,"Street":[1.0],"PostalCode":1.0},"Location":{"LocationId":"NT_NSRkfYf9Nsb03pKkThX-6C_l_1267502822_R","LocationType":"point","DisplayPosition":{"Latitude":52.20926,"Longitude":8.80332},"MapView":{"TopLeft":{"Latitude":52.20954,"Longitude":8.80314},"BottomRight":{"Latitude":52.20926,"Longitude":8.80332}},"Address":{"Label":"Eidinghausener Straße, 32549 Bad Oeynhausen, Deutschland","Country":"DEU","State":"Nordrhein-Westfalen","County":"Minden-Lübbecke","City":"Bad Oeynhausen","District":"Bad Oeynhausen","Street":"Eidinghausener Straße","PostalCode":"32549","AdditionalData":[{"value":"Deutschland","key":"CountryName"},{"value":"Nordrhein-Westfalen","key":"StateName"},{"value":"Minden-Lübbecke","key":"CountyName"}]},"MapReference":{"ReferenceId":"1267502822","Spot":0.0,"SideOfStreet":"right","CountryId":"20147700","StateId":"20157369","CountyId":"20159946","CityId":"20159947","DistrictId":"20159954"}}},{"Relevance":1.0,"Distance":88.8,"MatchLevel":"houseNumber","MatchQuality":{"Country":1.0,"State":1.0,"County":1.0,"City":1.0,"District":1.0,"Street":[1.0],"HouseNumber":1.0,"PostalCode":1.0},"MatchType":"interpolated","Location":{"LocationId":"NT_veWdOfAO8bxskA5UCSC2HA_xA","LocationType":"point","DisplayPosition":{"Latitude":52.20815,"Longitude":8.80345},"MapView":{"TopLeft":{"Latitude":52.2092742,"Longitude":8.8016155},"BottomRight":{"Latitude":52.2070258,"Longitude":8.8052845}},"Address":{"Label":"Hinterm Gradierwerk 1, 32549 Bad Oeynhausen, Deutschland","Country":"DEU","State":"Nordrhein-Westfalen","County":"Minden-Lübbecke","City":"Bad Oeynhausen","District":"Bad Oeynhausen","Street":"Hinterm Gradierwerk","HouseNumber":"1","PostalCode":"32549","AdditionalData":[{"value":"Deutschland","key":"CountryName"},{"value":"Nordrhein-Westfalen","key":"StateName"},{"value":"Minden-Lübbecke","key":"CountyName"}]},"MapReference":{"ReferenceId":"75330809","Spot":0.63,"SideOfStreet":"left","CountryId":"20147700","StateId":"20157369","CountyId":"20159946","CityId":"20159947","DistrictId":"20159954","AddressId":"193185640","RoadLinkId":"35558506"}}}]}]}}