{"Response":{"MetaInfo":{"Timestamp":"2020-03-28T10:59:58.814+0000","NextPageInformation":"2"},"View":[{"_type":"SearchResultsViewType","ViewId":0,"Result":[{"Relevance":1.0,"Distance":-17.1,"MatchLevel":"landmark","MatchQuality":{"Country":1.0,"State":1.0,"County":1.0,"City":1.0,"District":1.0,"Street":[1.0],"HouseNumber":1.0,"PostalCode":1.0,"Name":1.0},"Location":{"LocationId":"NT_w8AXQF4cXWXXz0PHFxfIkA_p_igvYPQ4Qg5FvZpaIVt.8RB","LocationType":"hospital","Name":"Marienhospital Osnabrück","DisplayPosition":{"Latitude":52.27045,"Longitude":8.05426},"MapView":{"TopLeft":{"Latitude":52.2715742,"Longitude":8.052423},"BottomRight":{"Latitude":52.2693258,"Longitude":8.056097}},"Address":{"Label":"Bischofsstraße 1, 49074 Osnabrück, Deutschland","Country":"DEU","State":"Niedersachsen","County":"Osnabrück (Stadt)","City":"Osnabrück","District":"Osnabrück","Street":"Bischofsstraße","HouseNumber":"1","PostalCode":"49074","AdditionalData":[{"value":"Deutschland","key":"CountryName"},{"value":"Niedersachsen","key":"StateName"},{"value":"Osnabrück (Stadt)","key":"CountyName"}]},"MapReference":{"CountryId":"20147700","StateId":"20151542","CountyId":"20155918","CityId":"20155919","DistrictId":"20155929","PlaceId":"50342463"}}},{"Relevance":1.0,"Distance":0.0,"Direction":0.0,"MatchLevel":"district","MatchQuality":{"Country":1.0,"State":1.0,"County":1.0,"City":1.0,"District":1.0,"PostalCode":1.0},"Location":{"LocationId":"NT_UHkQblYp-gQDxw8iM8bRUC","LocationType":"point","DisplayPosition":{"Latitude":52.2700688,"Longitude":8.053493},"MapView":{"TopLeft":{"Latitude":52.31657,"Longitude":7.94177},"BottomRight":{"Latitude":52.24194,"Longitude":8.11465}},"Address":{"Label":"Osnabrück, Niedersachsen, Deutschland","Country":"DEU","State":"Niedersachsen","County":"Osnabrück (Stadt)","City":"Osnabrück","District":"Osnabrück","PostalCode":"49074","AdditionalData":[{"value":"Deutschland","key":"CountryName"},{"value":"Niedersachsen","key":"StateName"},{"value":"Osnabrück (Stadt)","key":"CountyName"}]},"MapReference":{"ReferenceId":"1134657941","SideOfStreet":"neither","CountryId":"20147700","StateId":"20151542","CountyId":"20155918","CityId":"20155919","DistrictId":"20155929"}}},{"Relevance":1.0,"Distance":49.5,"MatchLevel":"houseNumber","MatchQuality":{"Country":1.0,"State":1.0,"County":1.0,"City":1.0,"District":1.0,"Street":[1.0],"HouseNumber":1.0,"PostalCode":1.0},"MatchType":"interpolated","Location":{"LocationId":"NT_FFVwdrdQNgDrWAreQcAVRC_xA","LocationType":"point","DisplayPosition":{"Latitude":52.2704,"Longitude":8.05419},"MapView":{"TopLeft":{"Latitude":52.2715242,"Longitude":8.052353},"BottomRight":{"Latitude":52.2692758,"Longitude":8.056027}},"Address":{"Label":"Bischofsstraße 1, 49074 Osnabrück, Deutschland","Country":"DEU","State":"Niedersachsen","County":"Osnabrück (Stadt)","City":"Osnabrück","District":"Osnabrück","Street":"Bischofsstraße","HouseNumber":"1","PostalCode":"49074","AdditionalData":[{"value":"Deutschland","key":"CountryName"},{"value":"Niedersachsen","key":"StateName"},{"value":"Osnabrück (Stadt)","key":"CountyName"}]},"MapReference":{"ReferenceId":"586506608","Spot":0.0,"SideOfStreet":"left","CountryId":"20147700","StateId":"20151542","CountyId":"20155918","CityId":"20155919","DistrictId":"20155929","AddressId":"621946550","RoadLinkId":"436186426"}}},{"Relevance":1.0,"Distance":54.5,"MatchLevel":"houseNumber","MatchQuality":{"Country":1.0,"State":1.0,"County":1.0,"City":1.0,"District":1.0,"Street":[1.0],"HouseNumber":1.0,"PostalCode":1.0},"MatchType":"interpolated","Location":{"LocationId":"NT_6dZkwqOxKxHS.qstt0TECB_xA","LocationType":"point","DisplayPosition":{"Latitude":52.27024,"Longitude":8.05221},"MapView":{"TopLeft":{"Latitude":52.2713642,"Longitude":8.050373},"BottomRight":{"Latitude":52.2691158,"Longitude":8.054047}},"Address":{"Label":"Johannisfreiheit 1, 49074 Osnabrück, Deutschland","Country":"DEU","State":"Niedersachsen","County":"Osnabrück (Stadt)","City":"Osnabrück","District":"Osnabrück","Street":"Johannisfreiheit","HouseNumber":"1","PostalCode":"49074","AdditionalData":[{"value":"Deutschland","key":"CountryName"},{"value":"Niedersachsen","key":"StateName"},{"value":"Osnabrück (Stadt)","key":"CountyName"}]},"MapReference":{"ReferenceId":"554720395","Spot":0.6,"SideOfStreet":"right","CountryId":"20147700","StateId":"20151542","CountyId":"20155918","CityId":"20155919","DistrictId":"20155929","AddressId":"621975051","RoadLinkId":"37140230"}}},{"Relevance":1.0,"Distance":59.5,"MatchLevel":"street","MatchQuality":{"Country":1.0,"State":1.0,"County":1.0,"City":1.0,"District":1.0,"Street":[1.0],"PostalCode":1.0},"Location":{"LocationId":"NT_HZvh2gAgid3u3nafysyXvD_l_51822679_L","LocationType":"point","DisplayPosition":{"Latitude":52.26973,"Longitude":8.05417},"MapView":{"TopLeft":{"Latitude":52.26973,"Longitude":8.05417},"BottomRight":{"Latitude":52.26933,"Longitude":8.0546}},"Address":{"Label":"Holtstraße, 49074 Osnabrück, Deutschland","Country":"DEU","State":"Niedersachsen","County":"Osnabrück (Stadt)","City":"Osnabrück","District":"Osnabrück","Street":"Holtstraße","PostalCode":"49074","AdditionalData":[{"value":"Deutschland","key":"CountryName"},{"value":"Niedersachsen","key":"StateName"},{"value":"Osnabrück (Stadt)","key":"CountyName"}]},"MapReference":{"ReferenceId":"51822679","Spot":1.0,"SideOfStreet":"left","CountryId":"20147700","StateId":"20151542","CountyId":"20155918","CityId":"20155919","DistrictId":"20155929"}}},{"Relevance":1.0,"Distance":69.0,"MatchLevel":"street","MatchQuality":{"Country":1.0,"State":1.0,"County":1.0,"City":1.0,"District":1.0,"Street":[1.0],"PostalCode":1.0},"Location":{"LocationId":"NT_FFVwdrdQNgDrWAreQcAVRC_l_586506609_R","LocationType":"point","DisplayPosition":{"Latitude":52.27046,"Longitude":8.05428},"MapView":{"TopLeft":{"Latitude":52.27049,"Longitude":8.05428},"BottomRight":{"Latitude":52.27046,"Longitude":8.05468}},"Address":{"Label":"Bischofsstraße, 49074 Osnabrück, Deutschland","Country":"DEU","State":"Niedersachsen","County":"Osnabrück (Stadt)","City":"Osnabrück","District":"Osnabrück","Street":"Bischofsstraße","PostalCode":"49074","AdditionalData":[{"value":"Deutschland","key":"CountryName"},{"value":"Niedersachsen","key":"StateName"},{"value":"Osnabrück (Stadt)","key":"CountyName"}]},"MapReference":{"ReferenceId":"586506609","Spot":0.0,"SideOfStreet":"right","CountryId":"20147700","StateId":"20151542","CountyId":"20155918","CityId":"20155919","DistrictId":"20155929"}}},{"Relevance":1.0,"Distance":76.2,"MatchLevel":"street","MatchQuality":{"Country":1.0,"State":1.0,"County":1.0,"City":1.0,"District":1.0,"PostalCode":1.0},"Location":{"LocationId":"NT_B0iw4GZNVR0nTTbWJCLEeB_l_586506600_L","LocationType":"point","DisplayPosition":{"Latitude":52.2706893,"Longitude":8.0539695},"MapView":{"TopLeft":{"Latitude":52.2712,"Longitude":8.05321},"BottomRight":{"Latitude":52.27046,"Longitude":8.05428}},"Address":{"Label":"49074 Osnabrück, Deutschland","Country":"DEU","State":"Niedersachsen","County":"Osnabrück (Stadt)","City":"Osnabrück","District":"Osnabrück","PostalCode":"49074","AdditionalData":[{"value":"Deutschland","key":"CountryName"},{"value":"Niedersachsen","key":"StateName"},{"value":"Osnabrück (Stadt)","key":"CountyName"}]},"MapReference":{"ReferenceId":"586506600","Spot":0.3,"SideOfStreet":"left","CountryId":"20147700","StateId":"20151542","CountyId":"20155918","CityId":"20155919","DistrictId":"20155929"}}},{"Relevance":1.0,"Distance":76.9,"MatchLevel":"houseNumber","MatchQuality":{"Country":1.0,"State":1.0,"County":1.0,"City":1.0,"District":1.0,"Street":[1.0],"HouseNumber":1.0,"PostalCode":1.0},"MatchType":"interpolated","Location":{"LocationId":"NT_9XG2XKL2.y04MmztS6.O1A_xIE","LocationType":"point","DisplayPosition":{"Latitude":52.26948,"Longitude":8.0529},"MapView":{"TopLeft":{"Latitude":52.2706042,"Longitude":8.051063},"BottomRight":{"Latitude":52.2683558,"Longitude":8.054737}},"Address":{"Label":"Pfaffenstraße 1B, 49074 Osnabrück, Deutschland","Country":"DEU","State":"Niedersachsen","County":"Osnabrück (Stadt)","City":"Osnabrück","District":"Osnabrück","Street":"Pfaffenstraße","HouseNumber":"1B","PostalCode":"49074","AdditionalData":[{"value":"Deutschland","key":"CountryName"},{"value":"Niedersachsen","key":"StateName"},{"value":"Osnabrück (Stadt)","key":"CountyName"}]},"MapReference":{"ReferenceId":"586506612","Spot":0.18,"SideOfStreet":"left","CountryId":"20147700","StateId":"20151542","CountyId":"20155918","CityId":"20155919","DistrictId":"20155929","AddressId":"697475572","RoadLinkId":"36896469"}}},{"Relevance":1.0,"Distance":79.4,"MatchLevel":"houseNumber","MatchQuality":{"Country":1.0,"State":1.0,"County":1.0,"City":1.0,"District":1.0,"Street":[1.0],"HouseNumber":1.0,"PostalCode":1.0},"MatchType":"interpolated","Location":{"LocationId":"NT_9XG2XKL2.y04MmztS6.O1A_xA","LocationType":"point","DisplayPosition":{"Latitude":52.26982,"Longitude":8.0524},"MapView":{"TopLeft":{"Latitude":52.2709442,"Longitude":8.050563},"BottomRight":{"Latitude":52.2686958,"Longitude":8.054237}},"Address":{"Label":"Pfaffenstraße 1, 49074 Osnabrück, Deutschland","Country":"DEU","State":"Niedersachsen","County":"Osnabrück (Stadt)","City":"Osnabrück","District":"Osnabrück","Street":"Pfaffenstraße","HouseNumber":"1","PostalCode":"49074","AdditionalData":[{"value":"Deutschland","key":"CountryName"},{"value":"Niedersachsen","key":"StateName"},{"value":"Osnabrück (Stadt)","key":"CountyName"}]},"MapReference":{"ReferenceId":"586506613","Spot":0.4,"SideOfStreet":"left","CountryId":"20147700","StateId":"20151542","CountyId":"20155918","CityId":"20155919","DistrictId":"20155929","AddressId":"697475573","RoadLinkId":"36508599"}}},{"Relevance":1.0,"Distance":86.3,"MatchLevel":"houseNumber","MatchQuality":{"Country":1.0,"State":1.0,"County":1.0,"City":1.0,"District":1.0,"Street":[1.0],"HouseNumber":1.0,"PostalCode":1.0},"MatchType":"interpolated","Location":{"LocationId":"NT_y2ANVjro1RkHL3qaqvxDOA_zED","LocationType":"point","DisplayPosition":{"Latitude":52.26937,"Longitude":8.05294},"MapView":{"TopLeft":{"Latitude":52.2704942,"Longitude":8.051103},"BottomRight":{"Latitude":52.2682458,"Longitude":8.054777}},"Address":{"Label":"Wassermannstraße 31, 49074 Osnabrück, Deutschland","Country":"DEU","State":"Niedersachsen","County":"Osnabrück (Stadt)","City":"Osnabrück","District":"Osnabrück","Street":"Wassermannstraße","HouseNumber":"31","PostalCode":"49074","AdditionalData":[{"value":"Deutschland","key":"CountryName"},{"value":"Niedersachsen","key":"StateName"},{"value":"Osnabrück (Stadt)","key":"CountyName"}]},"MapReference":{"ReferenceId":"554754699","Spot":0.99,"SideOfStreet":"left","CountryId":"20147700","StateId":"20151542","CountyId":"20155918","CityId":"20155919","DistrictId":"20155929","AddressId":"179528429","RoadLinkId":"36967580"}}}]}]}}