{"Response":{"MetaInfo":{"Timestamp":"2020-03-28T10:49:23.258+0000","NextPageInformation":"2"},"View":[{"_type":"SearchResultsViewType","ViewId":0,"Result":[{"Relevance":1.0,"Distance":0.0,"Direction":0.0,"MatchLevel":"district","MatchQuality":{"Country":1.0,"State":1.0,"County":1.0,"City":1.0,"District":1.0,"Subdistrict":1.0,"PostalCode":1.0},"Location":{"LocationId":"NT_M63X1wAdw6oyLnyH4LeUEB","LocationType":"point","DisplayPosition":{"Latitude":52.2522583,"Longitude":21.1699047},"MapView":{"TopLeft":{"Latitude":52.25793,"Longitude":21.13763},"BottomRight":{"Latitude":52.23933,"Longitude":21.20288}},"Address":{"Label":"Nowy Rembertów, Warszawa, Woj. Mazowieckie, Polska","Country":"POL","State":"Woj. Mazowieckie","County":"Warszawa","City":"Warszawa","District":"Warszawa","Subdistrict":"Nowy Rembertów","PostalCode":"04-498","AdditionalData":[{"value":"Polska","key":"CountryName"},{"value":"Woj. Mazowieckie","key":"StateName"},{"value":"Warszawa","key":"CountyName"}]},"MapReference":{"ReferenceId":"1201827724","SideOfStreet":"neither","CountryId":"20624059","StateId":"20627182","CountyId":"20627769","CityId":"20627780","DistrictId":"20627780"}}},{"Relevance":1.0,"Distance":21.0,"MatchLevel":"houseNumber","MatchQuality":{"Country":1.0,"State":1.0,"County":1.0,"City":1.0,"District":1.0,"Subdistrict":1.0,"Street":[1.0],"HouseNumber":1.0,"PostalCode":1.0},"MatchType":"interpolated","Location":{"LocationId":"NT_Dsg2e6s-6TywK.d7k0Cy6A_xA","LocationType":"point","DisplayPosition":{"Latitude":52.25195,"Longitude":21.16977},"MapView":{"TopLeft":{"Latitude":52.2530742,"Longitude":21.1679337},"BottomRight":{"Latitude":52.2508258,"Longitude":21.1716063}},"Address":{"Label":"ulica Grzybowa 1, 04-498 Warszawa, Polska","Country":"POL","State":"Woj. Mazowieckie","County":"Warszawa","City":"Warszawa","District":"Rembertów","Subdistrict":"Nowy Rembertów","Street":"ulica Grzybowa","HouseNumber":"1","PostalCode":"04-498","AdditionalData":[{"value":"Polska","key":"CountryName"},{"value":"Woj. Mazowieckie","key":"StateName"},{"value":"Warszawa","key":"CountyName"}]},"MapReference":{"ReferenceId":"1201834691","Spot":0.0,"SideOfStreet":"right","CountryId":"20624059","StateId":"20627182","CountyId":"20627769","CityId":"20627780","DistrictId":"20633158","AddressId":"210879578","RoadLinkId":"514493142"}}},{"Relevance":1.0,"Distance":26.6,"MatchLevel":"street","MatchQuality":{"Country":1.0,"State":1.0,"County":1.0,"City":1.0,"District":1.0,"Subdistrict":1.0,"Street":[1.0],"PostalCode":1.0},"Location":{"LocationId":"NT_ZVXn1gJwHyZ.Jq-dZUZtjA_l_595599926_L","LocationType":"point","DisplayPosition":{"Latitude":52.2520637,"Longitude":21.1701317},"MapView":{"TopLeft":{"Latitude":52.25233,"Longitude":21.17006},"BottomRight":{"Latitude":52.25198,"Longitude":21.17036}},"Address":{"Label":"ulica Zygmunta III, 04-494 Warszawa, Polska","Country":"POL","State":"Woj. Mazowieckie","County":"Warszawa","City":"Warszawa","District":"Rembertów","Subdistrict":"Nowy Rembertów","Street":"ulica Zygmunta III","PostalCode":"04-494","AdditionalData":[{"value":"Polska","key":"CountryName"},{"value":"Woj. Mazowieckie","key":"StateName"},{"value":"Warszawa","key":"CountyName"}]},"MapReference":{"ReferenceId":"595599926","Spot":0.24,"SideOfStreet":"left","CountryId":"20624059","StateId":"20627182","CountyId":"20627769","CityId":"20627780","DistrictId":"20633158"}}},{"Relevance":1.0,"Distance":35.9,"MatchLevel":"houseNumber","MatchQuality":{"Country":1.0,"State":1.0,"County":1.0,"City":1.0,"District":1.0,"Subdistrict":1.0,"Street":[1.0],"HouseNumber":1.0,"PostalCode":1.0},"MatchType":"interpolated","Location":{"LocationId":"NT_ahLWrmJF-C3tL3sgJZpJ4B_1EE","LocationType":"point","DisplayPosition":{"Latitude":52.25255,"Longitude":21.16968},"MapView":{"TopLeft":{"Latitude":52.2536742,"Longitude":21.1678437},"BottomRight":{"Latitude":52.2514258,"Longitude":21.1715163}},"Address":{"Label":"ulica Stanisława Skrzeszewskiego 5A, 04-483 Warszawa, Polska","Country":"POL","State":"Woj. Mazowieckie","County":"Warszawa","City":"Warszawa","District":"Rembertów","Subdistrict":"Nowy Rembertów","Street":"ulica Stanisława Skrzeszewskiego","HouseNumber":"5A","PostalCode":"04-483","AdditionalData":[{"value":"Polska","key":"CountryName"},{"value":"Woj. Mazowieckie","key":"StateName"},{"value":"Warszawa","key":"CountyName"}]},"MapReference":{"ReferenceId":"595599838","Spot":0.41,"SideOfStreet":"right","CountryId":"20624059","StateId":"20627182","CountyId":"20627769","CityId":"20627780","DistrictId":"20633158","AddressId":"222165313","RoadLinkId":"95807189"}}},{"Relevance":1.0,"Distance":36.2,"MatchLevel":"street","MatchQuality":{"Country":1.0,"State":1.0,"County":1.0,"City":1.0,"District":1.0,"Subdistrict":1.0,"Street":[1.0],"PostalCode":1.0},"Location":{"LocationId":"NT_Dsg2e6s-6TywK.d7k0Cy6A_l_877947074_R","LocationType":"point","DisplayPosition":{"Latitude":52.2519388,"Longitude":21.1698064},"MapView":{"TopLeft":{"Latitude":52.25195,"Longitude":21.16977},"BottomRight":{"Latitude":52.25187,"Longitude":21.17003}},"Address":{"Label":"ulica Grzybowa, 04-498 Warszawa, Polska","Country":"POL","State":"Woj. Mazowieckie","County":"Warszawa","City":"Warszawa","District":"Rembertów","Subdistrict":"Nowy Rembertów","Street":"ulica Grzybowa","PostalCode":"04-498","AdditionalData":[{"value":"Polska","key":"CountryName"},{"value":"Woj. Mazowieckie","key":"StateName"},{"value":"Warszawa","key":"CountyName"}]},"MapReference":{"ReferenceId":"877947074","Spot":0.86,"SideOfStreet":"right","CountryId":"20624059","StateId":"20627182","CountyId":"20627769","CityId":"20627780","DistrictId":"20633158"}}},{"Relevance":1.0,"Distance":38.6,"MatchLevel":"houseNumber","MatchQuality":{"Country":1.0,"State":1.0,"County":1.0,"City":1.0,"District":1.0,"Subdistrict":1.0,"Street":[1.0],"HouseNumber":1.0,"PostalCode":1.0},"MatchType":"interpolated","Location":{"LocationId":"NT_ahLWrmJF-C3tL3sgJZpJ4B_5A","LocationType":"point","DisplayPosition":{"Latitude":52.25229,"Longitude":21.17047},"MapView":{"TopLeft":{"Latitude":52.2534142,"Longitude":21.1686337},"BottomRight":{"Latitude":52.2511658,"Longitude":21.1723063}},"Address":{"Label":"ulica Stanisława Skrzeszewskiego 9, 04-483 Warszawa, Polska","Country":"POL","State":"Woj. Mazowieckie","County":"Warszawa","City":"Warszawa","District":"Rembertów","Subdistrict":"Nowy Rembertów","Street":"ulica Stanisława Skrzeszewskiego","HouseNumber":"9","PostalCode":"04-483","AdditionalData":[{"value":"Polska","key":"CountryName"},{"value":"Woj. Mazowieckie","key":"StateName"},{"value":"Warszawa","key":"CountyName"}]},"MapReference":{"ReferenceId":"595599925","Spot":0.92,"SideOfStreet":"right","CountryId":"20624059","StateId":"20627182","CountyId":"20627769","CityId":"20627780","DistrictId":"20633158","AddressId":"222166313","RoadLinkId":"95816773"}}},{"Relevance":1.0,"Distance":41.9,"MatchLevel":"houseNumber","MatchQuality":{"Country":1.0,"State":1.0,"County":1.0,"City":1.0,"District":1.0,"Subdistrict":1.0,"Street":[1.0],"HouseNumber":1.0,"PostalCode":1.0},"MatchType":"interpolated","Location":{"LocationId":"NT_SXngTVjH5wIW4qJL7ZgJ3B_1EE","LocationType":"point","DisplayPosition":{"Latitude":52.25293,"Longitude":21.17006},"MapView":{"TopLeft":{"Latitude":52.2540542,"Longitude":21.1682237},"BottomRight":{"Latitude":52.2518058,"Longitude":21.1718963}},"Address":{"Label":"ulica Stefana Łyszkiewicza 5A, 04-483 Warszawa, Polska","Country":"POL","State":"Woj. Mazowieckie","County":"Warszawa","City":"Warszawa","District":"Rembertów","Subdistrict":"Nowy Rembertów","Street":"ulica Stefana Łyszkiewicza","HouseNumber":"5A","PostalCode":"04-483","AdditionalData":[{"value":"Polska","key":"CountryName"},{"value":"Woj. Mazowieckie","key":"StateName"},{"value":"Warszawa","key":"CountyName"}]},"MapReference":{"ReferenceId":"595599845","Spot":0.59,"SideOfStreet":"left","CountryId":"20624059","StateId":"20627182","CountyId":"20627769","CityId":"20627780","DistrictId":"20633158","AddressId":"672226626","RoadLinkId":"95380098"}}},{"Relevance":1.0,"Distance":44.0,"MatchLevel":"street","MatchQuality":{"Country":1.0,"State":1.0,"County":1.0,"City":1.0,"District":1.0,"Subdistrict":1.0,"Street":[1.0],"PostalCode":1.0},"Location":{"LocationId":"NT_Dsg2e6s-6TywK.d7k0Cy6A_l_877947077_R","LocationType":"point","DisplayPosition":{"Latitude":52.25187,"Longitude":21.17003},"MapView":{"TopLeft":{"Latitude":52.25187,"Longitude":21.17003},"BottomRight":{"Latitude":52.25183,"Longitude":21.17015}},"Address":{"Label":"ulica Grzybowa, 04-498 Warszawa, Polska","Country":"POL","State":"Woj. Mazowieckie","County":"Warszawa","City":"Warszawa","District":"Rembertów","Subdistrict":"Nowy Rembertów","Street":"ulica Grzybowa","PostalCode":"04-498","AdditionalData":[{"value":"Polska","key":"CountryName"},{"value":"Woj. Mazowieckie","key":"StateName"},{"value":"Warszawa","key":"CountyName"}]},"MapReference":{"ReferenceId":"877947077","Spot":1.0,"SideOfStreet":"right","CountryId":"20624059","StateId":"20627182","CountyId":"20627769","CityId":"20627780","DistrictId":"20633158"}}},{"Relevance":1.0,"Distance":44.0,"MatchLevel":"street","MatchQuality":{"Country":1.0,"State":1.0,"County":1.0,"City":1.0,"District":1.0,"Subdistrict":1.0,"Street":[1.0],"PostalCode":1.0},"Location":{"LocationId":"NT_ZVXn1gJwHyZ.Jq-dZUZtjA_l_595599995_L","LocationType":"point","DisplayPosition":{"Latitude":52.25187,"Longitude":21.17003},"MapView":{"TopLeft":{"Latitude":52.25187,"Longitude":21.16969},"BottomRight":{"Latitude":52.25148,"Longitude":21.17003}},"Address":{"Label":"ulica Zygmunta III, 04-494 Warszawa, Polska","Country":"POL","State":"Woj. Mazowieckie","County":"Warszawa","City":"Warszawa","District":"Rembertów","Subdistrict":"Nowy Rembertów","Street":"ulica Zygmunta III","PostalCode":"04-494","AdditionalData":[{"value":"Polska","key":"CountryName"},{"value":"Woj. Mazowieckie","key":"StateName"},{"value":"Warszawa","key":"CountyName"}]},"MapReference":{"ReferenceId":"595599995","Spot":1.0,"SideOfStreet":"left","CountryId":"20624059","StateId":"20627182","CountyId":"20627769","CityId":"20627780","DistrictId":"20633158"}}},{"Relevance":1.0,"Distance":48.4,"MatchLevel":"houseNumber","MatchQuality":{"Country":1.0,"State":1.0,"County":1.0,"City":1.0,"District":1.0,"Subdistrict":1.0,"Street":[1.0],"HouseNumber":1.0,"PostalCode":1.0},"MatchType":"interpolated","Location":{"LocationId":"NT_Dsg2e6s-6TywK.d7k0Cy6A_4A","LocationType":"point","DisplayPosition":{"Latitude":52.25212,"Longitude":21.16923},"MapView":{"TopLeft":{"Latitude":52.2532442,"Longitude":21.1673937},"BottomRight":{"Latitude":52.2509958,"Longitude":21.1710663}},"Address":{"Label":"ulica Grzybowa 8, 04-498 Warszawa, Polska","Country":"POL","State":"Woj. Mazowieckie","County":"Warszawa","City":"Warszawa","District":"Rembertów","Subdistrict":"Nowy Rembertów","Street":"ulica Grzybowa","HouseNumber":"8","PostalCode":"04-498","AdditionalData":[{"value":"Polska","key":"CountryName"},{"value":"Woj. Mazowieckie","key":"StateName"},{"value":"Warszawa","key":"CountyName"}]},"MapReference":{"ReferenceId":"1201834692","Spot":0.32,"SideOfStreet":"left","CountryId":"20624059","StateId":"20627182","CountyId":"20627769","CityId":"20627780","DistrictId":"20633158","AddressId":"211469440","RoadLinkId":"514493143"}}}]}]}}