{"Response":{"MetaInfo":{"Timestamp":"2020-03-28T10:45:39.746+0000","NextPageInformation":"2"},"View":[{"_type":"SearchResultsViewType","ViewId":0,"Result":[{"Relevance":1.0,"Distance":0.0,"Direction":0.0,"MatchLevel":"district","MatchQuality":{"Country":1.0,"State":1.0,"County":1.0,"City":1.0,"District":1.0,"PostalCode":1.0},"Location":{"LocationId":"NT_9DHVsyWC1cl-0gLiLoPEWD","LocationType":"point","DisplayPosition":{"Latitude":52.2374666,"Longitude":17.2751171},"MapView":{"TopLeft":{"Latitude":52.24322,"Longitude":17.24119},"BottomRight":{"Latitude":52.21479,"Longitude":17.3142}},"Address":{"Label":"Środa Wielkopolska, Woj. Wielkopolskie, Polska","Country":"POL","State":"Woj. Wielkopolskie","County":"Powiat Średzki","City":"Środa Wielkopolska","District":"Środa Wielkopolska","PostalCode":"63-000","AdditionalData":[{"value":"Polska","key":"CountryName"},{"value":"Woj. Wielkopolskie","key":"StateName"},{"value":"Powiat Średzki","key":"CountyName"}]},"MapReference":{"ReferenceId":"1089207049","SideOfStreet":"neither","CountryId":"20624059","StateId":"20629915","CountyId":"20631779","CityId":"20631788","DistrictId":"20697423"}}},{"Relevance":1.0,"Distance":5.2,"MatchLevel":"houseNumber","MatchQuality":{"Country":1.0,"State":1.0,"County":1.0,"City":1.0,"District":1.0,"Street":[1.0],"HouseNumber":1.0,"PostalCode":1.0},"MatchType":"interpolated","Location":{"LocationId":"NT_EreuwbfYbQkeFY-2WN4nAC_zMD","LocationType":"point","DisplayPosition":{"Latitude":52.23747,"Longitude":17.27482},"MapView":{"TopLeft":{"Latitude":52.2385942,"Longitude":17.2729843},"BottomRight":{"Latitude":52.2363458,"Longitude":17.2766557}},"Address":{"Label":"ulica Strzelecka 33, 63-000 Środa Wielkopolska, Polska","Country":"POL","State":"Woj. Wielkopolskie","County":"Powiat Średzki","City":"Środa Wielkopolska","District":"Środa Wielkopolska","Street":"ulica Strzelecka","HouseNumber":"33","PostalCode":"63-000","AdditionalData":[{"value":"Polska","key":"CountryName"},{"value":"Woj. Wielkopolskie","key":"StateName"},{"value":"Powiat Średzki","key":"CountyName"}]},"MapReference":{"ReferenceId":"1089212346","Spot":0.87,"SideOfStreet":"right","CountryId":"20624059","StateId":"20629915","CountyId":"20631779","CityId":"20631788","DistrictId":"20697423","AddressId":"732227716","RoadLinkId":"404214569"}}},{"Relevance":1.0,"Distance":21.2,"MatchLevel":"houseNumber","MatchQuality":{"Country":1.0,"State":1.0,"County":1.0,"City":1.0,"District":1.0,"Street":[1.0],"HouseNumber":1.0,"PostalCode":1.0},"MatchType":"interpolated","Location":{"LocationId":"NT_bPMEGawj4el4zyEBPGIW1A_1QD","LocationType":"point","DisplayPosition":{"Latitude":52.23771,"Longitude":17.27552},"MapView":{"TopLeft":{"Latitude":52.2388342,"Longitude":17.2736843},"BottomRight":{"Latitude":52.2365858,"Longitude":17.2773557}},"Address":{"Label":"ulica Polna 54, 63-000 Środa Wielkopolska, Polska","Country":"POL","State":"Woj. Wielkopolskie","County":"Powiat Średzki","City":"Środa Wielkopolska","District":"Środa Wielkopolska","Street":"ulica Polna","HouseNumber":"54","PostalCode":"63-000","AdditionalData":[{"value":"Polska","key":"CountryName"},{"value":"Woj. Wielkopolskie","key":"StateName"},{"value":"Powiat Średzki","key":"CountyName"}]},"MapReference":{"ReferenceId":"924058165","Spot":0.8,"SideOfStreet":"left","CountryId":"20624059","StateId":"20629915","CountyId":"20631779","CityId":"20631788","DistrictId":"20697423","AddressId":"732193298","RoadLinkId":"279489001"}}},{"Relevance":1.0,"Distance":25.0,"MatchLevel":"houseNumber","MatchQuality":{"Country":1.0,"State":1.0,"County":1.0,"City":1.0,"District":1.0,"Street":[1.0],"HouseNumber":1.0,"PostalCode":1.0},"MatchType":"interpolated","Location":{"LocationId":"NT_EreuwbfYbQkeFY-2WN4nAC_zQD","LocationType":"point","DisplayPosition":{"Latitude":52.23758,"Longitude":17.2748},"MapView":{"TopLeft":{"Latitude":52.2387042,"Longitude":17.2729643},"BottomRight":{"Latitude":52.2364558,"Longitude":17.2766357}},"Address":{"Label":"ulica Strzelecka 34, 63-000 Środa Wielkopolska, Polska","Country":"POL","State":"Woj. Wielkopolskie","County":"Powiat Średzki","City":"Środa Wielkopolska","District":"Środa Wielkopolska","Street":"ulica Strzelecka","HouseNumber":"34","PostalCode":"63-000","AdditionalData":[{"value":"Polska","key":"CountryName"},{"value":"Woj. Wielkopolskie","key":"StateName"},{"value":"Powiat Średzki","key":"CountyName"}]},"MapReference":{"ReferenceId":"1089212347","Spot":0.05,"SideOfStreet":"left","CountryId":"20624059","StateId":"20629915","CountyId":"20631779","CityId":"20631788","DistrictId":"20697423","AddressId":"210881181","RoadLinkId":"404214570"}}},{"Relevance":1.0,"Distance":41.5,"MatchLevel":"street","MatchQuality":{"Country":1.0,"State":1.0,"County":1.0,"City":1.0,"District":1.0,"Street":[1.0],"PostalCode":1.0},"Location":{"LocationId":"NT_EreuwbfYbQkeFY-2WN4nAC_l_967166856_R","LocationType":"point","DisplayPosition":{"Latitude":52.23776,"Longitude":17.27474},"MapView":{"TopLeft":{"Latitude":52.23793,"Longitude":17.27468},"BottomRight":{"Latitude":52.23776,"Longitude":17.27474}},"Address":{"Label":"ulica Strzelecka, 63-000 Środa Wielkopolska, Polska","Country":"POL","State":"Woj. Wielkopolskie","County":"Powiat Średzki","City":"Środa Wielkopolska","District":"Środa Wielkopolska","Street":"ulica Strzelecka","PostalCode":"63-000","AdditionalData":[{"value":"Polska","key":"CountryName"},{"value":"Woj. Wielkopolskie","key":"StateName"},{"value":"Powiat Średzki","key":"CountyName"}]},"MapReference":{"ReferenceId":"967166856","Spot":0.0,"SideOfStreet":"right","CountryId":"20624059","StateId":"20629915","CountyId":"20631779","CityId":"20631788","DistrictId":"20697423"}}},{"Relevance":1.0,"Distance":59.5,"MatchLevel":"street","MatchQuality":{"Country":1.0,"State":1.0,"County":1.0,"City":1.0,"District":1.0,"Street":[1.0],"PostalCode":1.0},"Location":{"LocationId":"NT_EreuwbfYbQkeFY-2WN4nAC_l_1089212348_R","LocationType":"point","DisplayPosition":{"Latitude":52.23793,"Longitude":17.27468},"MapView":{"TopLeft":{"Latitude":52.23856,"Longitude":17.27446},"BottomRight":{"Latitude":52.23793,"Longitude":17.27468}},"Address":{"Label":"ulica Strzelecka, 63-000 Środa Wielkopolska, Polska","Country":"POL","State":"Woj. Wielkopolskie","County":"Powiat Średzki","City":"Środa Wielkopolska","District":"Środa Wielkopolska","Street":"ulica Strzelecka","PostalCode":"63-000","AdditionalData":[{"value":"Polska","key":"CountryName"},{"value":"Woj. Wielkopolskie","key":"StateName"},{"value":"Powiat Średzki","key":"CountyName"}]},"MapReference":{"ReferenceId":"1089212348","Spot":0.0,"SideOfStreet":"right","CountryId":"20624059","StateId":"20629915","CountyId":"20631779","CityId":"20631788","DistrictId":"20697423"}}},{"Relevance":1.0,"Distance":71.7,"MatchLevel":"houseNumber","MatchQuality":{"Country":1.0,"State":1.0,"County":1.0,"City":1.0,"District":1.0,"Street":[1.0],"HouseNumber":1.0,"PostalCode":1.0},"MatchType":"interpolated","Location":{"LocationId":"NT_h9zbF46i1X8SvpDH0vGLYC_yA","LocationType":"point","DisplayPosition":{"Latitude":52.23675,"Longitude":17.27569},"MapView":{"TopLeft":{"Latitude":52.2378742,"Longitude":17.2738544},"BottomRight":{"Latitude":52.2356258,"Longitude":17.2775256}},"Address":{"Label":"ulica gen. A. E. Fieldorfa \"Nila\" 2, 63-000 Środa Wielkopolska, Polska","Country":"POL","State":"Woj. Wielkopolskie","County":"Powiat Średzki","City":"Środa Wielkopolska","District":"Środa Wielkopolska","Street":"ulica gen. A. E. Fieldorfa \"Nila\"","HouseNumber":"2","PostalCode":"63-000","AdditionalData":[{"value":"Polska","key":"CountryName"},{"value":"Woj. Wielkopolskie","key":"StateName"},{"value":"Powiat Średzki","key":"CountyName"}]},"MapReference":{"ReferenceId":"924058183","Spot":0.58,"SideOfStreet":"right","CountryId":"20624059","StateId":"20629915","CountyId":"20631779","CityId":"20631788","DistrictId":"20697423","AddressId":"731719673","RoadLinkId":"279489019"}}},{"Relevance":1.0,"Distance":82.7,"MatchLevel":"houseNumber","MatchQuality":{"Country":1.0,"State":1.0,"County":1.0,"City":1.0,"District":1.0,"Street":[1.0],"HouseNumber":1.0,"PostalCode":1.0},"MatchType":"interpolated","Location":{"LocationId":"NT_EreuwbfYbQkeFY-2WN4nAC_yYD","LocationType":"point","DisplayPosition":{"Latitude":52.23674,"Longitude":17.27486},"MapView":{"TopLeft":{"Latitude":52.2378642,"Longitude":17.2730244},"BottomRight":{"Latitude":52.2356158,"Longitude":17.2766956}},"Address":{"Label":"ulica Strzelecka 26, 63-000 Środa Wielkopolska, Polska","Country":"POL","State":"Woj. Wielkopolskie","County":"Powiat Średzki","City":"Środa Wielkopolska","District":"Środa Wielkopolska","Street":"ulica Strzelecka","HouseNumber":"26","PostalCode":"63-000","AdditionalData":[{"value":"Polska","key":"CountryName"},{"value":"Woj. Wielkopolskie","key":"StateName"},{"value":"Powiat Średzki","key":"CountyName"}]},"MapReference":{"ReferenceId":"1089212345","Spot":0.91,"SideOfStreet":"left","CountryId":"20624059","StateId":"20629915","CountyId":"20631779","CityId":"20631788","DistrictId":"20697423","AddressId":"209783319","RoadLinkId":"404214568"}}},{"Relevance":1.0,"Distance":105.6,"MatchLevel":"houseNumber","MatchQuality":{"Country":1.0,"State":1.0,"County":1.0,"City":1.0,"District":1.0,"Street":[1.0],"HouseNumber":1.0,"PostalCode":1.0},"MatchType":"interpolated","Location":{"LocationId":"NT_EreuwbfYbQkeFY-2WN4nAC_yQD","LocationType":"point","DisplayPosition":{"Latitude":52.23653,"Longitude":17.27486},"MapView":{"TopLeft":{"Latitude":52.2376542,"Longitude":17.2730244},"BottomRight":{"Latitude":52.2354058,"Longitude":17.2766956}},"Address":{"Label":"ulica Strzelecka 24, 63-000 Środa Wielkopolska, Polska","Country":"POL","State":"Woj. Wielkopolskie","County":"Powiat Średzki","City":"Środa Wielkopolska","District":"Środa Wielkopolska","Street":"ulica Strzelecka","HouseNumber":"24","PostalCode":"63-000","AdditionalData":[{"value":"Polska","key":"CountryName"},{"value":"Woj. Wielkopolskie","key":"StateName"},{"value":"Powiat Średzki","key":"CountyName"}]},"MapReference":{"ReferenceId":"1089212344","Spot":1.0,"SideOfStreet":"left","CountryId":"20624059","StateId":"20629915","CountyId":"20631779","CityId":"20631788","DistrictId":"20697423","AddressId":"209783318","RoadLinkId":"404214567"}}},{"Relevance":1.0,"Distance":129.6,"MatchLevel":"street","MatchQuality":{"Country":1.0,"State":1.0,"County":1.0,"City":1.0,"District":1.0,"Street":[1.0],"PostalCode":1.0},"Location":{"LocationId":"NT_EreuwbfYbQkeFY-2WN4nAC_l_1089212349_R","LocationType":"point","DisplayPosition":{"Latitude":52.23856,"Longitude":17.27446},"MapView":{"TopLeft":{"Latitude":52.23868,"Longitude":17.27442},"BottomRight":{"Latitude":52.23856,"Longitude":17.27446}},"Address":{"Label":"ulica Strzelecka, 63-000 Środa Wielkopolska, Polska","Country":"POL","State":"Woj. Wielkopolskie","County":"Powiat Średzki","City":"Środa Wielkopolska","District":"Środa Wielkopolska","Street":"ulica Strzelecka","PostalCode":"63-000","AdditionalData":[{"value":"Polska","key":"CountryName"},{"value":"Woj. Wielkopolskie","key":"StateName"},{"value":"Powiat Średzki","key":"CountyName"}]},"MapReference":{"ReferenceId":"1089212349","Spot":0.0,"SideOfStreet":"right","CountryId":"20624059","StateId":"20629915","CountyId":"20631779","CityId":"20631788","DistrictId":"20697423"}}}]}]}}