{"Response":{"MetaInfo":{"Timestamp":"2020-03-28T12:01:21.962+0000","NextPageInformation":"2"},"View":[{"_type":"SearchResultsViewType","ViewId":0,"Result":[{"Relevance":1.0,"Distance":0.0,"Direction":0.0,"MatchLevel":"district","MatchQuality":{"Country":1.0,"State":1.0,"County":1.0,"City":1.0,"District":1.0,"PostalCode":1.0},"Location":{"LocationId":"NT_ElNEvNXH1xRA4MwoZbs8nB","LocationType":"point","DisplayPosition":{"Latitude":52.2460994,"Longitude":-0.8983791},"MapView":{"TopLeft":{"Latitude":52.2645,"Longitude":-0.91199},"BottomRight":{"Latitude":52.24494,"Longitude":-0.88256}},"Address":{"Label":"Kingsthorpe, Northampton, England, United Kingdom","Country":"GBR","State":"England","County":"Northamptonshire","City":"Northampton","District":"Kingsthorpe","PostalCode":"NN2 6","AdditionalData":[{"value":"United Kingdom","key":"CountryName"},{"value":"England","key":"StateName"},{"value":"Northamptonshire","key":"CountyName"}]},"MapReference":{"ReferenceId":"25921130","SideOfStreet":"neither","StateId":"20248595","CountyId":"20337655","CityId":"20337690","DistrictId":"20337722"}}},{"Relevance":1.0,"Distance":4.2,"MatchLevel":"postalCode","MatchQuality":{"PostalCode":1.0},"MatchType":"interpolated","Location":{"LocationId":"NT_9gN7IRfAtj97ZDS-WOtpXA_l_25922908_R_zA","LocationType":"point","DisplayPosition":{"Latitude":52.24611,"Longitude":-0.89832},"MapView":{"TopLeft":{"Latitude":52.2551032,"Longitude":-0.9130083},"BottomRight":{"Latitude":52.2371168,"Longitude":-0.8836317}},"Address":{"Label":"NN2 6AR, Northampton, England, United Kingdom","Country":"GBR","State":"England","County":"Northamptonshire","City":"Northampton","PostalCode":"NN2 6AR","AdditionalData":[{"value":"United Kingdom","key":"CountryName"},{"value":"England","key":"StateName"},{"value":"Northamptonshire","key":"CountyName"}]},"MapReference":{"ReferenceId":"25922908","Spot":0.51,"SideOfStreet":"neither","StateId":"20248595","CountyId":"20337655","CityId":"20337690"}}},{"Relevance":1.0,"Distance":15.1,"MatchLevel":"postalCode","MatchQuality":{"PostalCode":1.0},"MatchType":"interpolated","Location":{"LocationId":"NT_.FWEO2vj25BRPlzYWYX01C_l_25922909_L_xA","LocationType":"point","DisplayPosition":{"Latitude":52.24611,"Longitude":-0.8986},"MapView":{"TopLeft":{"Latitude":52.2551032,"Longitude":-0.9132883},"BottomRight":{"Latitude":52.2371168,"Longitude":-0.8839117}},"Address":{"Label":"NN2 6DS, Northampton, England, United Kingdom","Country":"GBR","State":"England","County":"Northamptonshire","City":"Northampton","PostalCode":"NN2 6DS","AdditionalData":[{"value":"United Kingdom","key":"CountryName"},{"value":"England","key":"StateName"},{"value":"Northamptonshire","key":"CountyName"}]},"MapReference":{"ReferenceId":"25922909","Spot":0.16,"SideOfStreet":"neither","StateId":"20248595","CountyId":"20337655","CityId":"20337690"}}},{"Relevance":1.0,"Distance":20.8,"MatchLevel":"houseNumber","MatchQuality":{"Country":1.0,"State":1.0,"County":1.0,"City":1.0,"District":1.0,"Street":[1.0],"HouseNumber":1.0,"PostalCode":1.0},"MatchType":"interpolated","Location":{"LocationId":"NT_.FWEO2vj25BRPlzYWYX01C_l_25922996_L_xIjN","LocationType":"point","DisplayPosition":{"Latitude":52.2459306,"Longitude":-0.8985101},"MapView":{"TopLeft":{"Latitude":52.2470548,"Longitude":-0.9003462},"BottomRight":{"Latitude":52.2448065,"Longitude":-0.8966741}},"Address":{"Label":"126 Semilong Road, Northampton, NN2 6DU, United Kingdom","Country":"GBR","State":"England","County":"Northamptonshire","City":"Northampton","District":"Kingsthorpe","Street":"Semilong Road","HouseNumber":"126","PostalCode":"NN2 6DU","AdditionalData":[{"value":"United Kingdom","key":"CountryName"},{"value":"England","key":"StateName"},{"value":"Northamptonshire","key":"CountyName"}]},"MapReference":{"ReferenceId":"25922996","Spot":0.92,"SideOfStreet":"left","StateId":"20248595","CountyId":"20337655","CityId":"20337690","DistrictId":"20337722"}}},{"Relevance":1.0,"Distance":21.7,"MatchLevel":"houseNumber","MatchQuality":{"Country":1.0,"State":1.0,"County":1.0,"City":1.0,"District":1.0,"Street":[1.0],"HouseNumber":1.0,"PostalCode":1.0},"MatchType":"interpolated","Location":{"LocationId":"NT_.FWEO2vj25BRPlzYWYX01C_l_25922909_L_xA","LocationType":"point","DisplayPosition":{"Latitude":52.2462504,"Longitude":-0.8985801},"MapView":{"TopLeft":{"Latitude":52.2473746,"Longitude":-0.9004161},"BottomRight":{"Latitude":52.2451262,"Longitude":-0.896744}},"Address":{"Label":"1 Semilong Road, Northampton, NN2 6DS, United Kingdom","Country":"GBR","State":"England","County":"Northamptonshire","City":"Northampton","District":"Kingsthorpe","Street":"Semilong Road","HouseNumber":"1","PostalCode":"NN2 6DS","AdditionalData":[{"value":"United Kingdom","key":"CountryName"},{"value":"England","key":"StateName"},{"value":"Northamptonshire","key":"CountyName"}]},"MapReference":{"ReferenceId":"25922909","Spot":0.16,"SideOfStreet":"left","StateId":"20248595","CountyId":"20337655","CityId":"20337690","DistrictId":"20337722"}}},{"Relevance":1.0,"Distance":22.2,"MatchLevel":"houseNumber","MatchQuality":{"Country":1.0,"State":1.0,"County":1.0,"City":1.0,"District":1.0,"Street":[1.0],"HouseNumber":1.0,"PostalCode":1.0},"MatchType":"interpolated","Location":{"LocationId":"NT_9gN7IRfAtj97ZDS-WOtpXA_l_25922908_R_zA","LocationType":"point","DisplayPosition":{"Latitude":52.2461913,"Longitude":-0.8980816},"MapView":{"TopLeft":{"Latitude":52.2473155,"Longitude":-0.8999176},"BottomRight":{"Latitude":52.2450672,"Longitude":-0.8962455}},"Address":{"Label":"3 Adelaide Street, Northampton, NN2 6AR, United Kingdom","Country":"GBR","State":"England","County":"Northamptonshire","City":"Northampton","District":"Kingsthorpe","Street":"Adelaide Street","HouseNumber":"3","PostalCode":"NN2 6AR","AdditionalData":[{"value":"United Kingdom","key":"CountryName"},{"value":"England","key":"StateName"},{"value":"Northamptonshire","key":"CountyName"}]},"MapReference":{"ReferenceId":"25922908","Spot":0.51,"SideOfStreet":"right","StateId":"20248595","CountyId":"20337655","CityId":"20337690","DistrictId":"20337722"}}},{"Relevance":1.0,"Distance":42.9,"MatchLevel":"houseNumber","MatchQuality":{"Country":1.0,"State":1.0,"County":1.0,"City":1.0,"District":1.0,"Street":[1.0],"HouseNumber":1.0,"PostalCode":1.0},"MatchType":"interpolated","Location":{"LocationId":"NT_FdHQ0o7aCV0hC0M22xa1AC_l_25922937_L_1QD","LocationType":"point","DisplayPosition":{"Latitude":52.2460498,"Longitude":-0.8975622},"MapView":{"TopLeft":{"Latitude":52.247174,"Longitude":-0.8993982},"BottomRight":{"Latitude":52.2449256,"Longitude":-0.8957261}},"Address":{"Label":"54 Barrack Road, Northampton, NN2 6, United Kingdom","Country":"GBR","State":"England","County":"Northamptonshire","City":"Northampton","District":"Northampton","Street":"Barrack Road","HouseNumber":"54","PostalCode":"NN2 6","AdditionalData":[{"value":"United Kingdom","key":"CountryName"},{"value":"England","key":"StateName"},{"value":"Northamptonshire","key":"CountyName"}]},"MapReference":{"ReferenceId":"25922937","Spot":0.53,"SideOfStreet":"left","StateId":"20248595","CountyId":"20337655","CityId":"20337690","DistrictId":"20337691"}}},{"Relevance":1.0,"Distance":53.2,"MatchLevel":"houseNumber","MatchQuality":{"Country":1.0,"State":1.0,"County":1.0,"City":1.0,"District":1.0,"Street":[1.0],"HouseNumber":1.0,"PostalCode":1.0},"MatchType":"interpolated","Location":{"LocationId":"NT_pV433Bc5hNssMe7RBju2XB_l_813381197_L_xA","LocationType":"point","DisplayPosition":{"Latitude":52.24652,"Longitude":-0.89768},"MapView":{"TopLeft":{"Latitude":52.2476442,"Longitude":-0.8995161},"BottomRight":{"Latitude":52.2453959,"Longitude":-0.895844}},"Address":{"Label":"1 Barrack Road, Northampton, NN2 6, United Kingdom","Country":"GBR","State":"England","County":"Northamptonshire","City":"Northampton","District":"Kingsthorpe","Street":"Barrack Road","HouseNumber":"1","PostalCode":"NN2 6","AdditionalData":[{"value":"United Kingdom","key":"CountryName"},{"value":"England","key":"StateName"},{"value":"Northamptonshire","key":"CountyName"}]},"MapReference":{"ReferenceId":"813381197","Spot":0.21,"SideOfStreet":"left","StateId":"20248595","CountyId":"20337655","CityId":"20337690","DistrictId":"20337722"}}},{"Relevance":1.0,"Distance":54.8,"MatchLevel":"street","MatchQuality":{"Country":1.0,"State":1.0,"County":1.0,"City":1.0,"District":1.0,"Street":[1.0],"PostalCode":1.0},"Location":{"LocationId":"NT_pV433Bc5hNssMe7RBju2XB_l_813381196_L","LocationType":"point","DisplayPosition":{"Latitude":52.2462857,"Longitude":-0.8976339},"MapView":{"TopLeft":{"Latitude":52.24639,"Longitude":-0.89766},"BottomRight":{"Latitude":52.24627,"Longitude":-0.89763}},"Address":{"Label":"Barrack Road, Northampton, NN2 6, United Kingdom","Country":"GBR","State":"England","County":"Northamptonshire","City":"Northampton","District":"Kingsthorpe","Street":"Barrack Road","PostalCode":"NN2 6","AdditionalData":[{"value":"United Kingdom","key":"CountryName"},{"value":"England","key":"StateName"},{"value":"Northamptonshire","key":"CountyName"}]},"MapReference":{"ReferenceId":"813381196","Spot":0.13,"SideOfStreet":"left","StateId":"20248595","CountyId":"20337655","CityId":"20337690","DistrictId":"20337722"}}},{"Relevance":1.0,"Distance":56.7,"MatchLevel":"postalCode","MatchQuality":{"PostalCode":1.0},"MatchType":"interpolated","Location":{"LocationId":"NT_FdHQ0o7aCV0hC0M22xa1AC_l_25922937_L_1QD","LocationType":"point","DisplayPosition":{"Latitude":52.24598,"Longitude":-0.89757},"MapView":{"TopLeft":{"Latitude":52.2549732,"Longitude":-0.9122583},"BottomRight":{"Latitude":52.2369868,"Longitude":-0.8828817}},"Address":{"Label":"NN2 6AJ, Northampton, England, United Kingdom","Country":"GBR","State":"England","County":"Northamptonshire","City":"Northampton","PostalCode":"NN2 6AJ","AdditionalData":[{"value":"United Kingdom","key":"CountryName"},{"value":"England","key":"StateName"},{"value":"Northamptonshire","key":"CountyName"}]},"MapReference":{"ReferenceId":"25922937","Spot":0.53,"SideOfStreet":"neither","StateId":"20248595","CountyId":"20337655","CityId":"20337690"}}}]}]}}