{"Response":{"MetaInfo":{"Timestamp":"2020-03-28T09:36:16.393+0000","NextPageInformation":"2"},"View":[{"_type":"SearchResultsViewType","ViewId":0,"Result":[{"Relevance":1.0,"Distance":0.0,"Direction":0.0,"MatchLevel":"district","MatchQuality":{"Country":1.0,"State":1.0,"County":1.0,"City":1.0,"District":1.0,"PostalCode":1.0},"Location":{"LocationId":"NT_nc79th-gNtE4BdZ-qAjcnB","LocationType":"point","DisplayPosition":{"Latitude":52.2106838,"Longitude":8.5952488},"MapView":{"TopLeft":{"Latitude":52.21707,"Longitude":8.54311},"BottomRight":{"Latitude":52.17758,"Longitude":8.63073}},"Address":{"Label":"Bünde, Nordrhein-Westfalen, Deutschland","Country":"DEU","State":"Nordrhein-Westfalen","County":"Herford","City":"Bünde","District":"Bünde","PostalCode":"32257","AdditionalData":[{"value":"Deutschland","key":"CountryName"},{"value":"Nordrhein-Westfalen","key":"StateName"},{"value":"Herford","key":"CountyName"}]},"MapReference":{"ReferenceId":"75350671","SideOfStreet":"neither","CountryId":"20147700","StateId":"20157369","CountyId":"20159634","CityId":"20159635","DistrictId":"20159642"}}},{"Relevance":1.0,"Distance":9.7,"MatchLevel":"houseNumber","MatchQuality":{"Country":1.0,"State":1.0,"County":1.0,"City":1.0,"District":1.0,"Street":[1.0],"HouseNumber":1.0,"PostalCode":1.0},"MatchType":"interpolated","Location":{"LocationId":"NT_2elxO9oS0r8VXby0LT25lB_xID","LocationType":"point","DisplayPosition":{"Latitude":52.21077,"Longitude":8.59539},"MapView":{"TopLeft":{"Latitude":52.2118942,"Longitude":8.5935554},"BottomRight":{"Latitude":52.2096458,"Longitude":8.5972246}},"Address":{"Label":"Spradower Schweiz 12, 32257 Bünde, Deutschland","Country":"DEU","State":"Nordrhein-Westfalen","County":"Herford","City":"Bünde","District":"Bünde","Street":"Spradower Schweiz","HouseNumber":"12","PostalCode":"32257","AdditionalData":[{"value":"Deutschland","key":"CountryName"},{"value":"Nordrhein-Westfalen","key":"StateName"},{"value":"Herford","key":"CountyName"}]},"MapReference":{"ReferenceId":"75350080","Spot":0.5,"SideOfStreet":"left","CountryId":"20147700","StateId":"20157369","CountyId":"20159634","CityId":"20159635","DistrictId":"20159642","AddressId":"768342544","RoadLinkId":"34989856"}}},{"Relevance":1.0,"Distance":13.0,"MatchLevel":"street","MatchQuality":{"Country":1.0,"State":1.0,"County":1.0,"City":1.0,"District":1.0,"Street":[1.0],"PostalCode":1.0},"Location":{"LocationId":"NT_2elxO9oS0r8VXby0LT25lB_l_74624468_L","LocationType":"point","DisplayPosition":{"Latitude":52.21078,"Longitude":8.59514},"MapView":{"TopLeft":{"Latitude":52.21086,"Longitude":8.59347},"BottomRight":{"Latitude":52.21078,"Longitude":8.59514}},"Address":{"Label":"Spradower Schweiz, 32257 Bünde, Deutschland","Country":"DEU","State":"Nordrhein-Westfalen","County":"Herford","City":"Bünde","District":"Bünde","Street":"Spradower Schweiz","PostalCode":"32257","AdditionalData":[{"value":"Deutschland","key":"CountryName"},{"value":"Nordrhein-Westfalen","key":"StateName"},{"value":"Herford","key":"CountyName"}]},"MapReference":{"ReferenceId":"74624468","Spot":0.0,"SideOfStreet":"left","CountryId":"20147700","StateId":"20157369","CountyId":"20159634","CityId":"20159635","DistrictId":"20159642"}}},{"Relevance":1.0,"Distance":60.3,"MatchLevel":"houseNumber","MatchQuality":{"Country":1.0,"State":1.0,"County":1.0,"City":1.0,"District":1.0,"Street":[1.0],"HouseNumber":1.0,"PostalCode":1.0},"MatchType":"interpolated","Location":{"LocationId":"NT_3UOFZcKJQy2W4exd1arfVD_ygD","LocationType":"point","DisplayPosition":{"Latitude":52.21016,"Longitude":8.59502},"MapView":{"TopLeft":{"Latitude":52.2112842,"Longitude":8.5931854},"BottomRight":{"Latitude":52.2090358,"Longitude":8.5968546}},"Address":{"Label":"Virchowstraße 28, 32257 Bünde, Deutschland","Country":"DEU","State":"Nordrhein-Westfalen","County":"Herford","City":"Bünde","District":"Bünde","Street":"Virchowstraße","HouseNumber":"28","PostalCode":"32257","AdditionalData":[{"value":"Deutschland","key":"CountryName"},{"value":"Nordrhein-Westfalen","key":"StateName"},{"value":"Herford","key":"CountyName"}]},"MapReference":{"ReferenceId":"75350075","Spot":0.5,"SideOfStreet":"right","CountryId":"20147700","StateId":"20157369","CountyId":"20159634","CityId":"20159635","DistrictId":"20159642","AddressId":"194673500","RoadLinkId":"34950347"}}},{"Relevance":1.0,"Distance":121.7,"MatchLevel":"houseNumber","MatchQuality":{"Country":1.0,"State":1.0,"County":1.0,"City":1.0,"Street":[1.0],"HouseNumber":1.0,"PostalCode":1.0},"MatchType":"interpolated","Location":{"LocationId":"NT_ym-Nb2vJdJM61X7toFJwfB_0A","LocationType":"point","DisplayPosition":{"Latitude":52.21169,"Longitude":8.59595},"MapView":{"TopLeft":{"Latitude":52.2128142,"Longitude":8.5941154},"BottomRight":{"Latitude":52.2105658,"Longitude":8.5977846}},"Address":{"Label":"Knoller Teichstraße 4, 32257 Bünde, Deutschland","Country":"DEU","State":"Nordrhein-Westfalen","County":"Herford","City":"Bünde","Street":"Knoller Teichstraße","HouseNumber":"4","PostalCode":"32257","AdditionalData":[{"value":"Deutschland","key":"CountryName"},{"value":"Nordrhein-Westfalen","key":"StateName"},{"value":"Herford","key":"CountyName"}]},"MapReference":{"ReferenceId":"75350082","Spot":0.86,"SideOfStreet":"right","CountryId":"20147700","StateId":"20157369","CountyId":"20159634","CityId":"20159635","AddressId":"196314499","RoadLinkId":"35477791"}}},{"Relevance":1.0,"Distance":123.1,"MatchLevel":"houseNumber","MatchQuality":{"Country":1.0,"State":1.0,"County":1.0,"City":1.0,"District":1.0,"Street":[1.0],"HouseNumber":1.0,"PostalCode":1.0},"MatchType":"interpolated","Location":{"LocationId":"NT_4Qi6ilNcy.s8sSyC1aNBHD_l_75350078_L_0UD","LocationType":"point","DisplayPosition":{"Latitude":52.210825,"Longitude":8.5934567},"MapView":{"TopLeft":{"Latitude":52.2119492,"Longitude":8.5916221},"BottomRight":{"Latitude":52.2097009,"Longitude":8.5952912}},"Address":{"Label":"Dünner Straße 45, 32257 Bünde, Deutschland","Country":"DEU","State":"Nordrhein-Westfalen","County":"Herford","City":"Bünde","District":"Bünde","Street":"Dünner Straße","HouseNumber":"45","PostalCode":"32257","AdditionalData":[{"value":"Deutschland","key":"CountryName"},{"value":"Nordrhein-Westfalen","key":"StateName"},{"value":"Herford","key":"CountyName"}]},"MapReference":{"ReferenceId":"75350078","Spot":0.83,"SideOfStreet":"left","CountryId":"20147700","StateId":"20157369","CountyId":"20159634","CityId":"20159635","DistrictId":"20159642"}}},{"Relevance":1.0,"Distance":124.5,"MatchLevel":"street","MatchQuality":{"Country":1.0,"State":1.0,"County":1.0,"City":1.0,"Street":[1.0],"PostalCode":1.0},"Location":{"LocationId":"NT_EUvJvoNffyB.eIgxx2PSPB_l_917563942_R","LocationType":"point","DisplayPosition":{"Latitude":52.21108,"Longitude":8.59354},"MapView":{"TopLeft":{"Latitude":52.21108,"Longitude":8.59347},"BottomRight":{"Latitude":52.21086,"Longitude":8.59354}},"Address":{"Label":"Dünner Straße, 32257 Bünde, Deutschland","Country":"DEU","State":"Nordrhein-Westfalen","County":"Herford","City":"Bünde","Street":"Dünner Straße","PostalCode":"32257","AdditionalData":[{"value":"Deutschland","key":"CountryName"},{"value":"Nordrhein-Westfalen","key":"StateName"},{"value":"Herford","key":"CountyName"}]},"MapReference":{"ReferenceId":"917563942","Spot":1.0,"SideOfStreet":"right","CountryId":"20147700","StateId":"20157369","CountyId":"20159634","CityId":"20159635"}}},{"Relevance":1.0,"Distance":127.3,"MatchLevel":"houseNumber","MatchQuality":{"Country":1.0,"State":1.0,"County":1.0,"City":1.0,"District":1.0,"Street":[1.0],"HouseNumber":1.0,"PostalCode":1.0},"MatchType":"interpolated","Location":{"LocationId":"NT_X8ukXfs8n-nKFZKj8mlLAB_yA","LocationType":"point","DisplayPosition":{"Latitude":52.20954,"Longitude":8.59531},"MapView":{"TopLeft":{"Latitude":52.2106642,"Longitude":8.5934755},"BottomRight":{"Latitude":52.2084158,"Longitude":8.5971445}},"Address":{"Label":"Auf dem Hofe 2, 32257 Bünde, Deutschland","Country":"DEU","State":"Nordrhein-Westfalen","County":"Herford","City":"Bünde","District":"Bünde","Street":"Auf dem Hofe","HouseNumber":"2","PostalCode":"32257","AdditionalData":[{"value":"Deutschland","key":"CountryName"},{"value":"Nordrhein-Westfalen","key":"StateName"},{"value":"Herford","key":"CountyName"}]},"MapReference":{"ReferenceId":"75350076","Spot":0.53,"SideOfStreet":"left","CountryId":"20147700","StateId":"20157369","CountyId":"20159634","CityId":"20159635","DistrictId":"20159642","AddressId":"196548555","RoadLinkId":"35708302"}}},{"Relevance":1.0,"Distance":128.5,"MatchLevel":"street","MatchQuality":{"Country":1.0,"State":1.0,"County":1.0,"City":1.0,"Street":[1.0],"PostalCode":1.0},"Location":{"LocationId":"NT_EUvJvoNffyB.eIgxx2PSPB_l_1216094641_R","LocationType":"point","DisplayPosition":{"Latitude":52.2112361,"Longitude":8.593592},"MapView":{"TopLeft":{"Latitude":52.2125,"Longitude":8.59354},"BottomRight":{"Latitude":52.21108,"Longitude":8.59406}},"Address":{"Label":"Dünner Straße, 32257 Bünde, Deutschland","Country":"DEU","State":"Nordrhein-Westfalen","County":"Herford","City":"Bünde","Street":"Dünner Straße","PostalCode":"32257","AdditionalData":[{"value":"Deutschland","key":"CountryName"},{"value":"Nordrhein-Westfalen","key":"StateName"},{"value":"Herford","key":"CountyName"}]},"MapReference":{"ReferenceId":"1216094641","Spot":0.11,"SideOfStreet":"right","CountryId":"20147700","StateId":"20157369","CountyId":"20159634","CityId":"20159635"}}},{"Relevance":1.0,"Distance":132.9,"MatchLevel":"houseNumber","MatchQuality":{"Country":1.0,"State":1.0,"County":1.0,"City":1.0,"District":1.0,"Street":[1.0],"HouseNumber":1.0,"PostalCode":1.0},"MatchType":"interpolated","Location":{"LocationId":"NT_HTx0UNvjinNN.z8RpZFJxA_yYD","LocationType":"point","DisplayPosition":{"Latitude":52.21016,"Longitude":8.59324},"MapView":{"TopLeft":{"Latitude":52.2112842,"Longitude":8.5914054},"BottomRight":{"Latitude":52.2090358,"Longitude":8.5950746}},"Address":{"Label":"Dünner Straße 26, 32257 Bünde, Deutschland","Country":"DEU","State":"Nordrhein-Westfalen","County":"Herford","City":"Bünde","District":"Bünde","Street":"Dünner Straße","HouseNumber":"26","PostalCode":"32257","AdditionalData":[{"value":"Deutschland","key":"CountryName"},{"value":"Nordrhein-Westfalen","key":"StateName"},{"value":"Herford","key":"CountyName"}]},"MapReference":{"ReferenceId":"917563945","Spot":0.42,"SideOfStreet":"right","CountryId":"20147700","StateId":"20157369","CountyId":"20159634","CityId":"20159635","DistrictId":"20159642","AddressId":"192718718","RoadLinkId":"275139321"}}}]}]}}