{"Response":{"MetaInfo":{"Timestamp":"2020-03-28T11:42:38.201+0000","NextPageInformation":"2"},"View":[{"_type":"SearchResultsViewType","ViewId":0,"Result":[{"Relevance":1.0,"Distance":0.0,"Direction":0.0,"MatchLevel":"district","MatchQuality":{"Country":1.0,"State":1.0,"County":1.0,"City":1.0,"District":1.0,"PostalCode":1.0},"Location":{"LocationId":"NT_GWIbFckuGLKcp0vFyXlEjC","LocationType":"point","DisplayPosition":{"Latitude":52.2287362,"Longitude":7.490435},"MapView":{"TopLeft":{"Latitude":52.23915,"Longitude":7.47054},"BottomRight":{"Latitude":52.21721,"Longitude":7.49721}},"Address":{"Label":"Mesum, Rheine, Nordrhein-Westfalen, Deutschland","Country":"DEU","State":"Nordrhein-Westfalen","County":"Steinfurt","City":"Rheine","District":"Mesum","PostalCode":"48432","AdditionalData":[{"value":"Deutschland","key":"CountryName"},{"value":"Nordrhein-Westfalen","key":"StateName"},{"value":"Steinfurt","key":"CountyName"}]},"MapReference":{"ReferenceId":"1223339418","SideOfStreet":"neither","CountryId":"20147700","StateId":"20157369","CountyId":"20159347","CityId":"20159429","DistrictId":"20159431"}}},{"Relevance":1.0,"Distance":10.7,"MatchLevel":"houseNumber","MatchQuality":{"Country":1.0,"State":1.0,"County":1.0,"City":1.0,"District":1.0,"Street":[1.0],"HouseNumber":1.0,"PostalCode":1.0},"MatchType":"interpolated","Location":{"LocationId":"NT_BRJp1PTowAPxZtY4caWFOC_3EE","LocationType":"point","DisplayPosition":{"Latitude":52.22867,"Longitude":7.49029},"MapView":{"TopLeft":{"Latitude":52.2297942,"Longitude":7.4884547},"BottomRight":{"Latitude":52.2275458,"Longitude":7.4921253}},"Address":{"Label":"Alte Bahnhofstraße 7A, 48432 Rheine, Deutschland","Country":"DEU","State":"Nordrhein-Westfalen","County":"Steinfurt","City":"Rheine","District":"Mesum","Street":"Alte Bahnhofstraße","HouseNumber":"7A","PostalCode":"48432","AdditionalData":[{"value":"Deutschland","key":"CountryName"},{"value":"Nordrhein-Westfalen","key":"StateName"},{"value":"Steinfurt","key":"CountyName"}]},"MapReference":{"ReferenceId":"76157413","Spot":0.1,"SideOfStreet":"right","CountryId":"20147700","StateId":"20157369","CountyId":"20159347","CityId":"20159429","DistrictId":"20159431","AddressId":"193254650","RoadLinkId":"35074397"}}},{"Relevance":1.0,"Distance":26.3,"MatchLevel":"street","MatchQuality":{"Country":1.0,"State":1.0,"County":1.0,"City":1.0,"District":1.0,"Street":[1.0],"PostalCode":1.0},"Location":{"LocationId":"NT_AdbV0p94gLvavM0biagbUC_l_1259902709_R","LocationType":"point","DisplayPosition":{"Latitude":52.2285231,"Longitude":7.4902668},"MapView":{"TopLeft":{"Latitude":52.22856,"Longitude":7.49022},"BottomRight":{"Latitude":52.22828,"Longitude":7.49145}},"Address":{"Label":"Im Klosterhook, 48432 Rheine, Deutschland","Country":"DEU","State":"Nordrhein-Westfalen","County":"Steinfurt","City":"Rheine","District":"Mesum","Street":"Im Klosterhook","PostalCode":"48432","AdditionalData":[{"value":"Deutschland","key":"CountryName"},{"value":"Nordrhein-Westfalen","key":"StateName"},{"value":"Steinfurt","key":"CountyName"}]},"MapReference":{"ReferenceId":"1259902709","Spot":0.96,"SideOfStreet":"right","CountryId":"20147700","StateId":"20157369","CountyId":"20159347","CityId":"20159429","DistrictId":"20159431"}}},{"Relevance":1.0,"Distance":33.9,"MatchLevel":"houseNumber","MatchQuality":{"Country":1.0,"State":1.0,"County":1.0,"City":1.0,"District":1.0,"Street":[1.0],"HouseNumber":1.0,"PostalCode":1.0},"MatchType":"interpolated","Location":{"LocationId":"NT_AdbV0p94gLvavM0biagbUC_xA","LocationType":"point","DisplayPosition":{"Latitude":52.22819,"Longitude":7.49154},"MapView":{"TopLeft":{"Latitude":52.2293142,"Longitude":7.4897047},"BottomRight":{"Latitude":52.2270658,"Longitude":7.4933753}},"Address":{"Label":"Im Klosterhook 1, 48432 Rheine, Deutschland","Country":"DEU","State":"Nordrhein-Westfalen","County":"Steinfurt","City":"Rheine","District":"Mesum","Street":"Im Klosterhook","HouseNumber":"1","PostalCode":"48432","AdditionalData":[{"value":"Deutschland","key":"CountryName"},{"value":"Nordrhein-Westfalen","key":"StateName"},{"value":"Steinfurt","key":"CountyName"}]},"MapReference":{"ReferenceId":"76152963","Spot":1.0,"SideOfStreet":"left","CountryId":"20147700","StateId":"20157369","CountyId":"20159347","CityId":"20159429","DistrictId":"20159431","AddressId":"249321733","RoadLinkId":"35340943"}}},{"Relevance":1.0,"Distance":36.1,"MatchLevel":"houseNumber","MatchQuality":{"Country":1.0,"State":1.0,"County":1.0,"City":1.0,"District":1.0,"Street":[1.0],"HouseNumber":1.0,"PostalCode":1.0},"MatchType":"interpolated","Location":{"LocationId":"NT_BRJp1PTowAPxZtY4caWFOC_xQTQ","LocationType":"point","DisplayPosition":{"Latitude":52.22848,"Longitude":7.49011},"MapView":{"TopLeft":{"Latitude":52.2296042,"Longitude":7.4882747},"BottomRight":{"Latitude":52.2273558,"Longitude":7.4919453}},"Address":{"Label":"Alte Bahnhofstraße 14A, 48432 Rheine, Deutschland","Country":"DEU","State":"Nordrhein-Westfalen","County":"Steinfurt","City":"Rheine","District":"Mesum","Street":"Alte Bahnhofstraße","HouseNumber":"14A","PostalCode":"48432","AdditionalData":[{"value":"Deutschland","key":"CountryName"},{"value":"Nordrhein-Westfalen","key":"StateName"},{"value":"Steinfurt","key":"CountyName"}]},"MapReference":{"ReferenceId":"76153162","Spot":0.72,"SideOfStreet":"left","CountryId":"20147700","StateId":"20157369","CountyId":"20159347","CityId":"20159429","DistrictId":"20159431","AddressId":"195482315","RoadLinkId":"35182995"}}},{"Relevance":1.0,"Distance":56.3,"MatchLevel":"houseNumber","MatchQuality":{"Country":1.0,"State":1.0,"County":1.0,"City":1.0,"District":1.0,"Street":[1.0],"HouseNumber":1.0,"PostalCode":1.0},"MatchType":"interpolated","Location":{"LocationId":"NT_..GDPeS-Uk0IW5mXot0rbB_0A","LocationType":"point","DisplayPosition":{"Latitude":52.22888,"Longitude":7.48962},"MapView":{"TopLeft":{"Latitude":52.2300042,"Longitude":7.4877847},"BottomRight":{"Latitude":52.2277558,"Longitude":7.4914553}},"Address":{"Label":"Veenstraße 4, 48432 Rheine, Deutschland","Country":"DEU","State":"Nordrhein-Westfalen","County":"Steinfurt","City":"Rheine","District":"Mesum","Street":"Veenstraße","HouseNumber":"4","PostalCode":"48432","AdditionalData":[{"value":"Deutschland","key":"CountryName"},{"value":"Nordrhein-Westfalen","key":"StateName"},{"value":"Steinfurt","key":"CountyName"}]},"MapReference":{"ReferenceId":"76153104","Spot":0.47,"SideOfStreet":"right","CountryId":"20147700","StateId":"20157369","CountyId":"20159347","CityId":"20159429","DistrictId":"20159431","AddressId":"196064468","RoadLinkId":"35776031"}}},{"Relevance":1.0,"Distance":77.5,"MatchLevel":"houseNumber","MatchQuality":{"Country":1.0,"State":1.0,"County":1.0,"City":1.0,"District":1.0,"Street":[1.0],"HouseNumber":1.0,"PostalCode":1.0},"MatchType":"interpolated","Location":{"LocationId":"NT_gaudlkN2VpZ7z.tRkAtYAA_zA","LocationType":"point","DisplayPosition":{"Latitude":52.22807,"Longitude":7.48993},"MapView":{"TopLeft":{"Latitude":52.2291942,"Longitude":7.4880947},"BottomRight":{"Latitude":52.2269458,"Longitude":7.4917653}},"Address":{"Label":"Rolinerstraße 3, 48432 Rheine, Deutschland","Country":"DEU","State":"Nordrhein-Westfalen","County":"Steinfurt","City":"Rheine","District":"Mesum","Street":"Rolinerstraße","HouseNumber":"3","PostalCode":"48432","AdditionalData":[{"value":"Deutschland","key":"CountryName"},{"value":"Nordrhein-Westfalen","key":"StateName"},{"value":"Steinfurt","key":"CountyName"}]},"MapReference":{"ReferenceId":"76155880","Spot":0.82,"SideOfStreet":"right","CountryId":"20147700","StateId":"20157369","CountyId":"20159347","CityId":"20159429","DistrictId":"20159431","AddressId":"195541645","RoadLinkId":"35083340"}}},{"Relevance":1.0,"Distance":81.4,"MatchLevel":"houseNumber","MatchQuality":{"Country":1.0,"State":1.0,"County":1.0,"City":1.0,"District":1.0,"Street":[1.0],"HouseNumber":1.0,"PostalCode":1.0},"MatchType":"interpolated","Location":{"LocationId":"NT_rfOvGcxVxkSIyDZu3VU4YB_xMD","LocationType":"point","DisplayPosition":{"Latitude":52.22894,"Longitude":7.49206},"MapView":{"TopLeft":{"Latitude":52.2300642,"Longitude":7.4902247},"BottomRight":{"Latitude":52.2278158,"Longitude":7.4938953}},"Address":{"Label":"Rheiner Straße 13, 48432 Rheine, Deutschland","Country":"DEU","State":"Nordrhein-Westfalen","County":"Steinfurt","City":"Rheine","District":"Mesum","Street":"Rheiner Straße","HouseNumber":"13","PostalCode":"48432","AdditionalData":[{"value":"Deutschland","key":"CountryName"},{"value":"Nordrhein-Westfalen","key":"StateName"},{"value":"Steinfurt","key":"CountyName"}]},"MapReference":{"ReferenceId":"76153016","Spot":0.18,"SideOfStreet":"left","CountryId":"20147700","StateId":"20157369","CountyId":"20159347","CityId":"20159429","DistrictId":"20159431","AddressId":"193481442","RoadLinkId":"35738640"}}},{"Relevance":1.0,"Distance":83.2,"MatchLevel":"street","MatchQuality":{"Country":1.0,"State":1.0,"County":1.0,"City":1.0,"District":1.0,"Street":[1.0],"PostalCode":1.0},"Location":{"LocationId":"NT_AdbV0p94gLvavM0biagbUC_l_1259902708_L","LocationType":"point","DisplayPosition":{"Latitude":52.22832,"Longitude":7.49145},"MapView":{"TopLeft":{"Latitude":52.22832,"Longitude":7.49145},"BottomRight":{"Latitude":52.22819,"Longitude":7.49154}},"Address":{"Label":"Im Klosterhook, 48432 Rheine, Deutschland","Country":"DEU","State":"Nordrhein-Westfalen","County":"Steinfurt","City":"Rheine","District":"Mesum","Street":"Im Klosterhook","PostalCode":"48432","AdditionalData":[{"value":"Deutschland","key":"CountryName"},{"value":"Nordrhein-Westfalen","key":"StateName"},{"value":"Steinfurt","key":"CountyName"}]},"MapReference":{"ReferenceId":"1259902708","Spot":1.0,"SideOfStreet":"left","CountryId":"20147700","StateId":"20157369","CountyId":"20159347","CityId":"20159429","DistrictId":"20159431"}}},{"Relevance":1.0,"Distance":83.2,"MatchLevel":"street","MatchQuality":{"Country":1.0,"State":1.0,"County":1.0,"City":1.0,"District":1.0,"PostalCode":1.0},"Location":{"LocationId":"NT_Zj-RL98uCKOcPhLgyinMmA_l_1259902707_L","LocationType":"point","DisplayPosition":{"Latitude":52.22832,"Longitude":7.49145},"MapView":{"TopLeft":{"Latitude":52.22858,"Longitude":7.49145},"BottomRight":{"Latitude":52.22832,"Longitude":7.49227}},"Address":{"Label":"48432 Rheine, Deutschland","Country":"DEU","State":"Nordrhein-Westfalen","County":"Steinfurt","City":"Rheine","District":"Mesum","PostalCode":"48432","AdditionalData":[{"value":"Deutschland","key":"CountryName"},{"value":"Nordrhein-Westfalen","key":"StateName"},{"value":"Steinfurt","key":"CountyName"}]},"MapReference":{"ReferenceId":"1259902707","Spot":0.0,"SideOfStreet":"left","CountryId":"20147700","StateId":"20157369","CountyId":"20159347","CityId":"20159429","DistrictId":"20159431"}}}]}]}}