{"Response":{"MetaInfo":{"Timestamp":"2020-03-28T10:45:20.383+0000","NextPageInformation":"2"},"View":[{"_type":"SearchResultsViewType","ViewId":0,"Result":[{"Relevance":1.0,"Distance":0.0,"Direction":0.0,"MatchLevel":"city","MatchQuality":{"Country":1.0,"State":1.0,"County":1.0,"City":1.0,"PostalCode":1.0},"Location":{"LocationId":"NT_kKM-DKzvFp8AY2HtSZG5iD","LocationType":"point","DisplayPosition":{"Latitude":52.204305,"Longitude":5.9903045},"MapView":{"TopLeft":{"Latitude":52.24948,"Longitude":5.91633},"BottomRight":{"Latitude":52.17254,"Longitude":6.04805}},"Address":{"Label":"Apeldoorn, Gelderland, Nederland","Country":"NLD","State":"Gelderland","County":"Apeldoorn","City":"Apeldoorn","PostalCode":"7311 LW","AdditionalData":[{"value":"Nederland","key":"CountryName"},{"value":"Gelderland","key":"StateName"},{"value":"Apeldoorn","key":"CountyName"}]},"MapReference":{"ReferenceId":"572346049","SideOfStreet":"neither","CountryId":"23055544","StateId":"23055652","CountyId":"23055498","CityId":"20201060"}}},{"Relevance":1.0,"Distance":10.7,"MatchLevel":"houseNumber","MatchQuality":{"Country":1.0,"State":1.0,"County":1.0,"City":1.0,"Street":[1.0],"HouseNumber":1.0,"PostalCode":1.0},"MatchType":"interpolated","Location":{"LocationId":"NT_quKxYeni20cYHoC4v72N1D_xYTN","LocationType":"point","DisplayPosition":{"Latitude":52.2044,"Longitude":5.99028},"MapView":{"TopLeft":{"Latitude":52.2055242,"Longitude":5.9884457},"BottomRight":{"Latitude":52.2032758,"Longitude":5.9921143}},"Address":{"Label":"Glazeniershorst 165, 7328 TH Apeldoorn, Nederland","Country":"NLD","State":"Gelderland","County":"Apeldoorn","City":"Apeldoorn","Street":"Glazeniershorst","HouseNumber":"165","PostalCode":"7328 TH","AdditionalData":[{"value":"Nederland","key":"CountryName"},{"value":"Gelderland","key":"StateName"},{"value":"Apeldoorn","key":"CountyName"}]},"MapReference":{"ReferenceId":"54863242","Spot":0.22,"SideOfStreet":"right","CountryId":"23055544","StateId":"23055652","CountyId":"23055498","CityId":"20201060","AddressId":"617644232","RoadLinkId":"31896171"}}},{"Relevance":1.0,"Distance":13.4,"MatchLevel":"street","MatchQuality":{"Country":1.0,"State":1.0,"County":1.0,"City":1.0,"Street":[1.0],"PostalCode":1.0},"Location":{"LocationId":"NT_JYn2AI-45EAsYdC-c7m4hD_l_54863264_R","LocationType":"point","DisplayPosition":{"Latitude":52.20432,"Longitude":5.99011},"MapView":{"TopLeft":{"Latitude":52.20432,"Longitude":5.98976},"BottomRight":{"Latitude":52.20413,"Longitude":5.99011}},"Address":{"Label":"Glazeniershorst, 7328 Apeldoorn, Nederland","Country":"NLD","State":"Gelderland","County":"Apeldoorn","City":"Apeldoorn","Street":"Glazeniershorst","PostalCode":"7328","AdditionalData":[{"value":"Nederland","key":"CountryName"},{"value":"Gelderland","key":"StateName"},{"value":"Apeldoorn","key":"CountyName"}]},"MapReference":{"ReferenceId":"54863264","Spot":1.0,"SideOfStreet":"right","CountryId":"23055544","StateId":"23055652","CountyId":"23055498","CityId":"20201060"}}},{"Relevance":1.0,"Distance":21.9,"MatchLevel":"houseNumber","MatchQuality":{"Country":1.0,"State":1.0,"County":1.0,"City":1.0,"Street":[1.0],"HouseNumber":1.0,"PostalCode":1.0},"MatchType":"interpolated","Location":{"LocationId":"NT_zNy0Nooxw-PM38TIzF2twB_xIDM","LocationType":"point","DisplayPosition":{"Latitude":52.20436,"Longitude":5.99001},"MapView":{"TopLeft":{"Latitude":52.2054842,"Longitude":5.9881757},"BottomRight":{"Latitude":52.2032358,"Longitude":5.9918443}},"Address":{"Label":"Wolwevershorst 120, 7328 NW Apeldoorn, Nederland","Country":"NLD","State":"Gelderland","County":"Apeldoorn","City":"Apeldoorn","Street":"Wolwevershorst","HouseNumber":"120","PostalCode":"7328 NW","AdditionalData":[{"value":"Nederland","key":"CountryName"},{"value":"Gelderland","key":"StateName"},{"value":"Apeldoorn","key":"CountyName"}]},"MapReference":{"ReferenceId":"54863243","Spot":0.08,"SideOfStreet":"right","CountryId":"23055544","StateId":"23055652","CountyId":"23055498","CityId":"20201060","AddressId":"617702481","RoadLinkId":"31151411"}}},{"Relevance":1.0,"Distance":29.9,"MatchLevel":"houseNumber","MatchQuality":{"Country":1.0,"State":1.0,"County":1.0,"City":1.0,"Street":[1.0],"HouseNumber":1.0,"PostalCode":1.0},"MatchType":"interpolated","Location":{"LocationId":"NT_4qeCZTl1sQGVmY1WVQpADD_yATM","LocationType":"point","DisplayPosition":{"Latitude":52.20447,"Longitude":5.99098},"MapView":{"TopLeft":{"Latitude":52.2055942,"Longitude":5.9891457},"BottomRight":{"Latitude":52.2033458,"Longitude":5.9928143}},"Address":{"Label":"Glazeniershorst 201, 7328 TJ Apeldoorn, Nederland","Country":"NLD","State":"Gelderland","County":"Apeldoorn","City":"Apeldoorn","Street":"Glazeniershorst","HouseNumber":"201","PostalCode":"7328 TJ","AdditionalData":[{"value":"Nederland","key":"CountryName"},{"value":"Gelderland","key":"StateName"},{"value":"Apeldoorn","key":"CountyName"}]},"MapReference":{"ReferenceId":"68418553","Spot":0.75,"SideOfStreet":"left","CountryId":"23055544","StateId":"23055652","CountyId":"23055498","CityId":"20201060","AddressId":"617617234","RoadLinkId":"31425774"}}},{"Relevance":1.0,"Distance":31.0,"MatchLevel":"houseNumber","MatchQuality":{"Country":1.0,"State":1.0,"County":1.0,"City":1.0,"Street":[1.0],"HouseNumber":1.0,"PostalCode":1.0},"MatchType":"interpolated","Location":{"LocationId":"NT_quKxYeni20cYHoC4v72N1D_xUDO","LocationType":"point","DisplayPosition":{"Latitude":52.20396,"Longitude":5.99031},"MapView":{"TopLeft":{"Latitude":52.2050842,"Longitude":5.9884757},"BottomRight":{"Latitude":52.2028358,"Longitude":5.9921443}},"Address":{"Label":"Glazeniershorst 158, 7328 TH Apeldoorn, Nederland","Country":"NLD","State":"Gelderland","County":"Apeldoorn","City":"Apeldoorn","Street":"Glazeniershorst","HouseNumber":"158","PostalCode":"7328 TH","AdditionalData":[{"value":"Nederland","key":"CountryName"},{"value":"Gelderland","key":"StateName"},{"value":"Apeldoorn","key":"CountyName"}]},"MapReference":{"ReferenceId":"1262893159","Spot":0.45,"SideOfStreet":"right","CountryId":"23055544","StateId":"23055652","CountyId":"23055498","CityId":"20201060","AddressId":"618032872","RoadLinkId":"588715775"}}},{"Relevance":1.0,"Distance":41.9,"MatchLevel":"street","MatchQuality":{"Country":1.0,"State":1.0,"County":1.0,"City":1.0,"Street":[1.0],"PostalCode":1.0},"Location":{"LocationId":"NT_JYn2AI-45EAsYdC-c7m4hD_l_54863323_R","LocationType":"point","DisplayPosition":{"Latitude":52.20413,"Longitude":5.98976},"MapView":{"TopLeft":{"Latitude":52.20413,"Longitude":5.98904},"BottomRight":{"Latitude":52.20368,"Longitude":5.98976}},"Address":{"Label":"Glazeniershorst, 7328 Apeldoorn, Nederland","Country":"NLD","State":"Gelderland","County":"Apeldoorn","City":"Apeldoorn","Street":"Glazeniershorst","PostalCode":"7328","AdditionalData":[{"value":"Nederland","key":"CountryName"},{"value":"Gelderland","key":"StateName"},{"value":"Apeldoorn","key":"CountyName"}]},"MapReference":{"ReferenceId":"54863323","Spot":1.0,"SideOfStreet":"right","CountryId":"23055544","StateId":"23055652","CountyId":"23055498","CityId":"20201060"}}},{"Relevance":1.0,"Distance":41.9,"MatchLevel":"houseNumber","MatchQuality":{"Country":1.0,"State":1.0,"County":1.0,"City":1.0,"Street":[1.0],"HouseNumber":1.0,"PostalCode":1.0},"MatchType":"interpolated","Location":{"LocationId":"NT_reWoN8atsUS6J72e0Z8muD_xAjN","LocationType":"point","DisplayPosition":{"Latitude":52.2051,"Longitude":5.99092},"MapView":{"TopLeft":{"Latitude":52.2062242,"Longitude":5.9890857},"BottomRight":{"Latitude":52.2039758,"Longitude":5.9927543}},"Address":{"Label":"Touwslagershorst 106, 7328 RN Apeldoorn, Nederland","Country":"NLD","State":"Gelderland","County":"Apeldoorn","City":"Apeldoorn","Street":"Touwslagershorst","HouseNumber":"106","PostalCode":"7328 RN","AdditionalData":[{"value":"Nederland","key":"CountryName"},{"value":"Gelderland","key":"StateName"},{"value":"Apeldoorn","key":"CountyName"}]},"MapReference":{"ReferenceId":"54863149","Spot":0.46,"SideOfStreet":"left","CountryId":"23055544","StateId":"23055652","CountyId":"23055498","CityId":"20201060","AddressId":"618033249","RoadLinkId":"32060085"}}},{"Relevance":1.0,"Distance":51.0,"MatchLevel":"street","MatchQuality":{"Country":1.0,"State":1.0,"County":1.0,"City":1.0,"Street":[1.0],"PostalCode":1.0},"Location":{"LocationId":"NT_6xtWBdIMyNsZ71XEUedCNA_l_999132293_L","LocationType":"point","DisplayPosition":{"Latitude":52.20459,"Longitude":5.99089},"MapView":{"TopLeft":{"Latitude":52.20492,"Longitude":5.99089},"BottomRight":{"Latitude":52.20459,"Longitude":5.99134}},"Address":{"Label":"Touwslagershorst, 7328 Apeldoorn, Nederland","Country":"NLD","State":"Gelderland","County":"Apeldoorn","City":"Apeldoorn","Street":"Touwslagershorst","PostalCode":"7328","AdditionalData":[{"value":"Nederland","key":"CountryName"},{"value":"Gelderland","key":"StateName"},{"value":"Apeldoorn","key":"CountyName"}]},"MapReference":{"ReferenceId":"999132293","Spot":0.0,"SideOfStreet":"left","CountryId":"23055544","StateId":"23055652","CountyId":"23055498","CityId":"20201060"}}},{"Relevance":1.0,"Distance":55.2,"MatchLevel":"houseNumber","MatchQuality":{"Country":1.0,"State":1.0,"County":1.0,"City":1.0,"Street":[1.0],"HouseNumber":1.0,"PostalCode":1.0},"MatchType":"interpolated","Location":{"LocationId":"NT_4qeCZTl1sQGVmY1WVQpADD_yATN","LocationType":"point","DisplayPosition":{"Latitude":52.20411,"Longitude":5.99123},"MapView":{"TopLeft":{"Latitude":52.2052342,"Longitude":5.9893957},"BottomRight":{"Latitude":52.2029858,"Longitude":5.9930643}},"Address":{"Label":"Glazeniershorst 205, 7328 TJ Apeldoorn, Nederland","Country":"NLD","State":"Gelderland","County":"Apeldoorn","City":"Apeldoorn","Street":"Glazeniershorst","HouseNumber":"205","PostalCode":"7328 TJ","AdditionalData":[{"value":"Nederland","key":"CountryName"},{"value":"Gelderland","key":"StateName"},{"value":"Apeldoorn","key":"CountyName"}]},"MapReference":{"ReferenceId":"68418552","Spot":1.0,"SideOfStreet":"left","CountryId":"23055544","StateId":"23055652","CountyId":"23055498","CityId":"20201060","AddressId":"617763580","RoadLinkId":"32116104"}}}]}]}}