{"Response":{"MetaInfo":{"Timestamp":"2020-03-28T10:45:30.975+0000","NextPageInformation":"2"},"View":[{"_type":"SearchResultsViewType","ViewId":0,"Result":[{"Relevance":1.0,"Distance":0.0,"Direction":0.0,"MatchLevel":"district","MatchQuality":{"Country":1.0,"State":1.0,"County":1.0,"City":1.0,"District":1.0,"PostalCode":1.0},"Location":{"LocationId":"NT_fzhJmhS90mre4QjWH7DcID","LocationType":"point","DisplayPosition":{"Latitude":52.2375739,"Longitude":19.6277799},"MapView":{"TopLeft":{"Latitude":52.25604,"Longitude":19.60612},"BottomRight":{"Latitude":52.22874,"Longitude":19.64928}},"Address":{"Label":"Żychlin, Woj. Łódzkie, Polska","Country":"POL","State":"Woj. Łódzkie","County":"Powiat Kutnowski","City":"Żychlin","District":"Żychlin","PostalCode":"99-320","AdditionalData":[{"value":"Polska","key":"CountryName"},{"value":"Woj. Łódzkie","key":"StateName"},{"value":"Powiat Kutnowski","key":"CountyName"}]},"MapReference":{"ReferenceId":"1049346308","SideOfStreet":"neither","CountryId":"20624059","StateId":"20625723","CountyId":"20625758","CityId":"20625779","DistrictId":"20682239"}}},{"Relevance":1.0,"Distance":33.3,"MatchLevel":"houseNumber","MatchQuality":{"Country":1.0,"State":1.0,"County":1.0,"City":1.0,"District":1.0,"Street":[1.0],"HouseNumber":1.0,"PostalCode":1.0},"MatchType":"interpolated","Location":{"LocationId":"NT_UnnDAq4sZ0YtwmO91mRJNA_08CNBB","LocationType":"point","DisplayPosition":{"Latitude":52.23782,"Longitude":19.6275},"MapView":{"TopLeft":{"Latitude":52.2389442,"Longitude":19.6256643},"BottomRight":{"Latitude":52.2366958,"Longitude":19.6293357}},"Address":{"Label":"ulica Stefana Żeromskiego 4/4A, 99-320 Żychlin, Polska","Country":"POL","State":"Woj. Łódzkie","County":"Powiat Kutnowski","City":"Żychlin","District":"Żychlin","Street":"ulica Stefana Żeromskiego","HouseNumber":"4/4A","PostalCode":"99-320","AdditionalData":[{"value":"Polska","key":"CountryName"},{"value":"Woj. Łódzkie","key":"StateName"},{"value":"Powiat Kutnowski","key":"CountyName"}]},"MapReference":{"ReferenceId":"1233953014","Spot":0.58,"SideOfStreet":"left","CountryId":"20624059","StateId":"20625723","CountyId":"20625758","CityId":"20625779","DistrictId":"20682239","AddressId":"731567285","RoadLinkId":"554267025"}}},{"Relevance":1.0,"Distance":38.1,"MatchLevel":"houseNumber","MatchQuality":{"Country":1.0,"State":1.0,"County":1.0,"City":1.0,"District":1.0,"Street":[1.0],"HouseNumber":1.0,"PostalCode":1.0},"MatchType":"interpolated","Location":{"LocationId":"NT_LWZjw.XIfpxwYN8sG-zMzA_1EE","LocationType":"point","DisplayPosition":{"Latitude":52.23679,"Longitude":19.62722},"MapView":{"TopLeft":{"Latitude":52.2379142,"Longitude":19.6253843},"BottomRight":{"Latitude":52.2356658,"Longitude":19.6290557}},"Address":{"Label":"ulica Marii Konopnickiej 5A, 99-320 Żychlin, Polska","Country":"POL","State":"Woj. Łódzkie","County":"Powiat Kutnowski","City":"Żychlin","District":"Żychlin","Street":"ulica Marii Konopnickiej","HouseNumber":"5A","PostalCode":"99-320","AdditionalData":[{"value":"Polska","key":"CountryName"},{"value":"Woj. Łódzkie","key":"StateName"},{"value":"Powiat Kutnowski","key":"CountyName"}]},"MapReference":{"ReferenceId":"595671359","Spot":0.28,"SideOfStreet":"right","CountryId":"20624059","StateId":"20625723","CountyId":"20625758","CityId":"20625779","DistrictId":"20682239","AddressId":"210546430","RoadLinkId":"95675942"}}},{"Relevance":1.0,"Distance":49.1,"MatchLevel":"houseNumber","MatchQuality":{"Country":1.0,"State":1.0,"County":1.0,"City":1.0,"District":1.0,"Street":[1.0],"HouseNumber":1.0,"PostalCode":1.0},"MatchType":"interpolated","Location":{"LocationId":"NT_LWZjw.XIfpxwYN8sG-zMzA_1IE","LocationType":"point","DisplayPosition":{"Latitude":52.23667,"Longitude":19.62771},"MapView":{"TopLeft":{"Latitude":52.2377942,"Longitude":19.6258744},"BottomRight":{"Latitude":52.2355458,"Longitude":19.6295456}},"Address":{"Label":"ulica Marii Konopnickiej 5B, 99-320 Żychlin, Polska","Country":"POL","State":"Woj. Łódzkie","County":"Powiat Kutnowski","City":"Żychlin","District":"Żychlin","Street":"ulica Marii Konopnickiej","HouseNumber":"5B","PostalCode":"99-320","AdditionalData":[{"value":"Polska","key":"CountryName"},{"value":"Woj. Łódzkie","key":"StateName"},{"value":"Powiat Kutnowski","key":"CountyName"}]},"MapReference":{"ReferenceId":"595671379","Spot":0.97,"SideOfStreet":"right","CountryId":"20624059","StateId":"20625723","CountyId":"20625758","CityId":"20625779","DistrictId":"20682239","AddressId":"209900676","RoadLinkId":"95709013"}}},{"Relevance":1.0,"Distance":84.1,"MatchLevel":"street","MatchQuality":{"Country":1.0,"State":1.0,"County":1.0,"City":1.0,"District":1.0,"Street":[1.0],"PostalCode":1.0},"Location":{"LocationId":"NT_UnnDAq4sZ0YtwmO91mRJNA_l_709895708_L","LocationType":"point","DisplayPosition":{"Latitude":52.23805,"Longitude":19.62682},"MapView":{"TopLeft":{"Latitude":52.23817,"Longitude":19.62644},"BottomRight":{"Latitude":52.23805,"Longitude":19.62682}},"Address":{"Label":"ulica Stefana Żeromskiego, 99-320 Żychlin, Polska","Country":"POL","State":"Woj. Łódzkie","County":"Powiat Kutnowski","City":"Żychlin","District":"Żychlin","Street":"ulica Stefana Żeromskiego","PostalCode":"99-320","AdditionalData":[{"value":"Polska","key":"CountryName"},{"value":"Woj. Łódzkie","key":"StateName"},{"value":"Powiat Kutnowski","key":"CountyName"}]},"MapReference":{"ReferenceId":"709895708","Spot":0.0,"SideOfStreet":"left","CountryId":"20624059","StateId":"20625723","CountyId":"20625758","CityId":"20625779","DistrictId":"20682239"}}},{"Relevance":1.0,"Distance":84.1,"MatchLevel":"street","MatchQuality":{"Country":1.0,"State":1.0,"County":1.0,"City":1.0,"District":1.0,"Street":[1.0],"PostalCode":1.0},"Location":{"LocationId":"NT_UnnDAq4sZ0YtwmO91mRJNA_l_709895709_R","LocationType":"point","DisplayPosition":{"Latitude":52.23805,"Longitude":19.62682},"MapView":{"TopLeft":{"Latitude":52.23805,"Longitude":19.62637},"BottomRight":{"Latitude":52.23762,"Longitude":19.62682}},"Address":{"Label":"ulica Stefana Żeromskiego, 99-320 Żychlin, Polska","Country":"POL","State":"Woj. Łódzkie","County":"Powiat Kutnowski","City":"Żychlin","District":"Żychlin","Street":"ulica Stefana Żeromskiego","PostalCode":"99-320","AdditionalData":[{"value":"Polska","key":"CountryName"},{"value":"Woj. Łódzkie","key":"StateName"},{"value":"Powiat Kutnowski","key":"CountyName"}]},"MapReference":{"ReferenceId":"709895709","Spot":1.0,"SideOfStreet":"right","CountryId":"20624059","StateId":"20625723","CountyId":"20625758","CityId":"20625779","DistrictId":"20682239"}}},{"Relevance":1.0,"Distance":96.1,"MatchLevel":"street","MatchQuality":{"Country":1.0,"State":1.0,"County":1.0,"City":1.0,"District":1.0,"Street":[1.0],"PostalCode":1.0},"Location":{"LocationId":"NT_Lm2fBKkFfsJ7lvzFe6HwMA_l_1049346310_R","LocationType":"point","DisplayPosition":{"Latitude":52.23762,"Longitude":19.62637},"MapView":{"TopLeft":{"Latitude":52.23762,"Longitude":19.62622},"BottomRight":{"Latitude":52.23721,"Longitude":19.62637}},"Address":{"Label":"ulica Gabriela Narutowicza, 99-320 Żychlin, Polska","Country":"POL","State":"Woj. Łódzkie","County":"Powiat Kutnowski","City":"Żychlin","District":"Żychlin","Street":"ulica Gabriela Narutowicza","PostalCode":"99-320","AdditionalData":[{"value":"Polska","key":"CountryName"},{"value":"Woj. Łódzkie","key":"StateName"},{"value":"Powiat Kutnowski","key":"CountyName"}]},"MapReference":{"ReferenceId":"1049346310","Spot":1.0,"SideOfStreet":"right","CountryId":"20624059","StateId":"20625723","CountyId":"20625758","CityId":"20625779","DistrictId":"20682239"}}},{"Relevance":1.0,"Distance":96.2,"MatchLevel":"houseNumber","MatchQuality":{"Country":1.0,"State":1.0,"County":1.0,"City":1.0,"District":1.0,"Street":[1.0],"HouseNumber":1.0,"PostalCode":1.0},"MatchType":"interpolated","Location":{"LocationId":"NT_Lm2fBKkFfsJ7lvzFe6HwMA_3ID","LocationType":"point","DisplayPosition":{"Latitude":52.23769,"Longitude":19.62638},"MapView":{"TopLeft":{"Latitude":52.2388142,"Longitude":19.6245443},"BottomRight":{"Latitude":52.2365658,"Longitude":19.6282157}},"Address":{"Label":"ulica Gabriela Narutowicza 72, 99-320 Żychlin, Polska","Country":"POL","State":"Woj. Łódzkie","County":"Powiat Kutnowski","City":"Żychlin","District":"Żychlin","Street":"ulica Gabriela Narutowicza","HouseNumber":"72","PostalCode":"99-320","AdditionalData":[{"value":"Polska","key":"CountryName"},{"value":"Woj. Łódzkie","key":"StateName"},{"value":"Powiat Kutnowski","key":"CountyName"}]},"MapReference":{"ReferenceId":"709895706","Spot":0.13,"SideOfStreet":"left","CountryId":"20624059","StateId":"20625723","CountyId":"20625758","CityId":"20625779","DistrictId":"20682239","AddressId":"209271400","RoadLinkId":"115220117"}}},{"Relevance":1.0,"Distance":107.1,"MatchLevel":"houseNumber","MatchQuality":{"Country":1.0,"State":1.0,"County":1.0,"City":1.0,"District":1.0,"Street":[1.0],"HouseNumber":1.0,"PostalCode":1.0},"MatchType":"interpolated","Location":{"LocationId":"NT_UnnDAq4sZ0YtwmO91mRJNA_4A","LocationType":"point","DisplayPosition":{"Latitude":52.23725,"Longitude":19.62927},"MapView":{"TopLeft":{"Latitude":52.2383742,"Longitude":19.6274343},"BottomRight":{"Latitude":52.2361258,"Longitude":19.6311057}},"Address":{"Label":"ulica Stefana Żeromskiego 8, 99-320 Żychlin, Polska","Country":"POL","State":"Woj. Łódzkie","County":"Powiat Kutnowski","City":"Żychlin","District":"Żychlin","Street":"ulica Stefana Żeromskiego","HouseNumber":"8","PostalCode":"99-320","AdditionalData":[{"value":"Polska","key":"CountryName"},{"value":"Woj. Łódzkie","key":"StateName"},{"value":"Powiat Kutnowski","key":"CountyName"}]},"MapReference":{"ReferenceId":"1233953013","Spot":0.49,"SideOfStreet":"left","CountryId":"20624059","StateId":"20625723","CountyId":"20625758","CityId":"20625779","DistrictId":"20682239","AddressId":"210741431","RoadLinkId":"554267024"}}},{"Relevance":1.0,"Distance":113.7,"MatchLevel":"street","MatchQuality":{"Country":1.0,"State":1.0,"County":1.0,"City":1.0,"District":1.0,"Street":[1.0],"PostalCode":1.0},"Location":{"LocationId":"NT_Lm2fBKkFfsJ7lvzFe6HwMA_l_1049346309_R","LocationType":"point","DisplayPosition":{"Latitude":52.23721,"Longitude":19.62622},"MapView":{"TopLeft":{"Latitude":52.23721,"Longitude":19.62613},"BottomRight":{"Latitude":52.23705,"Longitude":19.62622}},"Address":{"Label":"ulica Gabriela Narutowicza, 99-320 Żychlin, Polska","Country":"POL","State":"Woj. Łódzkie","County":"Powiat Kutnowski","City":"Żychlin","District":"Żychlin","Street":"ulica Gabriela Narutowicza","PostalCode":"99-320","AdditionalData":[{"value":"Polska","key":"CountryName"},{"value":"Woj. Łódzkie","key":"StateName"},{"value":"Powiat Kutnowski","key":"CountyName"}]},"MapReference":{"ReferenceId":"1049346309","Spot":1.0,"SideOfStreet":"right","CountryId":"20624059","StateId":"20625723","CountyId":"20625758","CityId":"20625779","DistrictId":"20682239"}}}]}]}}