{"Response":{"MetaInfo":{"Timestamp":"2020-03-28T10:25:47.577+0000","NextPageInformation":"2"},"View":[{"_type":"SearchResultsViewType","ViewId":0,"Result":[{"Relevance":1.0,"Distance":-108.0,"MatchLevel":"landmark","MatchQuality":{"Country":1.0,"State":1.0,"County":1.0,"City":1.0,"Street":[1.0],"HouseNumber":1.0,"PostalCode":1.0,"Name":1.0},"Location":{"LocationId":"NT_z9WqYZficXStr09gkAmA3B_p_G5VeeG4lWjgycW5uJ3KKqA","LocationType":"hospital","Name":"Klinikum Osnabrück","DisplayPosition":{"Latitude":52.27739,"Longitude":8.00406},"MapView":{"TopLeft":{"Latitude":52.2785142,"Longitude":8.0022227},"BottomRight":{"Latitude":52.2762658,"Longitude":8.0058973}},"Address":{"Label":"Am Finkenhügel 1, 49076 Osnabrück, Deutschland","Country":"DEU","State":"Niedersachsen","County":"Osnabrück (Stadt)","City":"Osnabrück","Street":"Am Finkenhügel","HouseNumber":"1","PostalCode":"49076","AdditionalData":[{"value":"Deutschland","key":"CountryName"},{"value":"Niedersachsen","key":"StateName"},{"value":"Osnabrück (Stadt)","key":"CountyName"}]},"MapReference":{"CountryId":"20147700","StateId":"20151542","CountyId":"20155918","CityId":"20155919","PlaceId":"50342483"}}},{"Relevance":1.0,"Distance":0.0,"Direction":0.0,"MatchLevel":"city","MatchQuality":{"Country":1.0,"State":1.0,"County":1.0,"City":1.0,"PostalCode":1.0},"Location":{"LocationId":"NT_MuUG09aWFhxkwAzDuulqsC","LocationType":"point","DisplayPosition":{"Latitude":52.2771829,"Longitude":8.0045472},"MapView":{"TopLeft":{"Latitude":52.33723,"Longitude":7.92999},"BottomRight":{"Latitude":52.2176,"Longitude":8.18067}},"Address":{"Label":"Osnabrück, Niedersachsen, Deutschland","Country":"DEU","State":"Niedersachsen","County":"Osnabrück (Stadt)","City":"Osnabrück","PostalCode":"49074","AdditionalData":[{"value":"Deutschland","key":"CountryName"},{"value":"Niedersachsen","key":"StateName"},{"value":"Osnabrück (Stadt)","key":"CountyName"}]},"MapReference":{"ReferenceId":"1134657941","SideOfStreet":"neither","CountryId":"20147700","StateId":"20151542","CountyId":"20155918","CityId":"20155919"}}},{"Relevance":1.0,"Distance":18.7,"MatchLevel":"houseNumber","MatchQuality":{"Country":1.0,"State":1.0,"County":1.0,"City":1.0,"Street":[1.0],"HouseNumber":1.0,"PostalCode":1.0},"MatchType":"interpolated","Location":{"LocationId":"NT_MHJ0KDuiQBYKJYADon54eA_xA","LocationType":"point","DisplayPosition":{"Latitude":52.27734,"Longitude":8.00445},"MapView":{"TopLeft":{"Latitude":52.2784642,"Longitude":8.0026127},"BottomRight":{"Latitude":52.2762158,"Longitude":8.0062873}},"Address":{"Label":"Am Finkenhügel 1, 49076 Osnabrück, Deutschland","Country":"DEU","State":"Niedersachsen","County":"Osnabrück (Stadt)","City":"Osnabrück","Street":"Am Finkenhügel","HouseNumber":"1","PostalCode":"49076","AdditionalData":[{"value":"Deutschland","key":"CountryName"},{"value":"Niedersachsen","key":"StateName"},{"value":"Osnabrück (Stadt)","key":"CountyName"}]},"MapReference":{"ReferenceId":"586506639","Spot":0.8,"SideOfStreet":"left","CountryId":"20147700","StateId":"20151542","CountyId":"20155918","CityId":"20155919","AddressId":"178499099","RoadLinkId":"36650283"}}},{"Relevance":1.0,"Distance":77.6,"MatchLevel":"street","MatchQuality":{"Country":1.0,"State":1.0,"County":1.0,"City":1.0,"Street":[1.0],"PostalCode":1.0},"Location":{"LocationId":"NT_MHJ0KDuiQBYKJYADon54eA_l_586506636_L","LocationType":"point","DisplayPosition":{"Latitude":52.27782,"Longitude":8.00408},"MapView":{"TopLeft":{"Latitude":52.27799,"Longitude":8.00389},"BottomRight":{"Latitude":52.27782,"Longitude":8.00408}},"Address":{"Label":"Am Finkenhügel, 49076 Osnabrück, Deutschland","Country":"DEU","State":"Niedersachsen","County":"Osnabrück (Stadt)","City":"Osnabrück","Street":"Am Finkenhügel","PostalCode":"49076","AdditionalData":[{"value":"Deutschland","key":"CountryName"},{"value":"Niedersachsen","key":"StateName"},{"value":"Osnabrück (Stadt)","key":"CountyName"}]},"MapReference":{"ReferenceId":"586506636","Spot":0.0,"SideOfStreet":"left","CountryId":"20147700","StateId":"20151542","CountyId":"20155918","CityId":"20155919"}}},{"Relevance":1.0,"Distance":79.8,"MatchLevel":"street","MatchQuality":{"Country":1.0,"State":1.0,"County":1.0,"City":1.0,"Street":[1.0],"PostalCode":1.0},"Location":{"LocationId":"NT_MHJ0KDuiQBYKJYADon54eA_l_586506637_R","LocationType":"point","DisplayPosition":{"Latitude":52.27786,"Longitude":8.00416},"MapView":{"TopLeft":{"Latitude":52.27822,"Longitude":8.00408},"BottomRight":{"Latitude":52.27782,"Longitude":8.0043}},"Address":{"Label":"Am Finkenhügel, 49076 Osnabrück, Deutschland","Country":"DEU","State":"Niedersachsen","County":"Osnabrück (Stadt)","City":"Osnabrück","Street":"Am Finkenhügel","PostalCode":"49076","AdditionalData":[{"value":"Deutschland","key":"CountryName"},{"value":"Niedersachsen","key":"StateName"},{"value":"Osnabrück (Stadt)","key":"CountyName"}]},"MapReference":{"ReferenceId":"586506637","Spot":0.19,"SideOfStreet":"right","CountryId":"20147700","StateId":"20151542","CountyId":"20155918","CityId":"20155919"}}},{"Relevance":1.0,"Distance":101.0,"MatchLevel":"street","MatchQuality":{"Country":1.0,"State":1.0,"County":1.0,"City":1.0,"Street":[1.0],"PostalCode":1.0},"Location":{"LocationId":"NT_MHJ0KDuiQBYKJYADon54eA_l_586506635_R","LocationType":"point","DisplayPosition":{"Latitude":52.2780012,"Longitude":8.0039043},"MapView":{"TopLeft":{"Latitude":52.27822,"Longitude":8.00389},"BottomRight":{"Latitude":52.27799,"Longitude":8.0043}},"Address":{"Label":"Am Finkenhügel, 49076 Osnabrück, Deutschland","Country":"DEU","State":"Niedersachsen","County":"Osnabrück (Stadt)","City":"Osnabrück","Street":"Am Finkenhügel","PostalCode":"49076","AdditionalData":[{"value":"Deutschland","key":"CountryName"},{"value":"Niedersachsen","key":"StateName"},{"value":"Osnabrück (Stadt)","key":"CountyName"}]},"MapReference":{"ReferenceId":"586506635","Spot":0.04,"SideOfStreet":"right","CountryId":"20147700","StateId":"20151542","CountyId":"20155918","CityId":"20155919"}}},{"Relevance":1.0,"Distance":116.5,"MatchLevel":"street","MatchQuality":{"Country":1.0,"State":1.0,"County":1.0,"City":1.0,"Street":[1.0],"PostalCode":1.0},"Location":{"LocationId":"NT_MHJ0KDuiQBYKJYADon54eA_l_586506638_R","LocationType":"point","DisplayPosition":{"Latitude":52.27822,"Longitude":8.0043},"MapView":{"TopLeft":{"Latitude":52.27857,"Longitude":8.0043},"BottomRight":{"Latitude":52.27822,"Longitude":8.00571}},"Address":{"Label":"Am Finkenhügel, 49076 Osnabrück, Deutschland","Country":"DEU","State":"Niedersachsen","County":"Osnabrück (Stadt)","City":"Osnabrück","Street":"Am Finkenhügel","PostalCode":"49076","AdditionalData":[{"value":"Deutschland","key":"CountryName"},{"value":"Niedersachsen","key":"StateName"},{"value":"Osnabrück (Stadt)","key":"CountyName"}]},"MapReference":{"ReferenceId":"586506638","Spot":0.0,"SideOfStreet":"right","CountryId":"20147700","StateId":"20151542","CountyId":"20155918","CityId":"20155919"}}},{"Relevance":1.0,"Distance":117.3,"MatchLevel":"street","MatchQuality":{"Country":1.0,"State":1.0,"County":1.0,"City":1.0,"District":1.0,"Street":[1.0],"PostalCode":1.0},"Location":{"LocationId":"NT_V34t7FcTjB4v54RlOjfFCB_l_51827608_L","LocationType":"point","DisplayPosition":{"Latitude":52.27613,"Longitude":8.00465},"MapView":{"TopLeft":{"Latitude":52.27613,"Longitude":8.00465},"BottomRight":{"Latitude":52.27542,"Longitude":8.00469}},"Address":{"Label":"Am Finkenhügel, 49076 Osnabrück, Deutschland","Country":"DEU","State":"Niedersachsen","County":"Osnabrück (Stadt)","City":"Osnabrück","District":"Osnabrück","Street":"Am Finkenhügel","PostalCode":"49076","AdditionalData":[{"value":"Deutschland","key":"CountryName"},{"value":"Niedersachsen","key":"StateName"},{"value":"Osnabrück (Stadt)","key":"CountyName"}]},"MapReference":{"ReferenceId":"51827608","Spot":1.0,"SideOfStreet":"left","CountryId":"20147700","StateId":"20151542","CountyId":"20155918","CityId":"20155919","DistrictId":"20155929"}}},{"Relevance":1.0,"Distance":123.4,"MatchLevel":"street","MatchQuality":{"Country":1.0,"State":1.0,"County":1.0,"City":1.0,"Street":[1.0],"PostalCode":1.0},"Location":{"LocationId":"NT_MHJ0KDuiQBYKJYADon54eA_l_1048523558_L","LocationType":"point","DisplayPosition":{"Latitude":52.2762521,"Longitude":8.0055361},"MapView":{"TopLeft":{"Latitude":52.27712,"Longitude":8.00544},"BottomRight":{"Latitude":52.27615,"Longitude":8.00607}},"Address":{"Label":"Am Finkenhügel, 49076 Osnabrück, Deutschland","Country":"DEU","State":"Niedersachsen","County":"Osnabrück (Stadt)","City":"Osnabrück","Street":"Am Finkenhügel","PostalCode":"49076","AdditionalData":[{"value":"Deutschland","key":"CountryName"},{"value":"Niedersachsen","key":"StateName"},{"value":"Osnabrück (Stadt)","key":"CountyName"}]},"MapReference":{"ReferenceId":"1048523558","Spot":0.12,"SideOfStreet":"left","CountryId":"20147700","StateId":"20151542","CountyId":"20155918","CityId":"20155919"}}},{"Relevance":1.0,"Distance":131.7,"MatchLevel":"street","MatchQuality":{"Country":1.0,"State":1.0,"County":1.0,"City":1.0,"Street":[1.0],"PostalCode":1.0},"Location":{"LocationId":"NT_MHJ0KDuiQBYKJYADon54eA_l_1210825490_L","LocationType":"point","DisplayPosition":{"Latitude":52.27612,"Longitude":8.0054},"MapView":{"TopLeft":{"Latitude":52.27615,"Longitude":8.0054},"BottomRight":{"Latitude":52.27612,"Longitude":8.00544}},"Address":{"Label":"Am Finkenhügel, 49076 Osnabrück, Deutschland","Country":"DEU","State":"Niedersachsen","County":"Osnabrück (Stadt)","City":"Osnabrück","Street":"Am Finkenhügel","PostalCode":"49076","AdditionalData":[{"value":"Deutschland","key":"CountryName"},{"value":"Niedersachsen","key":"StateName"},{"value":"Osnabrück (Stadt)","key":"CountyName"}]},"MapReference":{"ReferenceId":"1210825490","Spot":0.0,"SideOfStreet":"left","CountryId":"20147700","StateId":"20151542","CountyId":"20155918","CityId":"20155919"}}}]}]}}