{"Response":{"MetaInfo":{"Timestamp":"2020-03-28T10:11:35.804+0000","NextPageInformation":"2"},"View":[{"_type":"SearchResultsViewType","ViewId":0,"Result":[{"Relevance":1.0,"Distance":0.0,"Direction":0.0,"MatchLevel":"district","MatchQuality":{"Country":1.0,"State":1.0,"County":1.0,"City":1.0,"District":1.0,"PostalCode":1.0},"Location":{"LocationId":"NT_HTIbXG9Dr0tfGj9VXCBMHA","LocationType":"point","DisplayPosition":{"Latitude":52.2796727,"Longitude":-1.5901915},"MapView":{"TopLeft":{"Latitude":52.30008,"Longitude":-1.6146},"BottomRight":{"Latitude":52.26418,"Longitude":-1.54773}},"Address":{"Label":"Warwick, England, United Kingdom","Country":"GBR","State":"England","County":"Warwickshire","City":"Warwick","District":"Warwick","PostalCode":"CV34 4","AdditionalData":[{"value":"United Kingdom","key":"CountryName"},{"value":"England","key":"StateName"},{"value":"Warwickshire","key":"CountyName"}]},"MapReference":{"ReferenceId":"26406644","SideOfStreet":"neither","StateId":"20248595","CountyId":"20338667","CityId":"20351743","DistrictId":"20351744"}}},{"Relevance":1.0,"Distance":1.7,"MatchLevel":"houseNumber","MatchQuality":{"Country":1.0,"State":1.0,"County":1.0,"City":1.0,"District":1.0,"Street":[1.0],"HouseNumber":1.0,"PostalCode":1.0},"MatchType":"interpolated","Location":{"LocationId":"NT_v9y0s19ZCH-KE11T2sdiZA_l_26406886_L_2AD","LocationType":"point","DisplayPosition":{"Latitude":52.279688,"Longitude":-1.590192},"MapView":{"TopLeft":{"Latitude":52.2808122,"Longitude":-1.5920294},"BottomRight":{"Latitude":52.2785639,"Longitude":-1.5883546}},"Address":{"Label":"60 Leycester Place, Warwick, CV34 4BX, United Kingdom","Country":"GBR","State":"England","County":"Warwickshire","City":"Warwick","District":"Warwick","Street":"Leycester Place","HouseNumber":"60","PostalCode":"CV34 4BX","AdditionalData":[{"value":"United Kingdom","key":"CountryName"},{"value":"England","key":"StateName"},{"value":"Warwickshire","key":"CountyName"}]},"MapReference":{"ReferenceId":"26406886","Spot":0.63,"SideOfStreet":"left","StateId":"20248595","CountyId":"20338667","CityId":"20351743","DistrictId":"20351744"}}},{"Relevance":1.0,"Distance":8.9,"MatchLevel":"postalCode","MatchQuality":{"PostalCode":1.0},"MatchType":"interpolated","Location":{"LocationId":"NT_v9y0s19ZCH-KE11T2sdiZA_l_26406886_L_2AD","LocationType":"point","DisplayPosition":{"Latitude":52.27961,"Longitude":-1.59011},"MapView":{"TopLeft":{"Latitude":52.2886032,"Longitude":-1.6048094},"BottomRight":{"Latitude":52.2706168,"Longitude":-1.5754106}},"Address":{"Label":"CV34 4BX, Warwick, England, United Kingdom","Country":"GBR","State":"England","County":"Warwickshire","City":"Warwick","PostalCode":"CV34 4BX","AdditionalData":[{"value":"United Kingdom","key":"CountryName"},{"value":"England","key":"StateName"},{"value":"Warwickshire","key":"CountyName"}]},"MapReference":{"ReferenceId":"26406886","Spot":0.63,"SideOfStreet":"neither","StateId":"20248595","CountyId":"20338667","CityId":"20351743"}}},{"Relevance":1.0,"Distance":11.1,"MatchLevel":"houseNumber","MatchQuality":{"Country":1.0,"State":1.0,"County":1.0,"City":1.0,"District":1.0,"Street":[1.0],"HouseNumber":1.0,"PostalCode":1.0},"MatchType":"interpolated","Location":{"LocationId":"NT_IQLREq.PtoIeB2HUJcnQUD_l_26406855_R_0UD","LocationType":"point","DisplayPosition":{"Latitude":52.27988,"Longitude":-1.59032},"MapView":{"TopLeft":{"Latitude":52.2810042,"Longitude":-1.5921574},"BottomRight":{"Latitude":52.2787559,"Longitude":-1.5884825}},"Address":{"Label":"45 High Street, Warwick, CV34 4AX, United Kingdom","Country":"GBR","State":"England","County":"Warwickshire","City":"Warwick","District":"Warwick","Street":"High Street","HouseNumber":"45","PostalCode":"CV34 4AX","AdditionalData":[{"value":"United Kingdom","key":"CountryName"},{"value":"England","key":"StateName"},{"value":"Warwickshire","key":"CountyName"}]},"MapReference":{"ReferenceId":"26406855","Spot":0.25,"SideOfStreet":"right","StateId":"20248595","CountyId":"20338667","CityId":"20351743","DistrictId":"20351744"}}},{"Relevance":1.0,"Distance":29.3,"MatchLevel":"houseNumber","MatchQuality":{"Country":1.0,"State":1.0,"County":1.0,"City":1.0,"District":1.0,"Street":[1.0],"HouseNumber":1.0,"PostalCode":1.0},"MatchType":"interpolated","Location":{"LocationId":"NT_jiDFIF0OUeIiPxbjHw.geD_l_1082845059_L_yYD","LocationType":"point","DisplayPosition":{"Latitude":52.279296,"Longitude":-1.589996},"MapView":{"TopLeft":{"Latitude":52.2804202,"Longitude":-1.5918334},"BottomRight":{"Latitude":52.2781719,"Longitude":-1.5881586}},"Address":{"Label":"26 Castle Lane, Warwick, CV34 4DA, United Kingdom","Country":"GBR","State":"England","County":"Warwickshire","City":"Warwick","District":"Warwick","Street":"Castle Lane","HouseNumber":"26","PostalCode":"CV34 4DA","AdditionalData":[{"value":"United Kingdom","key":"CountryName"},{"value":"England","key":"StateName"},{"value":"Warwickshire","key":"CountyName"}]},"MapReference":{"ReferenceId":"1082845059","Spot":0.69,"SideOfStreet":"left","StateId":"20248595","CountyId":"20338667","CityId":"20351743","DistrictId":"20351744"}}},{"Relevance":1.0,"Distance":30.3,"MatchLevel":"houseNumber","MatchQuality":{"Country":1.0,"State":1.0,"County":1.0,"City":1.0,"District":1.0,"Street":[1.0],"HouseNumber":1.0,"PostalCode":1.0},"MatchType":"interpolated","Location":{"LocationId":"NT_5Za57h09YzBYFdpWpwrcyB_l_26406878_R_0cD","LocationType":"point","DisplayPosition":{"Latitude":52.2796733,"Longitude":-1.5906367},"MapView":{"TopLeft":{"Latitude":52.2807975,"Longitude":-1.5924741},"BottomRight":{"Latitude":52.2785492,"Longitude":-1.5887992}},"Address":{"Label":"47 High Street, Warwick, CV34 4BY, United Kingdom","Country":"GBR","State":"England","County":"Warwickshire","City":"Warwick","District":"Warwick","Street":"High Street","HouseNumber":"47","PostalCode":"CV34 4BY","AdditionalData":[{"value":"United Kingdom","key":"CountryName"},{"value":"England","key":"StateName"},{"value":"Warwickshire","key":"CountyName"}]},"MapReference":{"ReferenceId":"26406878","Spot":0.53,"SideOfStreet":"right","StateId":"20248595","CountyId":"20338667","CityId":"20351743","DistrictId":"20351744"}}},{"Relevance":1.0,"Distance":34.2,"MatchLevel":"landmark","MatchQuality":{"Country":1.0,"State":1.0,"County":1.0,"City":1.0,"District":1.0,"PostalCode":1.0,"Name":1.0},"Location":{"LocationId":"NT_Rcv2e.UwW2mRvP4s-Td6jD","LocationType":"park","Name":"Warwick Castle","DisplayPosition":{"Latitude":52.26958,"Longitude":-1.58241},"MapView":{"TopLeft":{"Latitude":52.28196,"Longitude":-1.59629},"BottomRight":{"Latitude":52.25719,"Longitude":-1.56999}},"Address":{"Label":"Warwick, CV34 4, United Kingdom","Country":"GBR","State":"England","County":"Warwickshire","City":"Warwick","District":"Warwick","PostalCode":"CV34 4","AdditionalData":[{"value":"United Kingdom","key":"CountryName"},{"value":"England","key":"StateName"},{"value":"Warwickshire","key":"CountyName"}]},"MapReference":{"StateId":"20248595","CountyId":"20338667","CityId":"20351743","DistrictId":"20351744","PlaceId":"1511184798"}}},{"Relevance":1.0,"Distance":34.2,"MatchLevel":"street","MatchQuality":{"Country":1.0,"State":1.0,"County":1.0,"City":1.0,"District":1.0,"Street":[1.0],"PostalCode":1.0},"Location":{"LocationId":"NT_jiDFIF0OUeIiPxbjHw.geD_l_1082845060_L","LocationType":"point","DisplayPosition":{"Latitude":52.27948,"Longitude":-1.5898},"MapView":{"TopLeft":{"Latitude":52.27954,"Longitude":-1.5898},"BottomRight":{"Latitude":52.27948,"Longitude":-1.58973}},"Address":{"Label":"Castle Lane, Warwick, CV34 4, United Kingdom","Country":"GBR","State":"England","County":"Warwickshire","City":"Warwick","District":"Warwick","Street":"Castle Lane","PostalCode":"CV34 4","AdditionalData":[{"value":"United Kingdom","key":"CountryName"},{"value":"England","key":"StateName"},{"value":"Warwickshire","key":"CountyName"}]},"MapReference":{"ReferenceId":"1082845060","Spot":0.0,"SideOfStreet":"left","StateId":"20248595","CountyId":"20338667","CityId":"20351743","DistrictId":"20351744"}}},{"Relevance":1.0,"Distance":38.8,"MatchLevel":"postalCode","MatchQuality":{"PostalCode":1.0},"MatchType":"interpolated","Location":{"LocationId":"NT_IQLREq.PtoIeB2HUJcnQUD_l_26406855_R_0UD","LocationType":"point","DisplayPosition":{"Latitude":52.28002,"Longitude":-1.59024},"MapView":{"TopLeft":{"Latitude":52.2890132,"Longitude":-1.6049395},"BottomRight":{"Latitude":52.2710268,"Longitude":-1.5755405}},"Address":{"Label":"CV34 4BH, Warwick, England, United Kingdom","Country":"GBR","State":"England","County":"Warwickshire","City":"Warwick","PostalCode":"CV34 4BH","AdditionalData":[{"value":"United Kingdom","key":"CountryName"},{"value":"England","key":"StateName"},{"value":"Warwickshire","key":"CountyName"}]},"MapReference":{"ReferenceId":"26406855","Spot":0.25,"SideOfStreet":"neither","StateId":"20248595","CountyId":"20338667","CityId":"20351743"}}},{"Relevance":1.0,"Distance":40.9,"MatchLevel":"houseNumber","MatchQuality":{"Country":1.0,"State":1.0,"County":1.0,"City":1.0,"District":1.0,"Street":[1.0],"HouseNumber":1.0,"PostalCode":1.0},"MatchType":"interpolated","Location":{"LocationId":"NT_jiDFIF0OUeIiPxbjHw.geD_l_26406885_L_yQD","LocationType":"point","DisplayPosition":{"Latitude":52.27961,"Longitude":-1.5895399},"MapView":{"TopLeft":{"Latitude":52.2807342,"Longitude":-1.5913773},"BottomRight":{"Latitude":52.2784859,"Longitude":-1.5877025}},"Address":{"Label":"24 Castle Lane, Warwick, CV34 4BU, United Kingdom","Country":"GBR","State":"England","County":"Warwickshire","City":"Warwick","District":"Warwick","Street":"Castle Lane","HouseNumber":"24","PostalCode":"CV34 4BU","AdditionalData":[{"value":"United Kingdom","key":"CountryName"},{"value":"England","key":"StateName"},{"value":"Warwickshire","key":"CountyName"}]},"MapReference":{"ReferenceId":"26406885","Spot":0.11,"SideOfStreet":"left","StateId":"20248595","CountyId":"20338667","CityId":"20351743","DistrictId":"20351744"}}}]}]}}