{"Response":{"MetaInfo":{"Timestamp":"2020-03-28T10:02:44.598+0000","NextPageInformation":"2"},"View":[{"_type":"SearchResultsViewType","ViewId":0,"Result":[{"Relevance":1.0,"Distance":0.0,"Direction":0.0,"MatchLevel":"district","MatchQuality":{"Country":1.0,"State":1.0,"County":1.0,"City":1.0,"District":1.0,"PostalCode":1.0},"Location":{"LocationId":"NT_ermfxqhRHcI3EqQmPxFW-D","LocationType":"point","DisplayPosition":{"Latitude":52.2345496,"Longitude":8.2796946},"MapView":{"TopLeft":{"Latitude":52.24864,"Longitude":8.27178},"BottomRight":{"Latitude":52.22985,"Longitude":8.29463}},"Address":{"Label":"Westerhausen, Melle, Niedersachsen, Deutschland","Country":"DEU","State":"Niedersachsen","County":"Osnabrück (Landkreis)","City":"Melle","District":"Westerhausen","PostalCode":"49324","AdditionalData":[{"value":"Deutschland","key":"CountryName"},{"value":"Niedersachsen","key":"StateName"},{"value":"Osnabrück (Landkreis)","key":"CountyName"}]},"MapReference":{"ReferenceId":"83630063","SideOfStreet":"neither","CountryId":"20147700","StateId":"20151542","CountyId":"20156909","CityId":"20157030","DistrictId":"20157033"}}},{"Relevance":1.0,"Distance":12.3,"MatchLevel":"houseNumber","MatchQuality":{"Country":1.0,"State":1.0,"County":1.0,"City":1.0,"District":1.0,"Street":[1.0],"HouseNumber":1.0,"PostalCode":1.0},"MatchType":"interpolated","Location":{"LocationId":"NT_TYVc7vlFSrEjcyHS8pcQ1A_0QD","LocationType":"point","DisplayPosition":{"Latitude":52.23471,"Longitude":8.27935},"MapView":{"TopLeft":{"Latitude":52.2358342,"Longitude":8.2775144},"BottomRight":{"Latitude":52.2335858,"Longitude":8.2811856}},"Address":{"Label":"Westerhausener Straße 44, 49324 Melle, Deutschland","Country":"DEU","State":"Niedersachsen","County":"Osnabrück (Landkreis)","City":"Melle","District":"Westerhausen","Street":"Westerhausener Straße","HouseNumber":"44","PostalCode":"49324","AdditionalData":[{"value":"Deutschland","key":"CountryName"},{"value":"Niedersachsen","key":"StateName"},{"value":"Osnabrück (Landkreis)","key":"CountyName"}]},"MapReference":{"ReferenceId":"917713240","Spot":0.74,"SideOfStreet":"right","CountryId":"20147700","StateId":"20151542","CountyId":"20156909","CityId":"20157030","DistrictId":"20157033","AddressId":"181676365","RoadLinkId":"275305787"}}},{"Relevance":1.0,"Distance":55.8,"MatchLevel":"street","MatchQuality":{"Country":1.0,"State":1.0,"County":1.0,"City":1.0,"District":1.0,"Street":[1.0],"PostalCode":1.0},"Location":{"LocationId":"NT_TYVc7vlFSrEjcyHS8pcQ1A_l_917713241_R","LocationType":"point","DisplayPosition":{"Latitude":52.23504,"Longitude":8.27952},"MapView":{"TopLeft":{"Latitude":52.23516,"Longitude":8.27952},"BottomRight":{"Latitude":52.23504,"Longitude":8.27958}},"Address":{"Label":"Westerhausener Straße, 49324 Melle, Deutschland","Country":"DEU","State":"Niedersachsen","County":"Osnabrück (Landkreis)","City":"Melle","District":"Westerhausen","Street":"Westerhausener Straße","PostalCode":"49324","AdditionalData":[{"value":"Deutschland","key":"CountryName"},{"value":"Niedersachsen","key":"StateName"},{"value":"Osnabrück (Landkreis)","key":"CountyName"}]},"MapReference":{"ReferenceId":"917713241","Spot":0.0,"SideOfStreet":"right","CountryId":"20147700","StateId":"20151542","CountyId":"20156909","CityId":"20157030","DistrictId":"20157033"}}},{"Relevance":1.0,"Distance":61.5,"MatchLevel":"houseNumber","MatchQuality":{"Country":1.0,"State":1.0,"County":1.0,"City":1.0,"District":1.0,"Street":[1.0],"HouseNumber":1.0,"PostalCode":1.0},"MatchType":"interpolated","Location":{"LocationId":"NT_y6wU.eMM3V0yZYG8QoDo4C_1A","LocationType":"point","DisplayPosition":{"Latitude":52.23382,"Longitude":8.27983},"MapView":{"TopLeft":{"Latitude":52.2349442,"Longitude":8.2779945},"BottomRight":{"Latitude":52.2326958,"Longitude":8.2816655}},"Address":{"Label":"Am Wulberg 5, 49324 Melle, Deutschland","Country":"DEU","State":"Niedersachsen","County":"Osnabrück (Landkreis)","City":"Melle","District":"Westerhausen","Street":"Am Wulberg","HouseNumber":"5","PostalCode":"49324","AdditionalData":[{"value":"Deutschland","key":"CountryName"},{"value":"Niedersachsen","key":"StateName"},{"value":"Osnabrück (Landkreis)","key":"CountyName"}]},"MapReference":{"ReferenceId":"83660463","Spot":0.37,"SideOfStreet":"left","CountryId":"20147700","StateId":"20151542","CountyId":"20156909","CityId":"20157030","DistrictId":"20157033","AddressId":"180829215","RoadLinkId":"37218131"}}},{"Relevance":1.0,"Distance":86.1,"MatchLevel":"houseNumber","MatchQuality":{"Country":1.0,"State":1.0,"County":1.0,"City":1.0,"District":1.0,"Street":[1.0],"HouseNumber":1.0,"PostalCode":1.0},"MatchType":"interpolated","Location":{"LocationId":"NT_BVT98RECKCFxZmS6XuK23B_zA","LocationType":"point","DisplayPosition":{"Latitude":52.23515,"Longitude":8.27872},"MapView":{"TopLeft":{"Latitude":52.2362742,"Longitude":8.2768844},"BottomRight":{"Latitude":52.2340258,"Longitude":8.2805556}},"Address":{"Label":"Westlandstraße 3, 49324 Melle, Deutschland","Country":"DEU","State":"Niedersachsen","County":"Osnabrück (Landkreis)","City":"Melle","District":"Westerhausen","Street":"Westlandstraße","HouseNumber":"3","PostalCode":"49324","AdditionalData":[{"value":"Deutschland","key":"CountryName"},{"value":"Niedersachsen","key":"StateName"},{"value":"Osnabrück (Landkreis)","key":"CountyName"}]},"MapReference":{"ReferenceId":"703692040","Spot":0.61,"SideOfStreet":"right","CountryId":"20147700","StateId":"20151542","CountyId":"20156909","CityId":"20157030","DistrictId":"20157033","AddressId":"177707671","RoadLinkId":"59566857"}}},{"Relevance":1.0,"Distance":100.8,"MatchLevel":"houseNumber","MatchQuality":{"Country":1.0,"State":1.0,"County":1.0,"City":1.0,"District":1.0,"Street":[1.0],"HouseNumber":1.0,"PostalCode":1.0},"MatchType":"interpolated","Location":{"LocationId":"NT_qiloPqEm9nZTqW0Sxyw5XD_yA","LocationType":"point","DisplayPosition":{"Latitude":52.23372,"Longitude":8.27865},"MapView":{"TopLeft":{"Latitude":52.2348442,"Longitude":8.2768145},"BottomRight":{"Latitude":52.2325958,"Longitude":8.2804855}},"Address":{"Label":"Vinckenaue 2, 49324 Melle, Deutschland","Country":"DEU","State":"Niedersachsen","County":"Osnabrück (Landkreis)","City":"Melle","District":"Westerhausen","Street":"Vinckenaue","HouseNumber":"2","PostalCode":"49324","AdditionalData":[{"value":"Deutschland","key":"CountryName"},{"value":"Niedersachsen","key":"StateName"},{"value":"Osnabrück (Landkreis)","key":"CountyName"}]},"MapReference":{"ReferenceId":"703692037","Spot":0.71,"SideOfStreet":"left","CountryId":"20147700","StateId":"20151542","CountyId":"20156909","CityId":"20157030","DistrictId":"20157033","AddressId":"177676972","RoadLinkId":"59566854"}}},{"Relevance":1.0,"Distance":115.9,"MatchLevel":"houseNumber","MatchQuality":{"Country":1.0,"State":1.0,"County":1.0,"City":1.0,"District":1.0,"Street":[1.0],"HouseNumber":1.0,"PostalCode":1.0},"MatchType":"interpolated","Location":{"LocationId":"NT_TYVc7vlFSrEjcyHS8pcQ1A_1AD","LocationType":"point","DisplayPosition":{"Latitude":52.23559,"Longitude":8.2798},"MapView":{"TopLeft":{"Latitude":52.2367142,"Longitude":8.2779644},"BottomRight":{"Latitude":52.2344658,"Longitude":8.2816356}},"Address":{"Label":"Westerhausener Straße 50, 49324 Melle, Deutschland","Country":"DEU","State":"Niedersachsen","County":"Osnabrück (Landkreis)","City":"Melle","District":"Westerhausen","Street":"Westerhausener Straße","HouseNumber":"50","PostalCode":"49324","AdditionalData":[{"value":"Deutschland","key":"CountryName"},{"value":"Niedersachsen","key":"StateName"},{"value":"Osnabrück (Landkreis)","key":"CountyName"}]},"MapReference":{"ReferenceId":"83630081","Spot":0.76,"SideOfStreet":"right","CountryId":"20147700","StateId":"20151542","CountyId":"20156909","CityId":"20157030","DistrictId":"20157033","AddressId":"177147969","RoadLinkId":"36829149"}}},{"Relevance":1.0,"Distance":131.8,"MatchLevel":"street","MatchQuality":{"Country":1.0,"State":1.0,"County":1.0,"City":1.0,"District":1.0,"Street":[1.0],"PostalCode":1.0},"Location":{"LocationId":"NT_zGsBmobuNLneY45AkpQGNB_l_83629926_L","LocationType":"point","DisplayPosition":{"Latitude":52.23573,"Longitude":8.27987},"MapView":{"TopLeft":{"Latitude":52.23703,"Longitude":8.27549},"BottomRight":{"Latitude":52.23573,"Longitude":8.27987}},"Address":{"Label":"Heinrich-Assmann-Straße, 49324 Melle, Deutschland","Country":"DEU","State":"Niedersachsen","County":"Osnabrück (Landkreis)","City":"Melle","District":"Westerhausen","Street":"Heinrich-Assmann-Straße","PostalCode":"49324","AdditionalData":[{"value":"Deutschland","key":"CountryName"},{"value":"Niedersachsen","key":"StateName"},{"value":"Osnabrück (Landkreis)","key":"CountyName"}]},"MapReference":{"ReferenceId":"83629926","Spot":0.0,"SideOfStreet":"left","CountryId":"20147700","StateId":"20151542","CountyId":"20156909","CityId":"20157030","DistrictId":"20157033"}}},{"Relevance":1.0,"Distance":136.3,"MatchLevel":"houseNumber","MatchQuality":{"Country":1.0,"State":1.0,"County":1.0,"City":1.0,"District":1.0,"Street":[1.0],"HouseNumber":1.0,"PostalCode":1.0},"MatchType":"interpolated","Location":{"LocationId":"NT_S0QHbjBs4PCwdGZMKPfsAD_l_83630048_R_1ID","LocationType":"point","DisplayPosition":{"Latitude":52.2358336,"Longitude":8.2799191},"MapView":{"TopLeft":{"Latitude":52.2369578,"Longitude":8.2780835},"BottomRight":{"Latitude":52.2347095,"Longitude":8.2817547}},"Address":{"Label":"Westerhausener Straße 52, 49324 Melle, Deutschland","Country":"DEU","State":"Niedersachsen","County":"Osnabrück (Landkreis)","City":"Melle","District":"Westerhausen","Street":"Westerhausener Straße","HouseNumber":"52","PostalCode":"49324","AdditionalData":[{"value":"Deutschland","key":"CountryName"},{"value":"Niedersachsen","key":"StateName"},{"value":"Osnabrück (Landkreis)","key":"CountyName"}]},"MapReference":{"ReferenceId":"83630048","Spot":0.55,"SideOfStreet":"right","CountryId":"20147700","StateId":"20151542","CountyId":"20156909","CityId":"20157030","DistrictId":"20157033"}}},{"Relevance":1.0,"Distance":137.1,"MatchLevel":"houseNumber","MatchQuality":{"Country":1.0,"State":1.0,"County":1.0,"City":1.0,"District":1.0,"Street":[1.0],"HouseNumber":1.0,"PostalCode":1.0},"MatchType":"interpolated","Location":{"LocationId":"NT_TYVc7vlFSrEjcyHS8pcQ1A_zQD","LocationType":"point","DisplayPosition":{"Latitude":52.23339,"Longitude":8.27879},"MapView":{"TopLeft":{"Latitude":52.2345142,"Longitude":8.2769545},"BottomRight":{"Latitude":52.2322658,"Longitude":8.2806255}},"Address":{"Label":"Westerhausener Straße 34, 49324 Melle, Deutschland","Country":"DEU","State":"Niedersachsen","County":"Osnabrück (Landkreis)","City":"Melle","District":"Westerhausen","Street":"Westerhausener Straße","HouseNumber":"34","PostalCode":"49324","AdditionalData":[{"value":"Deutschland","key":"CountryName"},{"value":"Niedersachsen","key":"StateName"},{"value":"Osnabrück (Landkreis)","key":"CountyName"}]},"MapReference":{"ReferenceId":"759223622","Spot":0.18,"SideOfStreet":"right","CountryId":"20147700","StateId":"20151542","CountyId":"20156909","CityId":"20157030","DistrictId":"20157033","AddressId":"181171687","RoadLinkId":"153775438"}}}]}]}}