{"Response":{"MetaInfo":{"Timestamp":"2020-03-28T10:47:07.757+0000","NextPageInformation":"2"},"View":[{"_type":"SearchResultsViewType","ViewId":0,"Result":[{"Relevance":1.0,"Distance":0.0,"Direction":0.0,"MatchLevel":"district","MatchQuality":{"Country":1.0,"State":1.0,"County":1.0,"City":1.0,"District":1.0,"PostalCode":1.0},"Location":{"LocationId":"NT_mZsPZ2IoXVyqhfikOLMZYC","LocationType":"point","DisplayPosition":{"Latitude":52.2396525,"Longitude":20.107643},"MapView":{"TopLeft":{"Latitude":52.24901,"Longitude":20.09018},"BottomRight":{"Latitude":52.23011,"Longitude":20.12963}},"Address":{"Label":"Rybno, Woj. Mazowieckie, Polska","Country":"POL","State":"Woj. Mazowieckie","County":"Powiat Sochaczewski","City":"Rybno","District":"Rybno","PostalCode":"96-514","AdditionalData":[{"value":"Polska","key":"CountryName"},{"value":"Woj. Mazowieckie","key":"StateName"},{"value":"Powiat Sochaczewski","key":"CountyName"}]},"MapReference":{"ReferenceId":"828160200","SideOfStreet":"neither","CountryId":"20624059","StateId":"20627182","CountyId":"20627720","CityId":"20627731","DistrictId":"20689420"}}},{"Relevance":1.0,"Distance":16.8,"MatchLevel":"houseNumber","MatchQuality":{"Country":1.0,"State":1.0,"County":1.0,"City":1.0,"District":1.0,"Street":[1.0],"HouseNumber":1.0,"PostalCode":1.0},"MatchType":"interpolated","Location":{"LocationId":"NT_00UxuOLMCdD6uq.jUDNFGD_xA","LocationType":"point","DisplayPosition":{"Latitude":52.23938,"Longitude":20.10714},"MapView":{"TopLeft":{"Latitude":52.2405042,"Longitude":20.1053042},"BottomRight":{"Latitude":52.2382558,"Longitude":20.1089758}},"Address":{"Label":"ulica Parkowa 1, 96-514 Rybno, Polska","Country":"POL","State":"Woj. Mazowieckie","County":"Powiat Sochaczewski","City":"Rybno","District":"Rybno","Street":"ulica Parkowa","HouseNumber":"1","PostalCode":"96-514","AdditionalData":[{"value":"Polska","key":"CountryName"},{"value":"Woj. Mazowieckie","key":"StateName"},{"value":"Powiat Sochaczewski","key":"CountyName"}]},"MapReference":{"ReferenceId":"595956826","Spot":0.46,"SideOfStreet":"right","CountryId":"20624059","StateId":"20627182","CountyId":"20627720","CityId":"20627731","DistrictId":"20689420","AddressId":"597077016","RoadLinkId":"95648387"}}},{"Relevance":1.0,"Distance":79.6,"MatchLevel":"houseNumber","MatchQuality":{"Country":1.0,"State":1.0,"County":1.0,"City":1.0,"District":1.0,"Street":[1.0],"HouseNumber":1.0,"PostalCode":1.0},"MatchType":"interpolated","Location":{"LocationId":"NT_i.AunmelE-UCcggq1I4bGB_xQD","LocationType":"point","DisplayPosition":{"Latitude":52.24034,"Longitude":20.10842},"MapView":{"TopLeft":{"Latitude":52.2414642,"Longitude":20.1065842},"BottomRight":{"Latitude":52.2392158,"Longitude":20.1102558}},"Address":{"Label":"ulica Aleja Kasztanowa 14, 96-514 Rybno, Polska","Country":"POL","State":"Woj. Mazowieckie","County":"Powiat Sochaczewski","City":"Rybno","District":"Rybno","Street":"ulica Aleja Kasztanowa","HouseNumber":"14","PostalCode":"96-514","AdditionalData":[{"value":"Polska","key":"CountryName"},{"value":"Woj. Mazowieckie","key":"StateName"},{"value":"Powiat Sochaczewski","key":"CountyName"}]},"MapReference":{"ReferenceId":"595956686","Spot":0.85,"SideOfStreet":"left","CountryId":"20624059","StateId":"20627182","CountyId":"20627720","CityId":"20627731","DistrictId":"20689420","AddressId":"597040302","RoadLinkId":"95667181"}}},{"Relevance":1.0,"Distance":100.0,"MatchLevel":"houseNumber","MatchQuality":{"Country":1.0,"State":1.0,"County":1.0,"City":1.0,"District":1.0,"Street":[1.0],"HouseNumber":1.0,"PostalCode":1.0},"MatchType":"interpolated","Location":{"LocationId":"NT_i.AunmelE-UCcggq1I4bGB_xID","LocationType":"point","DisplayPosition":{"Latitude":52.2407,"Longitude":20.10751},"MapView":{"TopLeft":{"Latitude":52.2418242,"Longitude":20.1056742},"BottomRight":{"Latitude":52.2395758,"Longitude":20.1093458}},"Address":{"Label":"ulica Aleja Kasztanowa 12, 96-514 Rybno, Polska","Country":"POL","State":"Woj. Mazowieckie","County":"Powiat Sochaczewski","City":"Rybno","District":"Rybno","Street":"ulica Aleja Kasztanowa","HouseNumber":"12","PostalCode":"96-514","AdditionalData":[{"value":"Polska","key":"CountryName"},{"value":"Woj. Mazowieckie","key":"StateName"},{"value":"Powiat Sochaczewski","key":"CountyName"}]},"MapReference":{"ReferenceId":"1084148548","Spot":0.17,"SideOfStreet":"left","CountryId":"20624059","StateId":"20627182","CountyId":"20627720","CityId":"20627731","DistrictId":"20689420","AddressId":"596993779","RoadLinkId":"400536304"}}},{"Relevance":1.0,"Distance":131.6,"MatchLevel":"houseNumber","MatchQuality":{"Country":1.0,"State":1.0,"County":1.0,"City":1.0,"District":1.0,"Street":[1.0],"HouseNumber":1.0,"PostalCode":1.0},"MatchType":"interpolated","Location":{"LocationId":"NT_Kyz1-7xegYwHFpER538HmD_xQD","LocationType":"point","DisplayPosition":{"Latitude":52.23829,"Longitude":20.10821},"MapView":{"TopLeft":{"Latitude":52.2394142,"Longitude":20.1063743},"BottomRight":{"Latitude":52.2371658,"Longitude":20.1100457}},"Address":{"Label":"ulica Towarowa 14, 96-514 Rybno, Polska","Country":"POL","State":"Woj. Mazowieckie","County":"Powiat Sochaczewski","City":"Rybno","District":"Rybno","Street":"ulica Towarowa","HouseNumber":"14","PostalCode":"96-514","AdditionalData":[{"value":"Polska","key":"CountryName"},{"value":"Woj. Mazowieckie","key":"StateName"},{"value":"Powiat Sochaczewski","key":"CountyName"}]},"MapReference":{"ReferenceId":"1092216355","Spot":0.46,"SideOfStreet":"left","CountryId":"20624059","StateId":"20627182","CountyId":"20627720","CityId":"20627731","DistrictId":"20689420","AddressId":"596783653","RoadLinkId":"407144129"}}},{"Relevance":1.0,"Distance":131.8,"MatchLevel":"houseNumber","MatchQuality":{"Country":1.0,"State":1.0,"County":1.0,"City":1.0,"District":1.0,"Street":[1.0],"HouseNumber":1.0,"PostalCode":1.0},"MatchType":"interpolated","Location":{"LocationId":"NT_Kyz1-7xegYwHFpER538HmD_yA","LocationType":"point","DisplayPosition":{"Latitude":52.23862,"Longitude":20.10954},"MapView":{"TopLeft":{"Latitude":52.2397442,"Longitude":20.1077043},"BottomRight":{"Latitude":52.2374958,"Longitude":20.1113757}},"Address":{"Label":"ulica Towarowa 2, 96-514 Rybno, Polska","Country":"POL","State":"Woj. Mazowieckie","County":"Powiat Sochaczewski","City":"Rybno","District":"Rybno","Street":"ulica Towarowa","HouseNumber":"2","PostalCode":"96-514","AdditionalData":[{"value":"Polska","key":"CountryName"},{"value":"Woj. Mazowieckie","key":"StateName"},{"value":"Powiat Sochaczewski","key":"CountyName"}]},"MapReference":{"ReferenceId":"1092216356","Spot":0.14,"SideOfStreet":"left","CountryId":"20624059","StateId":"20627182","CountyId":"20627720","CityId":"20627731","DistrictId":"20689420","AddressId":"596783663","RoadLinkId":"407144130"}}},{"Relevance":1.0,"Distance":175.8,"MatchLevel":"street","MatchQuality":{"Country":1.0,"State":1.0,"County":1.0,"City":1.0,"District":1.0,"Street":[1.0],"PostalCode":1.0},"Location":{"LocationId":"NT_Kyz1-7xegYwHFpER538HmD_l_595956843_L","LocationType":"point","DisplayPosition":{"Latitude":52.23808,"Longitude":20.10737},"MapView":{"TopLeft":{"Latitude":52.23808,"Longitude":20.10705},"BottomRight":{"Latitude":52.23779,"Longitude":20.10737}},"Address":{"Label":"ulica Towarowa, 96-514 Rybno, Polska","Country":"POL","State":"Woj. Mazowieckie","County":"Powiat Sochaczewski","City":"Rybno","District":"Rybno","Street":"ulica Towarowa","PostalCode":"96-514","AdditionalData":[{"value":"Polska","key":"CountryName"},{"value":"Woj. Mazowieckie","key":"StateName"},{"value":"Powiat Sochaczewski","key":"CountyName"}]},"MapReference":{"ReferenceId":"595956843","Spot":1.0,"SideOfStreet":"left","CountryId":"20624059","StateId":"20627182","CountyId":"20627720","CityId":"20627731","DistrictId":"20689420"}}},{"Relevance":1.0,"Distance":178.2,"MatchLevel":"houseNumber","MatchQuality":{"Country":1.0,"State":1.0,"County":1.0,"City":1.0,"District":1.0,"Street":[1.0],"HouseNumber":1.0,"PostalCode":1.0},"MatchType":"interpolated","Location":{"LocationId":"NT_00UxuOLMCdD6uq.jUDNFGD_1A","LocationType":"point","DisplayPosition":{"Latitude":52.23798,"Longitude":20.10745},"MapView":{"TopLeft":{"Latitude":52.2391042,"Longitude":20.1056143},"BottomRight":{"Latitude":52.2368558,"Longitude":20.1092857}},"Address":{"Label":"ulica Parkowa 5, 96-514 Rybno, Polska","Country":"POL","State":"Woj. Mazowieckie","County":"Powiat Sochaczewski","City":"Rybno","District":"Rybno","Street":"ulica Parkowa","HouseNumber":"5","PostalCode":"96-514","AdditionalData":[{"value":"Polska","key":"CountryName"},{"value":"Woj. Mazowieckie","key":"StateName"},{"value":"Powiat Sochaczewski","key":"CountyName"}]},"MapReference":{"ReferenceId":"596267638","Spot":0.99,"SideOfStreet":"right","CountryId":"20624059","StateId":"20627182","CountyId":"20627720","CityId":"20627731","DistrictId":"20689420","AddressId":"732246286","RoadLinkId":"95525556"}}},{"Relevance":1.0,"Distance":187.8,"MatchLevel":"street","MatchQuality":{"Country":1.0,"State":1.0,"County":1.0,"City":1.0,"District":1.0,"Street":[1.0],"PostalCode":1.0},"Location":{"LocationId":"NT_uORNdgxPMUmRFNUcCBE28B_l_832758596_L","LocationType":"point","DisplayPosition":{"Latitude":52.2413398,"Longitude":20.1077676},"MapView":{"TopLeft":{"Latitude":52.24147,"Longitude":20.10566},"BottomRight":{"Latitude":52.24133,"Longitude":20.1079}},"Address":{"Label":"ulica Sochaczewska, 96-514 Rybno, Polska","Country":"POL","State":"Woj. Mazowieckie","County":"Powiat Sochaczewski","City":"Rybno","District":"Rybno","Street":"ulica Sochaczewska","PostalCode":"96-514","AdditionalData":[{"value":"Polska","key":"CountryName"},{"value":"Woj. Mazowieckie","key":"StateName"},{"value":"Powiat Sochaczewski","key":"CountyName"}]},"MapReference":{"ReferenceId":"832758596","Spot":0.06,"SideOfStreet":"left","CountryId":"20624059","StateId":"20627182","CountyId":"20627720","CityId":"20627731","DistrictId":"20689420"}}},{"Relevance":1.0,"Distance":238.3,"MatchLevel":"houseNumber","MatchQuality":{"Country":1.0,"State":1.0,"County":1.0,"City":1.0,"District":1.0,"Street":[1.0],"HouseNumber":1.0,"PostalCode":1.0},"MatchType":"interpolated","Location":{"LocationId":"NT_zXiGIeZgSjn4PTuUhBbYRA_xMD","LocationType":"point","DisplayPosition":{"Latitude":52.23912,"Longitude":20.1115},"MapView":{"TopLeft":{"Latitude":52.2402442,"Longitude":20.1096643},"BottomRight":{"Latitude":52.2379958,"Longitude":20.1133357}},"Address":{"Label":"aleja Kasztanowa 13, 96-514 Rybno, Polska","Country":"POL","State":"Woj. Mazowieckie","County":"Powiat Sochaczewski","City":"Rybno","District":"Rybno","Street":"aleja Kasztanowa","HouseNumber":"13","PostalCode":"96-514","AdditionalData":[{"value":"Polska","key":"CountryName"},{"value":"Woj. Mazowieckie","key":"StateName"},{"value":"Powiat Sochaczewski","key":"CountyName"}]},"MapReference":{"ReferenceId":"595956685","Spot":0.0,"SideOfStreet":"left","CountryId":"20624059","StateId":"20627182","CountyId":"20627720","CityId":"20627731","DistrictId":"20689420","AddressId":"596741879","RoadLinkId":"95673327"}}}]}]}}