{"Response":{"MetaInfo":{"Timestamp":"2020-03-28T11:57:12.212+0000","NextPageInformation":"2"},"View":[{"_type":"SearchResultsViewType","ViewId":0,"Result":[{"Relevance":1.0,"Distance":0.0,"Direction":0.0,"MatchLevel":"district","MatchQuality":{"Country":1.0,"State":1.0,"County":1.0,"City":1.0,"District":1.0,"PostalCode":1.0},"Location":{"LocationId":"NT_WOTTxfWdaoj.GWM5MWEoqB","LocationType":"point","DisplayPosition":{"Latitude":52.2071333,"Longitude":1.5770193},"MapView":{"TopLeft":{"Latitude":52.21773,"Longitude":1.56199},"BottomRight":{"Latitude":52.19776,"Longitude":1.59389}},"Address":{"Label":"Leiston, England, United Kingdom","Country":"GBR","State":"England","County":"Suffolk","City":"Leiston","District":"Leiston","PostalCode":"IP16 4","AdditionalData":[{"value":"United Kingdom","key":"CountryName"},{"value":"England","key":"StateName"},{"value":"Suffolk","key":"CountyName"}]},"MapReference":{"ReferenceId":"781582616","SideOfStreet":"neither","StateId":"20248595","CountyId":"20338322","CityId":"20351278","DistrictId":"20351279"}}},{"Relevance":1.0,"Distance":7.3,"MatchLevel":"houseNumber","MatchQuality":{"Country":1.0,"State":1.0,"County":1.0,"City":1.0,"District":1.0,"Street":[1.0],"HouseNumber":1.0,"PostalCode":1.0},"MatchType":"interpolated","Location":{"LocationId":"NT_x1aOcTX0vdRLpIa2wQn6YA_l_821484028_L_yQD","LocationType":"point","DisplayPosition":{"Latitude":52.20722,"Longitude":1.57709},"MapView":{"TopLeft":{"Latitude":52.2083442,"Longitude":1.5752556},"BottomRight":{"Latitude":52.2060959,"Longitude":1.5789244}},"Address":{"Label":"24 High Street, Leiston, IP16 4, United Kingdom","Country":"GBR","State":"England","County":"Suffolk","City":"Leiston","District":"Leiston","Street":"High Street","HouseNumber":"24","PostalCode":"IP16 4","AdditionalData":[{"value":"United Kingdom","key":"CountryName"},{"value":"England","key":"StateName"},{"value":"Suffolk","key":"CountyName"}]},"MapReference":{"ReferenceId":"821484028","Spot":0.59,"SideOfStreet":"left","StateId":"20248595","CountyId":"20338322","CityId":"20351278","DistrictId":"20351279"}}},{"Relevance":1.0,"Distance":12.3,"MatchLevel":"postalCode","MatchQuality":{"PostalCode":1.0},"MatchType":"interpolated","Location":{"LocationId":"NT_x1aOcTX0vdRLpIa2wQn6YA_l_821484028_L_yQD","LocationType":"point","DisplayPosition":{"Latitude":52.20714,"Longitude":1.5772},"MapView":{"TopLeft":{"Latitude":52.2161332,"Longitude":1.5625246},"BottomRight":{"Latitude":52.1981468,"Longitude":1.5918754}},"Address":{"Label":"IP16 4EL, Leiston, England, United Kingdom","Country":"GBR","State":"England","County":"Suffolk","City":"Leiston","PostalCode":"IP16 4EL","AdditionalData":[{"value":"United Kingdom","key":"CountryName"},{"value":"England","key":"StateName"},{"value":"Suffolk","key":"CountyName"}]},"MapReference":{"ReferenceId":"821484028","Spot":0.59,"SideOfStreet":"neither","StateId":"20248595","CountyId":"20338322","CityId":"20351278"}}},{"Relevance":1.0,"Distance":24.0,"MatchLevel":"postalCode","MatchQuality":{"PostalCode":1.0},"MatchType":"interpolated","Location":{"LocationId":"NT_x1aOcTX0vdRLpIa2wQn6YA_l_821484027_L_zQD","LocationType":"point","DisplayPosition":{"Latitude":52.20696,"Longitude":1.57681},"MapView":{"TopLeft":{"Latitude":52.2159532,"Longitude":1.5621347},"BottomRight":{"Latitude":52.1979668,"Longitude":1.5914853}},"Address":{"Label":"IP16 4EW, Leiston, England, United Kingdom","Country":"GBR","State":"England","County":"Suffolk","City":"Leiston","PostalCode":"IP16 4EW","AdditionalData":[{"value":"United Kingdom","key":"CountryName"},{"value":"England","key":"StateName"},{"value":"Suffolk","key":"CountyName"}]},"MapReference":{"ReferenceId":"821484027","Spot":0.76,"SideOfStreet":"neither","StateId":"20248595","CountyId":"20338322","CityId":"20351278"}}},{"Relevance":1.0,"Distance":24.9,"MatchLevel":"street","MatchQuality":{"Country":1.0,"State":1.0,"County":1.0,"City":1.0,"District":1.0,"PostalCode":1.0},"Location":{"LocationId":"NT_Xw8IbtTgptVBXCyx5mNMDA_l_26147447_R","LocationType":"point","DisplayPosition":{"Latitude":52.2069871,"Longitude":1.5767423},"MapView":{"TopLeft":{"Latitude":52.2072,"Longitude":1.57663},"BottomRight":{"Latitude":52.20679,"Longitude":1.57682}},"Address":{"Label":"Leiston, IP16 4, United Kingdom","Country":"GBR","State":"England","County":"Suffolk","City":"Leiston","District":"Leiston","PostalCode":"IP16 4","AdditionalData":[{"value":"United Kingdom","key":"CountryName"},{"value":"England","key":"StateName"},{"value":"Suffolk","key":"CountyName"}]},"MapReference":{"ReferenceId":"26147447","Spot":0.48,"SideOfStreet":"right","StateId":"20248595","CountyId":"20338322","CityId":"20351278","DistrictId":"20351279"}}},{"Relevance":1.0,"Distance":36.0,"MatchLevel":"street","MatchQuality":{"Country":1.0,"State":1.0,"County":1.0,"City":1.0,"District":1.0,"Street":[1.0],"PostalCode":1.0},"Location":{"LocationId":"NT_iJAkothVP3yCeTGKjm7GCC_l_821483890_R","LocationType":"point","DisplayPosition":{"Latitude":52.2074545,"Longitude":1.5769532},"MapView":{"TopLeft":{"Latitude":52.20746,"Longitude":1.57664},"BottomRight":{"Latitude":52.20739,"Longitude":1.57698}},"Address":{"Label":"High Green, Leiston, IP16 4, United Kingdom","Country":"GBR","State":"England","County":"Suffolk","City":"Leiston","District":"Leiston","Street":"High Green","PostalCode":"IP16 4","AdditionalData":[{"value":"United Kingdom","key":"CountryName"},{"value":"England","key":"StateName"},{"value":"Suffolk","key":"CountyName"}]},"MapReference":{"ReferenceId":"821483890","Spot":0.92,"SideOfStreet":"right","StateId":"20248595","CountyId":"20338322","CityId":"20351278","DistrictId":"20351279"}}},{"Relevance":1.0,"Distance":38.5,"MatchLevel":"street","MatchQuality":{"Country":1.0,"State":1.0,"County":1.0,"City":1.0,"District":1.0,"Street":[1.0],"PostalCode":1.0},"Location":{"LocationId":"NT_iJAkothVP3yCeTGKjm7GCC_l_821483889_R","LocationType":"point","DisplayPosition":{"Latitude":52.20739,"Longitude":1.57664},"MapView":{"TopLeft":{"Latitude":52.20739,"Longitude":1.57616},"BottomRight":{"Latitude":52.2073,"Longitude":1.57664}},"Address":{"Label":"High Green, Leiston, IP16 4, United Kingdom","Country":"GBR","State":"England","County":"Suffolk","City":"Leiston","District":"Leiston","Street":"High Green","PostalCode":"IP16 4","AdditionalData":[{"value":"United Kingdom","key":"CountryName"},{"value":"England","key":"StateName"},{"value":"Suffolk","key":"CountyName"}]},"MapReference":{"ReferenceId":"821483889","Spot":1.0,"SideOfStreet":"right","StateId":"20248595","CountyId":"20338322","CityId":"20351278","DistrictId":"20351279"}}},{"Relevance":1.0,"Distance":41.2,"MatchLevel":"street","MatchQuality":{"Country":1.0,"State":1.0,"County":1.0,"City":1.0,"District":1.0,"PostalCode":1.0},"Location":{"LocationId":"NT_Xw8IbtTgptVBXCyx5mNMDA_l_26147448_L","LocationType":"point","DisplayPosition":{"Latitude":52.20679,"Longitude":1.57679},"MapView":{"TopLeft":{"Latitude":52.20679,"Longitude":1.57651},"BottomRight":{"Latitude":52.20675,"Longitude":1.57679}},"Address":{"Label":"Leiston, IP16 4, United Kingdom","Country":"GBR","State":"England","County":"Suffolk","City":"Leiston","District":"Leiston","PostalCode":"IP16 4","AdditionalData":[{"value":"United Kingdom","key":"CountryName"},{"value":"England","key":"StateName"},{"value":"Suffolk","key":"CountyName"}]},"MapReference":{"ReferenceId":"26147448","Spot":1.0,"SideOfStreet":"left","StateId":"20248595","CountyId":"20338322","CityId":"20351278","DistrictId":"20351279"}}},{"Relevance":1.0,"Distance":41.3,"MatchLevel":"street","MatchQuality":{"Country":1.0,"State":1.0,"County":1.0,"City":1.0,"District":1.0,"PostalCode":1.0},"Location":{"LocationId":"NT_Xw8IbtTgptVBXCyx5mNMDA_l_26147469_R","LocationType":"point","DisplayPosition":{"Latitude":52.2067898,"Longitude":1.5767903},"MapView":{"TopLeft":{"Latitude":52.20679,"Longitude":1.57679},"BottomRight":{"Latitude":52.2065,"Longitude":1.577}},"Address":{"Label":"Leiston, IP16 4, United Kingdom","Country":"GBR","State":"England","County":"Suffolk","City":"Leiston","District":"Leiston","PostalCode":"IP16 4","AdditionalData":[{"value":"United Kingdom","key":"CountryName"},{"value":"England","key":"StateName"},{"value":"Suffolk","key":"CountyName"}]},"MapReference":{"ReferenceId":"26147469","Spot":1.0,"SideOfStreet":"right","StateId":"20248595","CountyId":"20338322","CityId":"20351278","DistrictId":"20351279"}}},{"Relevance":1.0,"Distance":43.4,"MatchLevel":"houseNumber","MatchQuality":{"Country":1.0,"State":1.0,"County":1.0,"City":1.0,"District":1.0,"Street":[1.0],"HouseNumber":1.0,"PostalCode":1.0},"MatchType":"interpolated","Location":{"LocationId":"NT_YY.Flz4B01OYrt8.ueXjdA_l_821484029_R_xA","LocationType":"point","DisplayPosition":{"Latitude":52.20683,"Longitude":1.5774201},"MapView":{"TopLeft":{"Latitude":52.2079542,"Longitude":1.5755857},"BottomRight":{"Latitude":52.2057059,"Longitude":1.5792545}},"Address":{"Label":"1 Mafeking Place, Leiston, IP16 4, United Kingdom","Country":"GBR","State":"England","County":"Suffolk","City":"Leiston","District":"Leiston","Street":"Mafeking Place","HouseNumber":"1","PostalCode":"IP16 4","AdditionalData":[{"value":"United Kingdom","key":"CountryName"},{"value":"England","key":"StateName"},{"value":"Suffolk","key":"CountyName"}]},"MapReference":{"ReferenceId":"821484029","Spot":0.37,"SideOfStreet":"right","StateId":"20248595","CountyId":"20338322","CityId":"20351278","DistrictId":"20351279"}}}]}]}}