{"Response":{"MetaInfo":{"Timestamp":"2020-03-28T10:11:41.578+0000","NextPageInformation":"2"},"View":[{"_type":"SearchResultsViewType","ViewId":0,"Result":[{"Relevance":1.0,"Distance":0.0,"Direction":0.0,"MatchLevel":"district","MatchQuality":{"Country":1.0,"State":1.0,"County":1.0,"City":1.0,"District":1.0,"PostalCode":1.0},"Location":{"LocationId":"NT_Y06mEq0deLBadvyU22O.PA","LocationType":"point","DisplayPosition":{"Latitude":52.2883041,"Longitude":0.1282948},"MapView":{"TopLeft":{"Latitude":52.29818,"Longitude":0.11012},"BottomRight":{"Latitude":52.27496,"Longitude":0.13742}},"Address":{"Label":"Cottenham, Cambridge, England, United Kingdom","Country":"GBR","State":"England","County":"Cambridgeshire","City":"Cambridge","District":"Cottenham","PostalCode":"CB24 8","AdditionalData":[{"value":"United Kingdom","key":"CountryName"},{"value":"England","key":"StateName"},{"value":"Cambridgeshire","key":"CountyName"}]},"MapReference":{"ReferenceId":"781726141","SideOfStreet":"neither","StateId":"20248595","CountyId":"20335089","CityId":"20335090","DistrictId":"20349937"}}},{"Relevance":1.0,"Distance":1.8,"MatchLevel":"houseNumber","MatchQuality":{"Country":1.0,"State":1.0,"County":1.0,"City":1.0,"District":1.0,"Street":[1.0],"HouseNumber":1.0,"PostalCode":1.0},"MatchType":"interpolated","Location":{"LocationId":"NT_5WTUTil69hHOZaR50nXCjA_l_26181139_L_zcD","LocationType":"point","DisplayPosition":{"Latitude":52.2882884,"Longitude":0.1282914},"MapView":{"TopLeft":{"Latitude":52.2894125,"Longitude":0.1264536},"BottomRight":{"Latitude":52.2871642,"Longitude":0.1301292}},"Address":{"Label":"37 Margett Street, Cambridge, CB24 8QY, United Kingdom","Country":"GBR","State":"England","County":"Cambridgeshire","City":"Cambridge","District":"Cottenham","Street":"Margett Street","HouseNumber":"37","PostalCode":"CB24 8QY","AdditionalData":[{"value":"United Kingdom","key":"CountryName"},{"value":"England","key":"StateName"},{"value":"Cambridgeshire","key":"CountyName"}]},"MapReference":{"ReferenceId":"26181139","Spot":0.09,"SideOfStreet":"left","StateId":"20248595","CountyId":"20335089","CityId":"20335090","DistrictId":"20349937"}}},{"Relevance":1.0,"Distance":25.9,"MatchLevel":"houseNumber","MatchQuality":{"Country":1.0,"State":1.0,"County":1.0,"City":1.0,"District":1.0,"Street":[1.0],"HouseNumber":1.0,"PostalCode":1.0},"MatchType":"interpolated","Location":{"LocationId":"NT_KnfkPaNeJIoHBjTOnWxW-D_l_26181149_L_yUD","LocationType":"point","DisplayPosition":{"Latitude":52.2879907,"Longitude":0.1280584},"MapView":{"TopLeft":{"Latitude":52.2891149,"Longitude":0.1262206},"BottomRight":{"Latitude":52.2868666,"Longitude":0.1298962}},"Address":{"Label":"25 Corbett Street, Cambridge, CB24 8QX, United Kingdom","Country":"GBR","State":"England","County":"Cambridgeshire","City":"Cambridge","District":"Cottenham","Street":"Corbett Street","HouseNumber":"25","PostalCode":"CB24 8QX","AdditionalData":[{"value":"United Kingdom","key":"CountryName"},{"value":"England","key":"StateName"},{"value":"Cambridgeshire","key":"CountyName"}]},"MapReference":{"ReferenceId":"26181149","Spot":0.84,"SideOfStreet":"left","StateId":"20248595","CountyId":"20335089","CityId":"20335090","DistrictId":"20349937"}}},{"Relevance":1.0,"Distance":27.5,"MatchLevel":"houseNumber","MatchQuality":{"Country":1.0,"State":1.0,"County":1.0,"City":1.0,"District":1.0,"Street":[1.0],"HouseNumber":1.0,"PostalCode":1.0},"MatchType":"interpolated","Location":{"LocationId":"NT_KnfkPaNeJIoHBjTOnWxW-D_l_26181138_L_ykD","LocationType":"point","DisplayPosition":{"Latitude":52.28803,"Longitude":0.1286401},"MapView":{"TopLeft":{"Latitude":52.2891542,"Longitude":0.1268023},"BottomRight":{"Latitude":52.2869059,"Longitude":0.1304778}},"Address":{"Label":"29 Corbett Street, Cambridge, CB24 8QX, United Kingdom","Country":"GBR","State":"England","County":"Cambridgeshire","City":"Cambridge","District":"Cottenham","Street":"Corbett Street","HouseNumber":"29","PostalCode":"CB24 8QX","AdditionalData":[{"value":"United Kingdom","key":"CountryName"},{"value":"England","key":"StateName"},{"value":"Cambridgeshire","key":"CountyName"}]},"MapReference":{"ReferenceId":"26181138","Spot":0.16,"SideOfStreet":"left","StateId":"20248595","CountyId":"20335089","CityId":"20335090","DistrictId":"20349937"}}},{"Relevance":1.0,"Distance":51.4,"MatchLevel":"postalCode","MatchQuality":{"PostalCode":1.0},"MatchType":"interpolated","Location":{"LocationId":"NT_KnfkPaNeJIoHBjTOnWxW-D_l_26181149_L_yUD","LocationType":"point","DisplayPosition":{"Latitude":52.28793,"Longitude":0.12785},"MapView":{"TopLeft":{"Latitude":52.2969232,"Longitude":0.1131478},"BottomRight":{"Latitude":52.2789368,"Longitude":0.1425522}},"Address":{"Label":"CB24 8QX, Cambridge, England, United Kingdom","Country":"GBR","State":"England","County":"Cambridgeshire","City":"Cambridge","PostalCode":"CB24 8QX","AdditionalData":[{"value":"United Kingdom","key":"CountryName"},{"value":"England","key":"StateName"},{"value":"Cambridgeshire","key":"CountyName"}]},"MapReference":{"ReferenceId":"26181149","Spot":0.84,"SideOfStreet":"neither","StateId":"20248595","CountyId":"20335089","CityId":"20335090"}}},{"Relevance":1.0,"Distance":68.4,"MatchLevel":"houseNumber","MatchQuality":{"Country":1.0,"State":1.0,"County":1.0,"City":1.0,"District":1.0,"Street":[1.0],"HouseNumber":1.0,"PostalCode":1.0},"MatchType":"interpolated","Location":{"LocationId":"NT_T6kostbyHq7oPtTA4hWOzA_l_756757046_L_1ID","LocationType":"point","DisplayPosition":{"Latitude":52.2887182,"Longitude":0.1292953},"MapView":{"TopLeft":{"Latitude":52.2898423,"Longitude":0.1274575},"BottomRight":{"Latitude":52.287594,"Longitude":0.1311331}},"Address":{"Label":"52 Rooks Street, Cambridge, CB24 8, United Kingdom","Country":"GBR","State":"England","County":"Cambridgeshire","City":"Cambridge","District":"Cottenham","Street":"Rooks Street","HouseNumber":"52","PostalCode":"CB24 8","AdditionalData":[{"value":"United Kingdom","key":"CountryName"},{"value":"England","key":"StateName"},{"value":"Cambridgeshire","key":"CountyName"}]},"MapReference":{"ReferenceId":"756757046","Spot":0.18,"SideOfStreet":"left","StateId":"20248595","CountyId":"20335089","CityId":"20335090","DistrictId":"20349937"}}},{"Relevance":1.0,"Distance":78.2,"MatchLevel":"postalCode","MatchQuality":{"PostalCode":1.0},"MatchType":"interpolated","Location":{"LocationId":"NT_T6kostbyHq7oPtTA4hWOzA_l_756757046_L_1ID","LocationType":"point","DisplayPosition":{"Latitude":52.28861,"Longitude":0.12933},"MapView":{"TopLeft":{"Latitude":52.2976032,"Longitude":0.1146276},"BottomRight":{"Latitude":52.2796168,"Longitude":0.1440324}},"Address":{"Label":"CB24 8RB, Cambridge, England, United Kingdom","Country":"GBR","State":"England","County":"Cambridgeshire","City":"Cambridge","PostalCode":"CB24 8RB","AdditionalData":[{"value":"United Kingdom","key":"CountryName"},{"value":"England","key":"StateName"},{"value":"Cambridgeshire","key":"CountyName"}]},"MapReference":{"ReferenceId":"756757046","Spot":0.18,"SideOfStreet":"neither","StateId":"20248595","CountyId":"20335089","CityId":"20335090"}}},{"Relevance":1.0,"Distance":87.9,"MatchLevel":"houseNumber","MatchQuality":{"Country":1.0,"State":1.0,"County":1.0,"City":1.0,"District":1.0,"Street":[1.0],"HouseNumber":1.0,"PostalCode":1.0},"MatchType":"interpolated","Location":{"LocationId":"NT_URq3exQrzz4j3AljBqCwkA_l_26181161_L_2A","LocationType":"point","DisplayPosition":{"Latitude":52.2874167,"Longitude":0.12872},"MapView":{"TopLeft":{"Latitude":52.2885408,"Longitude":0.1268823},"BottomRight":{"Latitude":52.2862925,"Longitude":0.1305578}},"Address":{"Label":"6 Cundell Drive, Cambridge, CB24 8RU, United Kingdom","Country":"GBR","State":"England","County":"Cambridgeshire","City":"Cambridge","District":"Cottenham","Street":"Cundell Drive","HouseNumber":"6","PostalCode":"CB24 8RU","AdditionalData":[{"value":"United Kingdom","key":"CountryName"},{"value":"England","key":"StateName"},{"value":"Cambridgeshire","key":"CountyName"}]},"MapReference":{"ReferenceId":"26181161","Spot":0.62,"SideOfStreet":"left","StateId":"20248595","CountyId":"20335089","CityId":"20335090","DistrictId":"20349937"}}},{"Relevance":1.0,"Distance":93.6,"MatchLevel":"postalCode","MatchQuality":{"PostalCode":1.0},"MatchType":"interpolated","Location":{"LocationId":"NT_5WTUTil69hHOZaR50nXCjA_l_26181139_L_zcD","LocationType":"point","DisplayPosition":{"Latitude":52.28909,"Longitude":0.1278},"MapView":{"TopLeft":{"Latitude":52.2980832,"Longitude":0.1130975},"BottomRight":{"Latitude":52.2800968,"Longitude":0.1425025}},"Address":{"Label":"CB24 8QY, Cambridge, England, United Kingdom","Country":"GBR","State":"England","County":"Cambridgeshire","City":"Cambridge","PostalCode":"CB24 8QY","AdditionalData":[{"value":"United Kingdom","key":"CountryName"},{"value":"England","key":"StateName"},{"value":"Cambridgeshire","key":"CountyName"}]},"MapReference":{"ReferenceId":"26181139","Spot":0.09,"SideOfStreet":"neither","StateId":"20248595","CountyId":"20335089","CityId":"20335090"}}},{"Relevance":1.0,"Distance":94.2,"MatchLevel":"street","MatchQuality":{"Country":1.0,"State":1.0,"County":1.0,"City":1.0,"District":1.0,"Street":[1.0],"PostalCode":1.0},"Location":{"LocationId":"NT_8n5dT72TIBte3v9y5O37yA_l_1152350129_L","LocationType":"point","DisplayPosition":{"Latitude":52.2883,"Longitude":0.12968},"MapView":{"TopLeft":{"Latitude":52.28909,"Longitude":0.12968},"BottomRight":{"Latitude":52.2883,"Longitude":0.13101}},"Address":{"Label":"Mill Field, Cambridge, CB24 8, United Kingdom","Country":"GBR","State":"England","County":"Cambridgeshire","City":"Cambridge","District":"Cottenham","Street":"Mill Field","PostalCode":"CB24 8","AdditionalData":[{"value":"United Kingdom","key":"CountryName"},{"value":"England","key":"StateName"},{"value":"Cambridgeshire","key":"CountyName"}]},"MapReference":{"ReferenceId":"1152350129","Spot":0.0,"SideOfStreet":"left","StateId":"20248595","CountyId":"20335089","CityId":"20335090","DistrictId":"20349937"}}}]}]}}