{"Response":{"MetaInfo":{"Timestamp":"2020-03-28T11:31:12.733+0000","NextPageInformation":"2"},"View":[{"_type":"SearchResultsViewType","ViewId":0,"Result":[{"Relevance":1.0,"Distance":-8.4,"MatchLevel":"landmark","MatchQuality":{"Country":1.0,"State":1.0,"County":1.0,"City":1.0,"District":1.0,"Subdistrict":1.0,"Street":[1.0],"HouseNumber":1.0,"PostalCode":1.0,"Name":1.0},"Location":{"LocationId":"NT_a4bEd0vu4.nm17lmnPFm8B_p_LRSEesEeWmKSAJ5AaDJmBC","LocationType":"hospital","Name":"Szpital Czerniakowski SPZOZ","DisplayPosition":{"Latitude":52.20556,"Longitude":21.03765},"MapView":{"TopLeft":{"Latitude":52.2066842,"Longitude":21.0358156},"BottomRight":{"Latitude":52.2044358,"Longitude":21.0394844}},"Address":{"Label":"ulica Stępińska 19, 00-739 Warszawa, Polska","Country":"POL","State":"Woj. Mazowieckie","County":"Warszawa","City":"Warszawa","District":"Mokotów","Subdistrict":"Sielce","Street":"ulica Stępińska","HouseNumber":"19","PostalCode":"00-739","AdditionalData":[{"value":"Polska","key":"CountryName"},{"value":"Woj. Mazowieckie","key":"StateName"},{"value":"Warszawa","key":"CountyName"}]},"MapReference":{"CountryId":"20624059","StateId":"20627182","CountyId":"20627769","CityId":"20627780","DistrictId":"20633154","PlaceId":"1161618830"}}},{"Relevance":1.0,"Distance":0.0,"Direction":0.0,"MatchLevel":"district","MatchQuality":{"Country":1.0,"State":1.0,"County":1.0,"City":1.0,"District":1.0,"Subdistrict":1.0,"PostalCode":1.0},"Location":{"LocationId":"NT_CwgBTlI4Pkyr0wzAT3EU4C","LocationType":"point","DisplayPosition":{"Latitude":52.205929,"Longitude":21.0369934},"MapView":{"TopLeft":{"Latitude":52.21151,"Longitude":21.02479},"BottomRight":{"Latitude":52.18836,"Longitude":21.05215}},"Address":{"Label":"Sielce, Mokotów, Warszawa, Woj. Mazowieckie, Polska","Country":"POL","State":"Woj. Mazowieckie","County":"Warszawa","City":"Warszawa","District":"Mokotów","Subdistrict":"Sielce","PostalCode":"00-762","AdditionalData":[{"value":"Polska","key":"CountryName"},{"value":"Woj. Mazowieckie","key":"StateName"},{"value":"Warszawa","key":"CountyName"}]},"MapReference":{"ReferenceId":"971215520","SideOfStreet":"neither","CountryId":"20624059","StateId":"20627182","CountyId":"20627769","CityId":"20627780","DistrictId":"20633154"}}},{"Relevance":1.0,"Distance":24.3,"MatchLevel":"houseNumber","MatchQuality":{"Country":1.0,"State":1.0,"County":1.0,"City":1.0,"District":1.0,"Subdistrict":1.0,"Street":[1.0],"HouseNumber":1.0,"PostalCode":1.0},"MatchType":"interpolated","Location":{"LocationId":"NT_X5zou7DcZ-A929qBrE7hzB_ycD","LocationType":"point","DisplayPosition":{"Latitude":52.20593,"Longitude":21.03761},"MapView":{"TopLeft":{"Latitude":52.2070542,"Longitude":21.0357756},"BottomRight":{"Latitude":52.2048058,"Longitude":21.0394444}},"Address":{"Label":"ulica Stępińska 27, 00-739 Warszawa, Polska","Country":"POL","State":"Woj. Mazowieckie","County":"Warszawa","City":"Warszawa","District":"Mokotów","Subdistrict":"Sielce","Street":"ulica Stępińska","HouseNumber":"27","PostalCode":"00-739","AdditionalData":[{"value":"Polska","key":"CountryName"},{"value":"Woj. Mazowieckie","key":"StateName"},{"value":"Warszawa","key":"CountyName"}]},"MapReference":{"ReferenceId":"1151396616","Spot":0.87,"SideOfStreet":"left","CountryId":"20624059","StateId":"20627182","CountyId":"20627769","CityId":"20627780","DistrictId":"20633154","AddressId":"731617652","RoadLinkId":"456763268"}}},{"Relevance":1.0,"Distance":31.4,"MatchLevel":"houseNumber","MatchQuality":{"Country":1.0,"State":1.0,"County":1.0,"City":1.0,"District":1.0,"Subdistrict":1.0,"Street":[1.0],"HouseNumber":1.0,"PostalCode":1.0},"MatchType":"interpolated","Location":{"LocationId":"NT_n1LeBVtv4EQrCfti6OPWRD_zAD","LocationType":"point","DisplayPosition":{"Latitude":52.20603,"Longitude":21.03632},"MapView":{"TopLeft":{"Latitude":52.2071542,"Longitude":21.0344856},"BottomRight":{"Latitude":52.2049058,"Longitude":21.0381544}},"Address":{"Label":"ulica Górska 30, 00-740 Warszawa, Polska","Country":"POL","State":"Woj. Mazowieckie","County":"Warszawa","City":"Warszawa","District":"Mokotów","Subdistrict":"Sielce","Street":"ulica Górska","HouseNumber":"30","PostalCode":"00-740","AdditionalData":[{"value":"Polska","key":"CountryName"},{"value":"Woj. Mazowieckie","key":"StateName"},{"value":"Warszawa","key":"CountyName"}]},"MapReference":{"ReferenceId":"1151396619","Spot":0.21,"SideOfStreet":"right","CountryId":"20624059","StateId":"20627182","CountyId":"20627769","CityId":"20627780","DistrictId":"20633154","AddressId":"210948698","RoadLinkId":"456763271"}}},{"Relevance":1.0,"Distance":50.2,"MatchLevel":"houseNumber","MatchQuality":{"Country":1.0,"State":1.0,"County":1.0,"City":1.0,"District":1.0,"Subdistrict":1.0,"Street":[1.0],"HouseNumber":1.0,"PostalCode":1.0},"MatchType":"interpolated","Location":{"LocationId":"NT_n1LeBVtv4EQrCfti6OPWRD_xcjQ","LocationType":"point","DisplayPosition":{"Latitude":52.20571,"Longitude":21.03635},"MapView":{"TopLeft":{"Latitude":52.2068342,"Longitude":21.0345156},"BottomRight":{"Latitude":52.2045858,"Longitude":21.0381844}},"Address":{"Label":"ulica Górska 17B, 00-740 Warszawa, Polska","Country":"POL","State":"Woj. Mazowieckie","County":"Warszawa","City":"Warszawa","District":"Mokotów","Subdistrict":"Sielce","Street":"ulica Górska","HouseNumber":"17B","PostalCode":"00-740","AdditionalData":[{"value":"Polska","key":"CountryName"},{"value":"Woj. Mazowieckie","key":"StateName"},{"value":"Warszawa","key":"CountyName"}]},"MapReference":{"ReferenceId":"1151396618","Spot":0.68,"SideOfStreet":"left","CountryId":"20624059","StateId":"20627182","CountyId":"20627769","CityId":"20627780","DistrictId":"20633154","AddressId":"210272810","RoadLinkId":"456763270"}}},{"Relevance":1.0,"Distance":50.7,"MatchLevel":"houseNumber","MatchQuality":{"Country":1.0,"State":1.0,"County":1.0,"City":1.0,"District":1.0,"Subdistrict":1.0,"Street":[1.0],"HouseNumber":1.0,"PostalCode":1.0},"MatchType":"interpolated","Location":{"LocationId":"NT_X5zou7DcZ-A929qBrE7hzB_zID","LocationType":"point","DisplayPosition":{"Latitude":52.20621,"Longitude":21.03758},"MapView":{"TopLeft":{"Latitude":52.2073342,"Longitude":21.0357456},"BottomRight":{"Latitude":52.2050858,"Longitude":21.0394144}},"Address":{"Label":"ulica Stępińska 32, 00-739 Warszawa, Polska","Country":"POL","State":"Woj. Mazowieckie","County":"Warszawa","City":"Warszawa","District":"Mokotów","Subdistrict":"Sielce","Street":"ulica Stępińska","HouseNumber":"32","PostalCode":"00-739","AdditionalData":[{"value":"Polska","key":"CountryName"},{"value":"Woj. Mazowieckie","key":"StateName"},{"value":"Warszawa","key":"CountyName"}]},"MapReference":{"ReferenceId":"1151396617","Spot":0.1,"SideOfStreet":"right","CountryId":"20624059","StateId":"20627182","CountyId":"20627769","CityId":"20627780","DistrictId":"20633154","AddressId":"419021998","RoadLinkId":"456763269"}}},{"Relevance":1.0,"Distance":66.0,"MatchLevel":"houseNumber","MatchQuality":{"Country":1.0,"State":1.0,"County":1.0,"City":1.0,"District":1.0,"Subdistrict":1.0,"Street":[1.0],"HouseNumber":1.0,"PostalCode":1.0},"MatchType":"interpolated","Location":{"LocationId":"NT_HVJar9Tey0w3I7XKGEPoyB_yUD","LocationType":"point","DisplayPosition":{"Latitude":52.2067,"Longitude":21.03693},"MapView":{"TopLeft":{"Latitude":52.2078242,"Longitude":21.0350956},"BottomRight":{"Latitude":52.2055758,"Longitude":21.0387644}},"Address":{"Label":"ulica Jurija Gagarina 25, 00-753 Warszawa, Polska","Country":"POL","State":"Woj. Mazowieckie","County":"Warszawa","City":"Warszawa","District":"Mokotów","Subdistrict":"Sielce","Street":"ulica Jurija Gagarina","HouseNumber":"25","PostalCode":"00-753","AdditionalData":[{"value":"Polska","key":"CountryName"},{"value":"Woj. Mazowieckie","key":"StateName"},{"value":"Warszawa","key":"CountyName"}]},"MapReference":{"ReferenceId":"880131380","Spot":0.53,"SideOfStreet":"left","CountryId":"20624059","StateId":"20627182","CountyId":"20627769","CityId":"20627780","DistrictId":"20633154","AddressId":"419044262","RoadLinkId":"248819323"}}},{"Relevance":1.0,"Distance":81.4,"MatchLevel":"houseNumber","MatchQuality":{"Country":1.0,"State":1.0,"County":1.0,"City":1.0,"District":1.0,"Subdistrict":1.0,"Street":[1.0],"HouseNumber":1.0,"PostalCode":1.0},"MatchType":"interpolated","Location":{"LocationId":"NT_n1LeBVtv4EQrCfti6OPWRD_xcTQ","LocationType":"point","DisplayPosition":{"Latitude":52.20529,"Longitude":21.03641},"MapView":{"TopLeft":{"Latitude":52.2064142,"Longitude":21.0345757},"BottomRight":{"Latitude":52.2041658,"Longitude":21.0382443}},"Address":{"Label":"ulica Górska 17A, 00-740 Warszawa, Polska","Country":"POL","State":"Woj. Mazowieckie","County":"Warszawa","City":"Warszawa","District":"Mokotów","Subdistrict":"Sielce","Street":"ulica Górska","HouseNumber":"17A","PostalCode":"00-740","AdditionalData":[{"value":"Polska","key":"CountryName"},{"value":"Woj. Mazowieckie","key":"StateName"},{"value":"Warszawa","key":"CountyName"}]},"MapReference":{"ReferenceId":"1161072493","Spot":0.64,"SideOfStreet":"left","CountryId":"20624059","StateId":"20627182","CountyId":"20627769","CityId":"20627780","DistrictId":"20633154","AddressId":"211006647","RoadLinkId":"467347163"}}},{"Relevance":1.0,"Distance":90.4,"MatchLevel":"street","MatchQuality":{"Country":1.0,"State":1.0,"County":1.0,"City":1.0,"District":1.0,"Subdistrict":1.0,"Street":[1.0],"PostalCode":1.0},"Location":{"LocationId":"NT_HVJar9Tey0w3I7XKGEPoyB_l_595606021_L","LocationType":"point","DisplayPosition":{"Latitude":52.20667,"Longitude":21.03754},"MapView":{"TopLeft":{"Latitude":52.20667,"Longitude":21.03754},"BottomRight":{"Latitude":52.20656,"Longitude":21.0391}},"Address":{"Label":"ulica Jurija Gagarina, 00-753 Warszawa, Polska","Country":"POL","State":"Woj. Mazowieckie","County":"Warszawa","City":"Warszawa","District":"Mokotów","Subdistrict":"Sielce","Street":"ulica Jurija Gagarina","PostalCode":"00-753","AdditionalData":[{"value":"Polska","key":"CountryName"},{"value":"Woj. Mazowieckie","key":"StateName"},{"value":"Warszawa","key":"CountyName"}]},"MapReference":{"ReferenceId":"595606021","Spot":1.0,"SideOfStreet":"left","CountryId":"20624059","StateId":"20627182","CountyId":"20627769","CityId":"20627780","DistrictId":"20633154"}}},{"Relevance":1.0,"Distance":98.1,"MatchLevel":"street","MatchQuality":{"Country":1.0,"State":1.0,"County":1.0,"City":1.0,"District":1.0,"Subdistrict":1.0,"Street":[1.0],"PostalCode":1.0},"Location":{"LocationId":"NT_HVJar9Tey0w3I7XKGEPoyB_l_880131381_L","LocationType":"point","DisplayPosition":{"Latitude":52.20673,"Longitude":21.03639},"MapView":{"TopLeft":{"Latitude":52.20674,"Longitude":21.03625},"BottomRight":{"Latitude":52.20673,"Longitude":21.03639}},"Address":{"Label":"ulica Jurija Gagarina, 00-753 Warszawa, Polska","Country":"POL","State":"Woj. Mazowieckie","County":"Warszawa","City":"Warszawa","District":"Mokotów","Subdistrict":"Sielce","Street":"ulica Jurija Gagarina","PostalCode":"00-753","AdditionalData":[{"value":"Polska","key":"CountryName"},{"value":"Woj. Mazowieckie","key":"StateName"},{"value":"Warszawa","key":"CountyName"}]},"MapReference":{"ReferenceId":"880131381","Spot":0.0,"SideOfStreet":"left","CountryId":"20624059","StateId":"20627182","CountyId":"20627769","CityId":"20627780","DistrictId":"20633154"}}}]}]}}