{"Response":{"MetaInfo":{"Timestamp":"2020-03-28T10:39:13.864+0000","NextPageInformation":"2"},"View":[{"_type":"SearchResultsViewType","ViewId":0,"Result":[{"Relevance":1.0,"Distance":0.0,"Direction":0.0,"MatchLevel":"district","MatchQuality":{"Country":1.0,"State":1.0,"County":1.0,"City":1.0,"District":1.0,"PostalCode":1.0},"Location":{"LocationId":"NT_JHudPyLFCP1ABFkffK4DCB","LocationType":"point","DisplayPosition":{"Latitude":52.2520885,"Longitude":-1.3853238},"MapView":{"TopLeft":{"Latitude":52.26248,"Longitude":-1.40344},"BottomRight":{"Latitude":52.24337,"Longitude":-1.3696}},"Address":{"Label":"Southam, Leamington Spa, England, United Kingdom","Country":"GBR","State":"England","County":"Warwickshire","City":"Leamington Spa","District":"Southam","PostalCode":"CV47 1","AdditionalData":[{"value":"United Kingdom","key":"CountryName"},{"value":"England","key":"StateName"},{"value":"Warwickshire","key":"CountyName"}]},"MapReference":{"ReferenceId":"915554118","SideOfStreet":"neither","StateId":"20248595","CountyId":"20338667","CityId":"20351547","DistrictId":"20351571"}}},{"Relevance":1.0,"Distance":0.9,"MatchLevel":"houseNumber","MatchQuality":{"Country":1.0,"State":1.0,"County":1.0,"City":1.0,"District":1.0,"Street":[1.0],"HouseNumber":1.0,"PostalCode":1.0},"MatchType":"interpolated","Location":{"LocationId":"NT_iqVfWoGj4pauXoVEaNr3VC_l_26432698_L_yA","LocationType":"point","DisplayPosition":{"Latitude":52.252213,"Longitude":-1.3852356},"MapView":{"TopLeft":{"Latitude":52.2533371,"Longitude":-1.3870718},"BottomRight":{"Latitude":52.2510888,"Longitude":-1.3833993}},"Address":{"Label":"2 Pound Way, Leamington Spa, CV47 1GT, United Kingdom","Country":"GBR","State":"England","County":"Warwickshire","City":"Leamington Spa","District":"Southam","Street":"Pound Way","HouseNumber":"2","PostalCode":"CV47 1GT","AdditionalData":[{"value":"United Kingdom","key":"CountryName"},{"value":"England","key":"StateName"},{"value":"Warwickshire","key":"CountyName"}]},"MapReference":{"ReferenceId":"26432698","Spot":0.78,"SideOfStreet":"left","StateId":"20248595","CountyId":"20338667","CityId":"20351547","DistrictId":"20351571"}}},{"Relevance":1.0,"Distance":21.0,"MatchLevel":"houseNumber","MatchQuality":{"Country":1.0,"State":1.0,"County":1.0,"City":1.0,"District":1.0,"Street":[1.0],"HouseNumber":1.0,"PostalCode":1.0},"MatchType":"interpolated","Location":{"LocationId":"NT_BwCcaWW7AwJ3.7ovNTOv1D_l_577367022_R_3A","LocationType":"point","DisplayPosition":{"Latitude":52.2523133,"Longitude":-1.3856533},"MapView":{"TopLeft":{"Latitude":52.2534375,"Longitude":-1.3874896},"BottomRight":{"Latitude":52.2511892,"Longitude":-1.383817}},"Address":{"Label":"7 Pendicke Street, Leamington Spa, CV47 1PF, United Kingdom","Country":"GBR","State":"England","County":"Warwickshire","City":"Leamington Spa","District":"Southam","Street":"Pendicke Street","HouseNumber":"7","PostalCode":"CV47 1PF","AdditionalData":[{"value":"United Kingdom","key":"CountryName"},{"value":"England","key":"StateName"},{"value":"Warwickshire","key":"CountyName"}]},"MapReference":{"ReferenceId":"577367022","Spot":0.54,"SideOfStreet":"right","StateId":"20248595","CountyId":"20338667","CityId":"20351547","DistrictId":"20351571"}}},{"Relevance":1.0,"Distance":37.8,"MatchLevel":"postalCode","MatchQuality":{"PostalCode":1.0},"MatchType":"interpolated","Location":{"LocationId":"NT_BwCcaWW7AwJ3.7ovNTOv1D_l_577367021_R_xAD","LocationType":"point","DisplayPosition":{"Latitude":52.25215,"Longitude":-1.38587},"MapView":{"TopLeft":{"Latitude":52.2611432,"Longitude":-1.4005603},"BottomRight":{"Latitude":52.2431568,"Longitude":-1.3711797}},"Address":{"Label":"CV47 1PF, Leamington Spa, England, United Kingdom","Country":"GBR","State":"England","County":"Warwickshire","City":"Leamington Spa","PostalCode":"CV47 1PF","AdditionalData":[{"value":"United Kingdom","key":"CountryName"},{"value":"England","key":"StateName"},{"value":"Warwickshire","key":"CountyName"}]},"MapReference":{"ReferenceId":"577367021","Spot":0.6,"SideOfStreet":"neither","StateId":"20248595","CountyId":"20338667","CityId":"20351547"}}},{"Relevance":1.0,"Distance":38.0,"MatchLevel":"street","MatchQuality":{"Country":1.0,"State":1.0,"County":1.0,"City":1.0,"District":1.0,"Street":[1.0],"PostalCode":1.0},"Location":{"LocationId":"NT_BwCcaWW7AwJ3.7ovNTOv1D_l_26432680_R","LocationType":"point","DisplayPosition":{"Latitude":52.25242,"Longitude":-1.38546},"MapView":{"TopLeft":{"Latitude":52.25249,"Longitude":-1.38546},"BottomRight":{"Latitude":52.25242,"Longitude":-1.38535}},"Address":{"Label":"Pendicke Street, Leamington Spa, CV47 1, United Kingdom","Country":"GBR","State":"England","County":"Warwickshire","City":"Leamington Spa","District":"Southam","Street":"Pendicke Street","PostalCode":"CV47 1","AdditionalData":[{"value":"United Kingdom","key":"CountryName"},{"value":"England","key":"StateName"},{"value":"Warwickshire","key":"CountyName"}]},"MapReference":{"ReferenceId":"26432680","Spot":0.0,"SideOfStreet":"right","StateId":"20248595","CountyId":"20338667","CityId":"20351547","DistrictId":"20351571"}}},{"Relevance":1.0,"Distance":40.5,"MatchLevel":"street","MatchQuality":{"Country":1.0,"State":1.0,"County":1.0,"City":1.0,"District":1.0,"Street":[1.0],"PostalCode":1.0},"Location":{"LocationId":"NT_p4Krkuq3Qnfvcgsk9LpPLB_l_783926340_R","LocationType":"point","DisplayPosition":{"Latitude":52.2522,"Longitude":-1.38589},"MapView":{"TopLeft":{"Latitude":52.25243,"Longitude":-1.38645},"BottomRight":{"Latitude":52.2522,"Longitude":-1.38589}},"Address":{"Label":"The Bull Yard, Leamington Spa, CV47 1, United Kingdom","Country":"GBR","State":"England","County":"Warwickshire","City":"Leamington Spa","District":"Southam","Street":"The Bull Yard","PostalCode":"CV47 1","AdditionalData":[{"value":"United Kingdom","key":"CountryName"},{"value":"England","key":"StateName"},{"value":"Warwickshire","key":"CountyName"}]},"MapReference":{"ReferenceId":"783926340","Spot":0.0,"SideOfStreet":"right","StateId":"20248595","CountyId":"20338667","CityId":"20351547","DistrictId":"20351571"}}},{"Relevance":1.0,"Distance":46.2,"MatchLevel":"houseNumber","MatchQuality":{"Country":1.0,"State":1.0,"County":1.0,"City":1.0,"District":1.0,"Street":[1.0],"HouseNumber":1.0,"PostalCode":1.0},"MatchType":"interpolated","Location":{"LocationId":"NT_dKK5Qy7MnDhHN4v0TCP79D_l_783926343_R_zA","LocationType":"point","DisplayPosition":{"Latitude":52.25259,"Longitude":-1.38521},"MapView":{"TopLeft":{"Latitude":52.2537142,"Longitude":-1.3870463},"BottomRight":{"Latitude":52.2514659,"Longitude":-1.3833737}},"Address":{"Label":"3 Pendicke Street, Leamington Spa, CV47 1PN, United Kingdom","Country":"GBR","State":"England","County":"Warwickshire","City":"Leamington Spa","District":"Southam","Street":"Pendicke Street","HouseNumber":"3","PostalCode":"CV47 1PN","AdditionalData":[{"value":"United Kingdom","key":"CountryName"},{"value":"England","key":"StateName"},{"value":"Warwickshire","key":"CountyName"}]},"MapReference":{"ReferenceId":"783926343","Spot":0.27,"SideOfStreet":"right","StateId":"20248595","CountyId":"20338667","CityId":"20351547","DistrictId":"20351571"}}},{"Relevance":1.0,"Distance":47.8,"MatchLevel":"houseNumber","MatchQuality":{"Country":1.0,"State":1.0,"County":1.0,"City":1.0,"District":1.0,"Street":[1.0],"HouseNumber":1.0,"PostalCode":1.0},"MatchType":"interpolated","Location":{"LocationId":"NT_CJPI1aW6yy7Xg1C5fPevoD_l_26432678_L_xA","LocationType":"point","DisplayPosition":{"Latitude":52.2526001,"Longitude":-1.3854501},"MapView":{"TopLeft":{"Latitude":52.2537242,"Longitude":-1.3872864},"BottomRight":{"Latitude":52.2514759,"Longitude":-1.3836138}},"Address":{"Label":"1 School Street, Leamington Spa, CV47 1PL, United Kingdom","Country":"GBR","State":"England","County":"Warwickshire","City":"Leamington Spa","District":"Southam","Street":"School Street","HouseNumber":"1","PostalCode":"CV47 1PL","AdditionalData":[{"value":"United Kingdom","key":"CountryName"},{"value":"England","key":"StateName"},{"value":"Warwickshire","key":"CountyName"}]},"MapReference":{"ReferenceId":"26432678","Spot":0.16,"SideOfStreet":"left","StateId":"20248595","CountyId":"20338667","CityId":"20351547","DistrictId":"20351571"}}},{"Relevance":1.0,"Distance":54.4,"MatchLevel":"postalCode","MatchQuality":{"PostalCode":1.0},"MatchType":"interpolated","Location":{"LocationId":"NT_iqVfWoGj4pauXoVEaNr3VC_l_26432698_L_yA","LocationType":"point","DisplayPosition":{"Latitude":52.25191,"Longitude":-1.38458},"MapView":{"TopLeft":{"Latitude":52.2609032,"Longitude":-1.3992702},"BottomRight":{"Latitude":52.2429168,"Longitude":-1.3698898}},"Address":{"Label":"CV47 1GT, Leamington Spa, England, United Kingdom","Country":"GBR","State":"England","County":"Warwickshire","City":"Leamington Spa","PostalCode":"CV47 1GT","AdditionalData":[{"value":"United Kingdom","key":"CountryName"},{"value":"England","key":"StateName"},{"value":"Warwickshire","key":"CountyName"}]},"MapReference":{"ReferenceId":"26432698","Spot":0.78,"SideOfStreet":"neither","StateId":"20248595","CountyId":"20338667","CityId":"20351547"}}},{"Relevance":1.0,"Distance":55.9,"MatchLevel":"postalCode","MatchQuality":{"PostalCode":1.0},"MatchType":"interpolated","Location":{"LocationId":"NT_dKK5Qy7MnDhHN4v0TCP79D_l_783926343_R_zA","LocationType":"point","DisplayPosition":{"Latitude":52.25258,"Longitude":-1.38515},"MapView":{"TopLeft":{"Latitude":52.2615732,"Longitude":-1.3998404},"BottomRight":{"Latitude":52.2435868,"Longitude":-1.3704596}},"Address":{"Label":"CV47 1PN, Leamington Spa, England, United Kingdom","Country":"GBR","State":"England","County":"Warwickshire","City":"Leamington Spa","PostalCode":"CV47 1PN","AdditionalData":[{"value":"United Kingdom","key":"CountryName"},{"value":"England","key":"StateName"},{"value":"Warwickshire","key":"CountyName"}]},"MapReference":{"ReferenceId":"783926343","Spot":0.27,"SideOfStreet":"neither","StateId":"20248595","CountyId":"20338667","CityId":"20351547"}}}]}]}}