{"Response":{"MetaInfo":{"Timestamp":"2020-03-28T10:10:35.195+0000","NextPageInformation":"2"},"View":[{"_type":"SearchResultsViewType","ViewId":0,"Result":[{"Relevance":1.0,"Distance":-146.8,"MatchLevel":"landmark","MatchQuality":{"Country":1.0,"State":1.0,"County":1.0,"City":1.0,"District":1.0,"Street":[1.0],"PostalCode":1.0,"Name":1.0},"Location":{"LocationId":"NT_t7NmdHexTk9GX1y0DSn.JA_p_CeKuIxU6dluPscKAua5JKC","LocationType":"shoppingCentre","Name":"St Andrews Square","DisplayPosition":{"Latitude":52.26753,"Longitude":-2.15173},"MapView":{"TopLeft":{"Latitude":52.26994,"Longitude":-2.15411},"BottomRight":{"Latitude":52.26513,"Longitude":-2.14467}},"Address":{"Label":"Winnetts Lane, Droitwich, WR9 8, United Kingdom","Country":"GBR","State":"England","County":"Worcestershire","City":"Droitwich","District":"Droitwich","Street":"Winnetts Lane","PostalCode":"WR9 8","AdditionalData":[{"value":"United Kingdom","key":"CountryName"},{"value":"England","key":"StateName"},{"value":"Worcestershire","key":"CountyName"}]},"MapReference":{"StateId":"20248595","CountyId":"20358640","CityId":"20358684","DistrictId":"20358685","PlaceId":"1024320163"}}},{"Relevance":1.0,"Distance":0.0,"Direction":0.0,"MatchLevel":"district","MatchQuality":{"Country":1.0,"State":1.0,"County":1.0,"City":1.0,"District":1.0,"PostalCode":1.0},"Location":{"LocationId":"NT_m.o2ZEOdN5A78AByfU-nDA","LocationType":"point","DisplayPosition":{"Latitude":52.2673324,"Longitude":-2.1522535},"MapView":{"TopLeft":{"Latitude":52.28409,"Longitude":-2.17842},"BottomRight":{"Latitude":52.24506,"Longitude":-2.12984}},"Address":{"Label":"Droitwich, England, United Kingdom","Country":"GBR","State":"England","County":"Worcestershire","City":"Droitwich","District":"Droitwich","PostalCode":"WR9 0","AdditionalData":[{"value":"United Kingdom","key":"CountryName"},{"value":"England","key":"StateName"},{"value":"Worcestershire","key":"CountyName"}]},"MapReference":{"ReferenceId":"26204440","SideOfStreet":"neither","StateId":"20248595","CountyId":"20358640","CityId":"20358684","DistrictId":"20358685"}}},{"Relevance":1.0,"Distance":6.5,"MatchLevel":"houseNumber","MatchQuality":{"Country":1.0,"State":1.0,"County":1.0,"City":1.0,"District":1.0,"Street":[1.0],"HouseNumber":1.0,"PostalCode":1.0},"MatchType":"interpolated","Location":{"LocationId":"NT_mPulgS13s.sULoyfqWFgdC_l_26204525_R_1ED","LocationType":"point","DisplayPosition":{"Latitude":52.26714,"Longitude":-2.1522666},"MapView":{"TopLeft":{"Latitude":52.2682642,"Longitude":-2.1541035},"BottomRight":{"Latitude":52.2660158,"Longitude":-2.1504297}},"Address":{"Label":"51 Ombersley Street East, Droitwich, WR9 8, United Kingdom","Country":"GBR","State":"England","County":"Worcestershire","City":"Droitwich","District":"Droitwich","Street":"Ombersley Street East","HouseNumber":"51","PostalCode":"WR9 8","AdditionalData":[{"value":"United Kingdom","key":"CountryName"},{"value":"England","key":"StateName"},{"value":"Worcestershire","key":"CountyName"}]},"MapReference":{"ReferenceId":"26204525","Spot":0.44,"SideOfStreet":"right","StateId":"20248595","CountyId":"20358640","CityId":"20358684","DistrictId":"20358685"}}},{"Relevance":1.0,"Distance":38.7,"MatchLevel":"street","MatchQuality":{"Country":1.0,"State":1.0,"County":1.0,"City":1.0,"District":1.0,"Street":[1.0],"PostalCode":1.0},"Location":{"LocationId":"NT_sQkUopf8QAHFDAqmROnvRC_l_837683896_L","LocationType":"point","DisplayPosition":{"Latitude":52.2674889,"Longitude":-2.151745},"MapView":{"TopLeft":{"Latitude":52.26757,"Longitude":-2.15177},"BottomRight":{"Latitude":52.26731,"Longitude":-2.15169}},"Address":{"Label":"Winnetts Lane, Droitwich, WR9 8, United Kingdom","Country":"GBR","State":"England","County":"Worcestershire","City":"Droitwich","District":"Droitwich","Street":"Winnetts Lane","PostalCode":"WR9 8","AdditionalData":[{"value":"United Kingdom","key":"CountryName"},{"value":"England","key":"StateName"},{"value":"Worcestershire","key":"CountyName"}]},"MapReference":{"ReferenceId":"837683896","Spot":0.69,"SideOfStreet":"left","StateId":"20248595","CountyId":"20358640","CityId":"20358684","DistrictId":"20358685"}}},{"Relevance":1.0,"Distance":40.1,"MatchLevel":"postalCode","MatchQuality":{"PostalCode":1.0},"MatchType":"interpolated","Location":{"LocationId":"NT_mPulgS13s.sULoyfqWFgdC_l_26204525_R_1ED","LocationType":"point","DisplayPosition":{"Latitude":52.26757,"Longitude":-2.15181},"MapView":{"TopLeft":{"Latitude":52.2765632,"Longitude":-2.1665054},"BottomRight":{"Latitude":52.2585768,"Longitude":-2.1371146}},"Address":{"Label":"WR9 8QS, Droitwich, England, United Kingdom","Country":"GBR","State":"England","County":"Worcestershire","City":"Droitwich","PostalCode":"WR9 8QS","AdditionalData":[{"value":"United Kingdom","key":"CountryName"},{"value":"England","key":"StateName"},{"value":"Worcestershire","key":"CountyName"}]},"MapReference":{"ReferenceId":"26204525","Spot":0.44,"SideOfStreet":"neither","StateId":"20248595","CountyId":"20358640","CityId":"20358684"}}},{"Relevance":1.0,"Distance":42.2,"MatchLevel":"street","MatchQuality":{"Country":1.0,"State":1.0,"County":1.0,"City":1.0,"District":1.0,"Street":[1.0],"PostalCode":1.0},"Location":{"LocationId":"NT_sQkUopf8QAHFDAqmROnvRC_l_837683897_L","LocationType":"point","DisplayPosition":{"Latitude":52.26757,"Longitude":-2.15177},"MapView":{"TopLeft":{"Latitude":52.26797,"Longitude":-2.15233},"BottomRight":{"Latitude":52.26757,"Longitude":-2.15177}},"Address":{"Label":"Winnetts Lane, Droitwich, WR9 8, United Kingdom","Country":"GBR","State":"England","County":"Worcestershire","City":"Droitwich","District":"Droitwich","Street":"Winnetts Lane","PostalCode":"WR9 8","AdditionalData":[{"value":"United Kingdom","key":"CountryName"},{"value":"England","key":"StateName"},{"value":"Worcestershire","key":"CountyName"}]},"MapReference":{"ReferenceId":"837683897","Spot":0.0,"SideOfStreet":"left","StateId":"20248595","CountyId":"20358640","CityId":"20358684","DistrictId":"20358685"}}},{"Relevance":1.0,"Distance":42.2,"MatchLevel":"street","MatchQuality":{"Country":1.0,"State":1.0,"County":1.0,"City":1.0,"District":1.0,"PostalCode":1.0},"Location":{"LocationId":"NT_ZY-cZou8Fg3kV37MwDF4vA_l_837683899_R","LocationType":"point","DisplayPosition":{"Latitude":52.26757,"Longitude":-2.15177},"MapView":{"TopLeft":{"Latitude":52.26757,"Longitude":-2.15177},"BottomRight":{"Latitude":52.26754,"Longitude":-2.15129}},"Address":{"Label":"Droitwich, WR9 8, United Kingdom","Country":"GBR","State":"England","County":"Worcestershire","City":"Droitwich","District":"Droitwich","PostalCode":"WR9 8","AdditionalData":[{"value":"United Kingdom","key":"CountryName"},{"value":"England","key":"StateName"},{"value":"Worcestershire","key":"CountyName"}]},"MapReference":{"ReferenceId":"837683899","Spot":0.0,"SideOfStreet":"right","StateId":"20248595","CountyId":"20358640","CityId":"20358684","DistrictId":"20358685"}}},{"Relevance":1.0,"Distance":59.3,"MatchLevel":"street","MatchQuality":{"Country":1.0,"State":1.0,"County":1.0,"City":1.0,"District":1.0,"Street":[1.0],"PostalCode":1.0},"Location":{"LocationId":"NT_m35W.WfGXc4rO-v.r4b1dA_l_26204566_L","LocationType":"point","DisplayPosition":{"Latitude":52.26714,"Longitude":-2.15144},"MapView":{"TopLeft":{"Latitude":52.26714,"Longitude":-2.15163},"BottomRight":{"Latitude":52.26655,"Longitude":-2.15143}},"Address":{"Label":"Heritage Way, Droitwich, WR9 8, United Kingdom","Country":"GBR","State":"England","County":"Worcestershire","City":"Droitwich","District":"Droitwich","Street":"Heritage Way","PostalCode":"WR9 8","AdditionalData":[{"value":"United Kingdom","key":"CountryName"},{"value":"England","key":"StateName"},{"value":"Worcestershire","key":"CountyName"}]},"MapReference":{"ReferenceId":"26204566","Spot":1.0,"SideOfStreet":"left","StateId":"20248595","CountyId":"20358640","CityId":"20358684","DistrictId":"20358685"}}},{"Relevance":1.0,"Distance":59.3,"MatchLevel":"street","MatchQuality":{"Country":1.0,"State":1.0,"County":1.0,"City":1.0,"District":1.0,"Street":[1.0],"PostalCode":1.0},"Location":{"LocationId":"NT_mPulgS13s.sULoyfqWFgdC_l_26204524_L","LocationType":"point","DisplayPosition":{"Latitude":52.26714,"Longitude":-2.15144},"MapView":{"TopLeft":{"Latitude":52.26715,"Longitude":-2.15144},"BottomRight":{"Latitude":52.26714,"Longitude":-2.15107}},"Address":{"Label":"Ombersley Street East, Droitwich, WR9 8, United Kingdom","Country":"GBR","State":"England","County":"Worcestershire","City":"Droitwich","District":"Droitwich","Street":"Ombersley Street East","PostalCode":"WR9 8","AdditionalData":[{"value":"United Kingdom","key":"CountryName"},{"value":"England","key":"StateName"},{"value":"Worcestershire","key":"CountyName"}]},"MapReference":{"ReferenceId":"26204524","Spot":0.0,"SideOfStreet":"left","StateId":"20248595","CountyId":"20358640","CityId":"20358684","DistrictId":"20358685"}}},{"Relevance":1.0,"Distance":60.2,"MatchLevel":"houseNumber","MatchQuality":{"Country":1.0,"State":1.0,"County":1.0,"City":1.0,"District":1.0,"Street":[1.0],"HouseNumber":1.0,"PostalCode":1.0},"MatchType":"interpolated","Location":{"LocationId":"NT_BObI2Is2ZZDzpwir6di2CB_l_26204522_R_0A","LocationType":"point","DisplayPosition":{"Latitude":52.2673635,"Longitude":-2.1533564},"MapView":{"TopLeft":{"Latitude":52.2684877,"Longitude":-2.1551933},"BottomRight":{"Latitude":52.2662394,"Longitude":-2.1515195}},"Address":{"Label":"4 Colman Road, Droitwich, WR9 8, United Kingdom","Country":"GBR","State":"England","County":"Worcestershire","City":"Droitwich","District":"Droitwich","Street":"Colman Road","HouseNumber":"4","PostalCode":"WR9 8","AdditionalData":[{"value":"United Kingdom","key":"CountryName"},{"value":"England","key":"StateName"},{"value":"Worcestershire","key":"CountyName"}]},"MapReference":{"ReferenceId":"26204522","Spot":0.31,"SideOfStreet":"right","StateId":"20248595","CountyId":"20358640","CityId":"20358684","DistrictId":"20358685"}}}]}]}}