{"Response":{"MetaInfo":{"Timestamp":"2020-03-28T11:41:13.965+0000","NextPageInformation":"2"},"View":[{"_type":"SearchResultsViewType","ViewId":0,"Result":[{"Relevance":1.0,"Distance":0.0,"Direction":0.0,"MatchLevel":"district","MatchQuality":{"Country":1.0,"State":1.0,"County":1.0,"City":1.0,"District":1.0,"PostalCode":1.0},"Location":{"LocationId":"NT_0z7YXVx-nfAn4xY1XWa-CB","LocationType":"point","DisplayPosition":{"Latitude":52.2338365,"Longitude":10.4806947},"MapView":{"TopLeft":{"Latitude":52.23816,"Longitude":10.47043},"BottomRight":{"Latitude":52.22786,"Longitude":10.49497}},"Address":{"Label":"Broitzem, Braunschweig, Niedersachsen, Deutschland","Country":"DEU","State":"Niedersachsen","County":"Braunschweig","City":"Braunschweig","District":"Broitzem","PostalCode":"38122","AdditionalData":[{"value":"Deutschland","key":"CountryName"},{"value":"Niedersachsen","key":"StateName"},{"value":"Braunschweig","key":"CountyName"}]},"MapReference":{"ReferenceId":"833430505","SideOfStreet":"neither","CountryId":"20147700","StateId":"20151542","CountyId":"20151543","CityId":"20151544","DistrictId":"20151566"}}},{"Relevance":1.0,"Distance":6.0,"MatchLevel":"houseNumber","MatchQuality":{"Country":1.0,"State":1.0,"County":1.0,"City":1.0,"District":1.0,"Street":[1.0],"HouseNumber":1.0,"PostalCode":1.0},"MatchType":"interpolated","Location":{"LocationId":"NT_Uj4YUyEGdot6Zepiv3e5vA_xEE","LocationType":"point","DisplayPosition":{"Latitude":52.23388,"Longitude":10.48093},"MapView":{"TopLeft":{"Latitude":52.2350042,"Longitude":10.4790945},"BottomRight":{"Latitude":52.2327558,"Longitude":10.4827655}},"Address":{"Label":"Turmstraße 1A, 38122 Braunschweig, Deutschland","Country":"DEU","State":"Niedersachsen","County":"Braunschweig","City":"Braunschweig","District":"Broitzem","Street":"Turmstraße","HouseNumber":"1A","PostalCode":"38122","AdditionalData":[{"value":"Deutschland","key":"CountryName"},{"value":"Niedersachsen","key":"StateName"},{"value":"Braunschweig","key":"CountyName"}]},"MapReference":{"ReferenceId":"1238158368","Spot":0.84,"SideOfStreet":"left","CountryId":"20147700","StateId":"20151542","CountyId":"20151543","CityId":"20151544","DistrictId":"20151566","AddressId":"180663911","RoadLinkId":"558968832"}}},{"Relevance":1.0,"Distance":18.5,"MatchLevel":"street","MatchQuality":{"Country":1.0,"State":1.0,"County":1.0,"City":1.0,"District":1.0,"Street":[1.0],"PostalCode":1.0},"Location":{"LocationId":"NT_Uj4YUyEGdot6Zepiv3e5vA_l_1238158369_L","LocationType":"point","DisplayPosition":{"Latitude":52.23392,"Longitude":10.48093},"MapView":{"TopLeft":{"Latitude":52.23414,"Longitude":10.48089},"BottomRight":{"Latitude":52.23392,"Longitude":10.48093}},"Address":{"Label":"Turmstraße, 38122 Braunschweig, Deutschland","Country":"DEU","State":"Niedersachsen","County":"Braunschweig","City":"Braunschweig","District":"Broitzem","Street":"Turmstraße","PostalCode":"38122","AdditionalData":[{"value":"Deutschland","key":"CountryName"},{"value":"Niedersachsen","key":"StateName"},{"value":"Braunschweig","key":"CountyName"}]},"MapReference":{"ReferenceId":"1238158369","Spot":0.0,"SideOfStreet":"left","CountryId":"20147700","StateId":"20151542","CountyId":"20151543","CityId":"20151544","DistrictId":"20151566"}}},{"Relevance":1.0,"Distance":19.9,"MatchLevel":"houseNumber","MatchQuality":{"Country":1.0,"State":1.0,"County":1.0,"City":1.0,"District":1.0,"Street":[1.0],"HouseNumber":1.0,"PostalCode":1.0},"MatchType":"interpolated","Location":{"LocationId":"NT_Uj4YUyEGdot6Zepiv3e5vA_xME","LocationType":"point","DisplayPosition":{"Latitude":52.23366,"Longitude":10.48092},"MapView":{"TopLeft":{"Latitude":52.2347842,"Longitude":10.4790845},"BottomRight":{"Latitude":52.2325358,"Longitude":10.4827555}},"Address":{"Label":"Turmstraße 1C, 38122 Braunschweig, Deutschland","Country":"DEU","State":"Niedersachsen","County":"Braunschweig","City":"Braunschweig","District":"Broitzem","Street":"Turmstraße","HouseNumber":"1C","PostalCode":"38122","AdditionalData":[{"value":"Deutschland","key":"CountryName"},{"value":"Niedersachsen","key":"StateName"},{"value":"Braunschweig","key":"CountyName"}]},"MapReference":{"ReferenceId":"1238079540","Spot":0.97,"SideOfStreet":"left","CountryId":"20147700","StateId":"20151542","CountyId":"20151543","CityId":"20151544","DistrictId":"20151566","AddressId":"180733229","RoadLinkId":"558871415"}}},{"Relevance":1.0,"Distance":24.0,"MatchLevel":"street","MatchQuality":{"Country":1.0,"State":1.0,"County":1.0,"City":1.0,"District":1.0,"Street":[1.0],"PostalCode":1.0},"Location":{"LocationId":"NT_Fg74hXM74HFYB8mMiWaPPC_l_539232785_L","LocationType":"point","DisplayPosition":{"Latitude":52.23367,"Longitude":10.48092},"MapView":{"TopLeft":{"Latitude":52.23371,"Longitude":10.48092},"BottomRight":{"Latitude":52.23367,"Longitude":10.4817}},"Address":{"Label":"Osterbeek, 38122 Braunschweig, Deutschland","Country":"DEU","State":"Niedersachsen","County":"Braunschweig","City":"Braunschweig","District":"Broitzem","Street":"Osterbeek","PostalCode":"38122","AdditionalData":[{"value":"Deutschland","key":"CountryName"},{"value":"Niedersachsen","key":"StateName"},{"value":"Braunschweig","key":"CountyName"}]},"MapReference":{"ReferenceId":"539232785","Spot":0.0,"SideOfStreet":"left","CountryId":"20147700","StateId":"20151542","CountyId":"20151543","CityId":"20151544","DistrictId":"20151566"}}},{"Relevance":1.0,"Distance":33.2,"MatchLevel":"houseNumber","MatchQuality":{"Country":1.0,"State":1.0,"County":1.0,"City":1.0,"District":1.0,"Street":[1.0],"HouseNumber":1.0,"PostalCode":1.0},"MatchType":"interpolated","Location":{"LocationId":"NT_FbxmvR2q0UpRH0Oq8WbcGC_zQD","LocationType":"point","DisplayPosition":{"Latitude":52.23412,"Longitude":10.48032},"MapView":{"TopLeft":{"Latitude":52.2352442,"Longitude":10.4784845},"BottomRight":{"Latitude":52.2329958,"Longitude":10.4821555}},"Address":{"Label":"Große Grubestraße 34, 38122 Braunschweig, Deutschland","Country":"DEU","State":"Niedersachsen","County":"Braunschweig","City":"Braunschweig","District":"Broitzem","Street":"Große Grubestraße","HouseNumber":"34","PostalCode":"38122","AdditionalData":[{"value":"Deutschland","key":"CountryName"},{"value":"Niedersachsen","key":"StateName"},{"value":"Braunschweig","key":"CountyName"}]},"MapReference":{"ReferenceId":"1179504733","Spot":0.34,"SideOfStreet":"right","CountryId":"20147700","StateId":"20151542","CountyId":"20151543","CityId":"20151544","DistrictId":"20151566","AddressId":"688796968","RoadLinkId":"487304354"}}},{"Relevance":1.0,"Distance":36.3,"MatchLevel":"street","MatchQuality":{"Country":1.0,"State":1.0,"County":1.0,"City":1.0,"District":1.0,"Street":[1.0],"PostalCode":1.0},"Location":{"LocationId":"NT_3mNr.-uCN4Aume8VvawWWA_l_1118749457_R","LocationType":"point","DisplayPosition":{"Latitude":52.23414,"Longitude":10.48089},"MapView":{"TopLeft":{"Latitude":52.23432,"Longitude":10.48089},"BottomRight":{"Latitude":52.23414,"Longitude":10.48126}},"Address":{"Label":"Kruckweg, 38122 Braunschweig, Deutschland","Country":"DEU","State":"Niedersachsen","County":"Braunschweig","City":"Braunschweig","District":"Broitzem","Street":"Kruckweg","PostalCode":"38122","AdditionalData":[{"value":"Deutschland","key":"CountryName"},{"value":"Niedersachsen","key":"StateName"},{"value":"Braunschweig","key":"CountyName"}]},"MapReference":{"ReferenceId":"1118749457","Spot":0.0,"SideOfStreet":"right","CountryId":"20147700","StateId":"20151542","CountyId":"20151543","CityId":"20151544","DistrictId":"20151566"}}},{"Relevance":1.0,"Distance":43.1,"MatchLevel":"houseNumber","MatchQuality":{"Country":1.0,"State":1.0,"County":1.0,"City":1.0,"District":1.0,"Street":[1.0],"HouseNumber":1.0,"PostalCode":1.0},"MatchType":"interpolated","Location":{"LocationId":"NT_6RDpHsREfivlDYcvT58BQB_xMD","LocationType":"point","DisplayPosition":{"Latitude":52.23354,"Longitude":10.48},"MapView":{"TopLeft":{"Latitude":52.2346642,"Longitude":10.4781645},"BottomRight":{"Latitude":52.2324158,"Longitude":10.4818355}},"Address":{"Label":"Breslauer Straße 13, 38122 Braunschweig, Deutschland","Country":"DEU","State":"Niedersachsen","County":"Braunschweig","City":"Braunschweig","District":"Broitzem","Street":"Breslauer Straße","HouseNumber":"13","PostalCode":"38122","AdditionalData":[{"value":"Deutschland","key":"CountryName"},{"value":"Niedersachsen","key":"StateName"},{"value":"Braunschweig","key":"CountyName"}]},"MapReference":{"ReferenceId":"51802603","Spot":1.0,"SideOfStreet":"left","CountryId":"20147700","StateId":"20151542","CountyId":"20151543","CityId":"20151544","DistrictId":"20151566","AddressId":"249845415","RoadLinkId":"37139806"}}},{"Relevance":1.0,"Distance":55.5,"MatchLevel":"houseNumber","MatchQuality":{"Country":1.0,"State":1.0,"County":1.0,"City":1.0,"District":1.0,"Street":[1.0],"HouseNumber":1.0,"PostalCode":1.0},"MatchType":"interpolated","Location":{"LocationId":"NT_FbxmvR2q0UpRH0Oq8WbcGC_zMD","LocationType":"point","DisplayPosition":{"Latitude":52.23414,"Longitude":10.47994},"MapView":{"TopLeft":{"Latitude":52.2352642,"Longitude":10.4781045},"BottomRight":{"Latitude":52.2330158,"Longitude":10.4817755}},"Address":{"Label":"Große Grubestraße 33, 38122 Braunschweig, Deutschland","Country":"DEU","State":"Niedersachsen","County":"Braunschweig","City":"Braunschweig","District":"Broitzem","Street":"Große Grubestraße","HouseNumber":"33","PostalCode":"38122","AdditionalData":[{"value":"Deutschland","key":"CountryName"},{"value":"Niedersachsen","key":"StateName"},{"value":"Braunschweig","key":"CountyName"}]},"MapReference":{"ReferenceId":"1179747875","Spot":0.13,"SideOfStreet":"left","CountryId":"20147700","StateId":"20151542","CountyId":"20151543","CityId":"20151544","DistrictId":"20151566","AddressId":"688796967","RoadLinkId":"487570717"}}},{"Relevance":1.0,"Distance":63.1,"MatchLevel":"houseNumber","MatchQuality":{"Country":1.0,"State":1.0,"County":1.0,"City":1.0,"District":1.0,"Street":[1.0],"HouseNumber":1.0,"PostalCode":1.0},"MatchType":"interpolated","Location":{"LocationId":"NT_Uj4YUyEGdot6Zepiv3e5vA_zA","LocationType":"point","DisplayPosition":{"Latitude":52.23328,"Longitude":10.48098},"MapView":{"TopLeft":{"Latitude":52.2344042,"Longitude":10.4791445},"BottomRight":{"Latitude":52.2321558,"Longitude":10.4828155}},"Address":{"Label":"Turmstraße 3, 38122 Braunschweig, Deutschland","Country":"DEU","State":"Niedersachsen","County":"Braunschweig","City":"Braunschweig","District":"Broitzem","Street":"Turmstraße","HouseNumber":"3","PostalCode":"38122","AdditionalData":[{"value":"Deutschland","key":"CountryName"},{"value":"Niedersachsen","key":"StateName"},{"value":"Braunschweig","key":"CountyName"}]},"MapReference":{"ReferenceId":"1238079539","Spot":0.87,"SideOfStreet":"left","CountryId":"20147700","StateId":"20151542","CountyId":"20151543","CityId":"20151544","DistrictId":"20151566","AddressId":"181029362","RoadLinkId":"558871414"}}}]}]}}