{"Response":{"MetaInfo":{"Timestamp":"2020-03-28T11:19:25.368+0000","NextPageInformation":"2"},"View":[{"_type":"SearchResultsViewType","ViewId":0,"Result":[{"Relevance":1.0,"Distance":0.0,"Direction":0.0,"MatchLevel":"district","MatchQuality":{"Country":1.0,"State":1.0,"County":1.0,"City":1.0,"District":1.0,"PostalCode":1.0},"Location":{"LocationId":"NT_9RoT7kn8oIDpQzkzS.DD-A","LocationType":"point","DisplayPosition":{"Latitude":52.2280074,"Longitude":0.7083301},"MapView":{"TopLeft":{"Latitude":52.27051,"Longitude":0.67528},"BottomRight":{"Latitude":52.22438,"Longitude":0.76417}},"Address":{"Label":"Bury St Edmunds, England, United Kingdom","Country":"GBR","State":"England","County":"Suffolk","City":"Bury St Edmunds","District":"Bury St Edmunds","PostalCode":"IP33 1","AdditionalData":[{"value":"United Kingdom","key":"CountryName"},{"value":"England","key":"StateName"},{"value":"Suffolk","key":"CountyName"}]},"MapReference":{"ReferenceId":"26145585","SideOfStreet":"neither","StateId":"20248595","CountyId":"20338322","CityId":"20351044","DistrictId":"20351045"}}},{"Relevance":1.0,"Distance":23.7,"MatchLevel":"postalCode","MatchQuality":{"PostalCode":1.0},"Location":{"LocationId":"NT_Gm7fH2BX65XKvmgTZLXh3A_l_565655716_L","LocationType":"point","DisplayPosition":{"Latitude":52.22822,"Longitude":0.70836},"MapView":{"TopLeft":{"Latitude":52.2372132,"Longitude":0.6936776},"BottomRight":{"Latitude":52.2192268,"Longitude":0.7230424}},"Address":{"Label":"IP33 2QY, Bury St Edmunds, England, United Kingdom","Country":"GBR","State":"England","County":"Suffolk","City":"Bury St Edmunds","PostalCode":"IP33 2QY","AdditionalData":[{"value":"United Kingdom","key":"CountryName"},{"value":"England","key":"StateName"},{"value":"Suffolk","key":"CountyName"}]},"MapReference":{"ReferenceId":"565655716","Spot":0.33,"SideOfStreet":"neither","StateId":"20248595","CountyId":"20338322","CityId":"20351044"}}},{"Relevance":1.0,"Distance":27.1,"MatchLevel":"street","MatchQuality":{"Country":1.0,"State":1.0,"County":1.0,"City":1.0,"District":1.0,"Street":[1.0],"PostalCode":1.0},"Location":{"LocationId":"NT_Gm7fH2BX65XKvmgTZLXh3A_l_565655716_L","LocationType":"point","DisplayPosition":{"Latitude":52.2282466,"Longitude":0.7082559},"MapView":{"TopLeft":{"Latitude":52.22847,"Longitude":0.70762},"BottomRight":{"Latitude":52.22822,"Longitude":0.70856}},"Address":{"Label":"Macmillan Way, Bury St Edmunds, IP33 2, United Kingdom","Country":"GBR","State":"England","County":"Suffolk","City":"Bury St Edmunds","District":"Bury St Edmunds","Street":"Macmillan Way","PostalCode":"IP33 2","AdditionalData":[{"value":"United Kingdom","key":"CountryName"},{"value":"England","key":"StateName"},{"value":"Suffolk","key":"CountyName"}]},"MapReference":{"ReferenceId":"565655716","Spot":0.33,"SideOfStreet":"left","StateId":"20248595","CountyId":"20338322","CityId":"20351044","DistrictId":"20351045"}}},{"Relevance":1.0,"Distance":45.3,"MatchLevel":"street","MatchQuality":{"Country":1.0,"State":1.0,"County":1.0,"City":1.0,"District":1.0,"Street":[1.0],"PostalCode":1.0},"Location":{"LocationId":"NT_Gm7fH2BX65XKvmgTZLXh3A_l_565655717_L","LocationType":"point","DisplayPosition":{"Latitude":52.2283901,"Longitude":0.7085597},"MapView":{"TopLeft":{"Latitude":52.22852,"Longitude":0.70819},"BottomRight":{"Latitude":52.22839,"Longitude":0.70856}},"Address":{"Label":"Macmillan Way, Bury St Edmunds, IP33 2, United Kingdom","Country":"GBR","State":"England","County":"Suffolk","City":"Bury St Edmunds","District":"Bury St Edmunds","Street":"Macmillan Way","PostalCode":"IP33 2","AdditionalData":[{"value":"United Kingdom","key":"CountryName"},{"value":"England","key":"StateName"},{"value":"Suffolk","key":"CountyName"}]},"MapReference":{"ReferenceId":"565655717","Spot":0.0,"SideOfStreet":"left","StateId":"20248595","CountyId":"20338322","CityId":"20351044","DistrictId":"20351045"}}},{"Relevance":1.0,"Distance":57.8,"MatchLevel":"street","MatchQuality":{"Country":1.0,"State":1.0,"County":1.0,"City":1.0,"District":1.0,"Street":[1.0],"PostalCode":1.0},"Location":{"LocationId":"NT_Gm7fH2BX65XKvmgTZLXh3A_l_565655718_R","LocationType":"point","DisplayPosition":{"Latitude":52.22852,"Longitude":0.70819},"MapView":{"TopLeft":{"Latitude":52.22852,"Longitude":0.70762},"BottomRight":{"Latitude":52.22845,"Longitude":0.70819}},"Address":{"Label":"Macmillan Way, Bury St Edmunds, IP33 2, United Kingdom","Country":"GBR","State":"England","County":"Suffolk","City":"Bury St Edmunds","District":"Bury St Edmunds","Street":"Macmillan Way","PostalCode":"IP33 2","AdditionalData":[{"value":"United Kingdom","key":"CountryName"},{"value":"England","key":"StateName"},{"value":"Suffolk","key":"CountyName"}]},"MapReference":{"ReferenceId":"565655718","Spot":1.0,"SideOfStreet":"right","StateId":"20248595","CountyId":"20338322","CityId":"20351044","DistrictId":"20351045"}}},{"Relevance":1.0,"Distance":70.6,"MatchLevel":"street","MatchQuality":{"Country":1.0,"State":1.0,"County":1.0,"City":1.0,"District":1.0,"Street":[1.0],"PostalCode":1.0},"Location":{"LocationId":"NT_Gm7fH2BX65XKvmgTZLXh3A_l_1103920602_R","LocationType":"point","DisplayPosition":{"Latitude":52.22847,"Longitude":0.70762},"MapView":{"TopLeft":{"Latitude":52.22977,"Longitude":0.70748},"BottomRight":{"Latitude":52.22847,"Longitude":0.70775}},"Address":{"Label":"Macmillan Way, Bury St Edmunds, IP33 2, United Kingdom","Country":"GBR","State":"England","County":"Suffolk","City":"Bury St Edmunds","District":"Bury St Edmunds","Street":"Macmillan Way","PostalCode":"IP33 2","AdditionalData":[{"value":"United Kingdom","key":"CountryName"},{"value":"England","key":"StateName"},{"value":"Suffolk","key":"CountyName"}]},"MapReference":{"ReferenceId":"1103920602","Spot":0.0,"SideOfStreet":"right","StateId":"20248595","CountyId":"20338322","CityId":"20351044","DistrictId":"20351045"}}},{"Relevance":1.0,"Distance":144.7,"MatchLevel":"postalCode","MatchQuality":{"PostalCode":1.0},"Location":{"LocationId":"NT_Gm7fH2BX65XKvmgTZLXh3A_l_1103920602_R","LocationType":"point","DisplayPosition":{"Latitude":52.2292,"Longitude":0.70748},"MapView":{"TopLeft":{"Latitude":52.2381932,"Longitude":0.6927973},"BottomRight":{"Latitude":52.2202068,"Longitude":0.7221627}},"Address":{"Label":"IP33 2GJ, Bury St Edmunds, England, United Kingdom","Country":"GBR","State":"England","County":"Suffolk","City":"Bury St Edmunds","PostalCode":"IP33 2GJ","AdditionalData":[{"value":"United Kingdom","key":"CountryName"},{"value":"England","key":"StateName"},{"value":"Suffolk","key":"CountyName"}]},"MapReference":{"ReferenceId":"1103920602","Spot":0.0,"SideOfStreet":"neither","StateId":"20248595","CountyId":"20338322","CityId":"20351044"}}},{"Relevance":1.0,"Distance":167.9,"MatchLevel":"landmark","MatchQuality":{"Country":1.0,"State":1.0,"County":1.0,"City":1.0,"District":1.0,"PostalCode":1.0,"Name":1.0},"Location":{"LocationId":"NT_osesxmVIbEUwuWly3AhyUC_p_DKHnQVJIQBzCwy6ZuVDL8A","LocationType":"hospital","Name":"West Suffolk Hospital","DisplayPosition":{"Latitude":52.23237,"Longitude":0.70938},"MapView":{"TopLeft":{"Latitude":52.23387,"Longitude":0.70624},"BottomRight":{"Latitude":52.22936,"Longitude":0.71111}},"Address":{"Label":"Bury St Edmunds, IP33 2, United Kingdom","Country":"GBR","State":"England","County":"Suffolk","City":"Bury St Edmunds","District":"Bury St Edmunds","PostalCode":"IP33 2","AdditionalData":[{"value":"United Kingdom","key":"CountryName"},{"value":"England","key":"StateName"},{"value":"Suffolk","key":"CountyName"}]},"MapReference":{"StateId":"20248595","CountyId":"20338322","CityId":"20351044","DistrictId":"20351045","PlaceId":"545850165"}}},{"Relevance":1.0,"Distance":199.9,"MatchLevel":"street","MatchQuality":{"Country":1.0,"State":1.0,"County":1.0,"City":1.0,"District":1.0,"Street":[1.0],"PostalCode":1.0},"Location":{"LocationId":"NT_Gm7fH2BX65XKvmgTZLXh3A_l_1103920603_R","LocationType":"point","DisplayPosition":{"Latitude":52.22977,"Longitude":0.70775},"MapView":{"TopLeft":{"Latitude":52.23021,"Longitude":0.70775},"BottomRight":{"Latitude":52.22977,"Longitude":0.70797}},"Address":{"Label":"Macmillan Way, Bury St Edmunds, IP33 2, United Kingdom","Country":"GBR","State":"England","County":"Suffolk","City":"Bury St Edmunds","District":"Bury St Edmunds","Street":"Macmillan Way","PostalCode":"IP33 2","AdditionalData":[{"value":"United Kingdom","key":"CountryName"},{"value":"England","key":"StateName"},{"value":"Suffolk","key":"CountyName"}]},"MapReference":{"ReferenceId":"1103920603","Spot":0.0,"SideOfStreet":"right","StateId":"20248595","CountyId":"20338322","CityId":"20351044","DistrictId":"20351045"}}},{"Relevance":1.0,"Distance":245.6,"MatchLevel":"street","MatchQuality":{"Country":1.0,"State":1.0,"County":1.0,"City":1.0,"District":1.0,"PostalCode":1.0},"Location":{"LocationId":"NT_OW4QIJPudqQG5EgFDhiseC_l_1103920606_L","LocationType":"point","DisplayPosition":{"Latitude":52.2302164,"Longitude":0.7082855},"MapView":{"TopLeft":{"Latitude":52.23023,"Longitude":0.70797},"BottomRight":{"Latitude":52.23016,"Longitude":0.7098}},"Address":{"Label":"Bury St Edmunds, IP33 2, United Kingdom","Country":"GBR","State":"England","County":"Suffolk","City":"Bury St Edmunds","District":"Bury St Edmunds","PostalCode":"IP33 2","AdditionalData":[{"value":"United Kingdom","key":"CountryName"},{"value":"England","key":"StateName"},{"value":"Suffolk","key":"CountyName"}]},"MapReference":{"ReferenceId":"1103920606","Spot":0.83,"SideOfStreet":"left","StateId":"20248595","CountyId":"20338322","CityId":"20351044","DistrictId":"20351045"}}}]}]}}