{"Response":{"MetaInfo":{"Timestamp":"2020-03-28T10:46:02.539+0000","NextPageInformation":"2"},"View":[{"_type":"SearchResultsViewType","ViewId":0,"Result":[{"Relevance":1.0,"Distance":0.0,"Direction":0.0,"MatchLevel":"district","MatchQuality":{"Country":1.0,"State":1.0,"County":1.0,"City":1.0,"District":1.0,"PostalCode":1.0},"Location":{"LocationId":"NT_l7OaoCwZON.gR9NSlNe6bC","LocationType":"point","DisplayPosition":{"Latitude":52.2312123,"Longitude":20.2417434},"MapView":{"TopLeft":{"Latitude":52.28144,"Longitude":20.18881},"BottomRight":{"Latitude":52.19143,"Longitude":20.29972}},"Address":{"Label":"Sochaczew, Woj. Mazowieckie, Polska","Country":"POL","State":"Woj. Mazowieckie","County":"Powiat Sochaczewski","City":"Sochaczew","District":"Sochaczew","PostalCode":"96-500","AdditionalData":[{"value":"Polska","key":"CountryName"},{"value":"Woj. Mazowieckie","key":"StateName"},{"value":"Powiat Sochaczewski","key":"CountyName"}]},"MapReference":{"ReferenceId":"975201645","SideOfStreet":"neither","CountryId":"20624059","StateId":"20627182","CountyId":"20627720","CityId":"20689430","DistrictId":"20689431"}}},{"Relevance":1.0,"Distance":7.1,"MatchLevel":"houseNumber","MatchQuality":{"Country":1.0,"State":1.0,"County":1.0,"City":1.0,"District":1.0,"Street":[1.0],"HouseNumber":1.0,"PostalCode":1.0},"MatchType":"interpolated","Location":{"LocationId":"NT_LDgKaIU-eUlx01pf4-QKBD_xQD","LocationType":"point","DisplayPosition":{"Latitude":52.23122,"Longitude":20.24164},"MapView":{"TopLeft":{"Latitude":52.2323442,"Longitude":20.2398046},"BottomRight":{"Latitude":52.2300958,"Longitude":20.2434754}},"Address":{"Label":"ulica Stefana Żeromskiego 14, 96-500 Sochaczew, Polska","Country":"POL","State":"Woj. Mazowieckie","County":"Powiat Sochaczewski","City":"Sochaczew","District":"Sochaczew","Street":"ulica Stefana Żeromskiego","HouseNumber":"14","PostalCode":"96-500","AdditionalData":[{"value":"Polska","key":"CountryName"},{"value":"Woj. Mazowieckie","key":"StateName"},{"value":"Powiat Sochaczewski","key":"CountyName"}]},"MapReference":{"ReferenceId":"1092224749","Spot":0.54,"SideOfStreet":"right","CountryId":"20624059","StateId":"20627182","CountyId":"20627720","CityId":"20689430","DistrictId":"20689431","AddressId":"210405154","RoadLinkId":"407152236"}}},{"Relevance":1.0,"Distance":35.0,"MatchLevel":"street","MatchQuality":{"Country":1.0,"State":1.0,"County":1.0,"City":1.0,"District":1.0,"Street":[1.0],"PostalCode":1.0},"Location":{"LocationId":"NT_LDgKaIU-eUlx01pf4-QKBD_l_956786383_R","LocationType":"point","DisplayPosition":{"Latitude":52.23152,"Longitude":20.24185},"MapView":{"TopLeft":{"Latitude":52.23211,"Longitude":20.24185},"BottomRight":{"Latitude":52.23152,"Longitude":20.24225}},"Address":{"Label":"ulica Stefana Żeromskiego, 96-500 Sochaczew, Polska","Country":"POL","State":"Woj. Mazowieckie","County":"Powiat Sochaczewski","City":"Sochaczew","District":"Sochaczew","Street":"ulica Stefana Żeromskiego","PostalCode":"96-500","AdditionalData":[{"value":"Polska","key":"CountryName"},{"value":"Woj. Mazowieckie","key":"StateName"},{"value":"Powiat Sochaczewski","key":"CountyName"}]},"MapReference":{"ReferenceId":"956786383","Spot":0.0,"SideOfStreet":"right","CountryId":"20624059","StateId":"20627182","CountyId":"20627720","CityId":"20689430","DistrictId":"20689431"}}},{"Relevance":1.0,"Distance":58.4,"MatchLevel":"houseNumber","MatchQuality":{"Country":1.0,"State":1.0,"County":1.0,"City":1.0,"District":1.0,"Street":[1.0],"HouseNumber":1.0,"PostalCode":1.0},"MatchType":"interpolated","Location":{"LocationId":"NT_Ny7IQUQrOYJkgdkAqFeE8A_yA","LocationType":"point","DisplayPosition":{"Latitude":52.23141,"Longitude":20.24268},"MapView":{"TopLeft":{"Latitude":52.2325342,"Longitude":20.2408446},"BottomRight":{"Latitude":52.2302858,"Longitude":20.2445154}},"Address":{"Label":"ulica Senatorska 2, 96-500 Sochaczew, Polska","Country":"POL","State":"Woj. Mazowieckie","County":"Powiat Sochaczewski","City":"Sochaczew","District":"Sochaczew","Street":"ulica Senatorska","HouseNumber":"2","PostalCode":"96-500","AdditionalData":[{"value":"Polska","key":"CountryName"},{"value":"Woj. Mazowieckie","key":"StateName"},{"value":"Powiat Sochaczewski","key":"CountyName"}]},"MapReference":{"ReferenceId":"595957722","Spot":0.8,"SideOfStreet":"left","CountryId":"20624059","StateId":"20627182","CountyId":"20627720","CityId":"20689430","DistrictId":"20689431","AddressId":"701805369","RoadLinkId":"95374887"}}},{"Relevance":1.0,"Distance":67.2,"MatchLevel":"houseNumber","MatchQuality":{"Country":1.0,"State":1.0,"County":1.0,"City":1.0,"District":1.0,"Street":[1.0],"HouseNumber":1.0,"PostalCode":1.0},"MatchType":"interpolated","Location":{"LocationId":"NT_LDgKaIU-eUlx01pf4-QKBD_xcD","LocationType":"point","DisplayPosition":{"Latitude":52.23167,"Longitude":20.2411},"MapView":{"TopLeft":{"Latitude":52.2327942,"Longitude":20.2392646},"BottomRight":{"Latitude":52.2305458,"Longitude":20.2429354}},"Address":{"Label":"ulica Stefana Żeromskiego 17, 96-500 Sochaczew, Polska","Country":"POL","State":"Woj. Mazowieckie","County":"Powiat Sochaczewski","City":"Sochaczew","District":"Sochaczew","Street":"ulica Stefana Żeromskiego","HouseNumber":"17","PostalCode":"96-500","AdditionalData":[{"value":"Polska","key":"CountryName"},{"value":"Woj. Mazowieckie","key":"StateName"},{"value":"Powiat Sochaczewski","key":"CountyName"}]},"MapReference":{"ReferenceId":"956896152","Spot":0.51,"SideOfStreet":"left","CountryId":"20624059","StateId":"20627182","CountyId":"20627720","CityId":"20689430","DistrictId":"20689431","AddressId":"210462416","RoadLinkId":"299834431"}}},{"Relevance":1.0,"Distance":90.2,"MatchLevel":"houseNumber","MatchQuality":{"Country":1.0,"State":1.0,"County":1.0,"City":1.0,"District":1.0,"Street":[1.0],"HouseNumber":1.0,"PostalCode":1.0},"MatchType":"interpolated","Location":{"LocationId":"NT_LDgKaIU-eUlx01pf4-QKBD_xAD","LocationType":"point","DisplayPosition":{"Latitude":52.23052,"Longitude":20.24114},"MapView":{"TopLeft":{"Latitude":52.2316442,"Longitude":20.2393046},"BottomRight":{"Latitude":52.2293958,"Longitude":20.2429754}},"Address":{"Label":"ulica Stefana Żeromskiego 10, 96-500 Sochaczew, Polska","Country":"POL","State":"Woj. Mazowieckie","County":"Powiat Sochaczewski","City":"Sochaczew","District":"Sochaczew","Street":"ulica Stefana Żeromskiego","HouseNumber":"10","PostalCode":"96-500","AdditionalData":[{"value":"Polska","key":"CountryName"},{"value":"Woj. Mazowieckie","key":"StateName"},{"value":"Powiat Sochaczewski","key":"CountyName"}]},"MapReference":{"ReferenceId":"1092224748","Spot":0.6,"SideOfStreet":"right","CountryId":"20624059","StateId":"20627182","CountyId":"20627720","CityId":"20689430","DistrictId":"20689431","AddressId":"211127931","RoadLinkId":"407152235"}}},{"Relevance":1.0,"Distance":106.4,"MatchLevel":"street","MatchQuality":{"Country":1.0,"State":1.0,"County":1.0,"City":1.0,"District":1.0,"PostalCode":1.0},"Location":{"LocationId":"NT_uyTYdd1w3-TN9ze6B1gABA_l_956786385_L","LocationType":"point","DisplayPosition":{"Latitude":52.2321654,"Longitude":20.24189},"MapView":{"TopLeft":{"Latitude":52.23227,"Longitude":20.24121},"BottomRight":{"Latitude":52.23211,"Longitude":20.24225}},"Address":{"Label":"96-500 Sochaczew, Polska","Country":"POL","State":"Woj. Mazowieckie","County":"Powiat Sochaczewski","City":"Sochaczew","District":"Sochaczew","PostalCode":"96-500","AdditionalData":[{"value":"Polska","key":"CountryName"},{"value":"Woj. Mazowieckie","key":"StateName"},{"value":"Powiat Sochaczewski","key":"CountyName"}]},"MapReference":{"ReferenceId":"956786385","Spot":0.35,"SideOfStreet":"left","CountryId":"20624059","StateId":"20627182","CountyId":"20627720","CityId":"20689430","DistrictId":"20689431"}}},{"Relevance":1.0,"Distance":115.9,"MatchLevel":"houseNumber","MatchQuality":{"Country":1.0,"State":1.0,"County":1.0,"City":1.0,"District":1.0,"Street":[1.0],"HouseNumber":1.0,"PostalCode":1.0},"MatchType":"interpolated","Location":{"LocationId":"NT_PaUPhjVnY9IkUMo1o6CVrB_xED","LocationType":"point","DisplayPosition":{"Latitude":52.23034,"Longitude":20.24318},"MapView":{"TopLeft":{"Latitude":52.2314642,"Longitude":20.2413446},"BottomRight":{"Latitude":52.2292158,"Longitude":20.2450154}},"Address":{"Label":"ulica Poprzeczna 11, 96-500 Sochaczew, Polska","Country":"POL","State":"Woj. Mazowieckie","County":"Powiat Sochaczewski","City":"Sochaczew","District":"Sochaczew","Street":"ulica Poprzeczna","HouseNumber":"11","PostalCode":"96-500","AdditionalData":[{"value":"Polska","key":"CountryName"},{"value":"Woj. Mazowieckie","key":"StateName"},{"value":"Powiat Sochaczewski","key":"CountyName"}]},"MapReference":{"ReferenceId":"595957823","Spot":1.0,"SideOfStreet":"right","CountryId":"20624059","StateId":"20627182","CountyId":"20627720","CityId":"20689430","DistrictId":"20689431","AddressId":"210995705","RoadLinkId":"172992576"}}},{"Relevance":1.0,"Distance":123.6,"MatchLevel":"houseNumber","MatchQuality":{"Country":1.0,"State":1.0,"County":1.0,"City":1.0,"District":1.0,"Street":[1.0],"HouseNumber":1.0,"PostalCode":1.0},"MatchType":"interpolated","Location":{"LocationId":"NT_KFaR9QFweH0vBduK0EeCfC_1QTQ","LocationType":"point","DisplayPosition":{"Latitude":52.23206,"Longitude":20.24039},"MapView":{"TopLeft":{"Latitude":52.2331842,"Longitude":20.2385545},"BottomRight":{"Latitude":52.2309358,"Longitude":20.2422255}},"Address":{"Label":"ulica Stanisława Staszica 54A, 96-500 Sochaczew, Polska","Country":"POL","State":"Woj. Mazowieckie","County":"Powiat Sochaczewski","City":"Sochaczew","District":"Sochaczew","Street":"ulica Stanisława Staszica","HouseNumber":"54A","PostalCode":"96-500","AdditionalData":[{"value":"Polska","key":"CountryName"},{"value":"Woj. Mazowieckie","key":"StateName"},{"value":"Powiat Sochaczewski","key":"CountyName"}]},"MapReference":{"ReferenceId":"956896153","Spot":0.59,"SideOfStreet":"right","CountryId":"20624059","StateId":"20627182","CountyId":"20627720","CityId":"20689430","DistrictId":"20689431","AddressId":"703647948","RoadLinkId":"299834432"}}},{"Relevance":1.0,"Distance":128.3,"MatchLevel":"houseNumber","MatchQuality":{"Country":1.0,"State":1.0,"County":1.0,"City":1.0,"District":1.0,"Street":[1.0],"HouseNumber":1.0,"PostalCode":1.0},"MatchType":"interpolated","Location":{"LocationId":"NT_pttgYUIg.AWSRbu92f.vxD_2EE","LocationType":"point","DisplayPosition":{"Latitude":52.23266,"Longitude":20.24229},"MapView":{"TopLeft":{"Latitude":52.2337842,"Longitude":20.2404545},"BottomRight":{"Latitude":52.2315358,"Longitude":20.2441255}},"Address":{"Label":"ulica Pokoju 6A, 96-500 Sochaczew, Polska","Country":"POL","State":"Woj. Mazowieckie","County":"Powiat Sochaczewski","City":"Sochaczew","District":"Sochaczew","Street":"ulica Pokoju","HouseNumber":"6A","PostalCode":"96-500","AdditionalData":[{"value":"Polska","key":"CountryName"},{"value":"Woj. Mazowieckie","key":"StateName"},{"value":"Powiat Sochaczewski","key":"CountyName"}]},"MapReference":{"ReferenceId":"975205218","Spot":0.05,"SideOfStreet":"left","CountryId":"20624059","StateId":"20627182","CountyId":"20627720","CityId":"20689430","DistrictId":"20689431","AddressId":"731859934","RoadLinkId":"310711506"}}}]}]}}