{"Response":{"MetaInfo":{"Timestamp":"2020-03-28T10:45:47.089+0000","NextPageInformation":"2"},"View":[{"_type":"SearchResultsViewType","ViewId":0,"Result":[{"Relevance":1.0,"Distance":0.0,"Direction":0.0,"MatchLevel":"district","MatchQuality":{"Country":1.0,"State":1.0,"County":1.0,"City":1.0,"District":1.0,"PostalCode":1.0},"Location":{"LocationId":"NT_4SAgDaGA33F3hd-XTyKSGC","LocationType":"point","DisplayPosition":{"Latitude":52.291627,"Longitude":16.9814932},"MapView":{"TopLeft":{"Latitude":52.29834,"Longitude":16.96894},"BottomRight":{"Latitude":52.27065,"Longitude":17.01168}},"Address":{"Label":"Kamionki, Kórnik, Woj. Wielkopolskie, Polska","Country":"POL","State":"Woj. Wielkopolskie","County":"Powiat Poznański","City":"Kórnik","District":"Kamionki","PostalCode":"62-023","AdditionalData":[{"value":"Polska","key":"CountryName"},{"value":"Woj. Wielkopolskie","key":"StateName"},{"value":"Powiat Poznański","key":"CountyName"}]},"MapReference":{"ReferenceId":"595290979","SideOfStreet":"neither","CountryId":"20624059","StateId":"20629915","CountyId":"20631712","CityId":"20631723","DistrictId":"20697153"}}},{"Relevance":1.0,"Distance":14.0,"MatchLevel":"houseNumber","MatchQuality":{"Country":1.0,"State":1.0,"County":1.0,"City":1.0,"District":1.0,"Street":[1.0],"HouseNumber":1.0,"PostalCode":1.0},"MatchType":"interpolated","Location":{"LocationId":"NT_nlziIGlUBbMogyMKGWFIUA_yAD","LocationType":"point","DisplayPosition":{"Latitude":52.2918,"Longitude":16.9814},"MapView":{"TopLeft":{"Latitude":52.2929242,"Longitude":16.9795621},"BottomRight":{"Latitude":52.2906758,"Longitude":16.9832379}},"Address":{"Label":"ulica Platanowa 20, 62-023 Kamionki, Polska","Country":"POL","State":"Woj. Wielkopolskie","County":"Powiat Poznański","City":"Kórnik","District":"Kamionki","Street":"ulica Platanowa","HouseNumber":"20","PostalCode":"62-023","AdditionalData":[{"value":"Polska","key":"CountryName"},{"value":"Woj. Wielkopolskie","key":"StateName"},{"value":"Powiat Poznański","key":"CountyName"}]},"MapReference":{"ReferenceId":"1073620464","Spot":0.72,"SideOfStreet":"right","CountryId":"20624059","StateId":"20629915","CountyId":"20631712","CityId":"20631723","DistrictId":"20697153","AddressId":"732277753","RoadLinkId":"393957017"}}},{"Relevance":1.0,"Distance":40.2,"MatchLevel":"houseNumber","MatchQuality":{"Country":1.0,"State":1.0,"County":1.0,"City":1.0,"District":1.0,"Street":[1.0],"HouseNumber":1.0,"PostalCode":1.0},"MatchType":"interpolated","Location":{"LocationId":"NT_TZfKJF4gvuL60sVD.LmEZD_2A","LocationType":"point","DisplayPosition":{"Latitude":52.29119,"Longitude":16.98187},"MapView":{"TopLeft":{"Latitude":52.2923142,"Longitude":16.9800321},"BottomRight":{"Latitude":52.2900658,"Longitude":16.9837079}},"Address":{"Label":"ulica Cedrowa 6, 62-023 Kamionki, Polska","Country":"POL","State":"Woj. Wielkopolskie","County":"Powiat Poznański","City":"Kórnik","District":"Kamionki","Street":"ulica Cedrowa","HouseNumber":"6","PostalCode":"62-023","AdditionalData":[{"value":"Polska","key":"CountryName"},{"value":"Woj. Wielkopolskie","key":"StateName"},{"value":"Powiat Poznański","key":"CountyName"}]},"MapReference":{"ReferenceId":"774057183","Spot":0.92,"SideOfStreet":"left","CountryId":"20624059","StateId":"20629915","CountyId":"20631712","CityId":"20631723","DistrictId":"20697153","AddressId":"731618881","RoadLinkId":"205624750"}}},{"Relevance":1.0,"Distance":51.4,"MatchLevel":"street","MatchQuality":{"Country":1.0,"State":1.0,"County":1.0,"City":1.0,"District":1.0,"Street":[1.0],"PostalCode":1.0},"Location":{"LocationId":"NT_TZfKJF4gvuL60sVD.LmEZD_l_1232759604_L","LocationType":"point","DisplayPosition":{"Latitude":52.29125,"Longitude":16.98193},"MapView":{"TopLeft":{"Latitude":52.29184,"Longitude":16.98193},"BottomRight":{"Latitude":52.29125,"Longitude":16.98269}},"Address":{"Label":"ulica Cedrowa, 62-023 Kamionki, Polska","Country":"POL","State":"Woj. Wielkopolskie","County":"Powiat Poznański","City":"Kórnik","District":"Kamionki","Street":"ulica Cedrowa","PostalCode":"62-023","AdditionalData":[{"value":"Polska","key":"CountryName"},{"value":"Woj. Wielkopolskie","key":"StateName"},{"value":"Powiat Poznański","key":"CountyName"}]},"MapReference":{"ReferenceId":"1232759604","Spot":0.0,"SideOfStreet":"left","CountryId":"20624059","StateId":"20629915","CountyId":"20631712","CityId":"20631723","DistrictId":"20697153"}}},{"Relevance":1.0,"Distance":66.2,"MatchLevel":"street","MatchQuality":{"Country":1.0,"State":1.0,"County":1.0,"City":1.0,"District":1.0,"Street":[1.0],"PostalCode":1.0},"Location":{"LocationId":"NT_lADEIrK.oxdKc7h.dA6HIB_l_1069789755_L","LocationType":"point","DisplayPosition":{"Latitude":52.2922,"Longitude":16.98176},"MapView":{"TopLeft":{"Latitude":52.2922,"Longitude":16.98176},"BottomRight":{"Latitude":52.29209,"Longitude":16.98209}},"Address":{"Label":"ulica Klonowa, 62-023 Kamionki, Polska","Country":"POL","State":"Woj. Wielkopolskie","County":"Powiat Poznański","City":"Kórnik","District":"Kamionki","Street":"ulica Klonowa","PostalCode":"62-023","AdditionalData":[{"value":"Polska","key":"CountryName"},{"value":"Woj. Wielkopolskie","key":"StateName"},{"value":"Powiat Poznański","key":"CountyName"}]},"MapReference":{"ReferenceId":"1069789755","Spot":1.0,"SideOfStreet":"left","CountryId":"20624059","StateId":"20629915","CountyId":"20631712","CityId":"20631723","DistrictId":"20697153"}}},{"Relevance":1.0,"Distance":66.2,"MatchLevel":"street","MatchQuality":{"Country":1.0,"State":1.0,"County":1.0,"City":1.0,"District":1.0,"Street":[1.0],"PostalCode":1.0},"Location":{"LocationId":"NT_nlziIGlUBbMogyMKGWFIUA_l_774057217_L","LocationType":"point","DisplayPosition":{"Latitude":52.2922,"Longitude":16.98176},"MapView":{"TopLeft":{"Latitude":52.29269,"Longitude":16.98137},"BottomRight":{"Latitude":52.2922,"Longitude":16.98176}},"Address":{"Label":"ulica Platanowa, 62-023 Kamionki, Polska","Country":"POL","State":"Woj. Wielkopolskie","County":"Powiat Poznański","City":"Kórnik","District":"Kamionki","Street":"ulica Platanowa","PostalCode":"62-023","AdditionalData":[{"value":"Polska","key":"CountryName"},{"value":"Woj. Wielkopolskie","key":"StateName"},{"value":"Powiat Poznański","key":"CountyName"}]},"MapReference":{"ReferenceId":"774057217","Spot":0.0,"SideOfStreet":"left","CountryId":"20624059","StateId":"20629915","CountyId":"20631712","CityId":"20631723","DistrictId":"20697153"}}},{"Relevance":1.0,"Distance":72.4,"MatchLevel":"houseNumber","MatchQuality":{"Country":1.0,"State":1.0,"County":1.0,"City":1.0,"District":1.0,"Street":[1.0],"HouseNumber":1.0,"PostalCode":1.0},"MatchType":"interpolated","Location":{"LocationId":"NT_lADEIrK.oxdKc7h.dA6HIB_zA","LocationType":"point","DisplayPosition":{"Latitude":52.29188,"Longitude":16.98258},"MapView":{"TopLeft":{"Latitude":52.2930042,"Longitude":16.9807421},"BottomRight":{"Latitude":52.2907558,"Longitude":16.9844179}},"Address":{"Label":"ulica Klonowa 3, 62-023 Kamionki, Polska","Country":"POL","State":"Woj. Wielkopolskie","County":"Powiat Poznański","City":"Kórnik","District":"Kamionki","Street":"ulica Klonowa","HouseNumber":"3","PostalCode":"62-023","AdditionalData":[{"value":"Polska","key":"CountryName"},{"value":"Woj. Wielkopolskie","key":"StateName"},{"value":"Powiat Poznański","key":"CountyName"}]},"MapReference":{"ReferenceId":"1070277025","Spot":0.18,"SideOfStreet":"left","CountryId":"20624059","StateId":"20629915","CountyId":"20631712","CityId":"20631723","DistrictId":"20697153","AddressId":"731868343","RoadLinkId":"392427848"}}},{"Relevance":1.0,"Distance":84.8,"MatchLevel":"street","MatchQuality":{"Country":1.0,"State":1.0,"County":1.0,"City":1.0,"District":1.0,"Street":[1.0],"PostalCode":1.0},"Location":{"LocationId":"NT_0hiacPLUS-8A734EkYdFAC_l_1069814472_L","LocationType":"point","DisplayPosition":{"Latitude":52.29184,"Longitude":16.98269},"MapView":{"TopLeft":{"Latitude":52.29184,"Longitude":16.98269},"BottomRight":{"Latitude":52.29173,"Longitude":16.98303}},"Address":{"Label":"osiedle Kresowe, 62-023 Kamionki, Polska","Country":"POL","State":"Woj. Wielkopolskie","County":"Powiat Poznański","City":"Kórnik","District":"Kamionki","Street":"osiedle Kresowe","PostalCode":"62-023","AdditionalData":[{"value":"Polska","key":"CountryName"},{"value":"Woj. Wielkopolskie","key":"StateName"},{"value":"Powiat Poznański","key":"CountyName"}]},"MapReference":{"ReferenceId":"1069814472","Spot":1.0,"SideOfStreet":"left","CountryId":"20624059","StateId":"20629915","CountyId":"20631712","CityId":"20631723","DistrictId":"20697153"}}},{"Relevance":1.0,"Distance":104.1,"MatchLevel":"houseNumber","MatchQuality":{"Country":1.0,"State":1.0,"County":1.0,"City":1.0,"District":1.0,"Street":[1.0],"HouseNumber":1.0,"PostalCode":1.0},"MatchType":"interpolated","Location":{"LocationId":"NT_YtnC4DrBzHePMOHFGCfyfB_xgD","LocationType":"point","DisplayPosition":{"Latitude":52.29097,"Longitude":16.98011},"MapView":{"TopLeft":{"Latitude":52.2920942,"Longitude":16.9782721},"BottomRight":{"Latitude":52.2898458,"Longitude":16.9819479}},"Address":{"Label":"ulica Jaśminowa 18, 62-023 Kamionki, Polska","Country":"POL","State":"Woj. Wielkopolskie","County":"Powiat Poznański","City":"Kórnik","District":"Kamionki","Street":"ulica Jaśminowa","HouseNumber":"18","PostalCode":"62-023","AdditionalData":[{"value":"Polska","key":"CountryName"},{"value":"Woj. Wielkopolskie","key":"StateName"},{"value":"Powiat Poznański","key":"CountyName"}]},"MapReference":{"ReferenceId":"1230933394","Spot":0.73,"SideOfStreet":"right","CountryId":"20624059","StateId":"20629915","CountyId":"20631712","CityId":"20631723","DistrictId":"20697153","AddressId":"772857256","RoadLinkId":"550382527"}}},{"Relevance":1.0,"Distance":115.2,"MatchLevel":"houseNumber","MatchQuality":{"Country":1.0,"State":1.0,"County":1.0,"City":1.0,"District":1.0,"Street":[1.0],"HouseNumber":1.0,"PostalCode":1.0},"MatchType":"interpolated","Location":{"LocationId":"NT_lADEIrK.oxdKc7h.dA6HIB_1A","LocationType":"point","DisplayPosition":{"Latitude":52.29279,"Longitude":16.98113},"MapView":{"TopLeft":{"Latitude":52.2939142,"Longitude":16.979292},"BottomRight":{"Latitude":52.2916658,"Longitude":16.982968}},"Address":{"Label":"ulica Klonowa 5, 62-023 Kamionki, Polska","Country":"POL","State":"Woj. Wielkopolskie","County":"Powiat Poznański","City":"Kórnik","District":"Kamionki","Street":"ulica Klonowa","HouseNumber":"5","PostalCode":"62-023","AdditionalData":[{"value":"Polska","key":"CountryName"},{"value":"Woj. Wielkopolskie","key":"StateName"},{"value":"Powiat Poznański","key":"CountyName"}]},"MapReference":{"ReferenceId":"774057221","Spot":0.16,"SideOfStreet":"left","CountryId":"20624059","StateId":"20629915","CountyId":"20631712","CityId":"20631723","DistrictId":"20697153","AddressId":"771478335","RoadLinkId":"167687027"}}}]}]}}