{"Response":{"MetaInfo":{"Timestamp":"2020-03-28T09:36:59.915+0000","NextPageInformation":"2"},"View":[{"_type":"SearchResultsViewType","ViewId":0,"Result":[{"Relevance":1.0,"Distance":-22.2,"MatchLevel":"landmark","MatchQuality":{"Country":1.0,"State":1.0,"County":1.0,"City":1.0,"District":1.0,"Street":[1.0],"HouseNumber":1.0,"PostalCode":1.0,"Name":1.0},"Location":{"LocationId":"NT_QESe6wTcXADqweY9C1PpfC_p_Tam.q2tiEJP8IKtmEey9VD","LocationType":"hospital","Name":"Helios Klinikum Bad Saarow","DisplayPosition":{"Latitude":52.28502,"Longitude":14.06465},"MapView":{"TopLeft":{"Latitude":52.2861442,"Longitude":14.0628124},"BottomRight":{"Latitude":52.2838958,"Longitude":14.0664876}},"Address":{"Label":"Pieskower Straße 33, 15526 Bad Saarow, Deutschland","Country":"DEU","State":"Brandenburg","County":"Oder-Spree","City":"Bad Saarow","District":"Bad Saarow","Street":"Pieskower Straße","HouseNumber":"33","PostalCode":"15526","AdditionalData":[{"value":"Deutschland","key":"CountryName"},{"value":"Brandenburg","key":"StateName"},{"value":"Oder-Spree","key":"CountyName"}]},"MapReference":{"CountryId":"20147700","StateId":"20187428","CountyId":"20188534","CityId":"20188627","DistrictId":"20188630","PlaceId":"56113842"}}},{"Relevance":1.0,"Distance":0.0,"Direction":0.0,"MatchLevel":"district","MatchQuality":{"Country":1.0,"State":1.0,"County":1.0,"City":1.0,"District":1.0,"PostalCode":1.0},"Location":{"LocationId":"NT_x8rtnV8CZVcB-Fwfc90TVD","LocationType":"point","DisplayPosition":{"Latitude":52.2842724,"Longitude":14.0645223},"MapView":{"TopLeft":{"Latitude":52.29725,"Longitude":14.03215},"BottomRight":{"Latitude":52.24206,"Longitude":14.07599}},"Address":{"Label":"Bad Saarow, Brandenburg, Deutschland","Country":"DEU","State":"Brandenburg","County":"Oder-Spree","City":"Bad Saarow","District":"Bad Saarow","PostalCode":"15526","AdditionalData":[{"value":"Deutschland","key":"CountryName"},{"value":"Brandenburg","key":"StateName"},{"value":"Oder-Spree","key":"CountyName"}]},"MapReference":{"ReferenceId":"1188921267","SideOfStreet":"neither","CountryId":"20147700","StateId":"20187428","CountyId":"20188534","CityId":"20188627","DistrictId":"20188630"}}},{"Relevance":1.0,"Distance":22.3,"MatchLevel":"street","MatchQuality":{"Country":1.0,"State":1.0,"County":1.0,"City":1.0,"District":1.0,"Street":[1.0],"PostalCode":1.0},"Location":{"LocationId":"NT_ZBuLYdIOaEsqvrGPeqepwC_l_914456501_L","LocationType":"point","DisplayPosition":{"Latitude":52.2843521,"Longitude":14.0648227},"MapView":{"TopLeft":{"Latitude":52.2844,"Longitude":14.06481},"BottomRight":{"Latitude":52.28391,"Longitude":14.06494}},"Address":{"Label":"Pieskower Straße, 15526 Bad Saarow, Deutschland","Country":"DEU","State":"Brandenburg","County":"Oder-Spree","City":"Bad Saarow","District":"Bad Saarow","Street":"Pieskower Straße","PostalCode":"15526","AdditionalData":[{"value":"Deutschland","key":"CountryName"},{"value":"Brandenburg","key":"StateName"},{"value":"Oder-Spree","key":"CountyName"}]},"MapReference":{"ReferenceId":"914456501","Spot":0.9,"SideOfStreet":"left","CountryId":"20147700","StateId":"20187428","CountyId":"20188534","CityId":"20188627","DistrictId":"20188630"}}},{"Relevance":1.0,"Distance":24.2,"MatchLevel":"street","MatchQuality":{"Country":1.0,"State":1.0,"County":1.0,"City":1.0,"District":1.0,"Street":[1.0],"PostalCode":1.0},"Location":{"LocationId":"NT_xodbEokMl9Pfiv..SKeMFB_l_833515170_L","LocationType":"point","DisplayPosition":{"Latitude":52.2844,"Longitude":14.06481},"MapView":{"TopLeft":{"Latitude":52.28476,"Longitude":14.06472},"BottomRight":{"Latitude":52.2844,"Longitude":14.06481}},"Address":{"Label":"Pieskower Straße, 15526 Bad Saarow, Deutschland","Country":"DEU","State":"Brandenburg","County":"Oder-Spree","City":"Bad Saarow","District":"Bad Saarow","Street":"Pieskower Straße","PostalCode":"15526","AdditionalData":[{"value":"Deutschland","key":"CountryName"},{"value":"Brandenburg","key":"StateName"},{"value":"Oder-Spree","key":"CountyName"}]},"MapReference":{"ReferenceId":"833515170","Spot":0.0,"SideOfStreet":"left","CountryId":"20147700","StateId":"20187428","CountyId":"20188534","CityId":"20188627","DistrictId":"20188630"}}},{"Relevance":1.0,"Distance":24.2,"MatchLevel":"street","MatchQuality":{"Country":1.0,"State":1.0,"County":1.0,"City":1.0,"PostalCode":1.0},"Location":{"LocationId":"NT_6amzV1RAyZIAIVn8VfytyD_l_914456511_R","LocationType":"point","DisplayPosition":{"Latitude":52.2844,"Longitude":14.06481},"MapView":{"TopLeft":{"Latitude":52.28441,"Longitude":14.06481},"BottomRight":{"Latitude":52.2844,"Longitude":14.06508}},"Address":{"Label":"15526 Bad Saarow, Deutschland","Country":"DEU","State":"Brandenburg","County":"Oder-Spree","City":"Bad Saarow","PostalCode":"15526","AdditionalData":[{"value":"Deutschland","key":"CountryName"},{"value":"Brandenburg","key":"StateName"},{"value":"Oder-Spree","key":"CountyName"}]},"MapReference":{"ReferenceId":"914456511","Spot":0.0,"SideOfStreet":"right","CountryId":"20147700","StateId":"20187428","CountyId":"20188534","CityId":"20188627"}}},{"Relevance":1.0,"Distance":40.9,"MatchLevel":"street","MatchQuality":{"Country":1.0,"State":1.0,"County":1.0,"City":1.0,"PostalCode":1.0},"Location":{"LocationId":"NT_6amzV1RAyZIAIVn8VfytyD_l_914456514_R","LocationType":"point","DisplayPosition":{"Latitude":52.28441,"Longitude":14.06508},"MapView":{"TopLeft":{"Latitude":52.28444,"Longitude":14.06508},"BottomRight":{"Latitude":52.28441,"Longitude":14.06534}},"Address":{"Label":"15526 Bad Saarow, Deutschland","Country":"DEU","State":"Brandenburg","County":"Oder-Spree","City":"Bad Saarow","PostalCode":"15526","AdditionalData":[{"value":"Deutschland","key":"CountryName"},{"value":"Brandenburg","key":"StateName"},{"value":"Oder-Spree","key":"CountyName"}]},"MapReference":{"ReferenceId":"914456514","Spot":0.0,"SideOfStreet":"right","CountryId":"20147700","StateId":"20187428","CountyId":"20188534","CityId":"20188627"}}},{"Relevance":1.0,"Distance":40.9,"MatchLevel":"street","MatchQuality":{"Country":1.0,"State":1.0,"County":1.0,"City":1.0,"PostalCode":1.0},"Location":{"LocationId":"NT_6amzV1RAyZIAIVn8VfytyD_l_914456509_L","LocationType":"point","DisplayPosition":{"Latitude":52.28441,"Longitude":14.06508},"MapView":{"TopLeft":{"Latitude":52.28441,"Longitude":14.06508},"BottomRight":{"Latitude":52.28394,"Longitude":14.0652}},"Address":{"Label":"15526 Bad Saarow, Deutschland","Country":"DEU","State":"Brandenburg","County":"Oder-Spree","City":"Bad Saarow","PostalCode":"15526","AdditionalData":[{"value":"Deutschland","key":"CountryName"},{"value":"Brandenburg","key":"StateName"},{"value":"Oder-Spree","key":"CountyName"}]},"MapReference":{"ReferenceId":"914456509","Spot":1.0,"SideOfStreet":"left","CountryId":"20147700","StateId":"20187428","CountyId":"20188534","CityId":"20188627"}}},{"Relevance":1.0,"Distance":41.4,"MatchLevel":"street","MatchQuality":{"Country":1.0,"State":1.0,"County":1.0,"City":1.0,"PostalCode":1.0},"Location":{"LocationId":"NT_6amzV1RAyZIAIVn8VfytyD_l_914456510_L","LocationType":"point","DisplayPosition":{"Latitude":52.2844301,"Longitude":14.0650743},"MapView":{"TopLeft":{"Latitude":52.28504,"Longitude":14.0649},"BottomRight":{"Latitude":52.28441,"Longitude":14.06508}},"Address":{"Label":"15526 Bad Saarow, Deutschland","Country":"DEU","State":"Brandenburg","County":"Oder-Spree","City":"Bad Saarow","PostalCode":"15526","AdditionalData":[{"value":"Deutschland","key":"CountryName"},{"value":"Brandenburg","key":"StateName"},{"value":"Oder-Spree","key":"CountyName"}]},"MapReference":{"ReferenceId":"914456510","Spot":0.03,"SideOfStreet":"left","CountryId":"20147700","StateId":"20187428","CountyId":"20188534","CityId":"20188627"}}},{"Relevance":1.0,"Distance":49.3,"MatchLevel":"street","MatchQuality":{"Country":1.0,"State":1.0,"County":1.0,"City":1.0,"District":1.0,"Street":[1.0],"PostalCode":1.0},"Location":{"LocationId":"NT_xodbEokMl9Pfiv..SKeMFB_l_914456500_L","LocationType":"point","DisplayPosition":{"Latitude":52.28391,"Longitude":14.06494},"MapView":{"TopLeft":{"Latitude":52.28391,"Longitude":14.06494},"BottomRight":{"Latitude":52.28262,"Longitude":14.06531}},"Address":{"Label":"Pieskower Straße, 15526 Bad Saarow, Deutschland","Country":"DEU","State":"Brandenburg","County":"Oder-Spree","City":"Bad Saarow","District":"Bad Saarow","Street":"Pieskower Straße","PostalCode":"15526","AdditionalData":[{"value":"Deutschland","key":"CountryName"},{"value":"Brandenburg","key":"StateName"},{"value":"Oder-Spree","key":"CountyName"}]},"MapReference":{"ReferenceId":"914456500","Spot":1.0,"SideOfStreet":"left","CountryId":"20147700","StateId":"20187428","CountyId":"20188534","CityId":"20188627","DistrictId":"20188630"}}},{"Relevance":1.0,"Distance":49.3,"MatchLevel":"street","MatchQuality":{"Country":1.0,"State":1.0,"County":1.0,"City":1.0,"PostalCode":1.0},"Location":{"LocationId":"NT_6amzV1RAyZIAIVn8VfytyD_l_1004212546_L","LocationType":"point","DisplayPosition":{"Latitude":52.28391,"Longitude":14.06494},"MapView":{"TopLeft":{"Latitude":52.28394,"Longitude":14.06494},"BottomRight":{"Latitude":52.28391,"Longitude":14.0652}},"Address":{"Label":"15526 Bad Saarow, Deutschland","Country":"DEU","State":"Brandenburg","County":"Oder-Spree","City":"Bad Saarow","PostalCode":"15526","AdditionalData":[{"value":"Deutschland","key":"CountryName"},{"value":"Brandenburg","key":"StateName"},{"value":"Oder-Spree","key":"CountyName"}]},"MapReference":{"ReferenceId":"1004212546","Spot":0.0,"SideOfStreet":"left","CountryId":"20147700","StateId":"20187428","CountyId":"20188534","CityId":"20188627"}}}]}]}}