{"Response":{"MetaInfo":{"Timestamp":"2020-03-28T10:12:55.607+0000","NextPageInformation":"2"},"View":[{"_type":"SearchResultsViewType","ViewId":0,"Result":[{"Relevance":1.0,"Distance":-101.8,"MatchLevel":"landmark","MatchQuality":{"Country":1.0,"State":1.0,"County":1.0,"City":1.0,"PostalCode":1.0,"Name":1.0},"Location":{"LocationId":"NT_iM4fJAZATLs2Ut65ztnpsA","LocationType":"industrialComplex","Name":"Industriegebied Matenhoek","DisplayPosition":{"Latitude":52.20677,"Longitude":5.98161},"MapView":{"TopLeft":{"Latitude":52.20898,"Longitude":5.97836},"BottomRight":{"Latitude":52.20457,"Longitude":5.98783}},"Address":{"Label":"7311 LW Apeldoorn, Nederland","Country":"NLD","State":"Gelderland","County":"Apeldoorn","City":"Apeldoorn","PostalCode":"7311 LW","AdditionalData":[{"value":"Nederland","key":"CountryName"},{"value":"Gelderland","key":"StateName"},{"value":"Apeldoorn","key":"CountyName"}]},"MapReference":{"CountryId":"23055544","StateId":"23055652","CountyId":"23055498","CityId":"20201060","PlaceId":"50884797"}}},{"Relevance":1.0,"Distance":0.0,"Direction":0.0,"MatchLevel":"city","MatchQuality":{"Country":1.0,"State":1.0,"County":1.0,"City":1.0,"PostalCode":1.0},"Location":{"LocationId":"NT_kKM-DKzvFp8AY2HtSZG5iD","LocationType":"point","DisplayPosition":{"Latitude":52.2080306,"Longitude":5.9821618},"MapView":{"TopLeft":{"Latitude":52.24948,"Longitude":5.91633},"BottomRight":{"Latitude":52.17254,"Longitude":6.04805}},"Address":{"Label":"Apeldoorn, Gelderland, Nederland","Country":"NLD","State":"Gelderland","County":"Apeldoorn","City":"Apeldoorn","PostalCode":"7311 LW","AdditionalData":[{"value":"Nederland","key":"CountryName"},{"value":"Gelderland","key":"StateName"},{"value":"Apeldoorn","key":"CountyName"}]},"MapReference":{"ReferenceId":"572346049","SideOfStreet":"neither","CountryId":"23055544","StateId":"23055652","CountyId":"23055498","CityId":"20201060"}}},{"Relevance":1.0,"Distance":6.0,"MatchLevel":"houseNumber","MatchQuality":{"Country":1.0,"State":1.0,"County":1.0,"City":1.0,"Street":[1.0],"HouseNumber":1.0,"PostalCode":1.0},"MatchType":"interpolated","Location":{"LocationId":"NT_UHlw.Tk1KZSCNYoFjf5HqB_ykD","LocationType":"point","DisplayPosition":{"Latitude":52.20793,"Longitude":5.98218},"MapView":{"TopLeft":{"Latitude":52.2090542,"Longitude":5.9803455},"BottomRight":{"Latitude":52.2068058,"Longitude":5.9840145}},"Address":{"Label":"Ketelboetershoek 29, 7328 JE Apeldoorn, Nederland","Country":"NLD","State":"Gelderland","County":"Apeldoorn","City":"Apeldoorn","Street":"Ketelboetershoek","HouseNumber":"29","PostalCode":"7328 JE","AdditionalData":[{"value":"Nederland","key":"CountryName"},{"value":"Gelderland","key":"StateName"},{"value":"Apeldoorn","key":"CountyName"}]},"MapReference":{"ReferenceId":"54862857","Spot":0.8,"SideOfStreet":"left","CountryId":"23055544","StateId":"23055652","CountyId":"23055498","CityId":"20201060","AddressId":"617954806","RoadLinkId":"32279611"}}},{"Relevance":1.0,"Distance":26.3,"MatchLevel":"houseNumber","MatchQuality":{"Country":1.0,"State":1.0,"County":1.0,"City":1.0,"Street":[1.0],"HouseNumber":1.0,"PostalCode":1.0},"MatchType":"interpolated","Location":{"LocationId":"NT_pyBkK3OhZN4EhxjpZ6iUtA_zID","LocationType":"point","DisplayPosition":{"Latitude":52.20832,"Longitude":5.98201},"MapView":{"TopLeft":{"Latitude":52.2094442,"Longitude":5.9801755},"BottomRight":{"Latitude":52.2071958,"Longitude":5.9838445}},"Address":{"Label":"Ovenbouwershoek 32, 7328 JH Apeldoorn, Nederland","Country":"NLD","State":"Gelderland","County":"Apeldoorn","City":"Apeldoorn","Street":"Ovenbouwershoek","HouseNumber":"32","PostalCode":"7328 JH","AdditionalData":[{"value":"Nederland","key":"CountryName"},{"value":"Gelderland","key":"StateName"},{"value":"Apeldoorn","key":"CountyName"}]},"MapReference":{"ReferenceId":"1246192708","Spot":0.82,"SideOfStreet":"right","CountryId":"23055544","StateId":"23055652","CountyId":"23055498","CityId":"20201060","AddressId":"618027165","RoadLinkId":"567712248"}}},{"Relevance":1.0,"Distance":62.6,"MatchLevel":"houseNumber","MatchQuality":{"Country":1.0,"State":1.0,"County":1.0,"City":1.0,"Street":[1.0],"HouseNumber":1.0,"PostalCode":1.0},"MatchType":"interpolated","Location":{"LocationId":"NT_UHlw.Tk1KZSCNYoFjf5HqB_0ED","LocationType":"point","DisplayPosition":{"Latitude":52.20822,"Longitude":5.983},"MapView":{"TopLeft":{"Latitude":52.2093442,"Longitude":5.9811655},"BottomRight":{"Latitude":52.2070958,"Longitude":5.9848345}},"Address":{"Label":"Ketelboetershoek 41, 7328 JE Apeldoorn, Nederland","Country":"NLD","State":"Gelderland","County":"Apeldoorn","City":"Apeldoorn","Street":"Ketelboetershoek","HouseNumber":"41","PostalCode":"7328 JE","AdditionalData":[{"value":"Nederland","key":"CountryName"},{"value":"Gelderland","key":"StateName"},{"value":"Apeldoorn","key":"CountyName"}]},"MapReference":{"ReferenceId":"572348326","Spot":0.4,"SideOfStreet":"left","CountryId":"23055544","StateId":"23055652","CountyId":"23055498","CityId":"20201060","AddressId":"617738647","RoadLinkId":"31878880"}}},{"Relevance":1.0,"Distance":73.7,"MatchLevel":"houseNumber","MatchQuality":{"Country":1.0,"State":1.0,"County":1.0,"City":1.0,"Street":[1.0],"HouseNumber":1.0,"PostalCode":1.0},"MatchType":"interpolated","Location":{"LocationId":"NT_yMQ8ol3pz7zy6H2eeZ6nnA_0cD","LocationType":"point","DisplayPosition":{"Latitude":52.20706,"Longitude":5.98289},"MapView":{"TopLeft":{"Latitude":52.2081842,"Longitude":5.9810556},"BottomRight":{"Latitude":52.2059358,"Longitude":5.9847244}},"Address":{"Label":"Molenmakershoek 47, 7328 JK Apeldoorn, Nederland","Country":"NLD","State":"Gelderland","County":"Apeldoorn","City":"Apeldoorn","Street":"Molenmakershoek","HouseNumber":"47","PostalCode":"7328 JK","AdditionalData":[{"value":"Nederland","key":"CountryName"},{"value":"Gelderland","key":"StateName"},{"value":"Apeldoorn","key":"CountyName"}]},"MapReference":{"ReferenceId":"54862906","Spot":0.2,"SideOfStreet":"left","CountryId":"23055544","StateId":"23055652","CountyId":"23055498","CityId":"20201060","AddressId":"617971406","RoadLinkId":"31120797"}}},{"Relevance":1.0,"Distance":108.8,"MatchLevel":"houseNumber","MatchQuality":{"Country":1.0,"State":1.0,"County":1.0,"City":1.0,"Street":[1.0],"HouseNumber":1.0,"PostalCode":1.0},"MatchType":"interpolated","Location":{"LocationId":"NT_yMQ8ol3pz7zy6H2eeZ6nnA_1cTQ","LocationType":"point","DisplayPosition":{"Latitude":52.20719,"Longitude":5.98371},"MapView":{"TopLeft":{"Latitude":52.2083142,"Longitude":5.9818756},"BottomRight":{"Latitude":52.2060658,"Longitude":5.9855444}},"Address":{"Label":"Molenmakershoek 57A, 7328 JK Apeldoorn, Nederland","Country":"NLD","State":"Gelderland","County":"Apeldoorn","City":"Apeldoorn","Street":"Molenmakershoek","HouseNumber":"57A","PostalCode":"7328 JK","AdditionalData":[{"value":"Nederland","key":"CountryName"},{"value":"Gelderland","key":"StateName"},{"value":"Apeldoorn","key":"CountyName"}]},"MapReference":{"ReferenceId":"999128182","Spot":0.07,"SideOfStreet":"left","CountryId":"23055544","StateId":"23055652","CountyId":"23055498","CityId":"20201060","AddressId":"617921519","RoadLinkId":"325426379"}}},{"Relevance":1.0,"Distance":118.1,"MatchLevel":"houseNumber","MatchQuality":{"Country":1.0,"State":1.0,"County":1.0,"City":1.0,"Street":[1.0],"HouseNumber":1.0,"PostalCode":1.0},"MatchType":"interpolated","Location":{"LocationId":"NT_yMQ8ol3pz7zy6H2eeZ6nnA_zA","LocationType":"point","DisplayPosition":{"Latitude":52.20691,"Longitude":5.98124},"MapView":{"TopLeft":{"Latitude":52.2080342,"Longitude":5.9794056},"BottomRight":{"Latitude":52.2057858,"Longitude":5.9830744}},"Address":{"Label":"Molenmakershoek 3, 7328 JK Apeldoorn, Nederland","Country":"NLD","State":"Gelderland","County":"Apeldoorn","City":"Apeldoorn","Street":"Molenmakershoek","HouseNumber":"3","PostalCode":"7328 JK","AdditionalData":[{"value":"Nederland","key":"CountryName"},{"value":"Gelderland","key":"StateName"},{"value":"Apeldoorn","key":"CountyName"}]},"MapReference":{"ReferenceId":"54863001","Spot":0.57,"SideOfStreet":"right","CountryId":"23055544","StateId":"23055652","CountyId":"23055498","CityId":"20201060","AddressId":"617743187","RoadLinkId":"31746913"}}},{"Relevance":1.0,"Distance":120.1,"MatchLevel":"houseNumber","MatchQuality":{"Country":1.0,"State":1.0,"County":1.0,"City":1.0,"Street":[1.0],"HouseNumber":1.0,"PostalCode":1.0},"MatchType":"interpolated","Location":{"LocationId":"NT_UHlw.Tk1KZSCNYoFjf5HqB_xED","LocationType":"point","DisplayPosition":{"Latitude":52.2074,"Longitude":5.98073},"MapView":{"TopLeft":{"Latitude":52.2085242,"Longitude":5.9788956},"BottomRight":{"Latitude":52.2062758,"Longitude":5.9825644}},"Address":{"Label":"Ketelboetershoek 11, 7328 JE Apeldoorn, Nederland","Country":"NLD","State":"Gelderland","County":"Apeldoorn","City":"Apeldoorn","Street":"Ketelboetershoek","HouseNumber":"11","PostalCode":"7328 JE","AdditionalData":[{"value":"Nederland","key":"CountryName"},{"value":"Gelderland","key":"StateName"},{"value":"Apeldoorn","key":"CountyName"}]},"MapReference":{"ReferenceId":"54862898","Spot":0.97,"SideOfStreet":"left","CountryId":"23055544","StateId":"23055652","CountyId":"23055498","CityId":"20201060","AddressId":"617993776","RoadLinkId":"31534137"}}},{"Relevance":1.0,"Distance":125.4,"MatchLevel":"houseNumber","MatchQuality":{"Country":1.0,"State":1.0,"County":1.0,"City":1.0,"Street":[1.0],"HouseNumber":1.0,"PostalCode":1.0},"MatchType":"interpolated","Location":{"LocationId":"NT_UHlw.Tk1KZSCNYoFjf5HqB_1AD","LocationType":"point","DisplayPosition":{"Latitude":52.20857,"Longitude":5.98403},"MapView":{"TopLeft":{"Latitude":52.2096942,"Longitude":5.9821955},"BottomRight":{"Latitude":52.2074458,"Longitude":5.9858645}},"Address":{"Label":"Ketelboetershoek 50, 7328 JE Apeldoorn, Nederland","Country":"NLD","State":"Gelderland","County":"Apeldoorn","City":"Apeldoorn","Street":"Ketelboetershoek","HouseNumber":"50","PostalCode":"7328 JE","AdditionalData":[{"value":"Nederland","key":"CountryName"},{"value":"Gelderland","key":"StateName"},{"value":"Apeldoorn","key":"CountyName"}]},"MapReference":{"ReferenceId":"572348327","Spot":0.7,"SideOfStreet":"left","CountryId":"23055544","StateId":"23055652","CountyId":"23055498","CityId":"20201060","AddressId":"617698461","RoadLinkId":"31167929"}}}]}]}}