{"Response":{"MetaInfo":{"Timestamp":"2020-03-28T11:43:03.221+0000","NextPageInformation":"2"},"View":[{"_type":"SearchResultsViewType","ViewId":0,"Result":[{"Relevance":1.0,"Distance":0.0,"Direction":0.0,"MatchLevel":"district","MatchQuality":{"Country":1.0,"State":1.0,"County":1.0,"City":1.0,"District":1.0,"PostalCode":1.0},"Location":{"LocationId":"NT_ie6oNG9y.GNOA3U5wrNNbC","LocationType":"point","DisplayPosition":{"Latitude":52.2589491,"Longitude":7.6291114},"MapView":{"TopLeft":{"Latitude":52.27116,"Longitude":7.61563},"BottomRight":{"Latitude":52.25374,"Longitude":7.6411}},"Address":{"Label":"Riesenbeck, Hörstel, Nordrhein-Westfalen, Deutschland","Country":"DEU","State":"Nordrhein-Westfalen","County":"Steinfurt","City":"Hörstel","District":"Riesenbeck","PostalCode":"48477","AdditionalData":[{"value":"Deutschland","key":"CountryName"},{"value":"Nordrhein-Westfalen","key":"StateName"},{"value":"Steinfurt","key":"CountyName"}]},"MapReference":{"ReferenceId":"74585718","SideOfStreet":"neither","CountryId":"20147700","StateId":"20157369","CountyId":"20159347","CityId":"20159361","DistrictId":"20159363"}}},{"Relevance":1.0,"Distance":18.6,"MatchLevel":"houseNumber","MatchQuality":{"Country":1.0,"State":1.0,"County":1.0,"City":1.0,"District":1.0,"Street":[1.0],"HouseNumber":1.0,"PostalCode":1.0},"MatchType":"interpolated","Location":{"LocationId":"NT_cQDwndoARNlZkWGvD83FDA_zMD","LocationType":"point","DisplayPosition":{"Latitude":52.25872,"Longitude":7.6288},"MapView":{"TopLeft":{"Latitude":52.2598442,"Longitude":7.6269634},"BottomRight":{"Latitude":52.2575958,"Longitude":7.6306366}},"Address":{"Label":"Heinrich-Niemeyer-Straße 33, 48477 Hörstel, Deutschland","Country":"DEU","State":"Nordrhein-Westfalen","County":"Steinfurt","City":"Hörstel","District":"Riesenbeck","Street":"Heinrich-Niemeyer-Straße","HouseNumber":"33","PostalCode":"48477","AdditionalData":[{"value":"Deutschland","key":"CountryName"},{"value":"Nordrhein-Westfalen","key":"StateName"},{"value":"Steinfurt","key":"CountyName"}]},"MapReference":{"ReferenceId":"74585718","Spot":0.26,"SideOfStreet":"right","CountryId":"20147700","StateId":"20157369","CountyId":"20159347","CityId":"20159361","DistrictId":"20159363","AddressId":"192614318","RoadLinkId":"35488957"}}},{"Relevance":1.0,"Distance":37.6,"MatchLevel":"houseNumber","MatchQuality":{"Country":1.0,"State":1.0,"County":1.0,"City":1.0,"District":1.0,"Street":[1.0],"HouseNumber":1.0,"PostalCode":1.0},"MatchType":"interpolated","Location":{"LocationId":"NT_6M-gqS1PpZApfK4Cv9VrcC_xAD","LocationType":"point","DisplayPosition":{"Latitude":52.25915,"Longitude":7.62961},"MapView":{"TopLeft":{"Latitude":52.2602742,"Longitude":7.6277734},"BottomRight":{"Latitude":52.2580258,"Longitude":7.6314466}},"Address":{"Label":"Gelsbach 10, 48477 Hörstel, Deutschland","Country":"DEU","State":"Nordrhein-Westfalen","County":"Steinfurt","City":"Hörstel","District":"Riesenbeck","Street":"Gelsbach","HouseNumber":"10","PostalCode":"48477","AdditionalData":[{"value":"Deutschland","key":"CountryName"},{"value":"Nordrhein-Westfalen","key":"StateName"},{"value":"Steinfurt","key":"CountyName"}]},"MapReference":{"ReferenceId":"75400595","Spot":0.69,"SideOfStreet":"left","CountryId":"20147700","StateId":"20157369","CountyId":"20159347","CityId":"20159361","DistrictId":"20159363","AddressId":"192671398","RoadLinkId":"35190979"}}},{"Relevance":1.0,"Distance":42.2,"MatchLevel":"houseNumber","MatchQuality":{"Country":1.0,"State":1.0,"County":1.0,"City":1.0,"District":1.0,"Street":[1.0],"HouseNumber":1.0,"PostalCode":1.0},"MatchType":"interpolated","Location":{"LocationId":"NT_cQDwndoARNlZkWGvD83FDA_zcD","LocationType":"point","DisplayPosition":{"Latitude":52.25847,"Longitude":7.62921},"MapView":{"TopLeft":{"Latitude":52.2595942,"Longitude":7.6273735},"BottomRight":{"Latitude":52.2573458,"Longitude":7.6310465}},"Address":{"Label":"Heinrich-Niemeyer-Straße 37, 48477 Hörstel, Deutschland","Country":"DEU","State":"Nordrhein-Westfalen","County":"Steinfurt","City":"Hörstel","District":"Riesenbeck","Street":"Heinrich-Niemeyer-Straße","HouseNumber":"37","PostalCode":"48477","AdditionalData":[{"value":"Deutschland","key":"CountryName"},{"value":"Nordrhein-Westfalen","key":"StateName"},{"value":"Steinfurt","key":"CountyName"}]},"MapReference":{"ReferenceId":"74607719","Spot":0.75,"SideOfStreet":"right","CountryId":"20147700","StateId":"20157369","CountyId":"20159347","CityId":"20159361","DistrictId":"20159363","AddressId":"193473760","RoadLinkId":"35589689"}}},{"Relevance":1.0,"Distance":58.2,"MatchLevel":"houseNumber","MatchQuality":{"Country":1.0,"State":1.0,"County":1.0,"City":1.0,"District":1.0,"Street":[1.0],"HouseNumber":1.0,"PostalCode":1.0},"MatchType":"interpolated","Location":{"LocationId":"NT_UhbOzHVUiLxBK24zUKnFEA_yAD","LocationType":"point","DisplayPosition":{"Latitude":52.25963,"Longitude":7.6294},"MapView":{"TopLeft":{"Latitude":52.2607542,"Longitude":7.6275634},"BottomRight":{"Latitude":52.2585058,"Longitude":7.6312366}},"Address":{"Label":"Kalixtusstraße 20, 48477 Hörstel, Deutschland","Country":"DEU","State":"Nordrhein-Westfalen","County":"Steinfurt","City":"Hörstel","District":"Riesenbeck","Street":"Kalixtusstraße","HouseNumber":"20","PostalCode":"48477","AdditionalData":[{"value":"Deutschland","key":"CountryName"},{"value":"Nordrhein-Westfalen","key":"StateName"},{"value":"Steinfurt","key":"CountyName"}]},"MapReference":{"ReferenceId":"1259887631","Spot":0.32,"SideOfStreet":"left","CountryId":"20147700","StateId":"20157369","CountyId":"20159347","CityId":"20159361","DistrictId":"20159363","AddressId":"194733953","RoadLinkId":"585218243"}}},{"Relevance":1.0,"Distance":68.6,"MatchLevel":"street","MatchQuality":{"Country":1.0,"State":1.0,"County":1.0,"City":1.0,"District":1.0,"Street":[1.0],"PostalCode":1.0},"Location":{"LocationId":"NT_cQDwndoARNlZkWGvD83FDA_l_835406290_R","LocationType":"point","DisplayPosition":{"Latitude":52.25917,"Longitude":7.62817},"MapView":{"TopLeft":{"Latitude":52.25923,"Longitude":7.6281},"BottomRight":{"Latitude":52.25917,"Longitude":7.62817}},"Address":{"Label":"Heinrich-Niemeyer-Straße, 48477 Hörstel, Deutschland","Country":"DEU","State":"Nordrhein-Westfalen","County":"Steinfurt","City":"Hörstel","District":"Riesenbeck","Street":"Heinrich-Niemeyer-Straße","PostalCode":"48477","AdditionalData":[{"value":"Deutschland","key":"CountryName"},{"value":"Nordrhein-Westfalen","key":"StateName"},{"value":"Steinfurt","key":"CountyName"}]},"MapReference":{"ReferenceId":"835406290","Spot":0.0,"SideOfStreet":"right","CountryId":"20147700","StateId":"20157369","CountyId":"20159347","CityId":"20159361","DistrictId":"20159363"}}},{"Relevance":1.0,"Distance":73.7,"MatchLevel":"houseNumber","MatchQuality":{"Country":1.0,"State":1.0,"County":1.0,"City":1.0,"District":1.0,"Street":[1.0],"HouseNumber":1.0,"PostalCode":1.0},"MatchType":"interpolated","Location":{"LocationId":"NT_6M-gqS1PpZApfK4Cv9VrcC_yQD","LocationType":"point","DisplayPosition":{"Latitude":52.25832,"Longitude":7.62877},"MapView":{"TopLeft":{"Latitude":52.2594442,"Longitude":7.6269335},"BottomRight":{"Latitude":52.2571958,"Longitude":7.6306065}},"Address":{"Label":"Gelsbach 24, 48477 Hörstel, Deutschland","Country":"DEU","State":"Nordrhein-Westfalen","County":"Steinfurt","City":"Hörstel","District":"Riesenbeck","Street":"Gelsbach","HouseNumber":"24","PostalCode":"48477","AdditionalData":[{"value":"Deutschland","key":"CountryName"},{"value":"Nordrhein-Westfalen","key":"StateName"},{"value":"Steinfurt","key":"CountyName"}]},"MapReference":{"ReferenceId":"74607728","Spot":0.54,"SideOfStreet":"left","CountryId":"20147700","StateId":"20157369","CountyId":"20159347","CityId":"20159361","DistrictId":"20159363","AddressId":"196195798","RoadLinkId":"35728091"}}},{"Relevance":1.0,"Distance":73.8,"MatchLevel":"houseNumber","MatchQuality":{"Country":1.0,"State":1.0,"County":1.0,"City":1.0,"District":1.0,"Street":[1.0],"HouseNumber":1.0,"PostalCode":1.0},"MatchType":"interpolated","Location":{"LocationId":"NT_CcSX8mGzCv1KTE3vlRaByC_xA","LocationType":"point","DisplayPosition":{"Latitude":52.25861,"Longitude":7.6302},"MapView":{"TopLeft":{"Latitude":52.2597342,"Longitude":7.6283634},"BottomRight":{"Latitude":52.2574858,"Longitude":7.6320366}},"Address":{"Label":"Ostring 1, 48477 Hörstel, Deutschland","Country":"DEU","State":"Nordrhein-Westfalen","County":"Steinfurt","City":"Hörstel","District":"Riesenbeck","Street":"Ostring","HouseNumber":"1","PostalCode":"48477","AdditionalData":[{"value":"Deutschland","key":"CountryName"},{"value":"Nordrhein-Westfalen","key":"StateName"},{"value":"Steinfurt","key":"CountyName"}]},"MapReference":{"ReferenceId":"76198586","Spot":0.38,"SideOfStreet":"left","CountryId":"20147700","StateId":"20157369","CountyId":"20159347","CityId":"20159361","DistrictId":"20159363","AddressId":"194560007","RoadLinkId":"35372802"}}},{"Relevance":1.0,"Distance":75.3,"MatchLevel":"houseNumber","MatchQuality":{"Country":1.0,"State":1.0,"County":1.0,"City":1.0,"District":1.0,"Street":[1.0],"HouseNumber":1.0,"PostalCode":1.0},"MatchType":"interpolated","Location":{"LocationId":"NT_84B49zdWBFCVQyiFgO.iYC_xA","LocationType":"point","DisplayPosition":{"Latitude":52.25892,"Longitude":7.62792},"MapView":{"TopLeft":{"Latitude":52.2600442,"Longitude":7.6260834},"BottomRight":{"Latitude":52.2577958,"Longitude":7.6297566}},"Address":{"Label":"Hospitalstraße 1, 48477 Hörstel, Deutschland","Country":"DEU","State":"Nordrhein-Westfalen","County":"Steinfurt","City":"Hörstel","District":"Riesenbeck","Street":"Hospitalstraße","HouseNumber":"1","PostalCode":"48477","AdditionalData":[{"value":"Deutschland","key":"CountryName"},{"value":"Nordrhein-Westfalen","key":"StateName"},{"value":"Steinfurt","key":"CountyName"}]},"MapReference":{"ReferenceId":"1260084021","Spot":0.28,"SideOfStreet":"right","CountryId":"20147700","StateId":"20157369","CountyId":"20159347","CityId":"20159361","DistrictId":"20159363","AddressId":"194857117","RoadLinkId":"585473320"}}},{"Relevance":1.0,"Distance":93.1,"MatchLevel":"street","MatchQuality":{"Country":1.0,"State":1.0,"County":1.0,"City":1.0,"District":1.0,"Street":[1.0],"PostalCode":1.0},"Location":{"LocationId":"NT_CcSX8mGzCv1KTE3vlRaByC_l_76198585_L","LocationType":"point","DisplayPosition":{"Latitude":52.2582352,"Longitude":7.6298252},"MapView":{"TopLeft":{"Latitude":52.25832,"Longitude":7.62977},"BottomRight":{"Latitude":52.25818,"Longitude":7.62991}},"Address":{"Label":"Ostring, 48477 Hörstel, Deutschland","Country":"DEU","State":"Nordrhein-Westfalen","County":"Steinfurt","City":"Hörstel","District":"Riesenbeck","Street":"Ostring","PostalCode":"48477","AdditionalData":[{"value":"Deutschland","key":"CountryName"},{"value":"Nordrhein-Westfalen","key":"StateName"},{"value":"Steinfurt","key":"CountyName"}]},"MapReference":{"ReferenceId":"76198585","Spot":0.39,"SideOfStreet":"left","CountryId":"20147700","StateId":"20157369","CountyId":"20159347","CityId":"20159361","DistrictId":"20159363"}}}]}]}}