{"Response":{"MetaInfo":{"Timestamp":"2020-03-28T12:04:39.658+0000","NextPageInformation":"2"},"View":[{"_type":"SearchResultsViewType","ViewId":0,"Result":[{"Relevance":1.0,"Distance":0.0,"Direction":0.0,"MatchLevel":"city","MatchQuality":{"Country":1.0,"State":1.0,"County":1.0,"City":1.0,"PostalCode":1.0},"Location":{"LocationId":"NT_ImpE.C52y2Vj.h.u0dczfD","LocationType":"point","DisplayPosition":{"Latitude":52.3419971,"Longitude":5.2073077},"MapView":{"TopLeft":{"Latitude":52.35345,"Longitude":5.18324},"BottomRight":{"Latitude":52.32495,"Longitude":5.26616}},"Address":{"Label":"Almere-Haven, Flevoland, Nederland","Country":"NLD","State":"Flevoland","County":"Almere","City":"Almere-Haven","PostalCode":"1357 NN","AdditionalData":[{"value":"Nederland","key":"CountryName"},{"value":"Flevoland","key":"StateName"},{"value":"Almere","key":"CountyName"}]},"MapReference":{"ReferenceId":"957460747","SideOfStreet":"neither","CountryId":"23055544","StateId":"23055502","CountyId":"23056015","CityId":"20201004"}}},{"Relevance":1.0,"Distance":9.4,"MatchLevel":"houseNumber","MatchQuality":{"Country":1.0,"State":1.0,"County":1.0,"City":1.0,"Street":[1.0],"HouseNumber":1.0,"PostalCode":1.0},"MatchType":"interpolated","Location":{"LocationId":"NT_GE.RujU1-Nzr21OQkNEVIA_xMzM","LocationType":"point","DisplayPosition":{"Latitude":52.34192,"Longitude":5.20725},"MapView":{"TopLeft":{"Latitude":52.3430442,"Longitude":5.20541},"BottomRight":{"Latitude":52.3407958,"Longitude":5.20909}},"Address":{"Label":"Leemwierde 133, 1353 LP Almere-Haven, Nederland","Country":"NLD","State":"Flevoland","County":"Almere","City":"Almere-Haven","Street":"Leemwierde","HouseNumber":"133","PostalCode":"1353 LP","AdditionalData":[{"value":"Nederland","key":"CountryName"},{"value":"Flevoland","key":"StateName"},{"value":"Almere","key":"CountyName"}]},"MapReference":{"ReferenceId":"55107788","Spot":0.51,"SideOfStreet":"right","CountryId":"23055544","StateId":"23055502","CountyId":"23056015","CityId":"20201004","AddressId":"619900163","RoadLinkId":"31272033"}}},{"Relevance":1.0,"Distance":37.8,"MatchLevel":"street","MatchQuality":{"Country":1.0,"State":1.0,"County":1.0,"City":1.0,"PostalCode":1.0},"Location":{"LocationId":"NT_K.NyfOr.8phAiP9rvvJ.GA_l_567122441_L","LocationType":"point","DisplayPosition":{"Latitude":52.34175,"Longitude":5.20769},"MapView":{"TopLeft":{"Latitude":52.34175,"Longitude":5.20749},"BottomRight":{"Latitude":52.34137,"Longitude":5.20769}},"Address":{"Label":"1353 Almere-Haven, Nederland","Country":"NLD","State":"Flevoland","County":"Almere","City":"Almere-Haven","PostalCode":"1353","AdditionalData":[{"value":"Nederland","key":"CountryName"},{"value":"Flevoland","key":"StateName"},{"value":"Almere","key":"CountyName"}]},"MapReference":{"ReferenceId":"567122441","Spot":1.0,"SideOfStreet":"left","CountryId":"23055544","StateId":"23055502","CountyId":"23056015","CityId":"20201004"}}},{"Relevance":1.0,"Distance":37.8,"MatchLevel":"street","MatchQuality":{"Country":1.0,"State":1.0,"County":1.0,"City":1.0,"PostalCode":1.0},"Location":{"LocationId":"NT_K.NyfOr.8phAiP9rvvJ.GA_l_1228080513_L","LocationType":"point","DisplayPosition":{"Latitude":52.34175,"Longitude":5.20769},"MapView":{"TopLeft":{"Latitude":52.34235,"Longitude":5.20769},"BottomRight":{"Latitude":52.34175,"Longitude":5.20859}},"Address":{"Label":"1353 Almere-Haven, Nederland","Country":"NLD","State":"Flevoland","County":"Almere","City":"Almere-Haven","PostalCode":"1353","AdditionalData":[{"value":"Nederland","key":"CountryName"},{"value":"Flevoland","key":"StateName"},{"value":"Almere","key":"CountyName"}]},"MapReference":{"ReferenceId":"1228080513","Spot":0.0,"SideOfStreet":"left","CountryId":"23055544","StateId":"23055502","CountyId":"23056015","CityId":"20201004"}}},{"Relevance":1.0,"Distance":39.7,"MatchLevel":"houseNumber","MatchQuality":{"Country":1.0,"State":1.0,"County":1.0,"City":1.0,"Street":[1.0],"HouseNumber":1.0,"PostalCode":1.0},"MatchType":"interpolated","Location":{"LocationId":"NT_GE.RujU1-Nzr21OQkNEVIA_xMDM","LocationType":"point","DisplayPosition":{"Latitude":52.34178,"Longitude":5.20655},"MapView":{"TopLeft":{"Latitude":52.3429042,"Longitude":5.20471},"BottomRight":{"Latitude":52.3406558,"Longitude":5.20839}},"Address":{"Label":"Leemwierde 130, 1353 LP Almere-Haven, Nederland","Country":"NLD","State":"Flevoland","County":"Almere","City":"Almere-Haven","Street":"Leemwierde","HouseNumber":"130","PostalCode":"1353 LP","AdditionalData":[{"value":"Nederland","key":"CountryName"},{"value":"Flevoland","key":"StateName"},{"value":"Almere","key":"CountyName"}]},"MapReference":{"ReferenceId":"55106985","Spot":0.69,"SideOfStreet":"right","CountryId":"23055544","StateId":"23055502","CountyId":"23056015","CityId":"20201004","AddressId":"619896059","RoadLinkId":"32232409"}}},{"Relevance":1.0,"Distance":45.9,"MatchLevel":"street","MatchQuality":{"Country":1.0,"State":1.0,"County":1.0,"City":1.0,"PostalCode":1.0},"Location":{"LocationId":"NT_G9Fyqdbn07w1w3ZVnl068D_l_1227923591_R","LocationType":"point","DisplayPosition":{"Latitude":52.34241,"Longitude":5.20733},"MapView":{"TopLeft":{"Latitude":52.34275,"Longitude":5.20733},"BottomRight":{"Latitude":52.34241,"Longitude":5.20785}},"Address":{"Label":"1353 LP Almere-Haven, Nederland","Country":"NLD","State":"Flevoland","County":"Almere","City":"Almere-Haven","PostalCode":"1353 LP","AdditionalData":[{"value":"Nederland","key":"CountryName"},{"value":"Flevoland","key":"StateName"},{"value":"Almere","key":"CountyName"}]},"MapReference":{"ReferenceId":"1227923591","Spot":0.0,"SideOfStreet":"right","CountryId":"23055544","StateId":"23055502","CountyId":"23056015","CityId":"20201004"}}},{"Relevance":1.0,"Distance":57.2,"MatchLevel":"houseNumber","MatchQuality":{"Country":1.0,"State":1.0,"County":1.0,"City":1.0,"Street":[1.0],"HouseNumber":1.0,"PostalCode":1.0},"MatchType":"interpolated","Location":{"LocationId":"NT_ZvxslrMqwfFKr6plmdccfA_xQDM","LocationType":"point","DisplayPosition":{"Latitude":52.34169,"Longitude":5.2079},"MapView":{"TopLeft":{"Latitude":52.3428142,"Longitude":5.20606},"BottomRight":{"Latitude":52.3405658,"Longitude":5.20974}},"Address":{"Label":"Keiwierde 140, 1353 NV Almere-Haven, Nederland","Country":"NLD","State":"Flevoland","County":"Almere","City":"Almere-Haven","Street":"Keiwierde","HouseNumber":"140","PostalCode":"1353 NV","AdditionalData":[{"value":"Nederland","key":"CountryName"},{"value":"Flevoland","key":"StateName"},{"value":"Almere","key":"CountyName"}]},"MapReference":{"ReferenceId":"55107331","Spot":1.0,"SideOfStreet":"left","CountryId":"23055544","StateId":"23055502","CountyId":"23056015","CityId":"20201004","AddressId":"619897128","RoadLinkId":"31911298"}}},{"Relevance":1.0,"Distance":63.2,"MatchLevel":"houseNumber","MatchQuality":{"Country":1.0,"State":1.0,"County":1.0,"City":1.0,"Street":[1.0],"HouseNumber":1.0,"PostalCode":1.0},"MatchType":"interpolated","Location":{"LocationId":"NT_3QZmvcQ9GUBpdV1fQjSCLD_xQTM","LocationType":"point","DisplayPosition":{"Latitude":52.34166,"Longitude":5.20835},"MapView":{"TopLeft":{"Latitude":52.3427842,"Longitude":5.20651},"BottomRight":{"Latitude":52.3405358,"Longitude":5.21019}},"Address":{"Label":"Keiwierde 141, 1353 NW Almere-Haven, Nederland","Country":"NLD","State":"Flevoland","County":"Almere","City":"Almere-Haven","Street":"Keiwierde","HouseNumber":"141","PostalCode":"1353 NW","AdditionalData":[{"value":"Nederland","key":"CountryName"},{"value":"Flevoland","key":"StateName"},{"value":"Almere","key":"CountyName"}]},"MapReference":{"ReferenceId":"55107281","Spot":0.18,"SideOfStreet":"left","CountryId":"23055544","StateId":"23055502","CountyId":"23056015","CityId":"20201004","AddressId":"619897125","RoadLinkId":"31190347"}}},{"Relevance":1.0,"Distance":67.5,"MatchLevel":"street","MatchQuality":{"Country":1.0,"State":1.0,"County":1.0,"City":1.0,"Street":[1.0],"PostalCode":1.0},"Location":{"LocationId":"NT_hNMXGVTz43.ztejjglacXA_l_567122439_R","LocationType":"point","DisplayPosition":{"Latitude":52.34139,"Longitude":5.20728},"MapView":{"TopLeft":{"Latitude":52.34139,"Longitude":5.20728},"BottomRight":{"Latitude":52.34137,"Longitude":5.20749}},"Address":{"Label":"Keiwierde, 1353 Almere-Haven, Nederland","Country":"NLD","State":"Flevoland","County":"Almere","City":"Almere-Haven","Street":"Keiwierde","PostalCode":"1353","AdditionalData":[{"value":"Nederland","key":"CountryName"},{"value":"Flevoland","key":"StateName"},{"value":"Almere","key":"CountyName"}]},"MapReference":{"ReferenceId":"567122439","Spot":1.0,"SideOfStreet":"right","CountryId":"23055544","StateId":"23055502","CountyId":"23056015","CityId":"20201004"}}},{"Relevance":1.0,"Distance":69.1,"MatchLevel":"houseNumber","MatchQuality":{"Country":1.0,"State":1.0,"County":1.0,"City":1.0,"Street":[1.0],"HouseNumber":1.0,"PostalCode":1.0},"MatchType":"interpolated","Location":{"LocationId":"NT_MFQdCIHCf8rrFL87vMuuaB_xITOCB","LocationType":"point","DisplayPosition":{"Latitude":52.34142,"Longitude":5.20693},"MapView":{"TopLeft":{"Latitude":52.3425442,"Longitude":5.20509},"BottomRight":{"Latitude":52.3402958,"Longitude":5.20877}},"Address":{"Label":"Leemwierde 129B, 1353 LN Almere-Haven, Nederland","Country":"NLD","State":"Flevoland","County":"Almere","City":"Almere-Haven","Street":"Leemwierde","HouseNumber":"129B","PostalCode":"1353 LN","AdditionalData":[{"value":"Nederland","key":"CountryName"},{"value":"Flevoland","key":"StateName"},{"value":"Almere","key":"CountyName"}]},"MapReference":{"ReferenceId":"68417027","Spot":0.41,"SideOfStreet":"left","CountryId":"23055544","StateId":"23055502","CountyId":"23056015","CityId":"20201004","AddressId":"619984915","RoadLinkId":"31390708"}}}]}]}}