{"Response":{"MetaInfo":{"Timestamp":"2020-03-28T10:40:44.471+0000","NextPageInformation":"2"},"View":[{"_type":"SearchResultsViewType","ViewId":0,"Result":[{"Relevance":1.0,"Distance":0.0,"Direction":0.0,"MatchLevel":"district","MatchQuality":{"Country":1.0,"State":1.0,"County":1.0,"City":1.0,"District":1.0,"PostalCode":1.0},"Location":{"LocationId":"NT_QMp8KjZF5GJfB4VwD7r64A","LocationType":"point","DisplayPosition":{"Latitude":52.3782413,"Longitude":-1.8157285},"MapView":{"TopLeft":{"Latitude":52.42292,"Longitude":-1.86907},"BottomRight":{"Latitude":52.37379,"Longitude":-1.77193}},"Address":{"Label":"Shirley, Solihull, England, United Kingdom","Country":"GBR","State":"England","County":"West Midlands","City":"Solihull","District":"Shirley","PostalCode":"B90 3","AdditionalData":[{"value":"United Kingdom","key":"CountryName"},{"value":"England","key":"StateName"},{"value":"West Midlands","key":"CountyName"}]},"MapReference":{"ReferenceId":"26322909","SideOfStreet":"neither","StateId":"20248595","CountyId":"20358328","CityId":"20358495","DistrictId":"20358512"}}},{"Relevance":1.0,"Distance":35.1,"MatchLevel":"houseNumber","MatchQuality":{"Country":1.0,"State":1.0,"County":1.0,"City":1.0,"District":1.0,"Street":[1.0],"HouseNumber":1.0,"PostalCode":1.0},"MatchType":"interpolated","Location":{"LocationId":"NT_AwvXufbLqwHCBtO41GAbAB_l_26325571_L_xQD","LocationType":"point","DisplayPosition":{"Latitude":52.37822,"Longitude":-1.8149933},"MapView":{"TopLeft":{"Latitude":52.3793442,"Longitude":-1.8168349},"BottomRight":{"Latitude":52.3770959,"Longitude":-1.8131518}},"Address":{"Label":"14 Cheswick Way, Solihull, B90 4JA, United Kingdom","Country":"GBR","State":"England","County":"West Midlands","City":"Solihull","District":"Shirley","Street":"Cheswick Way","HouseNumber":"14","PostalCode":"B90 4JA","AdditionalData":[{"value":"United Kingdom","key":"CountryName"},{"value":"England","key":"StateName"},{"value":"West Midlands","key":"CountyName"}]},"MapReference":{"ReferenceId":"26325571","Spot":0.3,"SideOfStreet":"left","StateId":"20248595","CountyId":"20358328","CityId":"20358495","DistrictId":"20358512"}}},{"Relevance":1.0,"Distance":46.9,"MatchLevel":"houseNumber","MatchQuality":{"Country":1.0,"State":1.0,"County":1.0,"City":1.0,"District":1.0,"Street":[1.0],"HouseNumber":1.0,"PostalCode":1.0},"MatchType":"interpolated","Location":{"LocationId":"NT_ZKvYcns84yAjvGs93k6HiC_l_26325586_L_xAD","LocationType":"point","DisplayPosition":{"Latitude":52.37785,"Longitude":-1.81547},"MapView":{"TopLeft":{"Latitude":52.3789742,"Longitude":-1.8173115},"BottomRight":{"Latitude":52.3767259,"Longitude":-1.8136285}},"Address":{"Label":"10 Heron Close, Solihull, B90 4JB, United Kingdom","Country":"GBR","State":"England","County":"West Midlands","City":"Solihull","District":"Shirley","Street":"Heron Close","HouseNumber":"10","PostalCode":"B90 4JB","AdditionalData":[{"value":"United Kingdom","key":"CountryName"},{"value":"England","key":"StateName"},{"value":"West Midlands","key":"CountyName"}]},"MapReference":{"ReferenceId":"26325586","Spot":0.5,"SideOfStreet":"left","StateId":"20248595","CountyId":"20358328","CityId":"20358495","DistrictId":"20358512"}}},{"Relevance":1.0,"Distance":47.5,"MatchLevel":"houseNumber","MatchQuality":{"Country":1.0,"State":1.0,"County":1.0,"City":1.0,"District":1.0,"Street":[1.0],"HouseNumber":1.0,"PostalCode":1.0},"MatchType":"interpolated","Location":{"LocationId":"NT_n6r0pKE5alhsH7K4oJYX2C_l_1223416884_L_xQD","LocationType":"point","DisplayPosition":{"Latitude":52.3787667,"Longitude":-1.8154166},"MapView":{"TopLeft":{"Latitude":52.3798908,"Longitude":-1.8172582},"BottomRight":{"Latitude":52.3776425,"Longitude":-1.8135751}},"Address":{"Label":"14 Coppice Walk, Solihull, B90 4HY, United Kingdom","Country":"GBR","State":"England","County":"West Midlands","City":"Solihull","District":"Shirley","Street":"Coppice Walk","HouseNumber":"14","PostalCode":"B90 4HY","AdditionalData":[{"value":"United Kingdom","key":"CountryName"},{"value":"England","key":"StateName"},{"value":"West Midlands","key":"CountyName"}]},"MapReference":{"ReferenceId":"1223416884","Spot":0.18,"SideOfStreet":"left","StateId":"20248595","CountyId":"20358328","CityId":"20358495","DistrictId":"20358512"}}},{"Relevance":1.0,"Distance":47.5,"MatchLevel":"postalCode","MatchQuality":{"PostalCode":1.0},"MatchType":"interpolated","Location":{"LocationId":"NT_AwvXufbLqwHCBtO41GAbAB_l_26325571_L_xQD","LocationType":"point","DisplayPosition":{"Latitude":52.37827,"Longitude":-1.81503},"MapView":{"TopLeft":{"Latitude":52.3872632,"Longitude":-1.8297622},"BottomRight":{"Latitude":52.3692768,"Longitude":-1.8002978}},"Address":{"Label":"B90 4JA, Solihull, England, United Kingdom","Country":"GBR","State":"England","County":"West Midlands","City":"Solihull","PostalCode":"B90 4JA","AdditionalData":[{"value":"United Kingdom","key":"CountryName"},{"value":"England","key":"StateName"},{"value":"West Midlands","key":"CountyName"}]},"MapReference":{"ReferenceId":"26325571","Spot":0.3,"SideOfStreet":"neither","StateId":"20248595","CountyId":"20358328","CityId":"20358495"}}},{"Relevance":1.0,"Distance":53.9,"MatchLevel":"houseNumber","MatchQuality":{"Country":1.0,"State":1.0,"County":1.0,"City":1.0,"District":1.0,"Street":[1.0],"HouseNumber":1.0,"PostalCode":1.0},"MatchType":"interpolated","Location":{"LocationId":"NT_ZKvYcns84yAjvGs93k6HiC_l_26325602_L_4A","LocationType":"point","DisplayPosition":{"Latitude":52.3776317,"Longitude":-1.8155583},"MapView":{"TopLeft":{"Latitude":52.3787558,"Longitude":-1.8173998},"BottomRight":{"Latitude":52.3765075,"Longitude":-1.8137168}},"Address":{"Label":"8 Heron Close, Solihull, B90 4JB, United Kingdom","Country":"GBR","State":"England","County":"West Midlands","City":"Solihull","District":"Shirley","Street":"Heron Close","HouseNumber":"8","PostalCode":"B90 4JB","AdditionalData":[{"value":"United Kingdom","key":"CountryName"},{"value":"England","key":"StateName"},{"value":"West Midlands","key":"CountyName"}]},"MapReference":{"ReferenceId":"26325602","Spot":0.64,"SideOfStreet":"left","StateId":"20248595","CountyId":"20358328","CityId":"20358495","DistrictId":"20358512"}}},{"Relevance":1.0,"Distance":55.1,"MatchLevel":"street","MatchQuality":{"Country":1.0,"State":1.0,"County":1.0,"City":1.0,"District":1.0,"Street":[1.0],"PostalCode":1.0},"Location":{"LocationId":"NT_AwvXufbLqwHCBtO41GAbAB_l_26325584_L","LocationType":"point","DisplayPosition":{"Latitude":52.3779798,"Longitude":-1.815039},"MapView":{"TopLeft":{"Latitude":52.37803,"Longitude":-1.81513},"BottomRight":{"Latitude":52.37774,"Longitude":-1.81502}},"Address":{"Label":"Cheswick Way, Solihull, B90 4, United Kingdom","Country":"GBR","State":"England","County":"West Midlands","City":"Solihull","District":"Shirley","Street":"Cheswick Way","PostalCode":"B90 4","AdditionalData":[{"value":"United Kingdom","key":"CountryName"},{"value":"England","key":"StateName"},{"value":"West Midlands","key":"CountyName"}]},"MapReference":{"ReferenceId":"26325584","Spot":0.83,"SideOfStreet":"left","StateId":"20248595","CountyId":"20358328","CityId":"20358495","DistrictId":"20358512"}}},{"Relevance":1.0,"Distance":62.4,"MatchLevel":"street","MatchQuality":{"Country":1.0,"State":1.0,"County":1.0,"City":1.0,"District":1.0,"Street":[1.0],"PostalCode":1.0},"Location":{"LocationId":"NT_ZKvYcns84yAjvGs93k6HiC_l_26325585_L","LocationType":"point","DisplayPosition":{"Latitude":52.37773,"Longitude":-1.81535},"MapView":{"TopLeft":{"Latitude":52.37774,"Longitude":-1.81535},"BottomRight":{"Latitude":52.37773,"Longitude":-1.81513}},"Address":{"Label":"Heron Close, Solihull, B90 4, United Kingdom","Country":"GBR","State":"England","County":"West Midlands","City":"Solihull","District":"Shirley","Street":"Heron Close","PostalCode":"B90 4","AdditionalData":[{"value":"United Kingdom","key":"CountryName"},{"value":"England","key":"StateName"},{"value":"West Midlands","key":"CountyName"}]},"MapReference":{"ReferenceId":"26325585","Spot":0.0,"SideOfStreet":"left","StateId":"20248595","CountyId":"20358328","CityId":"20358495","DistrictId":"20358512"}}},{"Relevance":1.0,"Distance":68.7,"MatchLevel":"houseNumber","MatchQuality":{"Country":1.0,"State":1.0,"County":1.0,"City":1.0,"District":1.0,"Street":[1.0],"HouseNumber":1.0,"PostalCode":1.0},"MatchType":"interpolated","Location":{"LocationId":"NT_KdL3gDhdnbv7qOqsIzWssA_l_26325574_R_yA","LocationType":"point","DisplayPosition":{"Latitude":52.37801,"Longitude":-1.8147899},"MapView":{"TopLeft":{"Latitude":52.3791342,"Longitude":-1.8166314},"BottomRight":{"Latitude":52.3768858,"Longitude":-1.8129484}},"Address":{"Label":"2 Spinney Drive, Solihull, B90 4HB, United Kingdom","Country":"GBR","State":"England","County":"West Midlands","City":"Solihull","District":"Shirley","Street":"Spinney Drive","HouseNumber":"2","PostalCode":"B90 4HB","AdditionalData":[{"value":"United Kingdom","key":"CountryName"},{"value":"England","key":"StateName"},{"value":"West Midlands","key":"CountyName"}]},"MapReference":{"ReferenceId":"26325574","Spot":0.24,"SideOfStreet":"right","StateId":"20248595","CountyId":"20358328","CityId":"20358495","DistrictId":"20358512"}}},{"Relevance":1.0,"Distance":70.4,"MatchLevel":"houseNumber","MatchQuality":{"Country":1.0,"State":1.0,"County":1.0,"City":1.0,"District":1.0,"Street":[1.0],"HouseNumber":1.0,"PostalCode":1.0},"MatchType":"interpolated","Location":{"LocationId":"NT_AwvXufbLqwHCBtO41GAbAB_l_577307117_L_zQD","LocationType":"point","DisplayPosition":{"Latitude":52.37866,"Longitude":-1.81495},"MapView":{"TopLeft":{"Latitude":52.3797842,"Longitude":-1.8167915},"BottomRight":{"Latitude":52.3775359,"Longitude":-1.8131084}},"Address":{"Label":"34 Cheswick Way, Solihull, B90 4EZ, United Kingdom","Country":"GBR","State":"England","County":"West Midlands","City":"Solihull","District":"Shirley","Street":"Cheswick Way","HouseNumber":"34","PostalCode":"B90 4EZ","AdditionalData":[{"value":"United Kingdom","key":"CountryName"},{"value":"England","key":"StateName"},{"value":"West Midlands","key":"CountyName"}]},"MapReference":{"ReferenceId":"577307117","Spot":0.0,"SideOfStreet":"left","StateId":"20248595","CountyId":"20358328","CityId":"20358495","DistrictId":"20358512"}}}]}]}}