{"Response":{"MetaInfo":{"Timestamp":"2020-03-28T10:04:32.151+0000","NextPageInformation":"2"},"View":[{"_type":"SearchResultsViewType","ViewId":0,"Result":[{"Relevance":1.0,"Distance":0.0,"Direction":0.0,"MatchLevel":"district","MatchQuality":{"Country":1.0,"State":1.0,"County":1.0,"City":1.0,"District":1.0,"PostalCode":1.0},"Location":{"LocationId":"NT_szZIUyz-yE1jITCjMT5kJA","LocationType":"point","DisplayPosition":{"Latitude":52.379154,"Longitude":10.5437466},"MapView":{"TopLeft":{"Latitude":52.39229,"Longitude":10.52824},"BottomRight":{"Latitude":52.37718,"Longitude":10.5499}},"Address":{"Label":"Meine, Niedersachsen, Deutschland","Country":"DEU","State":"Niedersachsen","County":"Gifhorn","City":"Meine","District":"Meine","PostalCode":"38527","AdditionalData":[{"value":"Deutschland","key":"CountryName"},{"value":"Niedersachsen","key":"StateName"},{"value":"Gifhorn","key":"CountyName"}]},"MapReference":{"ReferenceId":"1046582191","SideOfStreet":"neither","CountryId":"20147700","StateId":"20151542","CountyId":"20151630","CityId":"20151703","DistrictId":"20151710"}}},{"Relevance":1.0,"Distance":13.9,"MatchLevel":"houseNumber","MatchQuality":{"Country":1.0,"State":1.0,"County":1.0,"City":1.0,"District":1.0,"Street":[1.0],"HouseNumber":1.0,"PostalCode":1.0},"MatchType":"interpolated","Location":{"LocationId":"NT_32vDsNvSGF556B.k82s2oA_3A","LocationType":"point","DisplayPosition":{"Latitude":52.37904,"Longitude":10.54383},"MapView":{"TopLeft":{"Latitude":52.3801642,"Longitude":10.5419884},"BottomRight":{"Latitude":52.3779158,"Longitude":10.5456716}},"Address":{"Label":"Kampweg 7, 38527 Meine, Deutschland","Country":"DEU","State":"Niedersachsen","County":"Gifhorn","City":"Meine","District":"Meine","Street":"Kampweg","HouseNumber":"7","PostalCode":"38527","AdditionalData":[{"value":"Deutschland","key":"CountryName"},{"value":"Niedersachsen","key":"StateName"},{"value":"Gifhorn","key":"CountyName"}]},"MapReference":{"ReferenceId":"67958289","Spot":0.15,"SideOfStreet":"right","CountryId":"20147700","StateId":"20151542","CountyId":"20151630","CityId":"20151703","DistrictId":"20151710","AddressId":"181080271","RoadLinkId":"37312422"}}},{"Relevance":1.0,"Distance":22.3,"MatchLevel":"houseNumber","MatchQuality":{"Country":1.0,"State":1.0,"County":1.0,"City":1.0,"District":1.0,"Street":[1.0],"HouseNumber":1.0,"PostalCode":1.0},"MatchType":"interpolated","Location":{"LocationId":"NT_rkgFFqoAOl03TTax54w18C_yA","LocationType":"point","DisplayPosition":{"Latitude":52.37929,"Longitude":10.54345},"MapView":{"TopLeft":{"Latitude":52.3804142,"Longitude":10.5416084},"BottomRight":{"Latitude":52.3781658,"Longitude":10.5452916}},"Address":{"Label":"Südweg 2, 38527 Meine, Deutschland","Country":"DEU","State":"Niedersachsen","County":"Gifhorn","City":"Meine","District":"Meine","Street":"Südweg","HouseNumber":"2","PostalCode":"38527","AdditionalData":[{"value":"Deutschland","key":"CountryName"},{"value":"Niedersachsen","key":"StateName"},{"value":"Gifhorn","key":"CountyName"}]},"MapReference":{"ReferenceId":"67958294","Spot":0.18,"SideOfStreet":"right","CountryId":"20147700","StateId":"20151542","CountyId":"20151630","CityId":"20151703","DistrictId":"20151710","AddressId":"178353730","RoadLinkId":"36684825"}}},{"Relevance":1.0,"Distance":56.0,"MatchLevel":"houseNumber","MatchQuality":{"Country":1.0,"State":1.0,"County":1.0,"City":1.0,"District":1.0,"Street":[1.0],"HouseNumber":1.0,"PostalCode":1.0},"MatchType":"interpolated","Location":{"LocationId":"NT_dCQD9caB.uc4NulPXiQBOA_xAzQ","LocationType":"point","DisplayPosition":{"Latitude":52.37972,"Longitude":10.54473},"MapView":{"TopLeft":{"Latitude":52.3808442,"Longitude":10.5428884},"BottomRight":{"Latitude":52.3785958,"Longitude":10.5465716}},"Address":{"Label":"Abbesbütteler Straße 10C, 38527 Meine, Deutschland","Country":"DEU","State":"Niedersachsen","County":"Gifhorn","City":"Meine","District":"Meine","Street":"Abbesbütteler Straße","HouseNumber":"10C","PostalCode":"38527","AdditionalData":[{"value":"Deutschland","key":"CountryName"},{"value":"Niedersachsen","key":"StateName"},{"value":"Gifhorn","key":"CountyName"}]},"MapReference":{"ReferenceId":"83592401","Spot":0.15,"SideOfStreet":"left","CountryId":"20147700","StateId":"20151542","CountyId":"20151630","CityId":"20151703","DistrictId":"20151710","AddressId":"177259850","RoadLinkId":"36687193"}}},{"Relevance":1.0,"Distance":57.7,"MatchLevel":"houseNumber","MatchQuality":{"Country":1.0,"State":1.0,"County":1.0,"City":1.0,"District":1.0,"Street":[1.0],"HouseNumber":1.0,"PostalCode":1.0},"MatchType":"interpolated","Location":{"LocationId":"NT_32vDsNvSGF556B.k82s2oA_2A","LocationType":"point","DisplayPosition":{"Latitude":52.37884,"Longitude":10.54307},"MapView":{"TopLeft":{"Latitude":52.3799642,"Longitude":10.5412284},"BottomRight":{"Latitude":52.3777158,"Longitude":10.5449116}},"Address":{"Label":"Kampweg 6, 38527 Meine, Deutschland","Country":"DEU","State":"Niedersachsen","County":"Gifhorn","City":"Meine","District":"Meine","Street":"Kampweg","HouseNumber":"6","PostalCode":"38527","AdditionalData":[{"value":"Deutschland","key":"CountryName"},{"value":"Niedersachsen","key":"StateName"},{"value":"Gifhorn","key":"CountyName"}]},"MapReference":{"ReferenceId":"67958342","Spot":0.56,"SideOfStreet":"left","CountryId":"20147700","StateId":"20151542","CountyId":"20151630","CityId":"20151703","DistrictId":"20151710","AddressId":"180826328","RoadLinkId":"36782254"}}},{"Relevance":1.0,"Distance":72.8,"MatchLevel":"houseNumber","MatchQuality":{"Country":1.0,"State":1.0,"County":1.0,"City":1.0,"District":1.0,"Street":[1.0],"HouseNumber":1.0,"PostalCode":1.0},"MatchType":"interpolated","Location":{"LocationId":"NT_5VBIwjT4ouQRtHqRTordJD_4A","LocationType":"point","DisplayPosition":{"Latitude":52.37836,"Longitude":10.54418},"MapView":{"TopLeft":{"Latitude":52.3794842,"Longitude":10.5423385},"BottomRight":{"Latitude":52.3772358,"Longitude":10.5460215}},"Address":{"Label":"Sonnenweg 8, 38527 Meine, Deutschland","Country":"DEU","State":"Niedersachsen","County":"Gifhorn","City":"Meine","District":"Meine","Street":"Sonnenweg","HouseNumber":"8","PostalCode":"38527","AdditionalData":[{"value":"Deutschland","key":"CountryName"},{"value":"Niedersachsen","key":"StateName"},{"value":"Gifhorn","key":"CountyName"}]},"MapReference":{"ReferenceId":"67958341","Spot":0.59,"SideOfStreet":"left","CountryId":"20147700","StateId":"20151542","CountyId":"20151630","CityId":"20151703","DistrictId":"20151710","AddressId":"177688271","RoadLinkId":"36312661"}}},{"Relevance":1.0,"Distance":83.2,"MatchLevel":"street","MatchQuality":{"Country":1.0,"State":1.0,"County":1.0,"City":1.0,"District":1.0,"Street":[1.0],"PostalCode":1.0},"Location":{"LocationId":"NT_dCQD9caB.uc4NulPXiQBOA_l_67958402_L","LocationType":"point","DisplayPosition":{"Latitude":52.37935,"Longitude":10.54493},"MapView":{"TopLeft":{"Latitude":52.37935,"Longitude":10.54493},"BottomRight":{"Latitude":52.37864,"Longitude":10.54538}},"Address":{"Label":"Abbesbütteler Straße, 38527 Meine, Deutschland","Country":"DEU","State":"Niedersachsen","County":"Gifhorn","City":"Meine","District":"Meine","Street":"Abbesbütteler Straße","PostalCode":"38527","AdditionalData":[{"value":"Deutschland","key":"CountryName"},{"value":"Niedersachsen","key":"StateName"},{"value":"Gifhorn","key":"CountyName"}]},"MapReference":{"ReferenceId":"67958402","Spot":1.0,"SideOfStreet":"left","CountryId":"20147700","StateId":"20151542","CountyId":"20151630","CityId":"20151703","DistrictId":"20151710"}}},{"Relevance":1.0,"Distance":94.7,"MatchLevel":"houseNumber","MatchQuality":{"Country":1.0,"State":1.0,"County":1.0,"City":1.0,"District":1.0,"Street":[1.0],"HouseNumber":1.0,"PostalCode":1.0},"MatchType":"interpolated","Location":{"LocationId":"NT_XQWzTuzdXyS7EFqaiAYmbB_xMD","LocationType":"point","DisplayPosition":{"Latitude":52.3789,"Longitude":10.54229},"MapView":{"TopLeft":{"Latitude":52.3800242,"Longitude":10.5404484},"BottomRight":{"Latitude":52.3777758,"Longitude":10.5441316}},"Address":{"Label":"Marsbruchweg 13, 38527 Meine, Deutschland","Country":"DEU","State":"Niedersachsen","County":"Gifhorn","City":"Meine","District":"Meine","Street":"Marsbruchweg","HouseNumber":"13","PostalCode":"38527","AdditionalData":[{"value":"Deutschland","key":"CountryName"},{"value":"Niedersachsen","key":"StateName"},{"value":"Gifhorn","key":"CountyName"}]},"MapReference":{"ReferenceId":"67958345","Spot":0.11,"SideOfStreet":"right","CountryId":"20147700","StateId":"20151542","CountyId":"20151630","CityId":"20151703","DistrictId":"20151710","AddressId":"181330401","RoadLinkId":"36509104"}}},{"Relevance":1.0,"Distance":117.9,"MatchLevel":"houseNumber","MatchQuality":{"Country":1.0,"State":1.0,"County":1.0,"City":1.0,"District":1.0,"Street":[1.0],"HouseNumber":1.0,"PostalCode":1.0},"MatchType":"interpolated","Location":{"LocationId":"NT_XQWzTuzdXyS7EFqaiAYmbB_xgD","LocationType":"point","DisplayPosition":{"Latitude":52.3785,"Longitude":10.54238},"MapView":{"TopLeft":{"Latitude":52.3796242,"Longitude":10.5405385},"BottomRight":{"Latitude":52.3773758,"Longitude":10.5442215}},"Address":{"Label":"Marsbruchweg 18, 38527 Meine, Deutschland","Country":"DEU","State":"Niedersachsen","County":"Gifhorn","City":"Meine","District":"Meine","Street":"Marsbruchweg","HouseNumber":"18","PostalCode":"38527","AdditionalData":[{"value":"Deutschland","key":"CountryName"},{"value":"Niedersachsen","key":"StateName"},{"value":"Gifhorn","key":"CountyName"}]},"MapReference":{"ReferenceId":"67958344","Spot":0.75,"SideOfStreet":"left","CountryId":"20147700","StateId":"20151542","CountyId":"20151630","CityId":"20151703","DistrictId":"20151710","AddressId":"180942929","RoadLinkId":"36320319"}}},{"Relevance":1.0,"Distance":124.7,"MatchLevel":"street","MatchQuality":{"Country":1.0,"State":1.0,"County":1.0,"City":1.0,"District":1.0,"Street":[1.0],"PostalCode":1.0},"Location":{"LocationId":"NT_dCQD9caB.uc4NulPXiQBOA_l_67958372_L","LocationType":"point","DisplayPosition":{"Latitude":52.37864,"Longitude":10.54538},"MapView":{"TopLeft":{"Latitude":52.37864,"Longitude":10.54538},"BottomRight":{"Latitude":52.37831,"Longitude":10.54559}},"Address":{"Label":"Abbesbütteler Straße, 38527 Meine, Deutschland","Country":"DEU","State":"Niedersachsen","County":"Gifhorn","City":"Meine","District":"Meine","Street":"Abbesbütteler Straße","PostalCode":"38527","AdditionalData":[{"value":"Deutschland","key":"CountryName"},{"value":"Niedersachsen","key":"StateName"},{"value":"Gifhorn","key":"CountyName"}]},"MapReference":{"ReferenceId":"67958372","Spot":1.0,"SideOfStreet":"left","CountryId":"20147700","StateId":"20151542","CountyId":"20151630","CityId":"20151703","DistrictId":"20151710"}}}]}]}}