{"Response":{"MetaInfo":{"Timestamp":"2020-03-28T11:42:34.424+0000","NextPageInformation":"2"},"View":[{"_type":"SearchResultsViewType","ViewId":0,"Result":[{"Relevance":1.0,"Distance":0.0,"Direction":0.0,"MatchLevel":"district","MatchQuality":{"Country":1.0,"State":1.0,"County":1.0,"City":1.0,"District":1.0,"PostalCode":1.0},"Location":{"LocationId":"NT_vVvnVog6iJKg4a09vrndzD","LocationType":"point","DisplayPosition":{"Latitude":52.3180695,"Longitude":9.6597842},"MapView":{"TopLeft":{"Latitude":52.32382,"Longitude":9.64095},"BottomRight":{"Latitude":52.30976,"Longitude":9.66882}},"Address":{"Label":"Ronnenberg, Niedersachsen, Deutschland","Country":"DEU","State":"Niedersachsen","County":"Region Hannover","City":"Ronnenberg","District":"Ronnenberg","PostalCode":"30952","AdditionalData":[{"value":"Deutschland","key":"CountryName"},{"value":"Niedersachsen","key":"StateName"},{"value":"Region Hannover","key":"CountyName"}]},"MapReference":{"ReferenceId":"1223520614","SideOfStreet":"neither","CountryId":"20147700","StateId":"20151542","CountyId":"20153026","CityId":"20153164","DistrictId":"20153171"}}},{"Relevance":1.0,"Distance":2.6,"MatchLevel":"houseNumber","MatchQuality":{"Country":1.0,"State":1.0,"County":1.0,"City":1.0,"District":1.0,"Street":[1.0],"HouseNumber":1.0,"PostalCode":1.0},"MatchType":"interpolated","Location":{"LocationId":"NT_DcGv0w.G1BwIKhNgZGRawD_xMD","LocationType":"point","DisplayPosition":{"Latitude":52.31808,"Longitude":9.65975},"MapView":{"TopLeft":{"Latitude":52.3192042,"Longitude":9.657911},"BottomRight":{"Latitude":52.3169558,"Longitude":9.661589}},"Address":{"Label":"Lange Reihe 13, 30952 Ronnenberg, Deutschland","Country":"DEU","State":"Niedersachsen","County":"Region Hannover","City":"Ronnenberg","District":"Ronnenberg","Street":"Lange Reihe","HouseNumber":"13","PostalCode":"30952","AdditionalData":[{"value":"Deutschland","key":"CountryName"},{"value":"Niedersachsen","key":"StateName"},{"value":"Region Hannover","key":"CountyName"}]},"MapReference":{"ReferenceId":"1247399041","Spot":0.79,"SideOfStreet":"left","CountryId":"20147700","StateId":"20151542","CountyId":"20153026","CityId":"20153164","DistrictId":"20153171","AddressId":"180996418","RoadLinkId":"569182258"}}},{"Relevance":1.0,"Distance":14.5,"MatchLevel":"street","MatchQuality":{"Country":1.0,"State":1.0,"County":1.0,"City":1.0,"District":1.0,"Street":[1.0],"PostalCode":1.0},"Location":{"LocationId":"NT_7oSnhQy1FENd.A1Z.KuZpB_l_1177004194_R","LocationType":"point","DisplayPosition":{"Latitude":52.3182,"Longitude":9.65977},"MapView":{"TopLeft":{"Latitude":52.31842,"Longitude":9.65977},"BottomRight":{"Latitude":52.3182,"Longitude":9.6599}},"Address":{"Label":"Empelder Straße, 30952 Ronnenberg, Deutschland","Country":"DEU","State":"Niedersachsen","County":"Region Hannover","City":"Ronnenberg","District":"Ronnenberg","Street":"Empelder Straße","PostalCode":"30952","AdditionalData":[{"value":"Deutschland","key":"CountryName"},{"value":"Niedersachsen","key":"StateName"},{"value":"Region Hannover","key":"CountyName"}]},"MapReference":{"ReferenceId":"1177004194","Spot":0.0,"SideOfStreet":"right","CountryId":"20147700","StateId":"20151542","CountyId":"20153026","CityId":"20153164","DistrictId":"20153171"}}},{"Relevance":1.0,"Distance":27.4,"MatchLevel":"houseNumber","MatchQuality":{"Country":1.0,"State":1.0,"County":1.0,"City":1.0,"District":1.0,"Street":[1.0],"HouseNumber":1.0,"PostalCode":1.0},"MatchType":"interpolated","Location":{"LocationId":"NT_HO9.nconHdaK3Zo5kt9J5B_0A","LocationType":"point","DisplayPosition":{"Latitude":52.31793,"Longitude":9.66015},"MapView":{"TopLeft":{"Latitude":52.3190542,"Longitude":9.658311},"BottomRight":{"Latitude":52.3168058,"Longitude":9.661989}},"Address":{"Label":"Ihmer Tor 4, 30952 Ronnenberg, Deutschland","Country":"DEU","State":"Niedersachsen","County":"Region Hannover","City":"Ronnenberg","District":"Ronnenberg","Street":"Ihmer Tor","HouseNumber":"4","PostalCode":"30952","AdditionalData":[{"value":"Deutschland","key":"CountryName"},{"value":"Niedersachsen","key":"StateName"},{"value":"Region Hannover","key":"CountyName"}]},"MapReference":{"ReferenceId":"828687920","Spot":0.65,"SideOfStreet":"left","CountryId":"20147700","StateId":"20151542","CountyId":"20153026","CityId":"20153164","DistrictId":"20153171","AddressId":"181016486","RoadLinkId":"213164232"}}},{"Relevance":1.0,"Distance":29.0,"MatchLevel":"houseNumber","MatchQuality":{"Country":1.0,"State":1.0,"County":1.0,"City":1.0,"District":1.0,"Street":[1.0],"HouseNumber":1.0,"PostalCode":1.0},"MatchType":"interpolated","Location":{"LocationId":"NT_DcGv0w.G1BwIKhNgZGRawD_xID","LocationType":"point","DisplayPosition":{"Latitude":52.31833,"Longitude":9.65896},"MapView":{"TopLeft":{"Latitude":52.3194542,"Longitude":9.657121},"BottomRight":{"Latitude":52.3172058,"Longitude":9.660799}},"Address":{"Label":"Lange Reihe 12, 30952 Ronnenberg, Deutschland","Country":"DEU","State":"Niedersachsen","County":"Region Hannover","City":"Ronnenberg","District":"Ronnenberg","Street":"Lange Reihe","HouseNumber":"12","PostalCode":"30952","AdditionalData":[{"value":"Deutschland","key":"CountryName"},{"value":"Niedersachsen","key":"StateName"},{"value":"Region Hannover","key":"CountyName"}]},"MapReference":{"ReferenceId":"51890710","Spot":0.86,"SideOfStreet":"right","CountryId":"20147700","StateId":"20151542","CountyId":"20153026","CityId":"20153164","DistrictId":"20153171","AddressId":"178491886","RoadLinkId":"37301007"}}},{"Relevance":1.0,"Distance":38.5,"MatchLevel":"houseNumber","MatchQuality":{"Country":1.0,"State":1.0,"County":1.0,"City":1.0,"District":1.0,"Street":[1.0],"HouseNumber":1.0,"PostalCode":1.0},"MatchType":"interpolated","Location":{"LocationId":"NT_uE1p9A68uuHlzAmHije1uD_xUD","LocationType":"point","DisplayPosition":{"Latitude":52.31827,"Longitude":9.65937},"MapView":{"TopLeft":{"Latitude":52.3193942,"Longitude":9.657531},"BottomRight":{"Latitude":52.3171458,"Longitude":9.661209}},"Address":{"Label":"Über den Beeken 15, 30952 Ronnenberg, Deutschland","Country":"DEU","State":"Niedersachsen","County":"Region Hannover","City":"Ronnenberg","District":"Ronnenberg","Street":"Über den Beeken","HouseNumber":"15","PostalCode":"30952","AdditionalData":[{"value":"Deutschland","key":"CountryName"},{"value":"Niedersachsen","key":"StateName"},{"value":"Region Hannover","key":"CountyName"}]},"MapReference":{"ReferenceId":"1180233820","Spot":0.83,"SideOfStreet":"right","CountryId":"20147700","StateId":"20151542","CountyId":"20153026","CityId":"20153164","DistrictId":"20153171","AddressId":"180898909","RoadLinkId":"488117080"}}},{"Relevance":1.0,"Distance":39.8,"MatchLevel":"street","MatchQuality":{"Country":1.0,"State":1.0,"County":1.0,"City":1.0,"District":1.0,"Street":[1.0],"PostalCode":1.0},"Location":{"LocationId":"NT_7oSnhQy1FENd.A1Z.KuZpB_l_1177004195_R","LocationType":"point","DisplayPosition":{"Latitude":52.31842,"Longitude":9.6599},"MapView":{"TopLeft":{"Latitude":52.31859,"Longitude":9.6599},"BottomRight":{"Latitude":52.31842,"Longitude":9.66001}},"Address":{"Label":"Empelder Straße, 30952 Ronnenberg, Deutschland","Country":"DEU","State":"Niedersachsen","County":"Region Hannover","City":"Ronnenberg","District":"Ronnenberg","Street":"Empelder Straße","PostalCode":"30952","AdditionalData":[{"value":"Deutschland","key":"CountryName"},{"value":"Niedersachsen","key":"StateName"},{"value":"Region Hannover","key":"CountyName"}]},"MapReference":{"ReferenceId":"1177004195","Spot":0.0,"SideOfStreet":"right","CountryId":"20147700","StateId":"20151542","CountyId":"20153026","CityId":"20153164","DistrictId":"20153171"}}},{"Relevance":1.0,"Distance":54.8,"MatchLevel":"houseNumber","MatchQuality":{"Country":1.0,"State":1.0,"County":1.0,"City":1.0,"District":1.0,"Street":[1.0],"HouseNumber":1.0,"PostalCode":1.0},"MatchType":"interpolated","Location":{"LocationId":"NT_uE1p9A68uuHlzAmHije1uD_xQjQ","LocationType":"point","DisplayPosition":{"Latitude":52.31834,"Longitude":9.65911},"MapView":{"TopLeft":{"Latitude":52.3194642,"Longitude":9.657271},"BottomRight":{"Latitude":52.3172158,"Longitude":9.660949}},"Address":{"Label":"Über den Beeken 14B, 30952 Ronnenberg, Deutschland","Country":"DEU","State":"Niedersachsen","County":"Region Hannover","City":"Ronnenberg","District":"Ronnenberg","Street":"Über den Beeken","HouseNumber":"14B","PostalCode":"30952","AdditionalData":[{"value":"Deutschland","key":"CountryName"},{"value":"Niedersachsen","key":"StateName"},{"value":"Region Hannover","key":"CountyName"}]},"MapReference":{"ReferenceId":"1180233821","Spot":0.67,"SideOfStreet":"right","CountryId":"20147700","StateId":"20151542","CountyId":"20153026","CityId":"20153164","DistrictId":"20153171","AddressId":"179375048","RoadLinkId":"488117081"}}},{"Relevance":1.0,"Distance":76.5,"MatchLevel":"houseNumber","MatchQuality":{"Country":1.0,"State":1.0,"County":1.0,"City":1.0,"District":1.0,"Street":[1.0],"HouseNumber":1.0,"PostalCode":1.0},"MatchType":"interpolated","Location":{"LocationId":"NT_7oSnhQy1FENd.A1Z.KuZpB_yEE","LocationType":"point","DisplayPosition":{"Latitude":52.31873,"Longitude":9.6601},"MapView":{"TopLeft":{"Latitude":52.3198542,"Longitude":9.658261},"BottomRight":{"Latitude":52.3176058,"Longitude":9.661939}},"Address":{"Label":"Empelder Straße 2A, 30952 Ronnenberg, Deutschland","Country":"DEU","State":"Niedersachsen","County":"Region Hannover","City":"Ronnenberg","District":"Ronnenberg","Street":"Empelder Straße","HouseNumber":"2A","PostalCode":"30952","AdditionalData":[{"value":"Deutschland","key":"CountryName"},{"value":"Niedersachsen","key":"StateName"},{"value":"Region Hannover","key":"CountyName"}]},"MapReference":{"ReferenceId":"1177004196","Spot":0.19,"SideOfStreet":"right","CountryId":"20147700","StateId":"20151542","CountyId":"20153026","CityId":"20153164","DistrictId":"20153171","AddressId":"177118132","RoadLinkId":"484756713"}}},{"Relevance":1.0,"Distance":82.2,"MatchLevel":"houseNumber","MatchQuality":{"Country":1.0,"State":1.0,"County":1.0,"City":1.0,"District":1.0,"Street":[1.0],"HouseNumber":1.0,"PostalCode":1.0},"MatchType":"interpolated","Location":{"LocationId":"NT_uE1p9A68uuHlzAmHije1uD_xQTQ","LocationType":"point","DisplayPosition":{"Latitude":52.31838,"Longitude":9.659},"MapView":{"TopLeft":{"Latitude":52.3195042,"Longitude":9.657161},"BottomRight":{"Latitude":52.3172558,"Longitude":9.660839}},"Address":{"Label":"Über den Beeken 14A, 30952 Ronnenberg, Deutschland","Country":"DEU","State":"Niedersachsen","County":"Region Hannover","City":"Ronnenberg","District":"Ronnenberg","Street":"Über den Beeken","HouseNumber":"14A","PostalCode":"30952","AdditionalData":[{"value":"Deutschland","key":"CountryName"},{"value":"Niedersachsen","key":"StateName"},{"value":"Region Hannover","key":"CountyName"}]},"MapReference":{"ReferenceId":"51890709","Spot":0.08,"SideOfStreet":"right","CountryId":"20147700","StateId":"20151542","CountyId":"20153026","CityId":"20153164","DistrictId":"20153171","AddressId":"177646864","RoadLinkId":"36597401"}}}]}]}}