{"Response":{"MetaInfo":{"Timestamp":"2020-03-28T10:45:15.021+0000","NextPageInformation":"2"},"View":[{"_type":"SearchResultsViewType","ViewId":0,"Result":[{"Relevance":1.0,"Distance":0.0,"Direction":0.0,"MatchLevel":"city","MatchQuality":{"Country":1.0,"State":1.0,"County":1.0,"City":1.0,"PostalCode":1.0},"Location":{"LocationId":"NT_85.BfknxJNxQNjQ-8DtGOB","LocationType":"point","DisplayPosition":{"Latitude":52.3306905,"Longitude":6.2863426},"MapView":{"TopLeft":{"Latitude":52.33778,"Longitude":6.27482},"BottomRight":{"Latitude":52.32682,"Longitude":6.29016}},"Address":{"Label":"Heeten, Overijssel, Nederland","Country":"NLD","State":"Overijssel","County":"Raalte","City":"Heeten","PostalCode":"8111 PH","AdditionalData":[{"value":"Nederland","key":"CountryName"},{"value":"Overijssel","key":"StateName"},{"value":"Raalte","key":"CountyName"}]},"MapReference":{"ReferenceId":"757883945","SideOfStreet":"neither","CountryId":"23055544","StateId":"23055879","CountyId":"23055575","CityId":"20200899"}}},{"Relevance":1.0,"Distance":12.9,"MatchLevel":"houseNumber","MatchQuality":{"Country":1.0,"State":1.0,"County":1.0,"City":1.0,"Street":[1.0],"HouseNumber":1.0,"PostalCode":1.0},"MatchType":"interpolated","Location":{"LocationId":"NT_Fr6bzWJUg9OArDxDozxqEA_4QD","LocationType":"point","DisplayPosition":{"Latitude":52.33087,"Longitude":6.28596},"MapView":{"TopLeft":{"Latitude":52.3319942,"Longitude":6.2841204},"BottomRight":{"Latitude":52.3297458,"Longitude":6.2877996}},"Address":{"Label":"Uilenbroekstraat 84, 8111 BE Heeten, Nederland","Country":"NLD","State":"Overijssel","County":"Raalte","City":"Heeten","Street":"Uilenbroekstraat","HouseNumber":"84","PostalCode":"8111 BE","AdditionalData":[{"value":"Nederland","key":"CountryName"},{"value":"Overijssel","key":"StateName"},{"value":"Raalte","key":"CountyName"}]},"MapReference":{"ReferenceId":"585175882","Spot":0.75,"SideOfStreet":"right","CountryId":"23055544","StateId":"23055879","CountyId":"23055575","CityId":"20200899","AddressId":"620829105","RoadLinkId":"31229201"}}},{"Relevance":1.0,"Distance":51.6,"MatchLevel":"houseNumber","MatchQuality":{"Country":1.0,"State":1.0,"County":1.0,"City":1.0,"Street":[1.0],"HouseNumber":1.0,"PostalCode":1.0},"MatchType":"interpolated","Location":{"LocationId":"NT_Fr6bzWJUg9OArDxDozxqEA_4gD","LocationType":"point","DisplayPosition":{"Latitude":52.33123,"Longitude":6.28627},"MapView":{"TopLeft":{"Latitude":52.3323542,"Longitude":6.2844304},"BottomRight":{"Latitude":52.3301058,"Longitude":6.2881096}},"Address":{"Label":"Uilenbroekstraat 88, 8111 BE Heeten, Nederland","Country":"NLD","State":"Overijssel","County":"Raalte","City":"Heeten","Street":"Uilenbroekstraat","HouseNumber":"88","PostalCode":"8111 BE","AdditionalData":[{"value":"Nederland","key":"CountryName"},{"value":"Overijssel","key":"StateName"},{"value":"Raalte","key":"CountyName"}]},"MapReference":{"ReferenceId":"956739577","Spot":0.24,"SideOfStreet":"right","CountryId":"23055544","StateId":"23055879","CountyId":"23055575","CityId":"20200899","AddressId":"620728311","RoadLinkId":"299670303"}}},{"Relevance":1.0,"Distance":69.3,"MatchLevel":"landmark","MatchQuality":{"Country":1.0,"State":1.0,"County":1.0,"City":1.0,"PostalCode":1.0,"Name":1.0},"Location":{"LocationId":"NT_c-VfkPufa330v3jhqshlAD","LocationType":"industrialComplex","Name":"De Telgen","DisplayPosition":{"Latitude":52.32956,"Longitude":6.28825},"MapView":{"TopLeft":{"Latitude":52.33131,"Longitude":6.28259},"BottomRight":{"Latitude":52.3278,"Longitude":6.29016}},"Address":{"Label":"8111 PH Heeten, Nederland","Country":"NLD","State":"Overijssel","County":"Raalte","City":"Heeten","PostalCode":"8111 PH","AdditionalData":[{"value":"Nederland","key":"CountryName"},{"value":"Overijssel","key":"StateName"},{"value":"Raalte","key":"CountyName"}]},"MapReference":{"CountryId":"23055544","StateId":"23055879","CountyId":"23055575","CityId":"20200899","PlaceId":"559421043"}}},{"Relevance":1.0,"Distance":75.6,"MatchLevel":"houseNumber","MatchQuality":{"Country":1.0,"State":1.0,"County":1.0,"City":1.0,"Street":[1.0],"HouseNumber":1.0,"PostalCode":1.0},"MatchType":"interpolated","Location":{"LocationId":"NT_Fr6bzWJUg9OArDxDozxqEA_1AD","LocationType":"point","DisplayPosition":{"Latitude":52.33113,"Longitude":6.28522},"MapView":{"TopLeft":{"Latitude":52.3322542,"Longitude":6.2833804},"BottomRight":{"Latitude":52.3300058,"Longitude":6.2870596}},"Address":{"Label":"Uilenbroekstraat 50, 8111 BE Heeten, Nederland","Country":"NLD","State":"Overijssel","County":"Raalte","City":"Heeten","Street":"Uilenbroekstraat","HouseNumber":"50","PostalCode":"8111 BE","AdditionalData":[{"value":"Nederland","key":"CountryName"},{"value":"Overijssel","key":"StateName"},{"value":"Raalte","key":"CountyName"}]},"MapReference":{"ReferenceId":"999139293","Spot":0.83,"SideOfStreet":"right","CountryId":"23055544","StateId":"23055879","CountyId":"23055575","CityId":"20200899","AddressId":"620658478","RoadLinkId":"325438004"}}},{"Relevance":1.0,"Distance":82.8,"MatchLevel":"houseNumber","MatchQuality":{"Country":1.0,"State":1.0,"County":1.0,"City":1.0,"Street":[1.0],"HouseNumber":1.0,"PostalCode":1.0},"MatchType":"interpolated","Location":{"LocationId":"NT_Fr6bzWJUg9OArDxDozxqEA_1ID","LocationType":"point","DisplayPosition":{"Latitude":52.33124,"Longitude":6.28552},"MapView":{"TopLeft":{"Latitude":52.3323642,"Longitude":6.2836804},"BottomRight":{"Latitude":52.3301158,"Longitude":6.2873596}},"Address":{"Label":"Uilenbroekstraat 52, 8111 BE Heeten, Nederland","Country":"NLD","State":"Overijssel","County":"Raalte","City":"Heeten","Street":"Uilenbroekstraat","HouseNumber":"52","PostalCode":"8111 BE","AdditionalData":[{"value":"Nederland","key":"CountryName"},{"value":"Overijssel","key":"StateName"},{"value":"Raalte","key":"CountyName"}]},"MapReference":{"ReferenceId":"61311489","Spot":0.76,"SideOfStreet":"left","CountryId":"23055544","StateId":"23055879","CountyId":"23055575","CityId":"20200899","AddressId":"620733402","RoadLinkId":"31925823"}}},{"Relevance":1.0,"Distance":87.8,"MatchLevel":"houseNumber","MatchQuality":{"Country":1.0,"State":1.0,"County":1.0,"City":1.0,"Street":[1.0],"HouseNumber":1.0,"PostalCode":1.0},"MatchType":"interpolated","Location":{"LocationId":"NT_Fr6bzWJUg9OArDxDozxqEA_2YD","LocationType":"point","DisplayPosition":{"Latitude":52.33006,"Longitude":6.28535},"MapView":{"TopLeft":{"Latitude":52.3311842,"Longitude":6.2835105},"BottomRight":{"Latitude":52.3289358,"Longitude":6.2871895}},"Address":{"Label":"Uilenbroekstraat 66, 8111 BE Heeten, Nederland","Country":"NLD","State":"Overijssel","County":"Raalte","City":"Heeten","Street":"Uilenbroekstraat","HouseNumber":"66","PostalCode":"8111 BE","AdditionalData":[{"value":"Nederland","key":"CountryName"},{"value":"Overijssel","key":"StateName"},{"value":"Raalte","key":"CountyName"}]},"MapReference":{"ReferenceId":"585175881","Spot":0.58,"SideOfStreet":"left","CountryId":"23055544","StateId":"23055879","CountyId":"23055575","CityId":"20200899","AddressId":"620893348","RoadLinkId":"31432055"}}},{"Relevance":1.0,"Distance":89.0,"MatchLevel":"houseNumber","MatchQuality":{"Country":1.0,"State":1.0,"County":1.0,"City":1.0,"Street":[1.0],"HouseNumber":1.0,"PostalCode":1.0},"MatchType":"interpolated","Location":{"LocationId":"NT_snqEpas7XMj4drt2JjSq7B_zgD","LocationType":"point","DisplayPosition":{"Latitude":52.3316,"Longitude":6.28709},"MapView":{"TopLeft":{"Latitude":52.3327242,"Longitude":6.2852504},"BottomRight":{"Latitude":52.3304758,"Longitude":6.2889296}},"Address":{"Label":"Holterweg 38, 8111 BB Heeten, Nederland","Country":"NLD","State":"Overijssel","County":"Raalte","City":"Heeten","Street":"Holterweg","HouseNumber":"38","PostalCode":"8111 BB","AdditionalData":[{"value":"Nederland","key":"CountryName"},{"value":"Overijssel","key":"StateName"},{"value":"Raalte","key":"CountyName"}]},"MapReference":{"ReferenceId":"956739575","Spot":0.84,"SideOfStreet":"left","CountryId":"23055544","StateId":"23055879","CountyId":"23055575","CityId":"20200899","AddressId":"620647377","RoadLinkId":"299670301"}}},{"Relevance":1.0,"Distance":92.2,"MatchLevel":"houseNumber","MatchQuality":{"Country":1.0,"State":1.0,"County":1.0,"City":1.0,"Street":[1.0],"HouseNumber":1.0,"PostalCode":1.0},"MatchType":"interpolated","Location":{"LocationId":"NT_4SRhmhn2Woe4yNRQFN3D.A_zgD","LocationType":"point","DisplayPosition":{"Latitude":52.33119,"Longitude":6.28526},"MapView":{"TopLeft":{"Latitude":52.3323142,"Longitude":6.2834204},"BottomRight":{"Latitude":52.3300658,"Longitude":6.2870996}},"Address":{"Label":"Uilenbroekstraat 38, 8111 BD Heeten, Nederland","Country":"NLD","State":"Overijssel","County":"Raalte","City":"Heeten","Street":"Uilenbroekstraat","HouseNumber":"38","PostalCode":"8111 BD","AdditionalData":[{"value":"Nederland","key":"CountryName"},{"value":"Overijssel","key":"StateName"},{"value":"Raalte","key":"CountyName"}]},"MapReference":{"ReferenceId":"999139294","Spot":0.18,"SideOfStreet":"left","CountryId":"23055544","StateId":"23055879","CountyId":"23055575","CityId":"20200899","AddressId":"620519450","RoadLinkId":"325438005"}}},{"Relevance":1.0,"Distance":96.8,"MatchLevel":"houseNumber","MatchQuality":{"Country":1.0,"State":1.0,"County":1.0,"City":1.0,"Street":[1.0],"HouseNumber":1.0,"PostalCode":1.0},"MatchType":"interpolated","Location":{"LocationId":"NT_Fr6bzWJUg9OArDxDozxqEA_3QD","LocationType":"point","DisplayPosition":{"Latitude":52.32973,"Longitude":6.28617},"MapView":{"TopLeft":{"Latitude":52.3308542,"Longitude":6.2843305},"BottomRight":{"Latitude":52.3286058,"Longitude":6.2880095}},"Address":{"Label":"Uilenbroekstraat 74, 8111 BE Heeten, Nederland","Country":"NLD","State":"Overijssel","County":"Raalte","City":"Heeten","Street":"Uilenbroekstraat","HouseNumber":"74","PostalCode":"8111 BE","AdditionalData":[{"value":"Nederland","key":"CountryName"},{"value":"Overijssel","key":"StateName"},{"value":"Raalte","key":"CountyName"}]},"MapReference":{"ReferenceId":"585175885","Spot":0.0,"SideOfStreet":"right","CountryId":"23055544","StateId":"23055879","CountyId":"23055575","CityId":"20200899","AddressId":"620807964","RoadLinkId":"32270609"}}}]}]}}