{"Response":{"MetaInfo":{"Timestamp":"2020-03-28T09:52:19.134+0000","NextPageInformation":"2"},"View":[{"_type":"SearchResultsViewType","ViewId":0,"Result":[{"Relevance":1.0,"Distance":0.0,"Direction":0.0,"MatchLevel":"district","MatchQuality":{"Country":1.0,"State":1.0,"County":1.0,"City":1.0,"District":1.0,"PostalCode":1.0},"Location":{"LocationId":"NT_6S.s5XHbKIRM68oNUftlPA","LocationType":"point","DisplayPosition":{"Latitude":52.3147863,"Longitude":-0.7011983},"MapView":{"TopLeft":{"Latitude":52.32761,"Longitude":-0.74229},"BottomRight":{"Latitude":52.28175,"Longitude":-0.67238}},"Address":{"Label":"Wellingborough, England, United Kingdom","Country":"GBR","State":"England","County":"Northamptonshire","City":"Wellingborough","District":"Wellingborough","PostalCode":"NN8 4","AdditionalData":[{"value":"United Kingdom","key":"CountryName"},{"value":"England","key":"StateName"},{"value":"Northamptonshire","key":"CountyName"}]},"MapReference":{"ReferenceId":"26164983","SideOfStreet":"neither","StateId":"20248595","CountyId":"20337655","CityId":"20337801","DistrictId":"20350953"}}},{"Relevance":1.0,"Distance":13.9,"MatchLevel":"street","MatchQuality":{"Country":1.0,"State":1.0,"County":1.0,"City":1.0,"District":1.0,"Street":[1.0],"PostalCode":1.0},"Location":{"LocationId":"NT_xCIEsVc8PxBbXtGppJ0NFB_l_78793848_L","LocationType":"point","DisplayPosition":{"Latitude":52.3147914,"Longitude":-0.7009935},"MapView":{"TopLeft":{"Latitude":52.31505,"Longitude":-0.701},"BottomRight":{"Latitude":52.31447,"Longitude":-0.70099}},"Address":{"Label":"Gainsborough Drive, Wellingborough, NN8 4, United Kingdom","Country":"GBR","State":"England","County":"Northamptonshire","City":"Wellingborough","District":"Wellingborough","Street":"Gainsborough Drive","PostalCode":"NN8 4","AdditionalData":[{"value":"United Kingdom","key":"CountryName"},{"value":"England","key":"StateName"},{"value":"Northamptonshire","key":"CountyName"}]},"MapReference":{"ReferenceId":"78793848","Spot":0.55,"SideOfStreet":"left","StateId":"20248595","CountyId":"20337655","CityId":"20337801","DistrictId":"20350953"}}},{"Relevance":1.0,"Distance":30.6,"MatchLevel":"street","MatchQuality":{"Country":1.0,"State":1.0,"County":1.0,"City":1.0,"District":1.0,"Street":[1.0],"PostalCode":1.0},"Location":{"LocationId":"NT_pMPNw05TGz4.q8S33d3PwA_l_26163864_L","LocationType":"point","DisplayPosition":{"Latitude":52.3150613,"Longitude":-0.7011811},"MapView":{"TopLeft":{"Latitude":52.31516,"Longitude":-0.70165},"BottomRight":{"Latitude":52.31505,"Longitude":-0.701}},"Address":{"Label":"Turner Road, Wellingborough, NN8 4, United Kingdom","Country":"GBR","State":"England","County":"Northamptonshire","City":"Wellingborough","District":"Wellingborough","Street":"Turner Road","PostalCode":"NN8 4","AdditionalData":[{"value":"United Kingdom","key":"CountryName"},{"value":"England","key":"StateName"},{"value":"Northamptonshire","key":"CountyName"}]},"MapReference":{"ReferenceId":"26163864","Spot":0.27,"SideOfStreet":"left","StateId":"20248595","CountyId":"20337655","CityId":"20337801","DistrictId":"20350953"}}},{"Relevance":1.0,"Distance":32.3,"MatchLevel":"street","MatchQuality":{"Country":1.0,"State":1.0,"County":1.0,"City":1.0,"District":1.0,"Street":[1.0],"PostalCode":1.0},"Location":{"LocationId":"NT_xCIEsVc8PxBbXtGppJ0NFB_l_78793839_L","LocationType":"point","DisplayPosition":{"Latitude":52.31505,"Longitude":-0.701},"MapView":{"TopLeft":{"Latitude":52.31585,"Longitude":-0.701},"BottomRight":{"Latitude":52.31505,"Longitude":-0.7003}},"Address":{"Label":"Gainsborough Drive, Wellingborough, NN8 4, United Kingdom","Country":"GBR","State":"England","County":"Northamptonshire","City":"Wellingborough","District":"Wellingborough","Street":"Gainsborough Drive","PostalCode":"NN8 4","AdditionalData":[{"value":"United Kingdom","key":"CountryName"},{"value":"England","key":"StateName"},{"value":"Northamptonshire","key":"CountyName"}]},"MapReference":{"ReferenceId":"78793839","Spot":0.0,"SideOfStreet":"left","StateId":"20248595","CountyId":"20337655","CityId":"20337801","DistrictId":"20350953"}}},{"Relevance":1.0,"Distance":37.7,"MatchLevel":"street","MatchQuality":{"Country":1.0,"State":1.0,"County":1.0,"City":1.0,"District":1.0,"Street":[1.0],"PostalCode":1.0},"Location":{"LocationId":"NT_1qNTNh341cq4FzjbP6RFXD_l_78793849_L","LocationType":"point","DisplayPosition":{"Latitude":52.31447,"Longitude":-0.701},"MapView":{"TopLeft":{"Latitude":52.31504,"Longitude":-0.701},"BottomRight":{"Latitude":52.31438,"Longitude":-0.69997}},"Address":{"Label":"Reynolds Close, Wellingborough, NN8 4, United Kingdom","Country":"GBR","State":"England","County":"Northamptonshire","City":"Wellingborough","District":"Wellingborough","Street":"Reynolds Close","PostalCode":"NN8 4","AdditionalData":[{"value":"United Kingdom","key":"CountryName"},{"value":"England","key":"StateName"},{"value":"Northamptonshire","key":"CountyName"}]},"MapReference":{"ReferenceId":"78793849","Spot":0.0,"SideOfStreet":"left","StateId":"20248595","CountyId":"20337655","CityId":"20337801","DistrictId":"20350953"}}},{"Relevance":1.0,"Distance":37.7,"MatchLevel":"street","MatchQuality":{"Country":1.0,"State":1.0,"County":1.0,"City":1.0,"District":1.0,"Street":[1.0],"PostalCode":1.0},"Location":{"LocationId":"NT_xCIEsVc8PxBbXtGppJ0NFB_l_78793847_L","LocationType":"point","DisplayPosition":{"Latitude":52.31447,"Longitude":-0.701},"MapView":{"TopLeft":{"Latitude":52.31447,"Longitude":-0.70189},"BottomRight":{"Latitude":52.31382,"Longitude":-0.701}},"Address":{"Label":"Gainsborough Drive, Wellingborough, NN8 4, United Kingdom","Country":"GBR","State":"England","County":"Northamptonshire","City":"Wellingborough","District":"Wellingborough","Street":"Gainsborough Drive","PostalCode":"NN8 4","AdditionalData":[{"value":"United Kingdom","key":"CountryName"},{"value":"England","key":"StateName"},{"value":"Northamptonshire","key":"CountyName"}]},"MapReference":{"ReferenceId":"78793847","Spot":1.0,"SideOfStreet":"left","StateId":"20248595","CountyId":"20337655","CityId":"20337801","DistrictId":"20350953"}}},{"Relevance":1.0,"Distance":44.2,"MatchLevel":"postalCode","MatchQuality":{"PostalCode":1.0},"Location":{"LocationId":"NT_.hYrkV4DE5CHkfQ0i.XlsC_l_26163892_R","LocationType":"point","DisplayPosition":{"Latitude":52.31488,"Longitude":-0.70183},"MapView":{"TopLeft":{"Latitude":52.3238732,"Longitude":-0.7165411},"BottomRight":{"Latitude":52.3058868,"Longitude":-0.6871189}},"Address":{"Label":"NN8 4UT, Wellingborough, England, United Kingdom","Country":"GBR","State":"England","County":"Northamptonshire","City":"Wellingborough","PostalCode":"NN8 4UT","AdditionalData":[{"value":"United Kingdom","key":"CountryName"},{"value":"England","key":"StateName"},{"value":"Northamptonshire","key":"CountyName"}]},"MapReference":{"ReferenceId":"26163892","Spot":1.0,"SideOfStreet":"neither","StateId":"20248595","CountyId":"20337655","CityId":"20337801"}}},{"Relevance":1.0,"Distance":51.7,"MatchLevel":"street","MatchQuality":{"Country":1.0,"State":1.0,"County":1.0,"City":1.0,"District":1.0,"Street":[1.0],"PostalCode":1.0},"Location":{"LocationId":"NT_.hYrkV4DE5CHkfQ0i.XlsC_l_26163892_R","LocationType":"point","DisplayPosition":{"Latitude":52.31516,"Longitude":-0.70165},"MapView":{"TopLeft":{"Latitude":52.31516,"Longitude":-0.70284},"BottomRight":{"Latitude":52.31461,"Longitude":-0.70165}},"Address":{"Label":"Stubbs Close, Wellingborough, NN8 4, United Kingdom","Country":"GBR","State":"England","County":"Northamptonshire","City":"Wellingborough","District":"Wellingborough","Street":"Stubbs Close","PostalCode":"NN8 4","AdditionalData":[{"value":"United Kingdom","key":"CountryName"},{"value":"England","key":"StateName"},{"value":"Northamptonshire","key":"CountyName"}]},"MapReference":{"ReferenceId":"26163892","Spot":1.0,"SideOfStreet":"right","StateId":"20248595","CountyId":"20337655","CityId":"20337801","DistrictId":"20350953"}}},{"Relevance":1.0,"Distance":51.7,"MatchLevel":"street","MatchQuality":{"Country":1.0,"State":1.0,"County":1.0,"City":1.0,"District":1.0,"Street":[1.0],"PostalCode":1.0},"Location":{"LocationId":"NT_pMPNw05TGz4.q8S33d3PwA_l_26163859_L","LocationType":"point","DisplayPosition":{"Latitude":52.31516,"Longitude":-0.70165},"MapView":{"TopLeft":{"Latitude":52.31631,"Longitude":-0.70256},"BottomRight":{"Latitude":52.31516,"Longitude":-0.70165}},"Address":{"Label":"Turner Road, Wellingborough, NN8 4, United Kingdom","Country":"GBR","State":"England","County":"Northamptonshire","City":"Wellingborough","District":"Wellingborough","Street":"Turner Road","PostalCode":"NN8 4","AdditionalData":[{"value":"United Kingdom","key":"CountryName"},{"value":"England","key":"StateName"},{"value":"Northamptonshire","key":"CountyName"}]},"MapReference":{"ReferenceId":"26163859","Spot":0.0,"SideOfStreet":"left","StateId":"20248595","CountyId":"20337655","CityId":"20337801","DistrictId":"20350953"}}},{"Relevance":1.0,"Distance":75.9,"MatchLevel":"postalCode","MatchQuality":{"PostalCode":1.0},"Location":{"LocationId":"NT_1qNTNh341cq4FzjbP6RFXD_l_78793849_L","LocationType":"point","DisplayPosition":{"Latitude":52.3147,"Longitude":-0.70009},"MapView":{"TopLeft":{"Latitude":52.3236932,"Longitude":-0.714801},"BottomRight":{"Latitude":52.3057068,"Longitude":-0.685379}},"Address":{"Label":"NN8 4UR, Wellingborough, England, United Kingdom","Country":"GBR","State":"England","County":"Northamptonshire","City":"Wellingborough","PostalCode":"NN8 4UR","AdditionalData":[{"value":"United Kingdom","key":"CountryName"},{"value":"England","key":"StateName"},{"value":"Northamptonshire","key":"CountyName"}]},"MapReference":{"ReferenceId":"78793849","Spot":0.0,"SideOfStreet":"neither","StateId":"20248595","CountyId":"20337655","CityId":"20337801"}}}]}]}}