{"Response":{"MetaInfo":{"Timestamp":"2020-03-28T10:22:15.746+0000","NextPageInformation":"2"},"View":[{"_type":"SearchResultsViewType","ViewId":0,"Result":[{"Relevance":1.0,"Distance":0.0,"Direction":0.0,"MatchLevel":"district","MatchQuality":{"Country":1.0,"State":1.0,"County":1.0,"City":1.0,"District":1.0,"PostalCode":1.0},"Location":{"LocationId":"NT_4qDMngz7GF2yV.6esKqdUD","LocationType":"point","DisplayPosition":{"Latitude":52.3319947,"Longitude":10.2608843},"MapView":{"TopLeft":{"Latitude":52.33554,"Longitude":10.25924},"BottomRight":{"Latitude":52.32785,"Longitude":10.27944}},"Address":{"Label":"Essinghausen, Peine, Niedersachsen, Deutschland","Country":"DEU","State":"Niedersachsen","County":"Peine","City":"Peine","District":"Essinghausen","PostalCode":"31224","AdditionalData":[{"value":"Deutschland","key":"CountryName"},{"value":"Niedersachsen","key":"StateName"},{"value":"Peine","key":"CountyName"}]},"MapReference":{"ReferenceId":"67975722","SideOfStreet":"neither","CountryId":"20147700","StateId":"20151542","CountyId":"20152431","CityId":"20152476","DistrictId":"20152480"}}},{"Relevance":1.0,"Distance":12.7,"MatchLevel":"houseNumber","MatchQuality":{"Country":1.0,"State":1.0,"County":1.0,"City":1.0,"District":1.0,"Street":[1.0],"HouseNumber":1.0,"PostalCode":1.0},"MatchType":"interpolated","Location":{"LocationId":"NT_QWwuz.LINSoqDRWBzSntUB_xAD","LocationType":"point","DisplayPosition":{"Latitude":52.33187,"Longitude":10.26044},"MapView":{"TopLeft":{"Latitude":52.3329942,"Longitude":10.2586004},"BottomRight":{"Latitude":52.3307458,"Longitude":10.2622796}},"Address":{"Label":"Kunzendorfer Straße 10, 31224 Peine, Deutschland","Country":"DEU","State":"Niedersachsen","County":"Peine","City":"Peine","District":"Essinghausen","Street":"Kunzendorfer Straße","HouseNumber":"10","PostalCode":"31224","AdditionalData":[{"value":"Deutschland","key":"CountryName"},{"value":"Niedersachsen","key":"StateName"},{"value":"Peine","key":"CountyName"}]},"MapReference":{"ReferenceId":"853171172","Spot":0.63,"SideOfStreet":"right","CountryId":"20147700","StateId":"20151542","CountyId":"20152431","CityId":"20152476","DistrictId":"20152480","AddressId":"177615633","RoadLinkId":"232037691"}}},{"Relevance":1.0,"Distance":17.5,"MatchLevel":"houseNumber","MatchQuality":{"Country":1.0,"State":1.0,"County":1.0,"City":1.0,"District":1.0,"Street":[1.0],"HouseNumber":1.0,"PostalCode":1.0},"MatchType":"interpolated","Location":{"LocationId":"NT_bflCJY7AlMencr3A3QJG6A_1A","LocationType":"point","DisplayPosition":{"Latitude":52.33219,"Longitude":10.26101},"MapView":{"TopLeft":{"Latitude":52.3333142,"Longitude":10.2591704},"BottomRight":{"Latitude":52.3310658,"Longitude":10.2628496}},"Address":{"Label":"Wölfelsdorfer Ring 5, 31224 Peine, Deutschland","Country":"DEU","State":"Niedersachsen","County":"Peine","City":"Peine","District":"Essinghausen","Street":"Wölfelsdorfer Ring","HouseNumber":"5","PostalCode":"31224","AdditionalData":[{"value":"Deutschland","key":"CountryName"},{"value":"Niedersachsen","key":"StateName"},{"value":"Peine","key":"CountyName"}]},"MapReference":{"ReferenceId":"853171174","Spot":0.79,"SideOfStreet":"left","CountryId":"20147700","StateId":"20151542","CountyId":"20152431","CityId":"20152476","DistrictId":"20152480","AddressId":"249846887","RoadLinkId":"232037692"}}},{"Relevance":1.0,"Distance":34.3,"MatchLevel":"street","MatchQuality":{"Country":1.0,"State":1.0,"County":1.0,"City":1.0,"District":1.0,"Street":[1.0],"PostalCode":1.0},"Location":{"LocationId":"NT_QWwuz.LINSoqDRWBzSntUB_l_853171169_R","LocationType":"point","DisplayPosition":{"Latitude":52.33199,"Longitude":10.26038},"MapView":{"TopLeft":{"Latitude":52.33234,"Longitude":10.2602},"BottomRight":{"Latitude":52.33199,"Longitude":10.26038}},"Address":{"Label":"Kunzendorfer Straße, 31224 Peine, Deutschland","Country":"DEU","State":"Niedersachsen","County":"Peine","City":"Peine","District":"Essinghausen","Street":"Kunzendorfer Straße","PostalCode":"31224","AdditionalData":[{"value":"Deutschland","key":"CountryName"},{"value":"Niedersachsen","key":"StateName"},{"value":"Peine","key":"CountyName"}]},"MapReference":{"ReferenceId":"853171169","Spot":0.0,"SideOfStreet":"right","CountryId":"20147700","StateId":"20151542","CountyId":"20152431","CityId":"20152476","DistrictId":"20152480"}}},{"Relevance":1.0,"Distance":40.8,"MatchLevel":"houseNumber","MatchQuality":{"Country":1.0,"State":1.0,"County":1.0,"City":1.0,"District":1.0,"Street":[1.0],"HouseNumber":1.0,"PostalCode":1.0},"MatchType":"interpolated","Location":{"LocationId":"NT_bflCJY7AlMencr3A3QJG6A_3A","LocationType":"point","DisplayPosition":{"Latitude":52.3324,"Longitude":10.26061},"MapView":{"TopLeft":{"Latitude":52.3335242,"Longitude":10.2587704},"BottomRight":{"Latitude":52.3312758,"Longitude":10.2624496}},"Address":{"Label":"Wölfelsdorfer Ring 7, 31224 Peine, Deutschland","Country":"DEU","State":"Niedersachsen","County":"Peine","City":"Peine","District":"Essinghausen","Street":"Wölfelsdorfer Ring","HouseNumber":"7","PostalCode":"31224","AdditionalData":[{"value":"Deutschland","key":"CountryName"},{"value":"Niedersachsen","key":"StateName"},{"value":"Peine","key":"CountyName"}]},"MapReference":{"ReferenceId":"853171173","Spot":0.61,"SideOfStreet":"right","CountryId":"20147700","StateId":"20151542","CountyId":"20152431","CityId":"20152476","DistrictId":"20152480","AddressId":"249864216","RoadLinkId":"232037693"}}},{"Relevance":1.0,"Distance":54.1,"MatchLevel":"houseNumber","MatchQuality":{"Country":1.0,"State":1.0,"County":1.0,"City":1.0,"District":1.0,"Street":[1.0],"HouseNumber":1.0,"PostalCode":1.0},"MatchType":"interpolated","Location":{"LocationId":"NT_Ci-jTLxaw4BI9MimRGnGGD_0QjQ","LocationType":"point","DisplayPosition":{"Latitude":52.33216,"Longitude":10.26196},"MapView":{"TopLeft":{"Latitude":52.3332842,"Longitude":10.2601204},"BottomRight":{"Latitude":52.3310358,"Longitude":10.2637996}},"Address":{"Label":"Sudetenstraße 44B, 31224 Peine, Deutschland","Country":"DEU","State":"Niedersachsen","County":"Peine","City":"Peine","District":"Essinghausen","Street":"Sudetenstraße","HouseNumber":"44B","PostalCode":"31224","AdditionalData":[{"value":"Deutschland","key":"CountryName"},{"value":"Niedersachsen","key":"StateName"},{"value":"Peine","key":"CountyName"}]},"MapReference":{"ReferenceId":"540638858","Spot":0.92,"SideOfStreet":"left","CountryId":"20147700","StateId":"20151542","CountyId":"20152431","CityId":"20152476","DistrictId":"20152480","AddressId":"179413522","RoadLinkId":"36361073"}}},{"Relevance":1.0,"Distance":59.6,"MatchLevel":"houseNumber","MatchQuality":{"Country":1.0,"State":1.0,"County":1.0,"City":1.0,"District":1.0,"Street":[1.0],"HouseNumber":1.0,"PostalCode":1.0},"MatchType":"interpolated","Location":{"LocationId":"NT_QWwuz.LINSoqDRWBzSntUB_2A","LocationType":"point","DisplayPosition":{"Latitude":52.3314,"Longitude":10.2607},"MapView":{"TopLeft":{"Latitude":52.3325242,"Longitude":10.2588604},"BottomRight":{"Latitude":52.3302758,"Longitude":10.2625396}},"Address":{"Label":"Kunzendorfer Straße 6, 31224 Peine, Deutschland","Country":"DEU","State":"Niedersachsen","County":"Peine","City":"Peine","District":"Essinghausen","Street":"Kunzendorfer Straße","HouseNumber":"6","PostalCode":"31224","AdditionalData":[{"value":"Deutschland","key":"CountryName"},{"value":"Niedersachsen","key":"StateName"},{"value":"Peine","key":"CountyName"}]},"MapReference":{"ReferenceId":"1180304224","Spot":0.29,"SideOfStreet":"right","CountryId":"20147700","StateId":"20151542","CountyId":"20152431","CityId":"20152476","DistrictId":"20152480","AddressId":"179496268","RoadLinkId":"488199442"}}},{"Relevance":1.0,"Distance":62.3,"MatchLevel":"houseNumber","MatchQuality":{"Country":1.0,"State":1.0,"County":1.0,"City":1.0,"District":1.0,"Street":[1.0],"HouseNumber":1.0,"PostalCode":1.0},"MatchType":"interpolated","Location":{"LocationId":"NT_QWwuz.LINSoqDRWBzSntUB_5A","LocationType":"point","DisplayPosition":{"Latitude":52.33236,"Longitude":10.26019},"MapView":{"TopLeft":{"Latitude":52.3334842,"Longitude":10.2583504},"BottomRight":{"Latitude":52.3312358,"Longitude":10.2620296}},"Address":{"Label":"Kunzendorfer Straße 9, 31224 Peine, Deutschland","Country":"DEU","State":"Niedersachsen","County":"Peine","City":"Peine","District":"Essinghausen","Street":"Kunzendorfer Straße","HouseNumber":"9","PostalCode":"31224","AdditionalData":[{"value":"Deutschland","key":"CountryName"},{"value":"Niedersachsen","key":"StateName"},{"value":"Peine","key":"CountyName"}]},"MapReference":{"ReferenceId":"853171170","Spot":0.06,"SideOfStreet":"left","CountryId":"20147700","StateId":"20151542","CountyId":"20152431","CityId":"20152476","DistrictId":"20152480","AddressId":"179529876","RoadLinkId":"232037687"}}},{"Relevance":1.0,"Distance":78.9,"MatchLevel":"houseNumber","MatchQuality":{"Country":1.0,"State":1.0,"County":1.0,"City":1.0,"District":1.0,"Street":[1.0],"HouseNumber":1.0,"PostalCode":1.0},"MatchType":"interpolated","Location":{"LocationId":"NT_QWwuz.LINSoqDRWBzSntUB_xA","LocationType":"point","DisplayPosition":{"Latitude":52.33129,"Longitude":10.26075},"MapView":{"TopLeft":{"Latitude":52.3324142,"Longitude":10.2589104},"BottomRight":{"Latitude":52.3301658,"Longitude":10.2625896}},"Address":{"Label":"Kunzendorfer Straße 1, 31224 Peine, Deutschland","Country":"DEU","State":"Niedersachsen","County":"Peine","City":"Peine","District":"Essinghausen","Street":"Kunzendorfer Straße","HouseNumber":"1","PostalCode":"31224","AdditionalData":[{"value":"Deutschland","key":"CountryName"},{"value":"Niedersachsen","key":"StateName"},{"value":"Peine","key":"CountyName"}]},"MapReference":{"ReferenceId":"1180304223","Spot":1.0,"SideOfStreet":"left","CountryId":"20147700","StateId":"20151542","CountyId":"20152431","CityId":"20152476","DistrictId":"20152480","AddressId":"178316630","RoadLinkId":"488199441"}}},{"Relevance":1.0,"Distance":82.6,"MatchLevel":"houseNumber","MatchQuality":{"Country":1.0,"State":1.0,"County":1.0,"City":1.0,"District":1.0,"Street":[1.0],"HouseNumber":1.0,"PostalCode":1.0},"MatchType":"interpolated","Location":{"LocationId":"NT_QWwuz.LINSoqDRWBzSntUB_4A","LocationType":"point","DisplayPosition":{"Latitude":52.33138,"Longitude":10.26173},"MapView":{"TopLeft":{"Latitude":52.3325042,"Longitude":10.2598904},"BottomRight":{"Latitude":52.3302558,"Longitude":10.2635696}},"Address":{"Label":"Kunzendorfer Straße 8, 31224 Peine, Deutschland","Country":"DEU","State":"Niedersachsen","County":"Peine","City":"Peine","District":"Essinghausen","Street":"Kunzendorfer Straße","HouseNumber":"8","PostalCode":"31224","AdditionalData":[{"value":"Deutschland","key":"CountryName"},{"value":"Niedersachsen","key":"StateName"},{"value":"Peine","key":"CountyName"}]},"MapReference":{"ReferenceId":"1184663499","Spot":0.9,"SideOfStreet":"left","CountryId":"20147700","StateId":"20151542","CountyId":"20152431","CityId":"20152476","DistrictId":"20152480","AddressId":"181190398","RoadLinkId":"492867136"}}}]}]}}