{"Response":{"MetaInfo":{"Timestamp":"2020-03-28T10:25:41.333+0000","NextPageInformation":"2"},"View":[{"_type":"SearchResultsViewType","ViewId":0,"Result":[{"Relevance":1.0,"Distance":0.0,"Direction":0.0,"MatchLevel":"district","MatchQuality":{"Country":1.0,"State":1.0,"County":1.0,"City":1.0,"District":1.0,"PostalCode":1.0},"Location":{"LocationId":"NT_8PvmynOd-L1fXRMVPcpsHB","LocationType":"point","DisplayPosition":{"Latitude":52.3748007,"Longitude":14.0686269},"MapView":{"TopLeft":{"Latitude":52.3826,"Longitude":14.02121},"BottomRight":{"Latitude":52.33339,"Longitude":14.09717}},"Address":{"Label":"Fürstenwalde/Spree, Brandenburg, Deutschland","Country":"DEU","State":"Brandenburg","County":"Oder-Spree","City":"Fürstenwalde/Spree","District":"Fürstenwalde/Spree","PostalCode":"15517","AdditionalData":[{"value":"Deutschland","key":"CountryName"},{"value":"Brandenburg","key":"StateName"},{"value":"Oder-Spree","key":"CountyName"}]},"MapReference":{"ReferenceId":"1188931277","SideOfStreet":"neither","CountryId":"20147700","StateId":"20187428","CountyId":"20188534","CityId":"20188558","DistrictId":"20188561"}}},{"Relevance":1.0,"Distance":34.1,"MatchLevel":"houseNumber","MatchQuality":{"Country":1.0,"State":1.0,"County":1.0,"City":1.0,"District":1.0,"Street":[1.0],"HouseNumber":1.0,"PostalCode":1.0},"MatchType":"interpolated","Location":{"LocationId":"NT_F15TU3-Olk4jTwzIHajjSB_yETQ","LocationType":"point","DisplayPosition":{"Latitude":52.37521,"Longitude":14.06789},"MapView":{"TopLeft":{"Latitude":52.3763342,"Longitude":14.0660486},"BottomRight":{"Latitude":52.3740858,"Longitude":14.0697314}},"Address":{"Label":"Karl-Liebknecht-Straße 21A, 15517 Fürstenwalde/Spree, Deutschland","Country":"DEU","State":"Brandenburg","County":"Oder-Spree","City":"Fürstenwalde/Spree","District":"Fürstenwalde/Spree","Street":"Karl-Liebknecht-Straße","HouseNumber":"21A","PostalCode":"15517","AdditionalData":[{"value":"Deutschland","key":"CountryName"},{"value":"Brandenburg","key":"StateName"},{"value":"Oder-Spree","key":"CountyName"}]},"MapReference":{"ReferenceId":"1253973609","Spot":0.1,"SideOfStreet":"right","CountryId":"20147700","StateId":"20187428","CountyId":"20188534","CityId":"20188558","DistrictId":"20188561","AddressId":"181930669","RoadLinkId":"577166768"}}},{"Relevance":1.0,"Distance":69.5,"MatchLevel":"houseNumber","MatchQuality":{"Country":1.0,"State":1.0,"County":1.0,"City":1.0,"District":1.0,"Street":[1.0],"HouseNumber":1.0,"PostalCode":1.0},"MatchType":"interpolated","Location":{"LocationId":"NT_F15TU3-Olk4jTwzIHajjSB_yEjQ","LocationType":"point","DisplayPosition":{"Latitude":52.37489,"Longitude":14.06735},"MapView":{"TopLeft":{"Latitude":52.3760142,"Longitude":14.0655086},"BottomRight":{"Latitude":52.3737658,"Longitude":14.0691914}},"Address":{"Label":"Karl-Liebknecht-Straße 21B, 15517 Fürstenwalde/Spree, Deutschland","Country":"DEU","State":"Brandenburg","County":"Oder-Spree","City":"Fürstenwalde/Spree","District":"Fürstenwalde/Spree","Street":"Karl-Liebknecht-Straße","HouseNumber":"21B","PostalCode":"15517","AdditionalData":[{"value":"Deutschland","key":"CountryName"},{"value":"Brandenburg","key":"StateName"},{"value":"Oder-Spree","key":"CountyName"}]},"MapReference":{"ReferenceId":"544508548","Spot":0.83,"SideOfStreet":"right","CountryId":"20147700","StateId":"20187428","CountyId":"20188534","CityId":"20188558","DistrictId":"20188561","AddressId":"181887778","RoadLinkId":"37915380"}}},{"Relevance":1.0,"Distance":70.5,"MatchLevel":"street","MatchQuality":{"Country":1.0,"State":1.0,"County":1.0,"City":1.0,"District":1.0,"Street":[1.0],"PostalCode":1.0},"Location":{"LocationId":"NT_E2we8Kg.jynoZVNlkwveID_l_1254121503_R","LocationType":"point","DisplayPosition":{"Latitude":52.37515,"Longitude":14.06776},"MapView":{"TopLeft":{"Latitude":52.37546,"Longitude":14.06751},"BottomRight":{"Latitude":52.37515,"Longitude":14.06776}},"Address":{"Label":"Jahnstraße, 15517 Fürstenwalde/Spree, Deutschland","Country":"DEU","State":"Brandenburg","County":"Oder-Spree","City":"Fürstenwalde/Spree","District":"Fürstenwalde/Spree","Street":"Jahnstraße","PostalCode":"15517","AdditionalData":[{"value":"Deutschland","key":"CountryName"},{"value":"Brandenburg","key":"StateName"},{"value":"Oder-Spree","key":"CountyName"}]},"MapReference":{"ReferenceId":"1254121503","Spot":0.0,"SideOfStreet":"right","CountryId":"20147700","StateId":"20187428","CountyId":"20188534","CityId":"20188558","DistrictId":"20188561"}}},{"Relevance":1.0,"Distance":105.5,"MatchLevel":"street","MatchQuality":{"Country":1.0,"State":1.0,"County":1.0,"City":1.0,"District":1.0,"Street":[1.0],"PostalCode":1.0},"Location":{"LocationId":"NT_E2we8Kg.jynoZVNlkwveID_l_1254121504_R","LocationType":"point","DisplayPosition":{"Latitude":52.37546,"Longitude":14.06751},"MapView":{"TopLeft":{"Latitude":52.37553,"Longitude":14.0674},"BottomRight":{"Latitude":52.37546,"Longitude":14.06751}},"Address":{"Label":"Jahnstraße, 15517 Fürstenwalde/Spree, Deutschland","Country":"DEU","State":"Brandenburg","County":"Oder-Spree","City":"Fürstenwalde/Spree","District":"Fürstenwalde/Spree","Street":"Jahnstraße","PostalCode":"15517","AdditionalData":[{"value":"Deutschland","key":"CountryName"},{"value":"Brandenburg","key":"StateName"},{"value":"Oder-Spree","key":"CountyName"}]},"MapReference":{"ReferenceId":"1254121504","Spot":0.0,"SideOfStreet":"right","CountryId":"20147700","StateId":"20187428","CountyId":"20188534","CityId":"20188558","DistrictId":"20188561"}}},{"Relevance":1.0,"Distance":111.8,"MatchLevel":"street","MatchQuality":{"Country":1.0,"State":1.0,"County":1.0,"City":1.0,"District":1.0,"PostalCode":1.0},"Location":{"LocationId":"NT_iq9nN3AtKqBNd6J7JxU81C_l_1254121505_R","LocationType":"point","DisplayPosition":{"Latitude":52.3757347,"Longitude":14.0680178},"MapView":{"TopLeft":{"Latitude":52.37593,"Longitude":14.06751},"BottomRight":{"Latitude":52.37546,"Longitude":14.06829}},"Address":{"Label":"15517 Fürstenwalde/Spree, Deutschland","Country":"DEU","State":"Brandenburg","County":"Oder-Spree","City":"Fürstenwalde/Spree","District":"Fürstenwalde/Spree","PostalCode":"15517","AdditionalData":[{"value":"Deutschland","key":"CountryName"},{"value":"Brandenburg","key":"StateName"},{"value":"Oder-Spree","key":"CountyName"}]},"MapReference":{"ReferenceId":"1254121505","Spot":0.63,"SideOfStreet":"right","CountryId":"20147700","StateId":"20187428","CountyId":"20188534","CityId":"20188558","DistrictId":"20188561"}}},{"Relevance":1.0,"Distance":119.1,"MatchLevel":"street","MatchQuality":{"Country":1.0,"State":1.0,"County":1.0,"City":1.0,"District":1.0,"Street":[1.0],"PostalCode":1.0},"Location":{"LocationId":"NT_F15TU3-Olk4jTwzIHajjSB_l_1253973610_R","LocationType":"point","DisplayPosition":{"Latitude":52.37585,"Longitude":14.06898},"MapView":{"TopLeft":{"Latitude":52.37614,"Longitude":14.06898},"BottomRight":{"Latitude":52.37585,"Longitude":14.06946}},"Address":{"Label":"Karl-Liebknecht-Straße, 15517 Fürstenwalde/Spree, Deutschland","Country":"DEU","State":"Brandenburg","County":"Oder-Spree","City":"Fürstenwalde/Spree","District":"Fürstenwalde/Spree","Street":"Karl-Liebknecht-Straße","PostalCode":"15517","AdditionalData":[{"value":"Deutschland","key":"CountryName"},{"value":"Brandenburg","key":"StateName"},{"value":"Oder-Spree","key":"CountyName"}]},"MapReference":{"ReferenceId":"1253973610","Spot":0.0,"SideOfStreet":"right","CountryId":"20147700","StateId":"20187428","CountyId":"20188534","CityId":"20188558","DistrictId":"20188561"}}},{"Relevance":1.0,"Distance":119.1,"MatchLevel":"street","MatchQuality":{"Country":1.0,"State":1.0,"County":1.0,"City":1.0,"District":1.0,"PostalCode":1.0},"Location":{"LocationId":"NT_iq9nN3AtKqBNd6J7JxU81C_l_1253973613_L","LocationType":"point","DisplayPosition":{"Latitude":52.37585,"Longitude":14.06898},"MapView":{"TopLeft":{"Latitude":52.37596,"Longitude":14.0688},"BottomRight":{"Latitude":52.37585,"Longitude":14.06898}},"Address":{"Label":"15517 Fürstenwalde/Spree, Deutschland","Country":"DEU","State":"Brandenburg","County":"Oder-Spree","City":"Fürstenwalde/Spree","District":"Fürstenwalde/Spree","PostalCode":"15517","AdditionalData":[{"value":"Deutschland","key":"CountryName"},{"value":"Brandenburg","key":"StateName"},{"value":"Oder-Spree","key":"CountyName"}]},"MapReference":{"ReferenceId":"1253973613","Spot":0.0,"SideOfStreet":"left","CountryId":"20147700","StateId":"20187428","CountyId":"20188534","CityId":"20188558","DistrictId":"20188561"}}},{"Relevance":1.0,"Distance":124.7,"MatchLevel":"street","MatchQuality":{"Country":1.0,"State":1.0,"County":1.0,"City":1.0,"District":1.0,"Street":[1.0],"PostalCode":1.0},"Location":{"LocationId":"NT_.LOOBNWub5M4Od4M0-oZBA_l_1253973687_R","LocationType":"point","DisplayPosition":{"Latitude":52.3759182,"Longitude":14.0684673},"MapView":{"TopLeft":{"Latitude":52.37596,"Longitude":14.06829},"BottomRight":{"Latitude":52.37591,"Longitude":14.0688}},"Address":{"Label":"Kantstraße, 15517 Fürstenwalde/Spree, Deutschland","Country":"DEU","State":"Brandenburg","County":"Oder-Spree","City":"Fürstenwalde/Spree","District":"Fürstenwalde/Spree","Street":"Kantstraße","PostalCode":"15517","AdditionalData":[{"value":"Deutschland","key":"CountryName"},{"value":"Brandenburg","key":"StateName"},{"value":"Oder-Spree","key":"CountyName"}]},"MapReference":{"ReferenceId":"1253973687","Spot":0.35,"SideOfStreet":"right","CountryId":"20147700","StateId":"20187428","CountyId":"20188534","CityId":"20188558","DistrictId":"20188561"}}},{"Relevance":1.0,"Distance":127.6,"MatchLevel":"street","MatchQuality":{"Country":1.0,"State":1.0,"County":1.0,"City":1.0,"District":1.0,"Street":[1.0],"PostalCode":1.0},"Location":{"LocationId":"NT_.LOOBNWub5M4Od4M0-oZBA_l_1253973683_L","LocationType":"point","DisplayPosition":{"Latitude":52.37593,"Longitude":14.06829},"MapView":{"TopLeft":{"Latitude":52.37642,"Longitude":14.06813},"BottomRight":{"Latitude":52.37593,"Longitude":14.06831}},"Address":{"Label":"Kantstraße, 15517 Fürstenwalde/Spree, Deutschland","Country":"DEU","State":"Brandenburg","County":"Oder-Spree","City":"Fürstenwalde/Spree","District":"Fürstenwalde/Spree","Street":"Kantstraße","PostalCode":"15517","AdditionalData":[{"value":"Deutschland","key":"CountryName"},{"value":"Brandenburg","key":"StateName"},{"value":"Oder-Spree","key":"CountyName"}]},"MapReference":{"ReferenceId":"1253973683","Spot":0.0,"SideOfStreet":"left","CountryId":"20147700","StateId":"20187428","CountyId":"20188534","CityId":"20188558","DistrictId":"20188561"}}}]}]}}