{"Response":{"MetaInfo":{"Timestamp":"2020-03-28T10:34:29.388+0000","NextPageInformation":"2"},"View":[{"_type":"SearchResultsViewType","ViewId":0,"Result":[{"Relevance":1.0,"Distance":0.0,"Direction":0.0,"MatchLevel":"district","MatchQuality":{"Country":1.0,"State":1.0,"County":1.0,"City":1.0,"District":1.0,"PostalCode":1.0},"Location":{"LocationId":"NT_zxe7mtuZoMLPbGHteNm4SC","LocationType":"point","DisplayPosition":{"Latitude":52.3229624,"Longitude":1.1414264},"MapView":{"TopLeft":{"Latitude":52.33367,"Longitude":1.13393},"BottomRight":{"Latitude":52.31747,"Longitude":1.15326}},"Address":{"Label":"Eye, England, United Kingdom","Country":"GBR","State":"England","County":"Suffolk","City":"Eye","District":"Eye","PostalCode":"IP23 7","AdditionalData":[{"value":"United Kingdom","key":"CountryName"},{"value":"England","key":"StateName"},{"value":"Suffolk","key":"CountyName"}]},"MapReference":{"ReferenceId":"936754586","SideOfStreet":"neither","StateId":"20248595","CountyId":"20338322","CityId":"20351135","DistrictId":"20351136"}}},{"Relevance":1.0,"Distance":4.2,"MatchLevel":"street","MatchQuality":{"Country":1.0,"State":1.0,"County":1.0,"City":1.0,"District":1.0,"Street":[1.0],"PostalCode":1.0},"Location":{"LocationId":"NT_excDFolLAPwXTSGq1X8zPC_l_78807356_R","LocationType":"point","DisplayPosition":{"Latitude":52.3229532,"Longitude":1.1413664},"MapView":{"TopLeft":{"Latitude":52.32366,"Longitude":1.14131},"BottomRight":{"Latitude":52.32293,"Longitude":1.14137}},"Address":{"Label":"Daniel Gardens, Eye, IP23 7, United Kingdom","Country":"GBR","State":"England","County":"Suffolk","City":"Eye","District":"Eye","Street":"Daniel Gardens","PostalCode":"IP23 7","AdditionalData":[{"value":"United Kingdom","key":"CountryName"},{"value":"England","key":"StateName"},{"value":"Suffolk","key":"CountyName"}]},"MapReference":{"ReferenceId":"78807356","Spot":0.03,"SideOfStreet":"right","StateId":"20248595","CountyId":"20338322","CityId":"20351135","DistrictId":"20351136"}}},{"Relevance":1.0,"Distance":19.9,"MatchLevel":"postalCode","MatchQuality":{"PostalCode":1.0},"Location":{"LocationId":"NT_excDFolLAPwXTSGq1X8zPC_l_78807356_R","LocationType":"point","DisplayPosition":{"Latitude":52.32314,"Longitude":1.14139},"MapView":{"TopLeft":{"Latitude":52.3321332,"Longitude":1.1266761},"BottomRight":{"Latitude":52.3141468,"Longitude":1.1561039}},"Address":{"Label":"IP23 7BQ, Eye, England, United Kingdom","Country":"GBR","State":"England","County":"Suffolk","City":"Eye","PostalCode":"IP23 7BQ","AdditionalData":[{"value":"United Kingdom","key":"CountryName"},{"value":"England","key":"StateName"},{"value":"Suffolk","key":"CountyName"}]},"MapReference":{"ReferenceId":"78807356","Spot":0.03,"SideOfStreet":"neither","StateId":"20248595","CountyId":"20338322","CityId":"20351135"}}},{"Relevance":1.0,"Distance":78.0,"MatchLevel":"houseNumber","MatchQuality":{"Country":1.0,"State":1.0,"County":1.0,"City":1.0,"District":1.0,"Street":[1.0],"HouseNumber":1.0,"PostalCode":1.0},"MatchType":"interpolated","Location":{"LocationId":"NT_mVocIQEyazW67RcNvMEUbB_l_78807355_L_4A","LocationType":"point","DisplayPosition":{"Latitude":52.32366,"Longitude":1.14154},"MapView":{"TopLeft":{"Latitude":52.3247842,"Longitude":1.1397008},"BottomRight":{"Latitude":52.3225358,"Longitude":1.1433793}},"Address":{"Label":"8 Castleton Way, Eye, IP23 7BL, United Kingdom","Country":"GBR","State":"England","County":"Suffolk","City":"Eye","District":"Eye","Street":"Castleton Way","HouseNumber":"8","PostalCode":"IP23 7BL","AdditionalData":[{"value":"United Kingdom","key":"CountryName"},{"value":"England","key":"StateName"},{"value":"Suffolk","key":"CountyName"}]},"MapReference":{"ReferenceId":"78807355","Spot":0.32,"SideOfStreet":"left","StateId":"20248595","CountyId":"20338322","CityId":"20351135","DistrictId":"20351136"}}},{"Relevance":1.0,"Distance":80.6,"MatchLevel":"postalCode","MatchQuality":{"PostalCode":1.0},"MatchType":"interpolated","Location":{"LocationId":"NT_mVocIQEyazW67RcNvMEUbB_l_78807355_L_4A","LocationType":"point","DisplayPosition":{"Latitude":52.32363,"Longitude":1.14189},"MapView":{"TopLeft":{"Latitude":52.3326232,"Longitude":1.127176},"BottomRight":{"Latitude":52.3146368,"Longitude":1.156604}},"Address":{"Label":"IP23 7BJ, Eye, England, United Kingdom","Country":"GBR","State":"England","County":"Suffolk","City":"Eye","PostalCode":"IP23 7BJ","AdditionalData":[{"value":"United Kingdom","key":"CountryName"},{"value":"England","key":"StateName"},{"value":"Suffolk","key":"CountyName"}]},"MapReference":{"ReferenceId":"78807355","Spot":0.32,"SideOfStreet":"neither","StateId":"20248595","CountyId":"20338322","CityId":"20351135"}}},{"Relevance":1.0,"Distance":83.7,"MatchLevel":"houseNumber","MatchQuality":{"Country":1.0,"State":1.0,"County":1.0,"City":1.0,"District":1.0,"Street":[1.0],"HouseNumber":1.0,"PostalCode":1.0},"MatchType":"interpolated","Location":{"LocationId":"NT_mVocIQEyazW67RcNvMEUbB_l_1124417346_L_5A","LocationType":"point","DisplayPosition":{"Latitude":52.3236296,"Longitude":1.140857},"MapView":{"TopLeft":{"Latitude":52.3247538,"Longitude":1.1390178},"BottomRight":{"Latitude":52.3225055,"Longitude":1.1426963}},"Address":{"Label":"9 Castleton Way, Eye, IP23 7BL, United Kingdom","Country":"GBR","State":"England","County":"Suffolk","City":"Eye","District":"Eye","Street":"Castleton Way","HouseNumber":"9","PostalCode":"IP23 7BL","AdditionalData":[{"value":"United Kingdom","key":"CountryName"},{"value":"England","key":"StateName"},{"value":"Suffolk","key":"CountyName"}]},"MapReference":{"ReferenceId":"1124417346","Spot":0.83,"SideOfStreet":"left","StateId":"20248595","CountyId":"20338322","CityId":"20351135","DistrictId":"20351136"}}},{"Relevance":1.0,"Distance":89.1,"MatchLevel":"street","MatchQuality":{"Country":1.0,"State":1.0,"County":1.0,"City":1.0,"District":1.0,"Street":[1.0],"PostalCode":1.0},"Location":{"LocationId":"NT_AVNwXYbXXpDR-pkjqcCTFA_l_26143002_L","LocationType":"point","DisplayPosition":{"Latitude":52.32368,"Longitude":1.14201},"MapView":{"TopLeft":{"Latitude":52.32415,"Longitude":1.14173},"BottomRight":{"Latitude":52.32368,"Longitude":1.14201}},"Address":{"Label":"Haygate, Eye, IP23 7, United Kingdom","Country":"GBR","State":"England","County":"Suffolk","City":"Eye","District":"Eye","Street":"Haygate","PostalCode":"IP23 7","AdditionalData":[{"value":"United Kingdom","key":"CountryName"},{"value":"England","key":"StateName"},{"value":"Suffolk","key":"CountyName"}]},"MapReference":{"ReferenceId":"26143002","Spot":0.0,"SideOfStreet":"left","StateId":"20248595","CountyId":"20338322","CityId":"20351135","DistrictId":"20351136"}}},{"Relevance":1.0,"Distance":108.6,"MatchLevel":"postalCode","MatchQuality":{"PostalCode":1.0},"MatchType":"interpolated","Location":{"LocationId":"NT_mVocIQEyazW67RcNvMEUbB_l_1124417346_L_5A","LocationType":"point","DisplayPosition":{"Latitude":52.32355,"Longitude":1.14015},"MapView":{"TopLeft":{"Latitude":52.3325432,"Longitude":1.125436},"BottomRight":{"Latitude":52.3145568,"Longitude":1.154864}},"Address":{"Label":"IP23 7DD, Eye, England, United Kingdom","Country":"GBR","State":"England","County":"Suffolk","City":"Eye","PostalCode":"IP23 7DD","AdditionalData":[{"value":"United Kingdom","key":"CountryName"},{"value":"England","key":"StateName"},{"value":"Suffolk","key":"CountyName"}]},"MapReference":{"ReferenceId":"1124417346","Spot":0.83,"SideOfStreet":"neither","StateId":"20248595","CountyId":"20338322","CityId":"20351135"}}},{"Relevance":1.0,"Distance":127.9,"MatchLevel":"houseNumber","MatchQuality":{"Country":1.0,"State":1.0,"County":1.0,"City":1.0,"District":1.0,"Street":[1.0],"HouseNumber":1.0,"PostalCode":1.0},"MatchType":"interpolated","Location":{"LocationId":"NT_AVNwXYbXXpDR-pkjqcCTFA_l_26142984_L_xA","LocationType":"point","DisplayPosition":{"Latitude":52.32424,"Longitude":1.14156},"MapView":{"TopLeft":{"Latitude":52.3253642,"Longitude":1.1397207},"BottomRight":{"Latitude":52.3231159,"Longitude":1.1433992}},"Address":{"Label":"1 Haygate, Eye, IP23 7BN, United Kingdom","Country":"GBR","State":"England","County":"Suffolk","City":"Eye","District":"Eye","Street":"Haygate","HouseNumber":"1","PostalCode":"IP23 7BN","AdditionalData":[{"value":"United Kingdom","key":"CountryName"},{"value":"England","key":"StateName"},{"value":"Suffolk","key":"CountyName"}]},"MapReference":{"ReferenceId":"26142984","Spot":0.25,"SideOfStreet":"left","StateId":"20248595","CountyId":"20338322","CityId":"20351135","DistrictId":"20351136"}}},{"Relevance":1.0,"Distance":129.4,"MatchLevel":"houseNumber","MatchQuality":{"Country":1.0,"State":1.0,"County":1.0,"City":1.0,"District":1.0,"Street":[1.0],"HouseNumber":1.0,"PostalCode":1.0},"MatchType":"interpolated","Location":{"LocationId":"NT_GM3NEX0GmDTCoi3hptNUtB_l_26142983_R_xA","LocationType":"point","DisplayPosition":{"Latitude":52.3242101,"Longitude":1.1419102},"MapView":{"TopLeft":{"Latitude":52.3253342,"Longitude":1.1400709},"BottomRight":{"Latitude":52.3230859,"Longitude":1.1437495}},"Address":{"Label":"1 Highfield, Eye, IP23 7BP, United Kingdom","Country":"GBR","State":"England","County":"Suffolk","City":"Eye","District":"Eye","Street":"Highfield","HouseNumber":"1","PostalCode":"IP23 7BP","AdditionalData":[{"value":"United Kingdom","key":"CountryName"},{"value":"England","key":"StateName"},{"value":"Suffolk","key":"CountyName"}]},"MapReference":{"ReferenceId":"26142983","Spot":0.1,"SideOfStreet":"right","StateId":"20248595","CountyId":"20338322","CityId":"20351135","DistrictId":"20351136"}}}]}]}}