{"Response":{"MetaInfo":{"Timestamp":"2020-03-28T10:10:08.025+0000","NextPageInformation":"2"},"View":[{"_type":"SearchResultsViewType","ViewId":0,"Result":[{"Relevance":1.0,"Distance":0.0,"Direction":0.0,"MatchLevel":"district","MatchQuality":{"Country":1.0,"State":1.0,"County":1.0,"City":1.0,"District":1.0,"PostalCode":1.0},"Location":{"LocationId":"NT_WX4cTRWJuzPMTGG0A0W4OA","LocationType":"point","DisplayPosition":{"Latitude":52.3732042,"Longitude":-1.7537353},"MapView":{"TopLeft":{"Latitude":52.40088,"Longitude":-1.76943},"BottomRight":{"Latitude":52.36465,"Longitude":-1.72283}},"Address":{"Label":"Dorridge, Solihull, England, United Kingdom","Country":"GBR","State":"England","County":"West Midlands","City":"Solihull","District":"Dorridge","PostalCode":"B93 8","AdditionalData":[{"value":"United Kingdom","key":"CountryName"},{"value":"England","key":"StateName"},{"value":"West Midlands","key":"CountyName"}]},"MapReference":{"ReferenceId":"26325705","SideOfStreet":"neither","StateId":"20248595","CountyId":"20358328","CityId":"20358495","DistrictId":"20358504"}}},{"Relevance":1.0,"Distance":3.3,"MatchLevel":"houseNumber","MatchQuality":{"Country":1.0,"State":1.0,"County":1.0,"City":1.0,"District":1.0,"Street":[1.0],"HouseNumber":1.0,"PostalCode":1.0},"MatchType":"interpolated","Location":{"LocationId":"NT_8dcH4u6qjXYdgpvF3M4KLB_l_1159617894_L_0cjN","LocationType":"point","DisplayPosition":{"Latitude":52.37314,"Longitude":-1.75349},"MapView":{"TopLeft":{"Latitude":52.3742642,"Longitude":-1.7553313},"BottomRight":{"Latitude":52.3720159,"Longitude":-1.7516487}},"Address":{"Label":"476 Station Road, Solihull, B93 8HE, United Kingdom","Country":"GBR","State":"England","County":"West Midlands","City":"Solihull","District":"Dorridge","Street":"Station Road","HouseNumber":"476","PostalCode":"B93 8HE","AdditionalData":[{"value":"United Kingdom","key":"CountryName"},{"value":"England","key":"StateName"},{"value":"West Midlands","key":"CountyName"}]},"MapReference":{"ReferenceId":"1159617894","Spot":0.0,"SideOfStreet":"left","StateId":"20248595","CountyId":"20358328","CityId":"20358495","DistrictId":"20358504"}}},{"Relevance":1.0,"Distance":5.2,"MatchLevel":"houseNumber","MatchQuality":{"Country":1.0,"State":1.0,"County":1.0,"City":1.0,"District":1.0,"Street":[1.0],"HouseNumber":1.0,"PostalCode":1.0},"MatchType":"interpolated","Location":{"LocationId":"NT_8dcH4u6qjXYdgpvF3M4KLB_l_26325732_L_0gDM","LocationType":"point","DisplayPosition":{"Latitude":52.3731167,"Longitude":-1.753495},"MapView":{"TopLeft":{"Latitude":52.3742408,"Longitude":-1.7553363},"BottomRight":{"Latitude":52.3719925,"Longitude":-1.7516537}},"Address":{"Label":"480 Station Road, Solihull, B93 8, United Kingdom","Country":"GBR","State":"England","County":"West Midlands","City":"Solihull","District":"Dorridge","Street":"Station Road","HouseNumber":"480","PostalCode":"B93 8","AdditionalData":[{"value":"United Kingdom","key":"CountryName"},{"value":"England","key":"StateName"},{"value":"West Midlands","key":"CountyName"}]},"MapReference":{"ReferenceId":"26325732","Spot":0.83,"SideOfStreet":"left","StateId":"20248595","CountyId":"20358328","CityId":"20358495","DistrictId":"20358504"}}},{"Relevance":1.0,"Distance":8.7,"MatchLevel":"street","MatchQuality":{"Country":1.0,"State":1.0,"County":1.0,"City":1.0,"District":1.0,"Street":[1.0],"PostalCode":1.0},"Location":{"LocationId":"NT_fYXwRfLJWuvV5qTvMU-FOC_l_1159617895_L","LocationType":"point","DisplayPosition":{"Latitude":52.373279,"Longitude":-1.7536979},"MapView":{"TopLeft":{"Latitude":52.37346,"Longitude":-1.75388},"BottomRight":{"Latitude":52.37323,"Longitude":-1.75347}},"Address":{"Label":"Arden Buildings, Solihull, B93 8, United Kingdom","Country":"GBR","State":"England","County":"West Midlands","City":"Solihull","District":"Dorridge","Street":"Arden Buildings","PostalCode":"B93 8","AdditionalData":[{"value":"United Kingdom","key":"CountryName"},{"value":"England","key":"StateName"},{"value":"West Midlands","key":"CountyName"}]},"MapReference":{"ReferenceId":"1159617895","Spot":0.43,"SideOfStreet":"left","StateId":"20248595","CountyId":"20358328","CityId":"20358495","DistrictId":"20358504"}}},{"Relevance":1.0,"Distance":10.8,"MatchLevel":"houseNumber","MatchQuality":{"Country":1.0,"State":1.0,"County":1.0,"City":1.0,"District":1.0,"Street":[1.0],"HouseNumber":1.0,"PostalCode":1.0},"MatchType":"interpolated","Location":{"LocationId":"NT_8dcH4u6qjXYdgpvF3M4KLB_l_1159617897_L_0czM","LocationType":"point","DisplayPosition":{"Latitude":52.37323,"Longitude":-1.75347},"MapView":{"TopLeft":{"Latitude":52.3743542,"Longitude":-1.7553113},"BottomRight":{"Latitude":52.3721059,"Longitude":-1.7516287}},"Address":{"Label":"473 Station Road, Solihull, B93 8, United Kingdom","Country":"GBR","State":"England","County":"West Midlands","City":"Solihull","District":"Dorridge","Street":"Station Road","HouseNumber":"473","PostalCode":"B93 8","AdditionalData":[{"value":"United Kingdom","key":"CountryName"},{"value":"England","key":"StateName"},{"value":"West Midlands","key":"CountyName"}]},"MapReference":{"ReferenceId":"1159617897","Spot":0.0,"SideOfStreet":"left","StateId":"20248595","CountyId":"20358328","CityId":"20358495","DistrictId":"20358504"}}},{"Relevance":1.0,"Distance":15.8,"MatchLevel":"postalCode","MatchQuality":{"PostalCode":1.0},"Location":{"LocationId":"NT_fYXwRfLJWuvV5qTvMU-FOC_l_1159617895_L","LocationType":"point","DisplayPosition":{"Latitude":52.37332,"Longitude":-1.75387},"MapView":{"TopLeft":{"Latitude":52.3823132,"Longitude":-1.7686006},"BottomRight":{"Latitude":52.3643268,"Longitude":-1.7391394}},"Address":{"Label":"B93 8HH, Solihull, England, United Kingdom","Country":"GBR","State":"England","County":"West Midlands","City":"Solihull","PostalCode":"B93 8HH","AdditionalData":[{"value":"United Kingdom","key":"CountryName"},{"value":"England","key":"StateName"},{"value":"West Midlands","key":"CountyName"}]},"MapReference":{"ReferenceId":"1159617895","Spot":0.43,"SideOfStreet":"neither","StateId":"20248595","CountyId":"20358328","CityId":"20358495"}}},{"Relevance":1.0,"Distance":18.1,"MatchLevel":"street","MatchQuality":{"Country":1.0,"State":1.0,"County":1.0,"City":1.0,"District":1.0,"Street":[1.0],"PostalCode":1.0},"Location":{"LocationId":"NT_8dcH4u6qjXYdgpvF3M4KLB_l_1159617901_L","LocationType":"point","DisplayPosition":{"Latitude":52.37314,"Longitude":-1.75349},"MapView":{"TopLeft":{"Latitude":52.37322,"Longitude":-1.75349},"BottomRight":{"Latitude":52.37314,"Longitude":-1.75343}},"Address":{"Label":"Station Road, Solihull, B93 8, United Kingdom","Country":"GBR","State":"England","County":"West Midlands","City":"Solihull","District":"Dorridge","Street":"Station Road","PostalCode":"B93 8","AdditionalData":[{"value":"United Kingdom","key":"CountryName"},{"value":"England","key":"StateName"},{"value":"West Midlands","key":"CountyName"}]},"MapReference":{"ReferenceId":"1159617901","Spot":0.0,"SideOfStreet":"left","StateId":"20248595","CountyId":"20358328","CityId":"20358495","DistrictId":"20358504"}}},{"Relevance":1.0,"Distance":20.8,"MatchLevel":"street","MatchQuality":{"Country":1.0,"State":1.0,"County":1.0,"City":1.0,"District":1.0,"Street":[1.0],"PostalCode":1.0},"Location":{"LocationId":"NT_8dcH4u6qjXYdgpvF3M4KLB_l_1159617902_L","LocationType":"point","DisplayPosition":{"Latitude":52.37322,"Longitude":-1.75343},"MapView":{"TopLeft":{"Latitude":52.37337,"Longitude":-1.75343},"BottomRight":{"Latitude":52.37322,"Longitude":-1.75334}},"Address":{"Label":"Station Road, Solihull, B93 8, United Kingdom","Country":"GBR","State":"England","County":"West Midlands","City":"Solihull","District":"Dorridge","Street":"Station Road","PostalCode":"B93 8","AdditionalData":[{"value":"United Kingdom","key":"CountryName"},{"value":"England","key":"StateName"},{"value":"West Midlands","key":"CountyName"}]},"MapReference":{"ReferenceId":"1159617902","Spot":0.0,"SideOfStreet":"left","StateId":"20248595","CountyId":"20358328","CityId":"20358495","DistrictId":"20358504"}}},{"Relevance":1.0,"Distance":21.3,"MatchLevel":"postalCode","MatchQuality":{"PostalCode":1.0},"MatchType":"interpolated","Location":{"LocationId":"NT_8dcH4u6qjXYdgpvF3M4KLB_l_26325732_L_0gDM","LocationType":"point","DisplayPosition":{"Latitude":52.37305,"Longitude":-1.75355},"MapView":{"TopLeft":{"Latitude":52.3820432,"Longitude":-1.7682805},"BottomRight":{"Latitude":52.3640568,"Longitude":-1.7388195}},"Address":{"Label":"B93 8HP, Solihull, England, United Kingdom","Country":"GBR","State":"England","County":"West Midlands","City":"Solihull","PostalCode":"B93 8HP","AdditionalData":[{"value":"United Kingdom","key":"CountryName"},{"value":"England","key":"StateName"},{"value":"West Midlands","key":"CountyName"}]},"MapReference":{"ReferenceId":"26325732","Spot":0.83,"SideOfStreet":"neither","StateId":"20248595","CountyId":"20358328","CityId":"20358495"}}},{"Relevance":1.0,"Distance":24.6,"MatchLevel":"street","MatchQuality":{"Country":1.0,"State":1.0,"County":1.0,"City":1.0,"District":1.0,"Street":[1.0],"PostalCode":1.0},"Location":{"LocationId":"NT_fYXwRfLJWuvV5qTvMU-FOC_l_1159617899_L","LocationType":"point","DisplayPosition":{"Latitude":52.373422,"Longitude":-1.7536743},"MapView":{"TopLeft":{"Latitude":52.37346,"Longitude":-1.75381},"BottomRight":{"Latitude":52.37339,"Longitude":-1.75342}},"Address":{"Label":"Arden Buildings, Solihull, B93 8, United Kingdom","Country":"GBR","State":"England","County":"West Midlands","City":"Solihull","District":"Dorridge","Street":"Arden Buildings","PostalCode":"B93 8","AdditionalData":[{"value":"United Kingdom","key":"CountryName"},{"value":"England","key":"StateName"},{"value":"West Midlands","key":"CountyName"}]},"MapReference":{"ReferenceId":"1159617899","Spot":0.65,"SideOfStreet":"left","StateId":"20248595","CountyId":"20358328","CityId":"20358495","DistrictId":"20358504"}}}]}]}}