{"Response":{"MetaInfo":{"Timestamp":"2020-03-28T10:54:42.295+0000","NextPageInformation":"2"},"View":[{"_type":"SearchResultsViewType","ViewId":0,"Result":[{"Relevance":1.0,"Distance":-6.9,"MatchLevel":"landmark","MatchQuality":{"Country":1.0,"State":1.0,"County":1.0,"City":1.0,"District":1.0,"Street":[1.0],"HouseNumber":1.0,"PostalCode":1.0,"Name":1.0},"Location":{"LocationId":"NT_GA1.BXGSxNiwZVzdmr88VC_p_6zChxBOac0JHAlqaI5-zbC","LocationType":"hospital","Name":"DIAKOVERE Friederikenstift","DisplayPosition":{"Latitude":52.37089,"Longitude":9.72402},"MapView":{"TopLeft":{"Latitude":52.3720142,"Longitude":9.7221788},"BottomRight":{"Latitude":52.3697658,"Longitude":9.7258612}},"Address":{"Label":"Humboldtstraße 5, 30169 Hannover, Deutschland","Country":"DEU","State":"Niedersachsen","County":"Region Hannover","City":"Hannover","District":"Calenberger Neustadt","Street":"Humboldtstraße","HouseNumber":"5","PostalCode":"30169","AdditionalData":[{"value":"Deutschland","key":"CountryName"},{"value":"Niedersachsen","key":"StateName"},{"value":"Region Hannover","key":"CountyName"}]},"MapReference":{"CountryId":"20147700","StateId":"20151542","CountyId":"20153026","CityId":"20152674","DistrictId":"20360415","PlaceId":"50342452"}}},{"Relevance":1.0,"Distance":0.0,"Direction":0.0,"MatchLevel":"district","MatchQuality":{"Country":1.0,"State":1.0,"County":1.0,"City":1.0,"District":1.0,"PostalCode":1.0},"Location":{"LocationId":"NT_gHvW6fatCcx3J7Irk3anwD","LocationType":"point","DisplayPosition":{"Latitude":52.3710635,"Longitude":9.7257221},"MapView":{"TopLeft":{"Latitude":52.37851,"Longitude":9.71224},"BottomRight":{"Latitude":52.3538,"Longitude":9.73839}},"Address":{"Label":"Calenberger Neustadt, Hannover, Niedersachsen, Deutschland","Country":"DEU","State":"Niedersachsen","County":"Region Hannover","City":"Hannover","District":"Calenberger Neustadt","PostalCode":"30169","AdditionalData":[{"value":"Deutschland","key":"CountryName"},{"value":"Niedersachsen","key":"StateName"},{"value":"Region Hannover","key":"CountyName"}]},"MapReference":{"ReferenceId":"51926879","SideOfStreet":"neither","CountryId":"20147700","StateId":"20151542","CountyId":"20153026","CityId":"20152674","DistrictId":"20360415"}}},{"Relevance":1.0,"Distance":7.0,"MatchLevel":"street","MatchQuality":{"Country":1.0,"State":1.0,"County":1.0,"City":1.0,"District":1.0,"Street":[1.0],"PostalCode":1.0},"Location":{"LocationId":"NT_XprHSsNkbvW.FIxXAvcl0B_l_51916631_L","LocationType":"point","DisplayPosition":{"Latitude":52.3711233,"Longitude":9.725755},"MapView":{"TopLeft":{"Latitude":52.37139,"Longitude":9.72533},"BottomRight":{"Latitude":52.37106,"Longitude":9.72587}},"Address":{"Label":"Feuerwehrstraße, 30169 Hannover, Deutschland","Country":"DEU","State":"Niedersachsen","County":"Region Hannover","City":"Hannover","District":"Calenberger Neustadt","Street":"Feuerwehrstraße","PostalCode":"30169","AdditionalData":[{"value":"Deutschland","key":"CountryName"},{"value":"Niedersachsen","key":"StateName"},{"value":"Region Hannover","key":"CountyName"}]},"MapReference":{"ReferenceId":"51916631","Spot":0.21,"SideOfStreet":"left","CountryId":"20147700","StateId":"20151542","CountyId":"20153026","CityId":"20152674","DistrictId":"20360415"}}},{"Relevance":1.0,"Distance":10.0,"MatchLevel":"street","MatchQuality":{"Country":1.0,"State":1.0,"County":1.0,"City":1.0,"District":1.0,"Street":[1.0],"PostalCode":1.0},"Location":{"LocationId":"NT_CuIpt9kSJgrC4bev7FhlDA_l_586504245_L","LocationType":"point","DisplayPosition":{"Latitude":52.37106,"Longitude":9.72587},"MapView":{"TopLeft":{"Latitude":52.37126,"Longitude":9.72587},"BottomRight":{"Latitude":52.37106,"Longitude":9.72695}},"Address":{"Label":"Ernst-Thoms-Weg, 30169 Hannover, Deutschland","Country":"DEU","State":"Niedersachsen","County":"Region Hannover","City":"Hannover","District":"Calenberger Neustadt","Street":"Ernst-Thoms-Weg","PostalCode":"30169","AdditionalData":[{"value":"Deutschland","key":"CountryName"},{"value":"Niedersachsen","key":"StateName"},{"value":"Region Hannover","key":"CountyName"}]},"MapReference":{"ReferenceId":"586504245","Spot":0.0,"SideOfStreet":"left","CountryId":"20147700","StateId":"20151542","CountyId":"20153026","CityId":"20152674","DistrictId":"20360415"}}},{"Relevance":1.0,"Distance":22.6,"MatchLevel":"houseNumber","MatchQuality":{"Country":1.0,"State":1.0,"County":1.0,"City":1.0,"District":1.0,"Street":[1.0],"HouseNumber":1.0,"PostalCode":1.0},"MatchType":"interpolated","Location":{"LocationId":"NT_2DFpucN5mEw974fyie8IHC_xED","LocationType":"point","DisplayPosition":{"Latitude":52.37096,"Longitude":9.72603},"MapView":{"TopLeft":{"Latitude":52.3720842,"Longitude":9.7241888},"BottomRight":{"Latitude":52.3698358,"Longitude":9.7278712}},"Address":{"Label":"Neustädter Straße 11, 30169 Hannover, Deutschland","Country":"DEU","State":"Niedersachsen","County":"Region Hannover","City":"Hannover","District":"Calenberger Neustadt","Street":"Neustädter Straße","HouseNumber":"11","PostalCode":"30169","AdditionalData":[{"value":"Deutschland","key":"CountryName"},{"value":"Niedersachsen","key":"StateName"},{"value":"Region Hannover","key":"CountyName"}]},"MapReference":{"ReferenceId":"51916759","Spot":0.88,"SideOfStreet":"left","CountryId":"20147700","StateId":"20151542","CountyId":"20153026","CityId":"20152674","DistrictId":"20360415","AddressId":"179396081","RoadLinkId":"37182922"}}},{"Relevance":1.0,"Distance":32.6,"MatchLevel":"houseNumber","MatchQuality":{"Country":1.0,"State":1.0,"County":1.0,"City":1.0,"District":1.0,"Street":[1.0],"HouseNumber":1.0,"PostalCode":1.0},"MatchType":"interpolated","Location":{"LocationId":"NT_OxD-31VrUGuTl5QtQLHKVA_2A","LocationType":"point","DisplayPosition":{"Latitude":52.37078,"Longitude":9.7256},"MapView":{"TopLeft":{"Latitude":52.3719042,"Longitude":9.7237588},"BottomRight":{"Latitude":52.3696558,"Longitude":9.7274412}},"Address":{"Label":"Bäckerstraße 6, 30169 Hannover, Deutschland","Country":"DEU","State":"Niedersachsen","County":"Region Hannover","City":"Hannover","District":"Calenberger Neustadt","Street":"Bäckerstraße","HouseNumber":"6","PostalCode":"30169","AdditionalData":[{"value":"Deutschland","key":"CountryName"},{"value":"Niedersachsen","key":"StateName"},{"value":"Region Hannover","key":"CountyName"}]},"MapReference":{"ReferenceId":"51916788","Spot":0.67,"SideOfStreet":"left","CountryId":"20147700","StateId":"20151542","CountyId":"20153026","CityId":"20152674","DistrictId":"20360415","AddressId":"732650806","RoadLinkId":"36897905"}}},{"Relevance":1.0,"Distance":42.1,"MatchLevel":"houseNumber","MatchQuality":{"Country":1.0,"State":1.0,"County":1.0,"City":1.0,"District":1.0,"Street":[1.0],"HouseNumber":1.0,"PostalCode":1.0},"MatchType":"interpolated","Location":{"LocationId":"NT_x1SAa8aL3fxaGC--6mO.iC_xA","LocationType":"point","DisplayPosition":{"Latitude":52.37156,"Longitude":9.72561},"MapView":{"TopLeft":{"Latitude":52.3726842,"Longitude":9.7237688},"BottomRight":{"Latitude":52.3704358,"Longitude":9.7274512}},"Address":{"Label":"Am Kanonenwall 1, 30169 Hannover, Deutschland","Country":"DEU","State":"Niedersachsen","County":"Region Hannover","City":"Hannover","District":"Calenberger Neustadt","Street":"Am Kanonenwall","HouseNumber":"1","PostalCode":"30169","AdditionalData":[{"value":"Deutschland","key":"CountryName"},{"value":"Niedersachsen","key":"StateName"},{"value":"Region Hannover","key":"CountyName"}]},"MapReference":{"ReferenceId":"51916586","Spot":0.22,"SideOfStreet":"right","CountryId":"20147700","StateId":"20151542","CountyId":"20153026","CityId":"20152674","DistrictId":"20360415","AddressId":"180677035","RoadLinkId":"36742728"}}},{"Relevance":1.0,"Distance":84.3,"MatchLevel":"street","MatchQuality":{"Country":1.0,"State":1.0,"County":1.0,"City":1.0,"District":1.0,"Street":[1.0],"PostalCode":1.0},"Location":{"LocationId":"NT_btXGKu9qMO6O-SgziXvYmD_l_586504248_L","LocationType":"point","DisplayPosition":{"Latitude":52.3711407,"Longitude":9.7269568},"MapView":{"TopLeft":{"Latitude":52.37125,"Longitude":9.72695},"BottomRight":{"Latitude":52.37109,"Longitude":9.72696}},"Address":{"Label":"Duvehof, 30169 Hannover, Deutschland","Country":"DEU","State":"Niedersachsen","County":"Region Hannover","City":"Hannover","District":"Calenberger Neustadt","Street":"Duvehof","PostalCode":"30169","AdditionalData":[{"value":"Deutschland","key":"CountryName"},{"value":"Niedersachsen","key":"StateName"},{"value":"Region Hannover","key":"CountyName"}]},"MapReference":{"ReferenceId":"586504248","Spot":0.32,"SideOfStreet":"left","CountryId":"20147700","StateId":"20151542","CountyId":"20153026","CityId":"20152674","DistrictId":"20360415"}}},{"Relevance":1.0,"Distance":85.9,"MatchLevel":"street","MatchQuality":{"Country":1.0,"State":1.0,"County":1.0,"City":1.0,"District":1.0,"Street":[1.0],"PostalCode":1.0},"Location":{"LocationId":"NT_CuIpt9kSJgrC4bev7FhlDA_l_586504246_R","LocationType":"point","DisplayPosition":{"Latitude":52.37125,"Longitude":9.72695},"MapView":{"TopLeft":{"Latitude":52.37126,"Longitude":9.72695},"BottomRight":{"Latitude":52.37125,"Longitude":9.72789}},"Address":{"Label":"Ernst-Thoms-Weg, 30169 Hannover, Deutschland","Country":"DEU","State":"Niedersachsen","County":"Region Hannover","City":"Hannover","District":"Calenberger Neustadt","Street":"Ernst-Thoms-Weg","PostalCode":"30169","AdditionalData":[{"value":"Deutschland","key":"CountryName"},{"value":"Niedersachsen","key":"StateName"},{"value":"Region Hannover","key":"CountyName"}]},"MapReference":{"ReferenceId":"586504246","Spot":0.0,"SideOfStreet":"right","CountryId":"20147700","StateId":"20151542","CountyId":"20153026","CityId":"20152674","DistrictId":"20360415"}}},{"Relevance":1.0,"Distance":85.9,"MatchLevel":"street","MatchQuality":{"Country":1.0,"State":1.0,"County":1.0,"City":1.0,"District":1.0,"Street":[1.0],"PostalCode":1.0},"Location":{"LocationId":"NT_T.JDZEx39UzSr0eRhupOID_l_586504247_L","LocationType":"point","DisplayPosition":{"Latitude":52.37125,"Longitude":9.72695},"MapView":{"TopLeft":{"Latitude":52.3715,"Longitude":9.72695},"BottomRight":{"Latitude":52.37125,"Longitude":9.72695}},"Address":{"Label":"Rosmarinhof, 30169 Hannover, Deutschland","Country":"DEU","State":"Niedersachsen","County":"Region Hannover","City":"Hannover","District":"Calenberger Neustadt","Street":"Rosmarinhof","PostalCode":"30169","AdditionalData":[{"value":"Deutschland","key":"CountryName"},{"value":"Niedersachsen","key":"StateName"},{"value":"Region Hannover","key":"CountyName"}]},"MapReference":{"ReferenceId":"586504247","Spot":0.0,"SideOfStreet":"left","CountryId":"20147700","StateId":"20151542","CountyId":"20153026","CityId":"20152674","DistrictId":"20360415"}}}]}]}}