{"Response":{"MetaInfo":{"Timestamp":"2020-03-28T11:40:02.469+0000","NextPageInformation":"2"},"View":[{"_type":"SearchResultsViewType","ViewId":0,"Result":[{"Relevance":1.0,"Distance":0.0,"Direction":0.0,"MatchLevel":"district","MatchQuality":{"Country":1.0,"State":1.0,"County":1.0,"City":1.0,"District":1.0,"PostalCode":1.0},"Location":{"LocationId":"NT_B5psKZsZlDJZpIBc7WggJB","LocationType":"point","DisplayPosition":{"Latitude":52.3022269,"Longitude":9.8042517},"MapView":{"TopLeft":{"Latitude":52.31429,"Longitude":9.79306},"BottomRight":{"Latitude":52.29554,"Longitude":9.84135}},"Address":{"Label":"Laatzen, Niedersachsen, Deutschland","Country":"DEU","State":"Niedersachsen","County":"Region Hannover","City":"Laatzen","District":"Laatzen","PostalCode":"30880","AdditionalData":[{"value":"Deutschland","key":"CountryName"},{"value":"Niedersachsen","key":"StateName"},{"value":"Region Hannover","key":"CountyName"}]},"MapReference":{"ReferenceId":"1046917349","SideOfStreet":"neither","CountryId":"20147700","StateId":"20151542","CountyId":"20153026","CityId":"20153098","DistrictId":"20153105"}}},{"Relevance":1.0,"Distance":8.4,"MatchLevel":"houseNumber","MatchQuality":{"Country":1.0,"State":1.0,"County":1.0,"City":1.0,"District":1.0,"Street":[1.0],"HouseNumber":1.0,"PostalCode":1.0},"MatchType":"interpolated","Location":{"LocationId":"NT_wH0t0JSCpvc-FwIV5Q9zqB_yEDN","LocationType":"point","DisplayPosition":{"Latitude":52.30225,"Longitude":9.80445},"MapView":{"TopLeft":{"Latitude":52.3033742,"Longitude":9.8026116},"BottomRight":{"Latitude":52.3011258,"Longitude":9.8062884}},"Address":{"Label":"Hildesheimer Straße 214, 30880 Laatzen, Deutschland","Country":"DEU","State":"Niedersachsen","County":"Region Hannover","City":"Laatzen","District":"Laatzen","Street":"Hildesheimer Straße","HouseNumber":"214","PostalCode":"30880","AdditionalData":[{"value":"Deutschland","key":"CountryName"},{"value":"Niedersachsen","key":"StateName"},{"value":"Region Hannover","key":"CountyName"}]},"MapReference":{"ReferenceId":"828805805","Spot":0.8,"SideOfStreet":"left","CountryId":"20147700","StateId":"20151542","CountyId":"20153026","CityId":"20153098","DistrictId":"20153105","AddressId":"177237195","RoadLinkId":"213260110"}}},{"Relevance":1.0,"Distance":21.5,"MatchLevel":"houseNumber","MatchQuality":{"Country":1.0,"State":1.0,"County":1.0,"City":1.0,"District":1.0,"Street":[1.0],"HouseNumber":1.0,"PostalCode":1.0},"MatchType":"interpolated","Location":{"LocationId":"NT_wH0t0JSCpvc-FwIV5Q9zqB_yEjM","LocationType":"point","DisplayPosition":{"Latitude":52.30242,"Longitude":9.80426},"MapView":{"TopLeft":{"Latitude":52.3035442,"Longitude":9.8024216},"BottomRight":{"Latitude":52.3012958,"Longitude":9.8060984}},"Address":{"Label":"Hildesheimer Straße 212, 30880 Laatzen, Deutschland","Country":"DEU","State":"Niedersachsen","County":"Region Hannover","City":"Laatzen","District":"Laatzen","Street":"Hildesheimer Straße","HouseNumber":"212","PostalCode":"30880","AdditionalData":[{"value":"Deutschland","key":"CountryName"},{"value":"Niedersachsen","key":"StateName"},{"value":"Region Hannover","key":"CountyName"}]},"MapReference":{"ReferenceId":"828805806","Spot":0.06,"SideOfStreet":"left","CountryId":"20147700","StateId":"20151542","CountyId":"20153026","CityId":"20153098","DistrictId":"20153105","AddressId":"180620604","RoadLinkId":"213260111"}}},{"Relevance":1.0,"Distance":24.6,"MatchLevel":"houseNumber","MatchQuality":{"Country":1.0,"State":1.0,"County":1.0,"City":1.0,"District":1.0,"Street":[1.0],"HouseNumber":1.0,"PostalCode":1.0},"MatchType":"interpolated","Location":{"LocationId":"NT_wH0t0JSCpvc-FwIV5Q9zqB_yMTOBB","LocationType":"point","DisplayPosition":{"Latitude":52.30226,"Longitude":9.80461},"MapView":{"TopLeft":{"Latitude":52.3033842,"Longitude":9.8027716},"BottomRight":{"Latitude":52.3011358,"Longitude":9.8064484}},"Address":{"Label":"Hildesheimer Straße 239A, 30880 Laatzen, Deutschland","Country":"DEU","State":"Niedersachsen","County":"Region Hannover","City":"Laatzen","District":"Laatzen","Street":"Hildesheimer Straße","HouseNumber":"239A","PostalCode":"30880","AdditionalData":[{"value":"Deutschland","key":"CountryName"},{"value":"Niedersachsen","key":"StateName"},{"value":"Region Hannover","key":"CountyName"}]},"MapReference":{"ReferenceId":"828805803","Spot":0.49,"SideOfStreet":"right","CountryId":"20147700","StateId":"20151542","CountyId":"20153026","CityId":"20153098","DistrictId":"20153105","AddressId":"180530661","RoadLinkId":"213260108"}}},{"Relevance":1.0,"Distance":28.2,"MatchLevel":"houseNumber","MatchQuality":{"Country":1.0,"State":1.0,"County":1.0,"City":1.0,"District":1.0,"Street":[1.0],"HouseNumber":1.0,"PostalCode":1.0},"MatchType":"interpolated","Location":{"LocationId":"NT_wH0t0JSCpvc-FwIV5Q9zqB_yMTN","LocationType":"point","DisplayPosition":{"Latitude":52.30247,"Longitude":9.80437},"MapView":{"TopLeft":{"Latitude":52.3035942,"Longitude":9.8025316},"BottomRight":{"Latitude":52.3013458,"Longitude":9.8062084}},"Address":{"Label":"Hildesheimer Straße 235, 30880 Laatzen, Deutschland","Country":"DEU","State":"Niedersachsen","County":"Region Hannover","City":"Laatzen","District":"Laatzen","Street":"Hildesheimer Straße","HouseNumber":"235","PostalCode":"30880","AdditionalData":[{"value":"Deutschland","key":"CountryName"},{"value":"Niedersachsen","key":"StateName"},{"value":"Region Hannover","key":"CountyName"}]},"MapReference":{"ReferenceId":"828805804","Spot":0.06,"SideOfStreet":"right","CountryId":"20147700","StateId":"20151542","CountyId":"20153026","CityId":"20153098","DistrictId":"20153105","AddressId":"177085792","RoadLinkId":"213260109"}}},{"Relevance":1.0,"Distance":29.1,"MatchLevel":"street","MatchQuality":{"Country":1.0,"State":1.0,"County":1.0,"City":1.0,"District":1.0,"Street":[1.0],"PostalCode":1.0},"Location":{"LocationId":"NT_CHVjFVDsLFIJLdOHIk2W4A_l_51892139_L","LocationType":"point","DisplayPosition":{"Latitude":52.30217,"Longitude":9.80467},"MapView":{"TopLeft":{"Latitude":52.30217,"Longitude":9.80467},"BottomRight":{"Latitude":52.30212,"Longitude":9.80484}},"Address":{"Label":"Hildesheimer Straße, 30880 Laatzen, Deutschland","Country":"DEU","State":"Niedersachsen","County":"Region Hannover","City":"Laatzen","District":"Laatzen","Street":"Hildesheimer Straße","PostalCode":"30880","AdditionalData":[{"value":"Deutschland","key":"CountryName"},{"value":"Niedersachsen","key":"StateName"},{"value":"Region Hannover","key":"CountyName"}]},"MapReference":{"ReferenceId":"51892139","Spot":1.0,"SideOfStreet":"left","CountryId":"20147700","StateId":"20151542","CountyId":"20153026","CityId":"20153098","DistrictId":"20153105"}}},{"Relevance":1.0,"Distance":31.4,"MatchLevel":"street","MatchQuality":{"Country":1.0,"State":1.0,"County":1.0,"City":1.0,"District":1.0,"Street":[1.0],"PostalCode":1.0},"Location":{"LocationId":"NT_l-UwjBcO2sKCANnVbMWSbB_l_51929140_L","LocationType":"point","DisplayPosition":{"Latitude":52.3019542,"Longitude":9.804374},"MapView":{"TopLeft":{"Latitude":52.30217,"Longitude":9.80432},"BottomRight":{"Latitude":52.30193,"Longitude":9.80467}},"Address":{"Label":"Neuer Schlag, 30880 Laatzen, Deutschland","Country":"DEU","State":"Niedersachsen","County":"Region Hannover","City":"Laatzen","District":"Laatzen","Street":"Neuer Schlag","PostalCode":"30880","AdditionalData":[{"value":"Deutschland","key":"CountryName"},{"value":"Niedersachsen","key":"StateName"},{"value":"Region Hannover","key":"CountyName"}]},"MapReference":{"ReferenceId":"51929140","Spot":0.13,"SideOfStreet":"left","CountryId":"20147700","StateId":"20151542","CountyId":"20153026","CityId":"20153098","DistrictId":"20153105"}}},{"Relevance":1.0,"Distance":33.3,"MatchLevel":"street","MatchQuality":{"Country":1.0,"State":1.0,"County":1.0,"City":1.0,"District":1.0,"Street":[1.0],"PostalCode":1.0},"Location":{"LocationId":"NT_t0X7ILpSoIRgTiWsVzbxMC_l_51929139_R","LocationType":"point","DisplayPosition":{"Latitude":52.30193,"Longitude":9.80432},"MapView":{"TopLeft":{"Latitude":52.30193,"Longitude":9.80432},"BottomRight":{"Latitude":52.30074,"Longitude":9.80493}},"Address":{"Label":"Grasweg, 30880 Laatzen, Deutschland","Country":"DEU","State":"Niedersachsen","County":"Region Hannover","City":"Laatzen","District":"Laatzen","Street":"Grasweg","PostalCode":"30880","AdditionalData":[{"value":"Deutschland","key":"CountryName"},{"value":"Niedersachsen","key":"StateName"},{"value":"Region Hannover","key":"CountyName"}]},"MapReference":{"ReferenceId":"51929139","Spot":1.0,"SideOfStreet":"right","CountryId":"20147700","StateId":"20151542","CountyId":"20153026","CityId":"20153098","DistrictId":"20153105"}}},{"Relevance":1.0,"Distance":36.1,"MatchLevel":"houseNumber","MatchQuality":{"Country":1.0,"State":1.0,"County":1.0,"City":1.0,"District":1.0,"Street":[1.0],"HouseNumber":1.0,"PostalCode":1.0},"MatchType":"interpolated","Location":{"LocationId":"NT_l-UwjBcO2sKCANnVbMWSbB_yA","LocationType":"point","DisplayPosition":{"Latitude":52.30186,"Longitude":9.80415},"MapView":{"TopLeft":{"Latitude":52.3029842,"Longitude":9.8023117},"BottomRight":{"Latitude":52.3007358,"Longitude":9.8059883}},"Address":{"Label":"Neuer Schlag 2, 30880 Laatzen, Deutschland","Country":"DEU","State":"Niedersachsen","County":"Region Hannover","City":"Laatzen","District":"Laatzen","Street":"Neuer Schlag","HouseNumber":"2","PostalCode":"30880","AdditionalData":[{"value":"Deutschland","key":"CountryName"},{"value":"Niedersachsen","key":"StateName"},{"value":"Region Hannover","key":"CountyName"}]},"MapReference":{"ReferenceId":"51892170","Spot":0.51,"SideOfStreet":"left","CountryId":"20147700","StateId":"20151542","CountyId":"20153026","CityId":"20153098","DistrictId":"20153105","AddressId":"177193797","RoadLinkId":"37200869"}}},{"Relevance":1.0,"Distance":41.7,"MatchLevel":"street","MatchQuality":{"Country":1.0,"State":1.0,"County":1.0,"City":1.0,"District":1.0,"Street":[1.0],"PostalCode":1.0},"Location":{"LocationId":"NT_wH0t0JSCpvc-FwIV5Q9zqB_l_51892142_L","LocationType":"point","DisplayPosition":{"Latitude":52.30212,"Longitude":9.80484},"MapView":{"TopLeft":{"Latitude":52.30212,"Longitude":9.80484},"BottomRight":{"Latitude":52.30209,"Longitude":9.80503}},"Address":{"Label":"Hildesheimer Straße, 30880 Laatzen, Deutschland","Country":"DEU","State":"Niedersachsen","County":"Region Hannover","City":"Laatzen","District":"Laatzen","Street":"Hildesheimer Straße","PostalCode":"30880","AdditionalData":[{"value":"Deutschland","key":"CountryName"},{"value":"Niedersachsen","key":"StateName"},{"value":"Region Hannover","key":"CountyName"}]},"MapReference":{"ReferenceId":"51892142","Spot":1.0,"SideOfStreet":"left","CountryId":"20147700","StateId":"20151542","CountyId":"20153026","CityId":"20153098","DistrictId":"20153105"}}}]}]}}