{"Response":{"MetaInfo":{"Timestamp":"2020-03-28T10:12:49.864+0000","NextPageInformation":"2"},"View":[{"_type":"SearchResultsViewType","ViewId":0,"Result":[{"Relevance":1.0,"Distance":0.0,"Direction":0.0,"MatchLevel":"city","MatchQuality":{"Country":1.0,"State":1.0,"County":1.0,"City":1.0,"PostalCode":1.0},"Location":{"LocationId":"NT_WSCxSWO3XPFL6fe9tUWZZA","LocationType":"point","DisplayPosition":{"Latitude":52.3441377,"Longitude":5.5307741},"MapView":{"TopLeft":{"Latitude":52.3674,"Longitude":5.48698},"BottomRight":{"Latitude":52.31572,"Longitude":5.55282}},"Address":{"Label":"Zeewolde, Flevoland, Nederland","Country":"NLD","State":"Flevoland","County":"Zeewolde","City":"Zeewolde","PostalCode":"3891 EA","AdditionalData":[{"value":"Nederland","key":"CountryName"},{"value":"Flevoland","key":"StateName"},{"value":"Zeewolde","key":"CountyName"}]},"MapReference":{"ReferenceId":"61119161","SideOfStreet":"neither","CountryId":"23055544","StateId":"23055502","CountyId":"23055655","CityId":"20201008"}}},{"Relevance":1.0,"Distance":9.1,"MatchLevel":"houseNumber","MatchQuality":{"Country":1.0,"State":1.0,"County":1.0,"City":1.0,"Street":[1.0],"HouseNumber":1.0,"PostalCode":1.0},"MatchType":"interpolated","Location":{"LocationId":"NT_CcV0TAFbvWzWw2FvOKQB2D_4A","LocationType":"point","DisplayPosition":{"Latitude":52.34432,"Longitude":5.5305},"MapView":{"TopLeft":{"Latitude":52.3454442,"Longitude":5.5286599},"BottomRight":{"Latitude":52.3431958,"Longitude":5.5323401}},"Address":{"Label":"Telluur 8, 3894 DT Zeewolde, Nederland","Country":"NLD","State":"Flevoland","County":"Zeewolde","City":"Zeewolde","Street":"Telluur","HouseNumber":"8","PostalCode":"3894 DT","AdditionalData":[{"value":"Nederland","key":"CountryName"},{"value":"Flevoland","key":"StateName"},{"value":"Zeewolde","key":"CountyName"}]},"MapReference":{"ReferenceId":"1197005096","Spot":0.39,"SideOfStreet":"right","CountryId":"23055544","StateId":"23055502","CountyId":"23055655","CityId":"20201008","AddressId":"620024235","RoadLinkId":"507658943"}}},{"Relevance":1.0,"Distance":24.9,"MatchLevel":"houseNumber","MatchQuality":{"Country":1.0,"State":1.0,"County":1.0,"City":1.0,"Street":[1.0],"HouseNumber":1.0,"PostalCode":1.0},"MatchType":"interpolated","Location":{"LocationId":"NT_Vi7P8zGubEcjG6clKyJH7B_yMD","LocationType":"point","DisplayPosition":{"Latitude":52.34459,"Longitude":5.53123},"MapView":{"TopLeft":{"Latitude":52.3457142,"Longitude":5.5293899},"BottomRight":{"Latitude":52.3434658,"Longitude":5.5330701}},"Address":{"Label":"Woltraam 23, 3894 DS Zeewolde, Nederland","Country":"NLD","State":"Flevoland","County":"Zeewolde","City":"Zeewolde","Street":"Woltraam","HouseNumber":"23","PostalCode":"3894 DS","AdditionalData":[{"value":"Nederland","key":"CountryName"},{"value":"Flevoland","key":"StateName"},{"value":"Zeewolde","key":"CountyName"}]},"MapReference":{"ReferenceId":"833036008","Spot":0.78,"SideOfStreet":"left","CountryId":"23055544","StateId":"23055502","CountyId":"23055655","CityId":"20201008","AddressId":"620035927","RoadLinkId":"216266985"}}},{"Relevance":1.0,"Distance":25.1,"MatchLevel":"houseNumber","MatchQuality":{"Country":1.0,"State":1.0,"County":1.0,"City":1.0,"Street":[1.0],"HouseNumber":1.0,"PostalCode":1.0},"MatchType":"interpolated","Location":{"LocationId":"NT_CcV0TAFbvWzWw2FvOKQB2D_xA","LocationType":"point","DisplayPosition":{"Latitude":52.34385,"Longitude":5.53049},"MapView":{"TopLeft":{"Latitude":52.3449742,"Longitude":5.5286499},"BottomRight":{"Latitude":52.3427258,"Longitude":5.5323301}},"Address":{"Label":"Telluur 1, 3894 DT Zeewolde, Nederland","Country":"NLD","State":"Flevoland","County":"Zeewolde","City":"Zeewolde","Street":"Telluur","HouseNumber":"1","PostalCode":"3894 DT","AdditionalData":[{"value":"Nederland","key":"CountryName"},{"value":"Flevoland","key":"StateName"},{"value":"Zeewolde","key":"CountyName"}]},"MapReference":{"ReferenceId":"1197005095","Spot":0.47,"SideOfStreet":"right","CountryId":"23055544","StateId":"23055502","CountyId":"23055655","CityId":"20201008","AddressId":"620035629","RoadLinkId":"507658942"}}},{"Relevance":1.0,"Distance":42.2,"MatchLevel":"houseNumber","MatchQuality":{"Country":1.0,"State":1.0,"County":1.0,"City":1.0,"Street":[1.0],"HouseNumber":1.0,"PostalCode":1.0},"MatchType":"interpolated","Location":{"LocationId":"NT_l6.G12EwmSBSPQIQ9u8SMC_5A","LocationType":"point","DisplayPosition":{"Latitude":52.34367,"Longitude":5.53088},"MapView":{"TopLeft":{"Latitude":52.3447942,"Longitude":5.5290399},"BottomRight":{"Latitude":52.3425458,"Longitude":5.5327201}},"Address":{"Label":"Radon 9, 3894 DP Zeewolde, Nederland","Country":"NLD","State":"Flevoland","County":"Zeewolde","City":"Zeewolde","Street":"Radon","HouseNumber":"9","PostalCode":"3894 DP","AdditionalData":[{"value":"Nederland","key":"CountryName"},{"value":"Flevoland","key":"StateName"},{"value":"Zeewolde","key":"CountyName"}]},"MapReference":{"ReferenceId":"833036003","Spot":0.05,"SideOfStreet":"left","CountryId":"23055544","StateId":"23055502","CountyId":"23055655","CityId":"20201008","AddressId":"620035627","RoadLinkId":"216266980"}}},{"Relevance":1.0,"Distance":52.9,"MatchLevel":"street","MatchQuality":{"Country":1.0,"State":1.0,"County":1.0,"City":1.0,"PostalCode":1.0},"Location":{"LocationId":"NT_YcNwww0a5WDowinMlKbq7A_l_1102783302_R","LocationType":"point","DisplayPosition":{"Latitude":52.3445813,"Longitude":5.5304915},"MapView":{"TopLeft":{"Latitude":52.34509,"Longitude":5.52887},"BottomRight":{"Latitude":52.34376,"Longitude":5.53129}},"Address":{"Label":"3894 Zeewolde, Nederland","Country":"NLD","State":"Flevoland","County":"Zeewolde","City":"Zeewolde","PostalCode":"3894","AdditionalData":[{"value":"Nederland","key":"CountryName"},{"value":"Flevoland","key":"StateName"},{"value":"Zeewolde","key":"CountyName"}]},"MapReference":{"ReferenceId":"1102783302","Spot":0.66,"SideOfStreet":"right","CountryId":"23055544","StateId":"23055502","CountyId":"23055655","CityId":"20201008"}}},{"Relevance":1.0,"Distance":53.2,"MatchLevel":"houseNumber","MatchQuality":{"Country":1.0,"State":1.0,"County":1.0,"City":1.0,"Street":[1.0],"HouseNumber":1.0,"PostalCode":1.0},"MatchType":"interpolated","Location":{"LocationId":"NT_Vi7P8zGubEcjG6clKyJH7B_3A","LocationType":"point","DisplayPosition":{"Latitude":52.34425,"Longitude":5.53183},"MapView":{"TopLeft":{"Latitude":52.3453742,"Longitude":5.5299899},"BottomRight":{"Latitude":52.3431258,"Longitude":5.5336701}},"Address":{"Label":"Woltraam 7, 3894 DS Zeewolde, Nederland","Country":"NLD","State":"Flevoland","County":"Zeewolde","City":"Zeewolde","Street":"Woltraam","HouseNumber":"7","PostalCode":"3894 DS","AdditionalData":[{"value":"Nederland","key":"CountryName"},{"value":"Flevoland","key":"StateName"},{"value":"Zeewolde","key":"CountyName"}]},"MapReference":{"ReferenceId":"1197005092","Spot":1.0,"SideOfStreet":"left","CountryId":"23055544","StateId":"23055502","CountyId":"23055655","CityId":"20201008","AddressId":"619969124","RoadLinkId":"507658939"}}},{"Relevance":1.0,"Distance":63.3,"MatchLevel":"street","MatchQuality":{"Country":1.0,"State":1.0,"County":1.0,"City":1.0,"Street":[1.0],"PostalCode":1.0},"Location":{"LocationId":"NT_xEIrC0ZbWzykhtTiXtjP3D_l_832775499_R","LocationType":"point","DisplayPosition":{"Latitude":52.3446631,"Longitude":5.5304169},"MapView":{"TopLeft":{"Latitude":52.34474,"Longitude":5.52876},"BottomRight":{"Latitude":52.34387,"Longitude":5.53053}},"Address":{"Label":"Zeewolderweg, 3894 Zeewolde, Nederland","Country":"NLD","State":"Flevoland","County":"Zeewolde","City":"Zeewolde","Street":"Zeewolderweg","PostalCode":"3894","AdditionalData":[{"value":"Nederland","key":"CountryName"},{"value":"Flevoland","key":"StateName"},{"value":"Zeewolde","key":"CountyName"}]},"MapReference":{"ReferenceId":"832775499","Spot":0.93,"SideOfStreet":"right","CountryId":"23055544","StateId":"23055502","CountyId":"23055655","CityId":"20201008"}}},{"Relevance":1.0,"Distance":69.0,"MatchLevel":"street","MatchQuality":{"Country":1.0,"State":1.0,"County":1.0,"City":1.0,"Street":[1.0],"PostalCode":1.0},"Location":{"LocationId":"NT_xEIrC0ZbWzykhtTiXtjP3D_l_808280273_R","LocationType":"point","DisplayPosition":{"Latitude":52.34474,"Longitude":5.53053},"MapView":{"TopLeft":{"Latitude":52.34526,"Longitude":5.53053},"BottomRight":{"Latitude":52.34474,"Longitude":5.5313}},"Address":{"Label":"Zeewolderweg, 3894 Zeewolde, Nederland","Country":"NLD","State":"Flevoland","County":"Zeewolde","City":"Zeewolde","Street":"Zeewolderweg","PostalCode":"3894","AdditionalData":[{"value":"Nederland","key":"CountryName"},{"value":"Flevoland","key":"StateName"},{"value":"Zeewolde","key":"CountyName"}]},"MapReference":{"ReferenceId":"808280273","Spot":0.0,"SideOfStreet":"right","CountryId":"23055544","StateId":"23055502","CountyId":"23055655","CityId":"20201008"}}},{"Relevance":1.0,"Distance":78.6,"MatchLevel":"houseNumber","MatchQuality":{"Country":1.0,"State":1.0,"County":1.0,"City":1.0,"Street":[1.0],"HouseNumber":1.0,"PostalCode":1.0},"MatchType":"interpolated","Location":{"LocationId":"NT_CcV0TAFbvWzWw2FvOKQB2D_xID","LocationType":"point","DisplayPosition":{"Latitude":52.34479,"Longitude":5.53122},"MapView":{"TopLeft":{"Latitude":52.3459142,"Longitude":5.5293799},"BottomRight":{"Latitude":52.3436658,"Longitude":5.5330601}},"Address":{"Label":"Telluur 12, 3894 DT Zeewolde, Nederland","Country":"NLD","State":"Flevoland","County":"Zeewolde","City":"Zeewolde","Street":"Telluur","HouseNumber":"12","PostalCode":"3894 DT","AdditionalData":[{"value":"Nederland","key":"CountryName"},{"value":"Flevoland","key":"StateName"},{"value":"Zeewolde","key":"CountyName"}]},"MapReference":{"ReferenceId":"833036006","Spot":0.24,"SideOfStreet":"right","CountryId":"23055544","StateId":"23055502","CountyId":"23055655","CityId":"20201008","AddressId":"737051215","RoadLinkId":"216266983"}}}]}]}}