{"Response":{"MetaInfo":{"Timestamp":"2020-03-28T10:55:56.056+0000","NextPageInformation":"2"},"View":[{"_type":"SearchResultsViewType","ViewId":0,"Result":[{"Relevance":1.0,"Distance":0.0,"Direction":0.0,"MatchLevel":"district","MatchQuality":{"Country":1.0,"State":1.0,"County":1.0,"City":1.0,"District":1.0,"PostalCode":1.0},"Location":{"LocationId":"NT_71r1fyiL1ImQXuiPqIJ2hB","LocationType":"point","DisplayPosition":{"Latitude":52.3842117,"Longitude":13.1363608},"MapView":{"TopLeft":{"Latitude":52.38879,"Longitude":13.11384},"BottomRight":{"Latitude":52.37224,"Longitude":13.14902}},"Address":{"Label":"Am Stern, Potsdam, Brandenburg, Deutschland","Country":"DEU","State":"Brandenburg","County":"Potsdam","City":"Potsdam","District":"Am Stern","PostalCode":"14480","AdditionalData":[{"value":"Deutschland","key":"CountryName"},{"value":"Brandenburg","key":"StateName"},{"value":"Potsdam","key":"CountyName"}]},"MapReference":{"ReferenceId":"1189612888","SideOfStreet":"neither","CountryId":"20147700","StateId":"20187428","CountyId":"20187477","CityId":"20187478","DistrictId":"20462685"}}},{"Relevance":1.0,"Distance":27.7,"MatchLevel":"street","MatchQuality":{"Country":1.0,"State":1.0,"County":1.0,"City":1.0,"District":1.0,"Street":[1.0],"PostalCode":1.0},"Location":{"LocationId":"NT_R40eMy5QC.ERa7hoLcoCJB_l_53513919_R","LocationType":"point","DisplayPosition":{"Latitude":52.38403,"Longitude":13.13664},"MapView":{"TopLeft":{"Latitude":52.38403,"Longitude":13.13664},"BottomRight":{"Latitude":52.38401,"Longitude":13.13717}},"Address":{"Label":"Hubertusdamm, 14480 Potsdam, Deutschland","Country":"DEU","State":"Brandenburg","County":"Potsdam","City":"Potsdam","District":"Am Stern","Street":"Hubertusdamm","PostalCode":"14480","AdditionalData":[{"value":"Deutschland","key":"CountryName"},{"value":"Brandenburg","key":"StateName"},{"value":"Potsdam","key":"CountyName"}]},"MapReference":{"ReferenceId":"53513919","Spot":1.0,"SideOfStreet":"right","CountryId":"20147700","StateId":"20187428","CountyId":"20187477","CityId":"20187478","DistrictId":"20462685"}}},{"Relevance":1.0,"Distance":34.7,"MatchLevel":"houseNumber","MatchQuality":{"Country":1.0,"State":1.0,"County":1.0,"City":1.0,"District":1.0,"Street":[1.0],"HouseNumber":1.0,"PostalCode":1.0},"MatchType":"interpolated","Location":{"LocationId":"NT_R40eMy5QC.ERa7hoLcoCJB_0cD","LocationType":"point","DisplayPosition":{"Latitude":52.38409,"Longitude":13.13589},"MapView":{"TopLeft":{"Latitude":52.3852142,"Longitude":13.1340482},"BottomRight":{"Latitude":52.3829658,"Longitude":13.1377318}},"Address":{"Label":"Hubertusdamm 47, 14480 Potsdam, Deutschland","Country":"DEU","State":"Brandenburg","County":"Potsdam","City":"Potsdam","District":"Am Stern","Street":"Hubertusdamm","HouseNumber":"47","PostalCode":"14480","AdditionalData":[{"value":"Deutschland","key":"CountryName"},{"value":"Brandenburg","key":"StateName"},{"value":"Potsdam","key":"CountyName"}]},"MapReference":{"ReferenceId":"53513917","Spot":0.46,"SideOfStreet":"left","CountryId":"20147700","StateId":"20187428","CountyId":"20187477","CityId":"20187478","DistrictId":"20462685","AddressId":"183295194","RoadLinkId":"37743770"}}},{"Relevance":1.0,"Distance":43.5,"MatchLevel":"houseNumber","MatchQuality":{"Country":1.0,"State":1.0,"County":1.0,"City":1.0,"District":1.0,"Street":[1.0],"HouseNumber":1.0,"PostalCode":1.0},"MatchType":"interpolated","Location":{"LocationId":"NT_R40eMy5QC.ERa7hoLcoCJB_0gD","LocationType":"point","DisplayPosition":{"Latitude":52.38452,"Longitude":13.13591},"MapView":{"TopLeft":{"Latitude":52.3856442,"Longitude":13.1340682},"BottomRight":{"Latitude":52.3833958,"Longitude":13.1377518}},"Address":{"Label":"Hubertusdamm 48, 14480 Potsdam, Deutschland","Country":"DEU","State":"Brandenburg","County":"Potsdam","City":"Potsdam","District":"Am Stern","Street":"Hubertusdamm","HouseNumber":"48","PostalCode":"14480","AdditionalData":[{"value":"Deutschland","key":"CountryName"},{"value":"Brandenburg","key":"StateName"},{"value":"Potsdam","key":"CountyName"}]},"MapReference":{"ReferenceId":"53513874","Spot":0.27,"SideOfStreet":"left","CountryId":"20147700","StateId":"20187428","CountyId":"20187477","CityId":"20187478","DistrictId":"20462685","AddressId":"183296199","RoadLinkId":"37812665"}}},{"Relevance":1.0,"Distance":56.0,"MatchLevel":"houseNumber","MatchQuality":{"Country":1.0,"State":1.0,"County":1.0,"City":1.0,"District":1.0,"Street":[1.0],"HouseNumber":1.0,"PostalCode":1.0},"MatchType":"interpolated","Location":{"LocationId":"NT_2Ct7P5XGBkLzjlGhYoDZBA_zUD","LocationType":"point","DisplayPosition":{"Latitude":52.3837,"Longitude":13.1366},"MapView":{"TopLeft":{"Latitude":52.3848242,"Longitude":13.1347582},"BottomRight":{"Latitude":52.3825758,"Longitude":13.1384418}},"Address":{"Label":"Flotowstraße 35, 14480 Potsdam, Deutschland","Country":"DEU","State":"Brandenburg","County":"Potsdam","City":"Potsdam","District":"Am Stern","Street":"Flotowstraße","HouseNumber":"35","PostalCode":"14480","AdditionalData":[{"value":"Deutschland","key":"CountryName"},{"value":"Brandenburg","key":"StateName"},{"value":"Potsdam","key":"CountyName"}]},"MapReference":{"ReferenceId":"53516458","Spot":0.55,"SideOfStreet":"left","CountryId":"20147700","StateId":"20187428","CountyId":"20187477","CityId":"20187478","DistrictId":"20462685","AddressId":"183324744","RoadLinkId":"37719355"}}},{"Relevance":1.0,"Distance":59.3,"MatchLevel":"street","MatchQuality":{"Country":1.0,"State":1.0,"County":1.0,"City":1.0,"District":1.0,"Street":[1.0],"PostalCode":1.0},"Location":{"LocationId":"NT_R40eMy5QC.ERa7hoLcoCJB_l_53513922_R","LocationType":"point","DisplayPosition":{"Latitude":52.38401,"Longitude":13.13717},"MapView":{"TopLeft":{"Latitude":52.38401,"Longitude":13.13717},"BottomRight":{"Latitude":52.38399,"Longitude":13.13793}},"Address":{"Label":"Hubertusdamm, 14480 Potsdam, Deutschland","Country":"DEU","State":"Brandenburg","County":"Potsdam","City":"Potsdam","District":"Am Stern","Street":"Hubertusdamm","PostalCode":"14480","AdditionalData":[{"value":"Deutschland","key":"CountryName"},{"value":"Brandenburg","key":"StateName"},{"value":"Potsdam","key":"CountyName"}]},"MapReference":{"ReferenceId":"53513922","Spot":1.0,"SideOfStreet":"right","CountryId":"20147700","StateId":"20187428","CountyId":"20187477","CityId":"20187478","DistrictId":"20462685"}}},{"Relevance":1.0,"Distance":61.7,"MatchLevel":"houseNumber","MatchQuality":{"Country":1.0,"State":1.0,"County":1.0,"City":1.0,"District":1.0,"Street":[1.0],"HouseNumber":1.0,"PostalCode":1.0},"MatchType":"interpolated","Location":{"LocationId":"NT_R40eMy5QC.ERa7hoLcoCJB_0kD","LocationType":"point","DisplayPosition":{"Latitude":52.38382,"Longitude":13.13715},"MapView":{"TopLeft":{"Latitude":52.3849442,"Longitude":13.1353082},"BottomRight":{"Latitude":52.3826958,"Longitude":13.1389918}},"Address":{"Label":"Hubertusdamm 49, 14480 Potsdam, Deutschland","Country":"DEU","State":"Brandenburg","County":"Potsdam","City":"Potsdam","District":"Am Stern","Street":"Hubertusdamm","HouseNumber":"49","PostalCode":"14480","AdditionalData":[{"value":"Deutschland","key":"CountryName"},{"value":"Brandenburg","key":"StateName"},{"value":"Potsdam","key":"CountyName"}]},"MapReference":{"ReferenceId":"53516459","Spot":0.74,"SideOfStreet":"left","CountryId":"20147700","StateId":"20187428","CountyId":"20187477","CityId":"20187478","DistrictId":"20462685","AddressId":"182669634","RoadLinkId":"37832469"}}},{"Relevance":1.0,"Distance":80.5,"MatchLevel":"houseNumber","MatchQuality":{"Country":1.0,"State":1.0,"County":1.0,"City":1.0,"District":1.0,"Street":[1.0],"HouseNumber":1.0,"PostalCode":1.0},"MatchType":"interpolated","Location":{"LocationId":"NT_QdmNhBZHh33WpUeQnVf.bB_2ID","LocationType":"point","DisplayPosition":{"Latitude":52.38355,"Longitude":13.13588},"MapView":{"TopLeft":{"Latitude":52.3846742,"Longitude":13.1340383},"BottomRight":{"Latitude":52.3824258,"Longitude":13.1377217}},"Address":{"Label":"Gluckstraße 62, 14480 Potsdam, Deutschland","Country":"DEU","State":"Brandenburg","County":"Potsdam","City":"Potsdam","District":"Am Stern","Street":"Gluckstraße","HouseNumber":"62","PostalCode":"14480","AdditionalData":[{"value":"Deutschland","key":"CountryName"},{"value":"Brandenburg","key":"StateName"},{"value":"Potsdam","key":"CountyName"}]},"MapReference":{"ReferenceId":"53514006","Spot":0.93,"SideOfStreet":"left","CountryId":"20147700","StateId":"20187428","CountyId":"20187477","CityId":"20187478","DistrictId":"20462685","AddressId":"182681832","RoadLinkId":"37979749"}}},{"Relevance":1.0,"Distance":91.9,"MatchLevel":"street","MatchQuality":{"Country":1.0,"State":1.0,"County":1.0,"City":1.0,"District":1.0,"Street":[1.0],"PostalCode":1.0},"Location":{"LocationId":"NT_R40eMy5QC.ERa7hoLcoCJB_l_53513904_R","LocationType":"point","DisplayPosition":{"Latitude":52.3845121,"Longitude":13.1350991},"MapView":{"TopLeft":{"Latitude":52.3846,"Longitude":13.13502},"BottomRight":{"Latitude":52.38418,"Longitude":13.13512}},"Address":{"Label":"Hubertusdamm, 14480 Potsdam, Deutschland","Country":"DEU","State":"Brandenburg","County":"Potsdam","City":"Potsdam","District":"Am Stern","Street":"Hubertusdamm","PostalCode":"14480","AdditionalData":[{"value":"Deutschland","key":"CountryName"},{"value":"Brandenburg","key":"StateName"},{"value":"Potsdam","key":"CountyName"}]},"MapReference":{"ReferenceId":"53513904","Spot":0.79,"SideOfStreet":"right","CountryId":"20147700","StateId":"20187428","CountyId":"20187477","CityId":"20187478","DistrictId":"20462685"}}},{"Relevance":1.0,"Distance":102.3,"MatchLevel":"street","MatchQuality":{"Country":1.0,"State":1.0,"County":1.0,"City":1.0,"District":1.0,"Street":[1.0],"PostalCode":1.0},"Location":{"LocationId":"NT_R40eMy5QC.ERa7hoLcoCJB_l_53516460_R","LocationType":"point","DisplayPosition":{"Latitude":52.3833,"Longitude":13.13656},"MapView":{"TopLeft":{"Latitude":52.3833,"Longitude":13.13656},"BottomRight":{"Latitude":52.38328,"Longitude":13.13714}},"Address":{"Label":"Hubertusdamm, 14480 Potsdam, Deutschland","Country":"DEU","State":"Brandenburg","County":"Potsdam","City":"Potsdam","District":"Am Stern","Street":"Hubertusdamm","PostalCode":"14480","AdditionalData":[{"value":"Deutschland","key":"CountryName"},{"value":"Brandenburg","key":"StateName"},{"value":"Potsdam","key":"CountyName"}]},"MapReference":{"ReferenceId":"53516460","Spot":1.0,"SideOfStreet":"right","CountryId":"20147700","StateId":"20187428","CountyId":"20187477","CityId":"20187478","DistrictId":"20462685"}}}]}]}}