{"Response":{"MetaInfo":{"Timestamp":"2020-03-28T10:40:35.305+0000","NextPageInformation":"2"},"View":[{"_type":"SearchResultsViewType","ViewId":0,"Result":[{"Relevance":1.0,"Distance":0.0,"Direction":0.0,"MatchLevel":"district","MatchQuality":{"Country":1.0,"State":1.0,"County":1.0,"City":1.0,"District":1.0,"PostalCode":1.0},"Location":{"LocationId":"NT_S6xaIhKn1UnXSvl-ijJ1yC","LocationType":"point","DisplayPosition":{"Latitude":52.3056694,"Longitude":0.4887078},"MapView":{"TopLeft":{"Latitude":52.31054,"Longitude":0.47868},"BottomRight":{"Latitude":52.29853,"Longitude":0.50367}},"Address":{"Label":"Red Lodge, Bury St Edmunds, England, United Kingdom","Country":"GBR","State":"England","County":"Suffolk","City":"Bury St Edmunds","District":"Red Lodge","PostalCode":"IP28 8","AdditionalData":[{"value":"United Kingdom","key":"CountryName"},{"value":"England","key":"StateName"},{"value":"Suffolk","key":"CountyName"}]},"MapReference":{"ReferenceId":"781909845","SideOfStreet":"neither","StateId":"20248595","CountyId":"20338322","CityId":"20351044","DistrictId":"20351109"}}},{"Relevance":1.0,"Distance":22.5,"MatchLevel":"houseNumber","MatchQuality":{"Country":1.0,"State":1.0,"County":1.0,"City":1.0,"District":1.0,"Street":[1.0],"HouseNumber":1.0,"PostalCode":1.0},"MatchType":"interpolated","Location":{"LocationId":"NT_-sUI5PFfAyAwFRoTS6ZQVD_l_1004977991_L_yQD","LocationType":"point","DisplayPosition":{"Latitude":52.30587,"Longitude":0.48866},"MapView":{"TopLeft":{"Latitude":52.3069942,"Longitude":0.4868215},"BottomRight":{"Latitude":52.3047459,"Longitude":0.4904985}},"Address":{"Label":"24 Turnpike Road, Bury St Edmunds, IP28 8JZ, United Kingdom","Country":"GBR","State":"England","County":"Suffolk","City":"Bury St Edmunds","District":"Red Lodge","Street":"Turnpike Road","HouseNumber":"24","PostalCode":"IP28 8JZ","AdditionalData":[{"value":"United Kingdom","key":"CountryName"},{"value":"England","key":"StateName"},{"value":"Suffolk","key":"CountyName"}]},"MapReference":{"ReferenceId":"1004977991","Spot":0.43,"SideOfStreet":"left","StateId":"20248595","CountyId":"20338322","CityId":"20351044","DistrictId":"20351109"}}},{"Relevance":1.0,"Distance":33.3,"MatchLevel":"houseNumber","MatchQuality":{"Country":1.0,"State":1.0,"County":1.0,"City":1.0,"District":1.0,"Street":[1.0],"HouseNumber":1.0,"PostalCode":1.0},"MatchType":"interpolated","Location":{"LocationId":"NT_iTH9xh9qRa1tOedMao.iwA_l_778494105_L_xA","LocationType":"point","DisplayPosition":{"Latitude":52.30609,"Longitude":0.48865},"MapView":{"TopLeft":{"Latitude":52.3072142,"Longitude":0.4868115},"BottomRight":{"Latitude":52.3049659,"Longitude":0.4904885}},"Address":{"Label":"1 Fern Way, Bury St Edmunds, IP28 8WW, United Kingdom","Country":"GBR","State":"England","County":"Suffolk","City":"Bury St Edmunds","District":"Red Lodge","Street":"Fern Way","HouseNumber":"1","PostalCode":"IP28 8WW","AdditionalData":[{"value":"United Kingdom","key":"CountryName"},{"value":"England","key":"StateName"},{"value":"Suffolk","key":"CountyName"}]},"MapReference":{"ReferenceId":"778494105","Spot":0.11,"SideOfStreet":"left","StateId":"20248595","CountyId":"20338322","CityId":"20351044","DistrictId":"20351109"}}},{"Relevance":1.0,"Distance":42.6,"MatchLevel":"houseNumber","MatchQuality":{"Country":1.0,"State":1.0,"County":1.0,"City":1.0,"District":1.0,"Street":[1.0],"HouseNumber":1.0,"PostalCode":1.0},"MatchType":"interpolated","Location":{"LocationId":"NT_99I6nEsyq61tOXiTaxTJLB_l_778494104_R_2MD","LocationType":"point","DisplayPosition":{"Latitude":52.3061102,"Longitude":0.4889603},"MapView":{"TopLeft":{"Latitude":52.3072344,"Longitude":0.4871218},"BottomRight":{"Latitude":52.3049861,"Longitude":0.4907988}},"Address":{"Label":"63 Turnpike Road, Bury St Edmunds, IP28 8, United Kingdom","Country":"GBR","State":"England","County":"Suffolk","City":"Bury St Edmunds","District":"Red Lodge","Street":"Turnpike Road","HouseNumber":"63","PostalCode":"IP28 8","AdditionalData":[{"value":"United Kingdom","key":"CountryName"},{"value":"England","key":"StateName"},{"value":"Suffolk","key":"CountyName"}]},"MapReference":{"ReferenceId":"778494104","Spot":0.05,"SideOfStreet":"right","StateId":"20248595","CountyId":"20338322","CityId":"20351044","DistrictId":"20351109"}}},{"Relevance":1.0,"Distance":48.2,"MatchLevel":"houseNumber","MatchQuality":{"Country":1.0,"State":1.0,"County":1.0,"City":1.0,"District":1.0,"Street":[1.0],"HouseNumber":1.0,"PostalCode":1.0},"MatchType":"interpolated","Location":{"LocationId":"NT_ADnbVelfEH2VdBdYWu6r0D_l_26180316_L_yQD","LocationType":"point","DisplayPosition":{"Latitude":52.30527,"Longitude":0.4893501},"MapView":{"TopLeft":{"Latitude":52.3063942,"Longitude":0.4875116},"BottomRight":{"Latitude":52.3041459,"Longitude":0.4911885}},"Address":{"Label":"24 Laburnum Close, Bury St Edmunds, IP28 8LR, United Kingdom","Country":"GBR","State":"England","County":"Suffolk","City":"Bury St Edmunds","District":"Red Lodge","Street":"Laburnum Close","HouseNumber":"24","PostalCode":"IP28 8LR","AdditionalData":[{"value":"United Kingdom","key":"CountryName"},{"value":"England","key":"StateName"},{"value":"Suffolk","key":"CountyName"}]},"MapReference":{"ReferenceId":"26180316","Spot":0.07,"SideOfStreet":"left","StateId":"20248595","CountyId":"20338322","CityId":"20351044","DistrictId":"20351109"}}},{"Relevance":1.0,"Distance":65.3,"MatchLevel":"houseNumber","MatchQuality":{"Country":1.0,"State":1.0,"County":1.0,"City":1.0,"District":1.0,"Street":[1.0],"HouseNumber":1.0,"PostalCode":1.0},"MatchType":"interpolated","Location":{"LocationId":"NT_-sUI5PFfAyAwFRoTS6ZQVD_l_1004977990_R_2UD","LocationType":"point","DisplayPosition":{"Latitude":52.3053136,"Longitude":0.4879446},"MapView":{"TopLeft":{"Latitude":52.3064377,"Longitude":0.4861061},"BottomRight":{"Latitude":52.3041894,"Longitude":0.4897831}},"Address":{"Label":"65 Turnpike Road, Bury St Edmunds, IP28 8, United Kingdom","Country":"GBR","State":"England","County":"Suffolk","City":"Bury St Edmunds","District":"Red Lodge","Street":"Turnpike Road","HouseNumber":"65","PostalCode":"IP28 8","AdditionalData":[{"value":"United Kingdom","key":"CountryName"},{"value":"England","key":"StateName"},{"value":"Suffolk","key":"CountyName"}]},"MapReference":{"ReferenceId":"1004977990","Spot":0.5,"SideOfStreet":"right","StateId":"20248595","CountyId":"20338322","CityId":"20351044","DistrictId":"20351109"}}},{"Relevance":1.0,"Distance":74.3,"MatchLevel":"postalCode","MatchQuality":{"PostalCode":1.0},"MatchType":"interpolated","Location":{"LocationId":"NT_99I6nEsyq61tOXiTaxTJLB_l_778494104_R_2MD","LocationType":"point","DisplayPosition":{"Latitude":52.3057,"Longitude":0.4898},"MapView":{"TopLeft":{"Latitude":52.3146932,"Longitude":0.4750919},"BottomRight":{"Latitude":52.2967068,"Longitude":0.5045081}},"Address":{"Label":"IP28 8JZ, Bury St Edmunds, England, United Kingdom","Country":"GBR","State":"England","County":"Suffolk","City":"Bury St Edmunds","PostalCode":"IP28 8JZ","AdditionalData":[{"value":"United Kingdom","key":"CountryName"},{"value":"England","key":"StateName"},{"value":"Suffolk","key":"CountyName"}]},"MapReference":{"ReferenceId":"778494104","Spot":0.05,"SideOfStreet":"neither","StateId":"20248595","CountyId":"20338322","CityId":"20351044"}}},{"Relevance":1.0,"Distance":94.5,"MatchLevel":"postalCode","MatchQuality":{"PostalCode":1.0},"MatchType":"interpolated","Location":{"LocationId":"NT_iTH9xh9qRa1tOedMao.iwA_l_778494105_L_xA","LocationType":"point","DisplayPosition":{"Latitude":52.30619,"Longitude":0.48761},"MapView":{"TopLeft":{"Latitude":52.3151832,"Longitude":0.4729018},"BottomRight":{"Latitude":52.2971968,"Longitude":0.5023182}},"Address":{"Label":"IP28 8WW, Bury St Edmunds, England, United Kingdom","Country":"GBR","State":"England","County":"Suffolk","City":"Bury St Edmunds","PostalCode":"IP28 8WW","AdditionalData":[{"value":"United Kingdom","key":"CountryName"},{"value":"England","key":"StateName"},{"value":"Suffolk","key":"CountyName"}]},"MapReference":{"ReferenceId":"778494105","Spot":0.11,"SideOfStreet":"neither","StateId":"20248595","CountyId":"20338322","CityId":"20351044"}}},{"Relevance":1.0,"Distance":118.8,"MatchLevel":"houseNumber","MatchQuality":{"Country":1.0,"State":1.0,"County":1.0,"City":1.0,"District":1.0,"Street":[1.0],"HouseNumber":1.0,"PostalCode":1.0},"MatchType":"interpolated","Location":{"LocationId":"NT_09qYPGOJ29nMRZEwTgnxvC_l_966347149_R_yA","LocationType":"point","DisplayPosition":{"Latitude":52.30495,"Longitude":0.48719},"MapView":{"TopLeft":{"Latitude":52.3060742,"Longitude":0.4853515},"BottomRight":{"Latitude":52.3038259,"Longitude":0.4890285}},"Address":{"Label":"2 Spearmint Way, Bury St Edmunds, IP28 8, United Kingdom","Country":"GBR","State":"England","County":"Suffolk","City":"Bury St Edmunds","District":"Red Lodge","Street":"Spearmint Way","HouseNumber":"2","PostalCode":"IP28 8","AdditionalData":[{"value":"United Kingdom","key":"CountryName"},{"value":"England","key":"StateName"},{"value":"Suffolk","key":"CountyName"}]},"MapReference":{"ReferenceId":"966347149","Spot":0.14,"SideOfStreet":"right","StateId":"20248595","CountyId":"20338322","CityId":"20351044","DistrictId":"20351109"}}},{"Relevance":1.0,"Distance":128.4,"MatchLevel":"street","MatchQuality":{"Country":1.0,"State":1.0,"County":1.0,"City":1.0,"District":1.0,"Street":[1.0],"PostalCode":1.0},"Location":{"LocationId":"NT_99I6nEsyq61tOXiTaxTJLB_l_960262948_R","LocationType":"point","DisplayPosition":{"Latitude":52.30486,"Longitude":0.48736},"MapView":{"TopLeft":{"Latitude":52.30486,"Longitude":0.48717},"BottomRight":{"Latitude":52.30471,"Longitude":0.48736}},"Address":{"Label":"Turnpike Road, Bury St Edmunds, IP28 8, United Kingdom","Country":"GBR","State":"England","County":"Suffolk","City":"Bury St Edmunds","District":"Red Lodge","Street":"Turnpike Road","PostalCode":"IP28 8","AdditionalData":[{"value":"United Kingdom","key":"CountryName"},{"value":"England","key":"StateName"},{"value":"Suffolk","key":"CountyName"}]},"MapReference":{"ReferenceId":"960262948","Spot":1.0,"SideOfStreet":"right","StateId":"20248595","CountyId":"20338322","CityId":"20351044","DistrictId":"20351109"}}}]}]}}