{"Response":{"MetaInfo":{"Timestamp":"2020-03-28T10:12:46.307+0000","NextPageInformation":"2"},"View":[{"_type":"SearchResultsViewType","ViewId":0,"Result":[{"Relevance":1.0,"Distance":0.0,"Direction":0.0,"MatchLevel":"district","MatchQuality":{"Country":1.0,"State":1.0,"County":1.0,"City":1.0,"District":1.0,"PostalCode":1.0},"Location":{"LocationId":"NT_LAz-Z71avmOuczKZTETL8B","LocationType":"point","DisplayPosition":{"Latitude":52.3536865,"Longitude":4.6543745},"MapView":{"TopLeft":{"Latitude":52.37166,"Longitude":4.63512},"BottomRight":{"Latitude":52.3389,"Longitude":4.67652}},"Address":{"Label":"Schalkwijk, Haarlem, Noord-Holland, Nederland","Country":"NLD","State":"Noord-Holland","County":"Haarlem","City":"Haarlem","District":"Schalkwijk","PostalCode":"2037","AdditionalData":[{"value":"Nederland","key":"CountryName"},{"value":"Noord-Holland","key":"StateName"},{"value":"Haarlem","key":"CountyName"}]},"MapReference":{"ReferenceId":"708875203","SideOfStreet":"neither","CountryId":"23055544","StateId":"23055789","CountyId":"23055675","CityId":"20201729"}}},{"Relevance":1.0,"Distance":18.8,"MatchLevel":"street","MatchQuality":{"Country":1.0,"State":1.0,"County":1.0,"City":1.0,"District":1.0,"Street":[1.0],"PostalCode":1.0},"Location":{"LocationId":"NT_mkpNhyv4k.b--mutPkKyuB_l_1208396188_L","LocationType":"point","DisplayPosition":{"Latitude":52.3536954,"Longitude":4.6546514},"MapView":{"TopLeft":{"Latitude":52.35405,"Longitude":4.65464},"BottomRight":{"Latitude":52.35312,"Longitude":4.65467}},"Address":{"Label":"Groningenlaan, 2036 Haarlem, Nederland","Country":"NLD","State":"Noord-Holland","County":"Haarlem","City":"Haarlem","District":"Schalkwijk","Street":"Groningenlaan","PostalCode":"2036","AdditionalData":[{"value":"Nederland","key":"CountryName"},{"value":"Noord-Holland","key":"StateName"},{"value":"Haarlem","key":"CountyName"}]},"MapReference":{"ReferenceId":"1208396188","Spot":0.62,"SideOfStreet":"left","CountryId":"23055544","StateId":"23055789","CountyId":"23055675","CityId":"20201729"}}},{"Relevance":1.0,"Distance":42.5,"MatchLevel":"street","MatchQuality":{"Country":1.0,"State":1.0,"County":1.0,"City":1.0,"District":1.0,"PostalCode":1.0},"Location":{"LocationId":"NT_JpGB6ZrLTHkAT7FlyHxe8C_l_916487689_L","LocationType":"point","DisplayPosition":{"Latitude":52.35405,"Longitude":4.65457},"MapView":{"TopLeft":{"Latitude":52.35416,"Longitude":4.65445},"BottomRight":{"Latitude":52.35405,"Longitude":4.65464}},"Address":{"Label":"2036 Haarlem, Nederland","Country":"NLD","State":"Noord-Holland","County":"Haarlem","City":"Haarlem","District":"Schalkwijk","PostalCode":"2036","AdditionalData":[{"value":"Nederland","key":"CountryName"},{"value":"Noord-Holland","key":"StateName"},{"value":"Haarlem","key":"CountyName"}]},"MapReference":{"ReferenceId":"916487689","Spot":0.3,"SideOfStreet":"left","CountryId":"23055544","StateId":"23055789","CountyId":"23055675","CityId":"20201729"}}},{"Relevance":1.0,"Distance":44.3,"MatchLevel":"street","MatchQuality":{"Country":1.0,"State":1.0,"County":1.0,"City":1.0,"District":1.0,"Street":[1.0],"PostalCode":1.0},"Location":{"LocationId":"NT_ao4FIEC1RdvJkLzwzT6JfD_l_917897086_L","LocationType":"point","DisplayPosition":{"Latitude":52.35405,"Longitude":4.65464},"MapView":{"TopLeft":{"Latitude":52.35421,"Longitude":4.65457},"BottomRight":{"Latitude":52.35405,"Longitude":4.65464}},"Address":{"Label":"Groningenlaan, 2037 Haarlem, Nederland","Country":"NLD","State":"Noord-Holland","County":"Haarlem","City":"Haarlem","District":"Schalkwijk","Street":"Groningenlaan","PostalCode":"2037","AdditionalData":[{"value":"Nederland","key":"CountryName"},{"value":"Noord-Holland","key":"StateName"},{"value":"Haarlem","key":"CountyName"}]},"MapReference":{"ReferenceId":"917897086","Spot":0.0,"SideOfStreet":"left","CountryId":"23055544","StateId":"23055789","CountyId":"23055675","CityId":"20201729"}}},{"Relevance":1.0,"Distance":47.4,"MatchLevel":"houseNumber","MatchQuality":{"Country":1.0,"State":1.0,"County":1.0,"City":1.0,"District":1.0,"Street":[1.0],"HouseNumber":1.0,"PostalCode":1.0},"MatchType":"interpolated","Location":{"LocationId":"NT_N3RnoykSe2Kfk6dPhvSXHA_xA","LocationType":"point","DisplayPosition":{"Latitude":52.35334,"Longitude":4.65478},"MapView":{"TopLeft":{"Latitude":52.3544642,"Longitude":4.6529395},"BottomRight":{"Latitude":52.3522158,"Longitude":4.6566205}},"Address":{"Label":"Groningenlaan 1, 2036 EP Haarlem, Nederland","Country":"NLD","State":"Noord-Holland","County":"Haarlem","City":"Haarlem","District":"Schalkwijk","Street":"Groningenlaan","HouseNumber":"1","PostalCode":"2036 EP","AdditionalData":[{"value":"Nederland","key":"CountryName"},{"value":"Noord-Holland","key":"StateName"},{"value":"Haarlem","key":"CountyName"}]},"MapReference":{"ReferenceId":"1208396186","Spot":0.24,"SideOfStreet":"right","CountryId":"23055544","StateId":"23055789","CountyId":"23055675","CityId":"20201729","AddressId":"615451315","RoadLinkId":"522789965"}}},{"Relevance":1.0,"Distance":47.4,"MatchLevel":"street","MatchQuality":{"Country":1.0,"State":1.0,"County":1.0,"City":1.0,"District":1.0,"PostalCode":1.0},"Location":{"LocationId":"NT_JpGB6ZrLTHkAT7FlyHxe8C_l_916487687_R","LocationType":"point","DisplayPosition":{"Latitude":52.35411,"Longitude":4.6543},"MapView":{"TopLeft":{"Latitude":52.35416,"Longitude":4.65311},"BottomRight":{"Latitude":52.35407,"Longitude":4.65445}},"Address":{"Label":"2036 Haarlem, Nederland","Country":"NLD","State":"Noord-Holland","County":"Haarlem","City":"Haarlem","District":"Schalkwijk","PostalCode":"2036","AdditionalData":[{"value":"Nederland","key":"CountryName"},{"value":"Noord-Holland","key":"StateName"},{"value":"Haarlem","key":"CountyName"}]},"MapReference":{"ReferenceId":"916487687","Spot":0.88,"SideOfStreet":"right","CountryId":"23055544","StateId":"23055789","CountyId":"23055675","CityId":"20201729"}}},{"Relevance":1.0,"Distance":48.9,"MatchLevel":"street","MatchQuality":{"Country":1.0,"State":1.0,"County":1.0,"City":1.0,"District":1.0,"Street":[1.0],"PostalCode":1.0},"Location":{"LocationId":"NT_mkpNhyv4k.b--mutPkKyuB_l_1208395188_L","LocationType":"point","DisplayPosition":{"Latitude":52.35405,"Longitude":4.65478},"MapView":{"TopLeft":{"Latitude":52.3542,"Longitude":4.65476},"BottomRight":{"Latitude":52.35405,"Longitude":4.65478}},"Address":{"Label":"Groningenlaan, 2036 Haarlem, Nederland","Country":"NLD","State":"Noord-Holland","County":"Haarlem","City":"Haarlem","District":"Schalkwijk","Street":"Groningenlaan","PostalCode":"2036","AdditionalData":[{"value":"Nederland","key":"CountryName"},{"value":"Noord-Holland","key":"StateName"},{"value":"Haarlem","key":"CountyName"}]},"MapReference":{"ReferenceId":"1208395188","Spot":0.0,"SideOfStreet":"left","CountryId":"23055544","StateId":"23055789","CountyId":"23055675","CityId":"20201729"}}},{"Relevance":1.0,"Distance":52.9,"MatchLevel":"street","MatchQuality":{"Country":1.0,"State":1.0,"County":1.0,"City":1.0,"District":1.0,"PostalCode":1.0},"Location":{"LocationId":"NT_JpGB6ZrLTHkAT7FlyHxe8C_l_916487688_L","LocationType":"point","DisplayPosition":{"Latitude":52.35416,"Longitude":4.65445},"MapView":{"TopLeft":{"Latitude":52.35428,"Longitude":4.65438},"BottomRight":{"Latitude":52.35416,"Longitude":4.65449}},"Address":{"Label":"2036 Haarlem, Nederland","Country":"NLD","State":"Noord-Holland","County":"Haarlem","City":"Haarlem","District":"Schalkwijk","PostalCode":"2036","AdditionalData":[{"value":"Nederland","key":"CountryName"},{"value":"Noord-Holland","key":"StateName"},{"value":"Haarlem","key":"CountyName"}]},"MapReference":{"ReferenceId":"916487688","Spot":0.0,"SideOfStreet":"left","CountryId":"23055544","StateId":"23055789","CountyId":"23055675","CityId":"20201729"}}},{"Relevance":1.0,"Distance":59.7,"MatchLevel":"street","MatchQuality":{"Country":1.0,"State":1.0,"County":1.0,"City":1.0,"District":1.0,"Street":[1.0],"PostalCode":1.0},"Location":{"LocationId":"NT_mkpNhyv4k.b--mutPkKyuB_l_54228418_L","LocationType":"point","DisplayPosition":{"Latitude":52.35421,"Longitude":4.65457},"MapView":{"TopLeft":{"Latitude":52.35428,"Longitude":4.65449},"BottomRight":{"Latitude":52.35421,"Longitude":4.65457}},"Address":{"Label":"Groningenlaan, 2036 Haarlem, Nederland","Country":"NLD","State":"Noord-Holland","County":"Haarlem","City":"Haarlem","District":"Schalkwijk","Street":"Groningenlaan","PostalCode":"2036","AdditionalData":[{"value":"Nederland","key":"CountryName"},{"value":"Noord-Holland","key":"StateName"},{"value":"Haarlem","key":"CountyName"}]},"MapReference":{"ReferenceId":"54228418","Spot":0.0,"SideOfStreet":"left","CountryId":"23055544","StateId":"23055789","CountyId":"23055675","CityId":"20201729"}}},{"Relevance":1.0,"Distance":59.7,"MatchLevel":"street","MatchQuality":{"Country":1.0,"State":1.0,"County":1.0,"City":1.0,"District":1.0,"PostalCode":1.0},"Location":{"LocationId":"NT_U.ZBgQ2xs.Ef9vhXwEtQUA_l_54228417_L","LocationType":"point","DisplayPosition":{"Latitude":52.35421,"Longitude":4.65457},"MapView":{"TopLeft":{"Latitude":52.35421,"Longitude":4.65457},"BottomRight":{"Latitude":52.3542,"Longitude":4.65476}},"Address":{"Label":"2037 Haarlem, Nederland","Country":"NLD","State":"Noord-Holland","County":"Haarlem","City":"Haarlem","District":"Schalkwijk","PostalCode":"2037","AdditionalData":[{"value":"Nederland","key":"CountryName"},{"value":"Noord-Holland","key":"StateName"},{"value":"Haarlem","key":"CountyName"}]},"MapReference":{"ReferenceId":"54228417","Spot":1.0,"SideOfStreet":"left","CountryId":"23055544","StateId":"23055789","CountyId":"23055675","CityId":"20201729"}}}]}]}}