{"Response":{"MetaInfo":{"Timestamp":"2020-03-28T10:21:31.461+0000","NextPageInformation":"2"},"View":[{"_type":"SearchResultsViewType","ViewId":0,"Result":[{"Relevance":1.0,"Distance":-54.0,"MatchLevel":"landmark","MatchQuality":{"Country":1.0,"State":1.0,"County":1.0,"City":1.0,"District":1.0,"PostalCode":1.0,"Name":1.0},"Location":{"LocationId":"NT_srQ.n-7Nq9sS2nczWYJlED","LocationType":"industrialComplex","Name":"Industriegebiet Lübbecke","DisplayPosition":{"Latitude":52.32693,"Longitude":8.62404},"MapView":{"TopLeft":{"Latitude":52.33121,"Longitude":8.60984},"BottomRight":{"Latitude":52.32265,"Longitude":8.63187}},"Address":{"Label":"32312 Lübbecke, Deutschland","Country":"DEU","State":"Nordrhein-Westfalen","County":"Minden-Lübbecke","City":"Lübbecke","District":"Lübbecke","PostalCode":"32312","AdditionalData":[{"value":"Deutschland","key":"CountryName"},{"value":"Nordrhein-Westfalen","key":"StateName"},{"value":"Minden-Lübbecke","key":"CountyName"}]},"MapReference":{"CountryId":"20147700","StateId":"20157369","CountyId":"20159946","CityId":"20159984","DistrictId":"20159990","PlaceId":"1410367812"}}},{"Relevance":1.0,"Distance":0.0,"Direction":0.0,"MatchLevel":"district","MatchQuality":{"Country":1.0,"State":1.0,"County":1.0,"City":1.0,"District":1.0,"PostalCode":1.0},"Location":{"LocationId":"NT_ITQscr-8jyx73nl4tL6RpD","LocationType":"point","DisplayPosition":{"Latitude":52.3257209,"Longitude":8.6135326},"MapView":{"TopLeft":{"Latitude":52.33557,"Longitude":8.58279},"BottomRight":{"Latitude":52.29331,"Longitude":8.63946}},"Address":{"Label":"Lübbecke, Nordrhein-Westfalen, Deutschland","Country":"DEU","State":"Nordrhein-Westfalen","County":"Minden-Lübbecke","City":"Lübbecke","District":"Lübbecke","PostalCode":"32312","AdditionalData":[{"value":"Deutschland","key":"CountryName"},{"value":"Nordrhein-Westfalen","key":"StateName"},{"value":"Minden-Lübbecke","key":"CountyName"}]},"MapReference":{"ReferenceId":"1216098366","SideOfStreet":"neither","CountryId":"20147700","StateId":"20157369","CountyId":"20159946","CityId":"20159984","DistrictId":"20159990"}}},{"Relevance":1.0,"Distance":25.8,"MatchLevel":"houseNumber","MatchQuality":{"Country":1.0,"State":1.0,"County":1.0,"City":1.0,"District":1.0,"Street":[1.0],"HouseNumber":1.0,"PostalCode":1.0},"MatchType":"interpolated","Location":{"LocationId":"NT_t8UxOaViEIeH08QMjqCkaA_xQzM","LocationType":"point","DisplayPosition":{"Latitude":52.32584,"Longitude":8.61296},"MapView":{"TopLeft":{"Latitude":52.3269642,"Longitude":8.6111207},"BottomRight":{"Latitude":52.3247158,"Longitude":8.6147993}},"Address":{"Label":"Rahdener Straße 143, 32312 Lübbecke, Deutschland","Country":"DEU","State":"Nordrhein-Westfalen","County":"Minden-Lübbecke","City":"Lübbecke","District":"Lübbecke","Street":"Rahdener Straße","HouseNumber":"143","PostalCode":"32312","AdditionalData":[{"value":"Deutschland","key":"CountryName"},{"value":"Nordrhein-Westfalen","key":"StateName"},{"value":"Minden-Lübbecke","key":"CountyName"}]},"MapReference":{"ReferenceId":"1215885962","Spot":0.88,"SideOfStreet":"right","CountryId":"20147700","StateId":"20157369","CountyId":"20159946","CityId":"20159984","DistrictId":"20159990","AddressId":"192650900","RoadLinkId":"532112597"}}},{"Relevance":1.0,"Distance":40.8,"MatchLevel":"street","MatchQuality":{"Country":1.0,"State":1.0,"County":1.0,"City":1.0,"District":1.0,"Street":[1.0],"PostalCode":1.0},"Location":{"LocationId":"NT_t8UxOaViEIeH08QMjqCkaA_l_1215894411_R","LocationType":"point","DisplayPosition":{"Latitude":52.32585,"Longitude":8.61297},"MapView":{"TopLeft":{"Latitude":52.32615,"Longitude":8.61247},"BottomRight":{"Latitude":52.32585,"Longitude":8.61297}},"Address":{"Label":"Rahdener Straße, 32312 Lübbecke, Deutschland","Country":"DEU","State":"Nordrhein-Westfalen","County":"Minden-Lübbecke","City":"Lübbecke","District":"Lübbecke","Street":"Rahdener Straße","PostalCode":"32312","AdditionalData":[{"value":"Deutschland","key":"CountryName"},{"value":"Nordrhein-Westfalen","key":"StateName"},{"value":"Minden-Lübbecke","key":"CountyName"}]},"MapReference":{"ReferenceId":"1215894411","Spot":0.0,"SideOfStreet":"right","CountryId":"20147700","StateId":"20157369","CountyId":"20159946","CityId":"20159984","DistrictId":"20159990"}}},{"Relevance":1.0,"Distance":42.5,"MatchLevel":"houseNumber","MatchQuality":{"Country":1.0,"State":1.0,"County":1.0,"City":1.0,"District":1.0,"Street":[1.0],"HouseNumber":1.0,"PostalCode":1.0},"MatchType":"interpolated","Location":{"LocationId":"NT_t8UxOaViEIeH08QMjqCkaA_xIDM","LocationType":"point","DisplayPosition":{"Latitude":52.32576,"Longitude":8.61291},"MapView":{"TopLeft":{"Latitude":52.3268842,"Longitude":8.6110707},"BottomRight":{"Latitude":52.3246358,"Longitude":8.6147493}},"Address":{"Label":"Rahdener Straße 120, 32312 Lübbecke, Deutschland","Country":"DEU","State":"Nordrhein-Westfalen","County":"Minden-Lübbecke","City":"Lübbecke","District":"Lübbecke","Street":"Rahdener Straße","HouseNumber":"120","PostalCode":"32312","AdditionalData":[{"value":"Deutschland","key":"CountryName"},{"value":"Nordrhein-Westfalen","key":"StateName"},{"value":"Minden-Lübbecke","key":"CountyName"}]},"MapReference":{"ReferenceId":"1190963325","Spot":1.0,"SideOfStreet":"left","CountryId":"20147700","StateId":"20157369","CountyId":"20159946","CityId":"20159984","DistrictId":"20159990","AddressId":"195066321","RoadLinkId":"500416237"}}},{"Relevance":1.0,"Distance":47.6,"MatchLevel":"street","MatchQuality":{"Country":1.0,"State":1.0,"County":1.0,"City":1.0,"District":1.0,"Street":[1.0],"PostalCode":1.0},"Location":{"LocationId":"NT_t8UxOaViEIeH08QMjqCkaA_l_1215885963_R","LocationType":"point","DisplayPosition":{"Latitude":52.3260613,"Longitude":8.6131071},"MapView":{"TopLeft":{"Latitude":52.32619,"Longitude":8.61297},"BottomRight":{"Latitude":52.32585,"Longitude":8.61321}},"Address":{"Label":"Rahdener Straße, 32312 Lübbecke, Deutschland","Country":"DEU","State":"Nordrhein-Westfalen","County":"Minden-Lübbecke","City":"Lübbecke","District":"Lübbecke","Street":"Rahdener Straße","PostalCode":"32312","AdditionalData":[{"value":"Deutschland","key":"CountryName"},{"value":"Nordrhein-Westfalen","key":"StateName"},{"value":"Minden-Lübbecke","key":"CountyName"}]},"MapReference":{"ReferenceId":"1215885963","Spot":0.61,"SideOfStreet":"right","CountryId":"20147700","StateId":"20157369","CountyId":"20159946","CityId":"20159984","DistrictId":"20159990"}}},{"Relevance":1.0,"Distance":52.4,"MatchLevel":"houseNumber","MatchQuality":{"Country":1.0,"State":1.0,"County":1.0,"City":1.0,"District":1.0,"Street":[1.0],"HouseNumber":1.0,"PostalCode":1.0},"MatchType":"interpolated","Location":{"LocationId":"NT_ac9mEdWjLaQ8EJY4wczuID_zA","LocationType":"point","DisplayPosition":{"Latitude":52.32623,"Longitude":8.61407},"MapView":{"TopLeft":{"Latitude":52.3273542,"Longitude":8.6122306},"BottomRight":{"Latitude":52.3251058,"Longitude":8.6159094}},"Address":{"Label":"Industriestraße 3, 32312 Lübbecke, Deutschland","Country":"DEU","State":"Nordrhein-Westfalen","County":"Minden-Lübbecke","City":"Lübbecke","District":"Lübbecke","Street":"Industriestraße","HouseNumber":"3","PostalCode":"32312","AdditionalData":[{"value":"Deutschland","key":"CountryName"},{"value":"Nordrhein-Westfalen","key":"StateName"},{"value":"Minden-Lübbecke","key":"CountyName"}]},"MapReference":{"ReferenceId":"1205291109","Spot":0.47,"SideOfStreet":"right","CountryId":"20147700","StateId":"20157369","CountyId":"20159946","CityId":"20159984","DistrictId":"20159990","AddressId":"194375073","RoadLinkId":"518886458"}}},{"Relevance":1.0,"Distance":54.1,"MatchLevel":"street","MatchQuality":{"Country":1.0,"State":1.0,"County":1.0,"City":1.0,"District":1.0,"Street":[1.0],"PostalCode":1.0},"Location":{"LocationId":"NT_DTkBwfVVcClz5KlPbP3.WA_l_1190966020_R","LocationType":"point","DisplayPosition":{"Latitude":52.326207,"Longitude":8.6135046},"MapView":{"TopLeft":{"Latitude":52.32622,"Longitude":8.61321},"BottomRight":{"Latitude":52.32619,"Longitude":8.61373}},"Address":{"Label":"Industriestraße, 32312 Lübbecke, Deutschland","Country":"DEU","State":"Nordrhein-Westfalen","County":"Minden-Lübbecke","City":"Lübbecke","District":"Lübbecke","Street":"Industriestraße","PostalCode":"32312","AdditionalData":[{"value":"Deutschland","key":"CountryName"},{"value":"Nordrhein-Westfalen","key":"StateName"},{"value":"Minden-Lübbecke","key":"CountyName"}]},"MapReference":{"ReferenceId":"1190966020","Spot":0.57,"SideOfStreet":"right","CountryId":"20147700","StateId":"20157369","CountyId":"20159946","CityId":"20159984","DistrictId":"20159990"}}},{"Relevance":1.0,"Distance":56.6,"MatchLevel":"street","MatchQuality":{"Country":1.0,"State":1.0,"County":1.0,"City":1.0,"District":1.0,"Street":[1.0],"PostalCode":1.0},"Location":{"LocationId":"NT_t8UxOaViEIeH08QMjqCkaA_l_1191006737_R","LocationType":"point","DisplayPosition":{"Latitude":52.32619,"Longitude":8.61321},"MapView":{"TopLeft":{"Latitude":52.32645,"Longitude":8.61321},"BottomRight":{"Latitude":52.32619,"Longitude":8.61339}},"Address":{"Label":"Rahdener Straße, 32312 Lübbecke, Deutschland","Country":"DEU","State":"Nordrhein-Westfalen","County":"Minden-Lübbecke","City":"Lübbecke","District":"Lübbecke","Street":"Rahdener Straße","PostalCode":"32312","AdditionalData":[{"value":"Deutschland","key":"CountryName"},{"value":"Nordrhein-Westfalen","key":"StateName"},{"value":"Minden-Lübbecke","key":"CountyName"}]},"MapReference":{"ReferenceId":"1191006737","Spot":0.0,"SideOfStreet":"right","CountryId":"20147700","StateId":"20157369","CountyId":"20159946","CityId":"20159984","DistrictId":"20159990"}}},{"Relevance":1.0,"Distance":56.6,"MatchLevel":"street","MatchQuality":{"Country":1.0,"State":1.0,"County":1.0,"City":1.0,"District":1.0,"Street":[1.0],"PostalCode":1.0},"Location":{"LocationId":"NT_.zd9C8vnxkLDow4UZPDEeB_l_918304450_R","LocationType":"point","DisplayPosition":{"Latitude":52.32619,"Longitude":8.61321},"MapView":{"TopLeft":{"Latitude":52.32619,"Longitude":8.61292},"BottomRight":{"Latitude":52.32617,"Longitude":8.61321}},"Address":{"Label":"Maschweg, 32312 Lübbecke, Deutschland","Country":"DEU","State":"Nordrhein-Westfalen","County":"Minden-Lübbecke","City":"Lübbecke","District":"Lübbecke","Street":"Maschweg","PostalCode":"32312","AdditionalData":[{"value":"Deutschland","key":"CountryName"},{"value":"Nordrhein-Westfalen","key":"StateName"},{"value":"Minden-Lübbecke","key":"CountyName"}]},"MapReference":{"ReferenceId":"918304450","Spot":1.0,"SideOfStreet":"right","CountryId":"20147700","StateId":"20157369","CountyId":"20159946","CityId":"20159984","DistrictId":"20159990"}}}]}]}}