{"Response":{"MetaInfo":{"Timestamp":"2020-03-28T10:45:25.970+0000","NextPageInformation":"2"},"View":[{"_type":"SearchResultsViewType","ViewId":0,"Result":[{"Relevance":1.0,"Distance":0.0,"Direction":0.0,"MatchLevel":"district","MatchQuality":{"Country":1.0,"State":1.0,"County":1.0,"City":1.0,"District":1.0,"PostalCode":1.0},"Location":{"LocationId":"NT_M--dPHtXzUu7958D2wZBGB","LocationType":"point","DisplayPosition":{"Latitude":52.3099316,"Longitude":17.8197879},"MapView":{"TopLeft":{"Latitude":52.32302,"Longitude":17.79891},"BottomRight":{"Latitude":52.29855,"Longitude":17.83808}},"Address":{"Label":"Strzałkowo, Woj. Wielkopolskie, Polska","Country":"POL","State":"Woj. Wielkopolskie","County":"Powiat Słupecki","City":"Strzałkowo","District":"Strzałkowo","PostalCode":"62-420","AdditionalData":[{"value":"Polska","key":"CountryName"},{"value":"Woj. Wielkopolskie","key":"StateName"},{"value":"Powiat Słupecki","key":"CountyName"}]},"MapReference":{"ReferenceId":"1179317182","SideOfStreet":"neither","CountryId":"20624059","StateId":"20629915","CountyId":"20631762","CityId":"20631775","DistrictId":"20697368"}}},{"Relevance":1.0,"Distance":14.4,"MatchLevel":"houseNumber","MatchQuality":{"Country":1.0,"State":1.0,"County":1.0,"City":1.0,"District":1.0,"Street":[1.0],"HouseNumber":1.0,"PostalCode":1.0},"MatchType":"interpolated","Location":{"LocationId":"NT_qVKmEfM8EGB88-Hndwf9SB_xQD","LocationType":"point","DisplayPosition":{"Latitude":52.30951,"Longitude":17.8196},"MapView":{"TopLeft":{"Latitude":52.3106342,"Longitude":17.8177613},"BottomRight":{"Latitude":52.3083858,"Longitude":17.8214387}},"Address":{"Label":"aleja prym. Stefana Wyszyńskiego 14, 62-420 Strzałkowo, Polska","Country":"POL","State":"Woj. Wielkopolskie","County":"Powiat Słupecki","City":"Strzałkowo","District":"Strzałkowo","Street":"aleja prym. Stefana Wyszyńskiego","HouseNumber":"14","PostalCode":"62-420","AdditionalData":[{"value":"Polska","key":"CountryName"},{"value":"Woj. Wielkopolskie","key":"StateName"},{"value":"Powiat Słupecki","key":"CountyName"}]},"MapReference":{"ReferenceId":"1179317179","Spot":0.24,"SideOfStreet":"right","CountryId":"20624059","StateId":"20629915","CountyId":"20631762","CityId":"20631775","DistrictId":"20697368","AddressId":"688995544","RoadLinkId":"487109571"}}},{"Relevance":1.0,"Distance":44.2,"MatchLevel":"houseNumber","MatchQuality":{"Country":1.0,"State":1.0,"County":1.0,"City":1.0,"District":1.0,"Street":[1.0],"HouseNumber":1.0,"PostalCode":1.0},"MatchType":"interpolated","Location":{"LocationId":"NT_YLgPcRJ95I8oMN8yBp2VKC_xA","LocationType":"point","DisplayPosition":{"Latitude":52.31007,"Longitude":17.82054},"MapView":{"TopLeft":{"Latitude":52.3111942,"Longitude":17.8187013},"BottomRight":{"Latitude":52.3089458,"Longitude":17.8223787}},"Address":{"Label":"ulica Szkolna 1, 62-420 Strzałkowo, Polska","Country":"POL","State":"Woj. Wielkopolskie","County":"Powiat Słupecki","City":"Strzałkowo","District":"Strzałkowo","Street":"ulica Szkolna","HouseNumber":"1","PostalCode":"62-420","AdditionalData":[{"value":"Polska","key":"CountryName"},{"value":"Woj. Wielkopolskie","key":"StateName"},{"value":"Powiat Słupecki","key":"CountyName"}]},"MapReference":{"ReferenceId":"857723704","Spot":0.69,"SideOfStreet":"left","CountryId":"20624059","StateId":"20629915","CountyId":"20631762","CityId":"20631775","DistrictId":"20697368","AddressId":"688882806","RoadLinkId":"234215311"}}},{"Relevance":1.0,"Distance":44.3,"MatchLevel":"houseNumber","MatchQuality":{"Country":1.0,"State":1.0,"County":1.0,"City":1.0,"District":1.0,"Street":[1.0],"HouseNumber":1.0,"PostalCode":1.0},"MatchType":"interpolated","Location":{"LocationId":"NT_qVKmEfM8EGB88-Hndwf9SB_xYD","LocationType":"point","DisplayPosition":{"Latitude":52.30972,"Longitude":17.81902},"MapView":{"TopLeft":{"Latitude":52.3108442,"Longitude":17.8171813},"BottomRight":{"Latitude":52.3085958,"Longitude":17.8208587}},"Address":{"Label":"aleja prym. Stefana Wyszyńskiego 16, 62-420 Strzałkowo, Polska","Country":"POL","State":"Woj. Wielkopolskie","County":"Powiat Słupecki","City":"Strzałkowo","District":"Strzałkowo","Street":"aleja prym. Stefana Wyszyńskiego","HouseNumber":"16","PostalCode":"62-420","AdditionalData":[{"value":"Polska","key":"CountryName"},{"value":"Woj. Wielkopolskie","key":"StateName"},{"value":"Powiat Słupecki","key":"CountyName"}]},"MapReference":{"ReferenceId":"1179317181","Spot":0.43,"SideOfStreet":"right","CountryId":"20624059","StateId":"20629915","CountyId":"20631762","CityId":"20631775","DistrictId":"20697368","AddressId":"689002392","RoadLinkId":"487109575"}}},{"Relevance":1.0,"Distance":46.3,"MatchLevel":"street","MatchQuality":{"Country":1.0,"State":1.0,"County":1.0,"City":1.0,"District":1.0,"Street":[1.0],"PostalCode":1.0},"Location":{"LocationId":"NT_qVKmEfM8EGB88-Hndwf9SB_l_1179317180_R","LocationType":"point","DisplayPosition":{"Latitude":52.30956,"Longitude":17.81948},"MapView":{"TopLeft":{"Latitude":52.30968,"Longitude":17.81914},"BottomRight":{"Latitude":52.30956,"Longitude":17.81948}},"Address":{"Label":"aleja prym. Stefana Wyszyńskiego, 62-420 Strzałkowo, Polska","Country":"POL","State":"Woj. Wielkopolskie","County":"Powiat Słupecki","City":"Strzałkowo","District":"Strzałkowo","Street":"aleja prym. Stefana Wyszyńskiego","PostalCode":"62-420","AdditionalData":[{"value":"Polska","key":"CountryName"},{"value":"Woj. Wielkopolskie","key":"StateName"},{"value":"Powiat Słupecki","key":"CountyName"}]},"MapReference":{"ReferenceId":"1179317180","Spot":0.0,"SideOfStreet":"right","CountryId":"20624059","StateId":"20629915","CountyId":"20631762","CityId":"20631775","DistrictId":"20697368"}}},{"Relevance":1.0,"Distance":54.3,"MatchLevel":"houseNumber","MatchQuality":{"Country":1.0,"State":1.0,"County":1.0,"City":1.0,"District":1.0,"Street":[1.0],"HouseNumber":1.0,"PostalCode":1.0},"MatchType":"interpolated","Location":{"LocationId":"NT_qVKmEfM8EGB88-Hndwf9SB_xYTQ","LocationType":"point","DisplayPosition":{"Latitude":52.30981,"Longitude":17.81878},"MapView":{"TopLeft":{"Latitude":52.3109342,"Longitude":17.8169413},"BottomRight":{"Latitude":52.3086858,"Longitude":17.8206187}},"Address":{"Label":"aleja prym. Stefana Wyszyńskiego 16A, 62-420 Strzałkowo, Polska","Country":"POL","State":"Woj. Wielkopolskie","County":"Powiat Słupecki","City":"Strzałkowo","District":"Strzałkowo","Street":"aleja prym. Stefana Wyszyńskiego","HouseNumber":"16A","PostalCode":"62-420","AdditionalData":[{"value":"Polska","key":"CountryName"},{"value":"Woj. Wielkopolskie","key":"StateName"},{"value":"Powiat Słupecki","key":"CountyName"}]},"MapReference":{"ReferenceId":"1179317182","Spot":0.32,"SideOfStreet":"right","CountryId":"20624059","StateId":"20629915","CountyId":"20631762","CityId":"20631775","DistrictId":"20697368","AddressId":"689051653","RoadLinkId":"487109576"}}},{"Relevance":1.0,"Distance":58.3,"MatchLevel":"houseNumber","MatchQuality":{"Country":1.0,"State":1.0,"County":1.0,"City":1.0,"District":1.0,"Street":[1.0],"HouseNumber":1.0,"PostalCode":1.0},"MatchType":"interpolated","Location":{"LocationId":"NT_qVKmEfM8EGB88-Hndwf9SB_yED","LocationType":"point","DisplayPosition":{"Latitude":52.30941,"Longitude":17.81988},"MapView":{"TopLeft":{"Latitude":52.3105342,"Longitude":17.8180413},"BottomRight":{"Latitude":52.3082858,"Longitude":17.8217187}},"Address":{"Label":"aleja prym. Stefana Wyszyńskiego 21, 62-420 Strzałkowo, Polska","Country":"POL","State":"Woj. Wielkopolskie","County":"Powiat Słupecki","City":"Strzałkowo","District":"Strzałkowo","Street":"aleja prym. Stefana Wyszyńskiego","HouseNumber":"21","PostalCode":"62-420","AdditionalData":[{"value":"Polska","key":"CountryName"},{"value":"Woj. Wielkopolskie","key":"StateName"},{"value":"Powiat Słupecki","key":"CountyName"}]},"MapReference":{"ReferenceId":"906860273","Spot":0.31,"SideOfStreet":"left","CountryId":"20624059","StateId":"20629915","CountyId":"20631762","CityId":"20631775","DistrictId":"20697368","AddressId":"689721428","RoadLinkId":"267506484"}}},{"Relevance":1.0,"Distance":75.1,"MatchLevel":"houseNumber","MatchQuality":{"Country":1.0,"State":1.0,"County":1.0,"City":1.0,"District":1.0,"Street":[1.0],"HouseNumber":1.0,"PostalCode":1.0},"MatchType":"interpolated","Location":{"LocationId":"NT_qVKmEfM8EGB88-Hndwf9SB_xkD","LocationType":"point","DisplayPosition":{"Latitude":52.3093,"Longitude":17.82018},"MapView":{"TopLeft":{"Latitude":52.3104242,"Longitude":17.8183413},"BottomRight":{"Latitude":52.3081758,"Longitude":17.8220187}},"Address":{"Label":"aleja prym. Stefana Wyszyńskiego 19, 62-420 Strzałkowo, Polska","Country":"POL","State":"Woj. Wielkopolskie","County":"Powiat Słupecki","City":"Strzałkowo","District":"Strzałkowo","Street":"aleja prym. Stefana Wyszyńskiego","HouseNumber":"19","PostalCode":"62-420","AdditionalData":[{"value":"Polska","key":"CountryName"},{"value":"Woj. Wielkopolskie","key":"StateName"},{"value":"Powiat Słupecki","key":"CountyName"}]},"MapReference":{"ReferenceId":"765314832","Spot":0.1,"SideOfStreet":"left","CountryId":"20624059","StateId":"20629915","CountyId":"20631762","CityId":"20631775","DistrictId":"20697368","AddressId":"688882808","RoadLinkId":"159187743"}}},{"Relevance":1.0,"Distance":77.6,"MatchLevel":"houseNumber","MatchQuality":{"Country":1.0,"State":1.0,"County":1.0,"City":1.0,"District":1.0,"Street":[1.0],"HouseNumber":1.0,"PostalCode":1.0},"MatchType":"interpolated","Location":{"LocationId":"NT_Du-UJn39POuIgEftuJC6uA_0A","LocationType":"point","DisplayPosition":{"Latitude":52.31043,"Longitude":17.81863},"MapView":{"TopLeft":{"Latitude":52.3115542,"Longitude":17.8167913},"BottomRight":{"Latitude":52.3093058,"Longitude":17.8204687}},"Address":{"Label":"ulica gen. Władysława Sikorskiego 4, 62-420 Strzałkowo, Polska","Country":"POL","State":"Woj. Wielkopolskie","County":"Powiat Słupecki","City":"Strzałkowo","District":"Strzałkowo","Street":"ulica gen. Władysława Sikorskiego","HouseNumber":"4","PostalCode":"62-420","AdditionalData":[{"value":"Polska","key":"CountryName"},{"value":"Woj. Wielkopolskie","key":"StateName"},{"value":"Powiat Słupecki","key":"CountyName"}]},"MapReference":{"ReferenceId":"1101785874","Spot":0.33,"SideOfStreet":"right","CountryId":"20624059","StateId":"20629915","CountyId":"20631762","CityId":"20631775","DistrictId":"20697368","AddressId":"222026934","RoadLinkId":"414027583"}}},{"Relevance":1.0,"Distance":80.3,"MatchLevel":"street","MatchQuality":{"Country":1.0,"State":1.0,"County":1.0,"City":1.0,"District":1.0,"Street":[1.0],"PostalCode":1.0},"Location":{"LocationId":"NT_qVKmEfM8EGB88-Hndwf9SB_l_709413795_R","LocationType":"point","DisplayPosition":{"Latitude":52.30988,"Longitude":17.81861},"MapView":{"TopLeft":{"Latitude":52.30998,"Longitude":17.81832},"BottomRight":{"Latitude":52.30988,"Longitude":17.81861}},"Address":{"Label":"aleja prym. Stefana Wyszyńskiego, 62-420 Strzałkowo, Polska","Country":"POL","State":"Woj. Wielkopolskie","County":"Powiat Słupecki","City":"Strzałkowo","District":"Strzałkowo","Street":"aleja prym. Stefana Wyszyńskiego","PostalCode":"62-420","AdditionalData":[{"value":"Polska","key":"CountryName"},{"value":"Woj. Wielkopolskie","key":"StateName"},{"value":"Powiat Słupecki","key":"CountyName"}]},"MapReference":{"ReferenceId":"709413795","Spot":0.0,"SideOfStreet":"right","CountryId":"20624059","StateId":"20629915","CountyId":"20631762","CityId":"20631775","DistrictId":"20697368"}}}]}]}}