{"Response":{"MetaInfo":{"Timestamp":"2020-03-28T09:58:09.839+0000","NextPageInformation":"2"},"View":[{"_type":"SearchResultsViewType","ViewId":0,"Result":[{"Relevance":1.0,"Distance":0.0,"Direction":0.0,"MatchLevel":"district","MatchQuality":{"Country":1.0,"State":1.0,"County":1.0,"City":1.0,"District":1.0,"Subdistrict":1.0,"PostalCode":1.0},"Location":{"LocationId":"NT_tb6VNehim.HHyroN7ih76C","LocationType":"point","DisplayPosition":{"Latitude":52.3660541,"Longitude":16.8942059},"MapView":{"TopLeft":{"Latitude":52.37834,"Longitude":16.87159},"BottomRight":{"Latitude":52.34508,"Longitude":16.92765}},"Address":{"Label":"Dębiec, Poznań, Woj. Wielkopolskie, Polska","Country":"POL","State":"Woj. Wielkopolskie","County":"Poznań","City":"Poznań","District":"Poznań","Subdistrict":"Dębiec","PostalCode":"61-435","AdditionalData":[{"value":"Polska","key":"CountryName"},{"value":"Woj. Wielkopolskie","key":"StateName"},{"value":"Poznań","key":"CountyName"}]},"MapReference":{"ReferenceId":"594885806","SideOfStreet":"neither","CountryId":"20624059","StateId":"20629915","CountyId":"20631893","CityId":"20631894","DistrictId":"20646794"}}},{"Relevance":1.0,"Distance":24.8,"MatchLevel":"houseNumber","MatchQuality":{"Country":1.0,"State":1.0,"County":1.0,"City":1.0,"District":1.0,"Subdistrict":1.0,"Street":[1.0],"HouseNumber":1.0,"PostalCode":1.0},"MatchType":"interpolated","Location":{"LocationId":"NT_UlB8fYUDJkrZGl5jvB9WYA_1gD","LocationType":"point","DisplayPosition":{"Latitude":52.36594,"Longitude":16.89482},"MapView":{"TopLeft":{"Latitude":52.3670642,"Longitude":16.892979},"BottomRight":{"Latitude":52.3648158,"Longitude":16.896661}},"Address":{"Label":"ulica Opolska 58, 61-433 Poznań, Polska","Country":"POL","State":"Woj. Wielkopolskie","County":"Poznań","City":"Poznań","District":"Poznań","Subdistrict":"Dębiec","Street":"ulica Opolska","HouseNumber":"58","PostalCode":"61-433","AdditionalData":[{"value":"Polska","key":"CountryName"},{"value":"Woj. Wielkopolskie","key":"StateName"},{"value":"Poznań","key":"CountyName"}]},"MapReference":{"ReferenceId":"594897626","Spot":0.2,"SideOfStreet":"left","CountryId":"20624059","StateId":"20629915","CountyId":"20631893","CityId":"20631894","DistrictId":"20646794","AddressId":"210542122","RoadLinkId":"95319502"}}},{"Relevance":1.0,"Distance":33.5,"MatchLevel":"houseNumber","MatchQuality":{"Country":1.0,"State":1.0,"County":1.0,"City":1.0,"District":1.0,"Subdistrict":1.0,"Street":[1.0],"HouseNumber":1.0,"PostalCode":1.0},"MatchType":"interpolated","Location":{"LocationId":"NT_LnsTRbMuS6yKLHJITUZcbC_xgzLyA","LocationType":"point","DisplayPosition":{"Latitude":52.36576,"Longitude":16.89431},"MapView":{"TopLeft":{"Latitude":52.3668842,"Longitude":16.892469},"BottomRight":{"Latitude":52.3646358,"Longitude":16.896151}},"Address":{"Label":"ulica Jarzębowa 18/2, 61-432 Poznań, Polska","Country":"POL","State":"Woj. Wielkopolskie","County":"Poznań","City":"Poznań","District":"Poznań","Subdistrict":"Dębiec","Street":"ulica Jarzębowa","HouseNumber":"18/2","PostalCode":"61-432","AdditionalData":[{"value":"Polska","key":"CountryName"},{"value":"Woj. Wielkopolskie","key":"StateName"},{"value":"Poznań","key":"CountyName"}]},"MapReference":{"ReferenceId":"594897624","Spot":0.05,"SideOfStreet":"left","CountryId":"20624059","StateId":"20629915","CountyId":"20631893","CityId":"20631894","DistrictId":"20646794","AddressId":"209997615","RoadLinkId":"95284855"}}},{"Relevance":1.0,"Distance":45.3,"MatchLevel":"street","MatchQuality":{"Country":1.0,"State":1.0,"County":1.0,"City":1.0,"District":1.0,"Subdistrict":1.0,"Street":[1.0],"PostalCode":1.0},"Location":{"LocationId":"NT_LnsTRbMuS6yKLHJITUZcbC_l_594897625_R","LocationType":"point","DisplayPosition":{"Latitude":52.36568,"Longitude":16.89447},"MapView":{"TopLeft":{"Latitude":52.36568,"Longitude":16.89447},"BottomRight":{"Latitude":52.36559,"Longitude":16.89468}},"Address":{"Label":"ulica Jarzębowa, 61-432 Poznań, Polska","Country":"POL","State":"Woj. Wielkopolskie","County":"Poznań","City":"Poznań","District":"Poznań","Subdistrict":"Dębiec","Street":"ulica Jarzębowa","PostalCode":"61-432","AdditionalData":[{"value":"Polska","key":"CountryName"},{"value":"Woj. Wielkopolskie","key":"StateName"},{"value":"Poznań","key":"CountyName"}]},"MapReference":{"ReferenceId":"594897625","Spot":1.0,"SideOfStreet":"right","CountryId":"20624059","StateId":"20629915","CountyId":"20631893","CityId":"20631894","DistrictId":"20646794"}}},{"Relevance":1.0,"Distance":57.5,"MatchLevel":"houseNumber","MatchQuality":{"Country":1.0,"State":1.0,"County":1.0,"City":1.0,"District":1.0,"Subdistrict":1.0,"Street":[1.0],"HouseNumber":1.0,"PostalCode":1.0},"MatchType":"interpolated","Location":{"LocationId":"NT_UlB8fYUDJkrZGl5jvB9WYA_1cD","LocationType":"point","DisplayPosition":{"Latitude":52.36568,"Longitude":16.89479},"MapView":{"TopLeft":{"Latitude":52.3668042,"Longitude":16.892949},"BottomRight":{"Latitude":52.3645558,"Longitude":16.896631}},"Address":{"Label":"ulica Opolska 57, 61-433 Poznań, Polska","Country":"POL","State":"Woj. Wielkopolskie","County":"Poznań","City":"Poznań","District":"Poznań","Subdistrict":"Dębiec","Street":"ulica Opolska","HouseNumber":"57","PostalCode":"61-433","AdditionalData":[{"value":"Polska","key":"CountryName"},{"value":"Woj. Wielkopolskie","key":"StateName"},{"value":"Poznań","key":"CountyName"}]},"MapReference":{"ReferenceId":"902150380","Spot":0.69,"SideOfStreet":"right","CountryId":"20624059","StateId":"20629915","CountyId":"20631893","CityId":"20631894","DistrictId":"20646794","AddressId":"210632483","RoadLinkId":"263694144"}}},{"Relevance":1.0,"Distance":59.9,"MatchLevel":"houseNumber","MatchQuality":{"Country":1.0,"State":1.0,"County":1.0,"City":1.0,"District":1.0,"Subdistrict":1.0,"Street":[1.0],"HouseNumber":1.0,"PostalCode":1.0},"MatchType":"interpolated","Location":{"LocationId":"NT_UlB8fYUDJkrZGl5jvB9WYA_1UD","LocationType":"point","DisplayPosition":{"Latitude":52.36588,"Longitude":16.89504},"MapView":{"TopLeft":{"Latitude":52.3670042,"Longitude":16.893199},"BottomRight":{"Latitude":52.3647558,"Longitude":16.896881}},"Address":{"Label":"ulica Opolska 55, 61-433 Poznań, Polska","Country":"POL","State":"Woj. Wielkopolskie","County":"Poznań","City":"Poznań","District":"Poznań","Subdistrict":"Dębiec","Street":"ulica Opolska","HouseNumber":"55","PostalCode":"61-433","AdditionalData":[{"value":"Polska","key":"CountryName"},{"value":"Woj. Wielkopolskie","key":"StateName"},{"value":"Poznań","key":"CountyName"}]},"MapReference":{"ReferenceId":"902150381","Spot":0.33,"SideOfStreet":"right","CountryId":"20624059","StateId":"20629915","CountyId":"20631893","CityId":"20631894","DistrictId":"20646794","AddressId":"731685183","RoadLinkId":"263694145"}}},{"Relevance":1.0,"Distance":62.0,"MatchLevel":"houseNumber","MatchQuality":{"Country":1.0,"State":1.0,"County":1.0,"City":1.0,"District":1.0,"Subdistrict":1.0,"Street":[1.0],"HouseNumber":1.0,"PostalCode":1.0},"MatchType":"interpolated","Location":{"LocationId":"NT_UlB8fYUDJkrZGl5jvB9WYA_1kD","LocationType":"point","DisplayPosition":{"Latitude":52.36557,"Longitude":16.89466},"MapView":{"TopLeft":{"Latitude":52.3666942,"Longitude":16.892819},"BottomRight":{"Latitude":52.3644458,"Longitude":16.896501}},"Address":{"Label":"ulica Opolska 59, 61-433 Poznań, Polska","Country":"POL","State":"Woj. Wielkopolskie","County":"Poznań","City":"Poznań","District":"Poznań","Subdistrict":"Dębiec","Street":"ulica Opolska","HouseNumber":"59","PostalCode":"61-433","AdditionalData":[{"value":"Polska","key":"CountryName"},{"value":"Woj. Wielkopolskie","key":"StateName"},{"value":"Poznań","key":"CountyName"}]},"MapReference":{"ReferenceId":"901923334","Spot":0.83,"SideOfStreet":"right","CountryId":"20624059","StateId":"20629915","CountyId":"20631893","CityId":"20631894","DistrictId":"20646794","AddressId":"211181498","RoadLinkId":"263481412"}}},{"Relevance":1.0,"Distance":68.0,"MatchLevel":"street","MatchQuality":{"Country":1.0,"State":1.0,"County":1.0,"City":1.0,"District":1.0,"Subdistrict":1.0,"Street":[1.0],"PostalCode":1.0},"Location":{"LocationId":"NT_UlB8fYUDJkrZGl5jvB9WYA_l_901923333_L","LocationType":"point","DisplayPosition":{"Latitude":52.36548,"Longitude":16.89455},"MapView":{"TopLeft":{"Latitude":52.36548,"Longitude":16.89438},"BottomRight":{"Latitude":52.36535,"Longitude":16.89455}},"Address":{"Label":"ulica Opolska, 61-433 Poznań, Polska","Country":"POL","State":"Woj. Wielkopolskie","County":"Poznań","City":"Poznań","District":"Poznań","Subdistrict":"Dębiec","Street":"ulica Opolska","PostalCode":"61-433","AdditionalData":[{"value":"Polska","key":"CountryName"},{"value":"Woj. Wielkopolskie","key":"StateName"},{"value":"Poznań","key":"CountyName"}]},"MapReference":{"ReferenceId":"901923333","Spot":1.0,"SideOfStreet":"left","CountryId":"20624059","StateId":"20629915","CountyId":"20631893","CityId":"20631894","DistrictId":"20646794"}}},{"Relevance":1.0,"Distance":87.8,"MatchLevel":"houseNumber","MatchQuality":{"Country":1.0,"State":1.0,"County":1.0,"City":1.0,"District":1.0,"Subdistrict":1.0,"Street":[1.0],"HouseNumber":1.0,"PostalCode":1.0},"MatchType":"interpolated","Location":{"LocationId":"NT_UlB8fYUDJkrZGl5jvB9WYA_1ED","LocationType":"point","DisplayPosition":{"Latitude":52.36622,"Longitude":16.89547},"MapView":{"TopLeft":{"Latitude":52.3673442,"Longitude":16.893629},"BottomRight":{"Latitude":52.3650958,"Longitude":16.897311}},"Address":{"Label":"ulica Opolska 51, 61-433 Poznań, Polska","Country":"POL","State":"Woj. Wielkopolskie","County":"Poznań","City":"Poznań","District":"Poznań","Subdistrict":"Dębiec","Street":"ulica Opolska","HouseNumber":"51","PostalCode":"61-433","AdditionalData":[{"value":"Polska","key":"CountryName"},{"value":"Woj. Wielkopolskie","key":"StateName"},{"value":"Poznań","key":"CountyName"}]},"MapReference":{"ReferenceId":"902151272","Spot":0.02,"SideOfStreet":"right","CountryId":"20624059","StateId":"20629915","CountyId":"20631893","CityId":"20631894","DistrictId":"20646794","AddressId":"211229761","RoadLinkId":"263695231"}}},{"Relevance":1.0,"Distance":91.7,"MatchLevel":"houseNumber","MatchQuality":{"Country":1.0,"State":1.0,"County":1.0,"City":1.0,"District":1.0,"Subdistrict":1.0,"Street":[1.0],"HouseNumber":1.0,"PostalCode":1.0},"MatchType":"interpolated","Location":{"LocationId":"NT_nBaomnZNKuKw2wwo358-nB_yA","LocationType":"point","DisplayPosition":{"Latitude":52.36526,"Longitude":16.89457},"MapView":{"TopLeft":{"Latitude":52.3663842,"Longitude":16.892729},"BottomRight":{"Latitude":52.3641358,"Longitude":16.896411}},"Address":{"Label":"ulica Cieszyńska 2, 61-434 Poznań, Polska","Country":"POL","State":"Woj. Wielkopolskie","County":"Poznań","City":"Poznań","District":"Poznań","Subdistrict":"Dębiec","Street":"ulica Cieszyńska","HouseNumber":"2","PostalCode":"61-434","AdditionalData":[{"value":"Polska","key":"CountryName"},{"value":"Woj. Wielkopolskie","key":"StateName"},{"value":"Poznań","key":"CountyName"}]},"MapReference":{"ReferenceId":"594885780","Spot":0.55,"SideOfStreet":"left","CountryId":"20624059","StateId":"20629915","CountyId":"20631893","CityId":"20631894","DistrictId":"20646794","AddressId":"210665436","RoadLinkId":"94956137"}}}]}]}}