{"Response":{"MetaInfo":{"Timestamp":"2020-03-28T10:55:35.017+0000","NextPageInformation":"2"},"View":[{"_type":"SearchResultsViewType","ViewId":0,"Result":[{"Relevance":1.0,"Distance":0.0,"Direction":0.0,"MatchLevel":"district","MatchQuality":{"Country":1.0,"State":1.0,"County":1.0,"City":1.0,"District":1.0,"PostalCode":1.0},"Location":{"LocationId":"NT_O2fcx--BbMvM0lbDWSdOYC","LocationType":"point","DisplayPosition":{"Latitude":52.3874017,"Longitude":9.7448222},"MapView":{"TopLeft":{"Latitude":52.40663,"Longitude":9.73604},"BottomRight":{"Latitude":52.38254,"Longitude":9.79161}},"Address":{"Label":"List, Hannover, Niedersachsen, Deutschland","Country":"DEU","State":"Niedersachsen","County":"Region Hannover","City":"Hannover","District":"List","PostalCode":"30163","AdditionalData":[{"value":"Deutschland","key":"CountryName"},{"value":"Niedersachsen","key":"StateName"},{"value":"Region Hannover","key":"CountyName"}]},"MapReference":{"ReferenceId":"1178634472","SideOfStreet":"neither","CountryId":"20147700","StateId":"20151542","CountyId":"20153026","CityId":"20152674","DistrictId":"20360419"}}},{"Relevance":1.0,"Distance":0.4,"MatchLevel":"street","MatchQuality":{"Country":1.0,"State":1.0,"County":1.0,"City":1.0,"District":1.0,"Street":[1.0],"PostalCode":1.0},"Location":{"LocationId":"NT_RLd48bt-JWXNlbounZBNTB_l_586506096_L","LocationType":"point","DisplayPosition":{"Latitude":52.3873985,"Longitude":9.7448248},"MapView":{"TopLeft":{"Latitude":52.38754,"Longitude":9.74474},"BottomRight":{"Latitude":52.38733,"Longitude":9.745}},"Address":{"Label":"Kollenrodtstraße, 30161 Hannover, Deutschland","Country":"DEU","State":"Niedersachsen","County":"Region Hannover","City":"Hannover","District":"List","Street":"Kollenrodtstraße","PostalCode":"30161","AdditionalData":[{"value":"Deutschland","key":"CountryName"},{"value":"Niedersachsen","key":"StateName"},{"value":"Region Hannover","key":"CountyName"}]},"MapReference":{"ReferenceId":"586506096","Spot":0.33,"SideOfStreet":"neither","CountryId":"20147700","StateId":"20151542","CountyId":"20153026","CityId":"20152674","DistrictId":"20360419"}}},{"Relevance":1.0,"Distance":10.3,"MatchLevel":"landmark","MatchQuality":{"Country":1.0,"State":1.0,"County":1.0,"City":1.0,"District":1.0,"Street":[1.0],"HouseNumber":1.0,"PostalCode":1.0,"Name":1.0},"Location":{"LocationId":"NT_3tcNSKD9r8XNGcpitXuNyB_p_e7eUnyU6fOipcFUNtrSQVC","LocationType":"hospital","Name":"DRK-Krankenhaus Clementinenhaus","DisplayPosition":{"Latitude":52.38659,"Longitude":9.74418},"MapView":{"TopLeft":{"Latitude":52.3877142,"Longitude":9.7423381},"BottomRight":{"Latitude":52.3854658,"Longitude":9.7460219}},"Address":{"Label":"Lützerodestraße 1, 30161 Hannover, Deutschland","Country":"DEU","State":"Niedersachsen","County":"Region Hannover","City":"Hannover","District":"List","Street":"Lützerodestraße","HouseNumber":"1","PostalCode":"30161","AdditionalData":[{"value":"Deutschland","key":"CountryName"},{"value":"Niedersachsen","key":"StateName"},{"value":"Region Hannover","key":"CountyName"}]},"MapReference":{"CountryId":"20147700","StateId":"20151542","CountyId":"20153026","CityId":"20152674","DistrictId":"20360419","PlaceId":"50342431"}}},{"Relevance":1.0,"Distance":12.3,"MatchLevel":"houseNumber","MatchQuality":{"Country":1.0,"State":1.0,"County":1.0,"City":1.0,"District":1.0,"Street":[1.0],"HouseNumber":1.0,"PostalCode":1.0},"MatchType":"interpolated","Location":{"LocationId":"NT_RLd48bt-JWXNlbounZBNTB_2gD","LocationType":"point","DisplayPosition":{"Latitude":52.38731,"Longitude":9.74472},"MapView":{"TopLeft":{"Latitude":52.3884342,"Longitude":9.7428781},"BottomRight":{"Latitude":52.3861858,"Longitude":9.7465619}},"Address":{"Label":"Kollenrodtstraße 68, 30161 Hannover, Deutschland","Country":"DEU","State":"Niedersachsen","County":"Region Hannover","City":"Hannover","District":"List","Street":"Kollenrodtstraße","HouseNumber":"68","PostalCode":"30161","AdditionalData":[{"value":"Deutschland","key":"CountryName"},{"value":"Niedersachsen","key":"StateName"},{"value":"Region Hannover","key":"CountyName"}]},"MapReference":{"ReferenceId":"586506104","Spot":0.94,"SideOfStreet":"left","CountryId":"20147700","StateId":"20151542","CountyId":"20153026","CityId":"20152674","DistrictId":"20360419","AddressId":"177064749","RoadLinkId":"36364875"}}},{"Relevance":1.0,"Distance":24.1,"MatchLevel":"houseNumber","MatchQuality":{"Country":1.0,"State":1.0,"County":1.0,"City":1.0,"District":1.0,"Street":[1.0],"HouseNumber":1.0,"PostalCode":1.0},"MatchType":"interpolated","Location":{"LocationId":"NT_PwJcylFOwjG0fjL8V1s7SD_zED","LocationType":"point","DisplayPosition":{"Latitude":52.38766,"Longitude":9.74469},"MapView":{"TopLeft":{"Latitude":52.3887842,"Longitude":9.7428481},"BottomRight":{"Latitude":52.3865358,"Longitude":9.7465319}},"Address":{"Label":"Drostestraße 31, 30161 Hannover, Deutschland","Country":"DEU","State":"Niedersachsen","County":"Region Hannover","City":"Hannover","District":"List","Street":"Drostestraße","HouseNumber":"31","PostalCode":"30161","AdditionalData":[{"value":"Deutschland","key":"CountryName"},{"value":"Niedersachsen","key":"StateName"},{"value":"Region Hannover","key":"CountyName"}]},"MapReference":{"ReferenceId":"51914190","Spot":0.19,"SideOfStreet":"left","CountryId":"20147700","StateId":"20151542","CountyId":"20153026","CityId":"20152674","DistrictId":"20360419","AddressId":"177565760","RoadLinkId":"36569228"}}},{"Relevance":1.0,"Distance":53.6,"MatchLevel":"street","MatchQuality":{"Country":1.0,"State":1.0,"County":1.0,"City":1.0,"District":1.0,"Street":[1.0],"PostalCode":1.0},"Location":{"LocationId":"NT_RLd48bt-JWXNlbounZBNTB_l_586506103_L","LocationType":"point","DisplayPosition":{"Latitude":52.38702,"Longitude":9.74434},"MapView":{"TopLeft":{"Latitude":52.38702,"Longitude":9.744},"BottomRight":{"Latitude":52.38678,"Longitude":9.74434}},"Address":{"Label":"Kollenrodtstraße, 30161 Hannover, Deutschland","Country":"DEU","State":"Niedersachsen","County":"Region Hannover","City":"Hannover","District":"List","Street":"Kollenrodtstraße","PostalCode":"30161","AdditionalData":[{"value":"Deutschland","key":"CountryName"},{"value":"Niedersachsen","key":"StateName"},{"value":"Region Hannover","key":"CountyName"}]},"MapReference":{"ReferenceId":"586506103","Spot":1.0,"SideOfStreet":"left","CountryId":"20147700","StateId":"20151542","CountyId":"20153026","CityId":"20152674","DistrictId":"20360419"}}},{"Relevance":1.0,"Distance":55.2,"MatchLevel":"houseNumber","MatchQuality":{"Country":1.0,"State":1.0,"County":1.0,"City":1.0,"District":1.0,"Street":[1.0],"HouseNumber":1.0,"PostalCode":1.0},"MatchType":"interpolated","Location":{"LocationId":"NT_RLd48bt-JWXNlbounZBNTB_2YD","LocationType":"point","DisplayPosition":{"Latitude":52.3878,"Longitude":9.74528},"MapView":{"TopLeft":{"Latitude":52.3889242,"Longitude":9.7434381},"BottomRight":{"Latitude":52.3866758,"Longitude":9.7471219}},"Address":{"Label":"Kollenrodtstraße 66, 30161 Hannover, Deutschland","Country":"DEU","State":"Niedersachsen","County":"Region Hannover","City":"Hannover","District":"List","Street":"Kollenrodtstraße","HouseNumber":"66","PostalCode":"30161","AdditionalData":[{"value":"Deutschland","key":"CountryName"},{"value":"Niedersachsen","key":"StateName"},{"value":"Region Hannover","key":"CountyName"}]},"MapReference":{"ReferenceId":"51914189","Spot":0.39,"SideOfStreet":"left","CountryId":"20147700","StateId":"20151542","CountyId":"20153026","CityId":"20152674","DistrictId":"20360419","AddressId":"181462072","RoadLinkId":"36650855"}}},{"Relevance":1.0,"Distance":57.6,"MatchLevel":"street","MatchQuality":{"Country":1.0,"State":1.0,"County":1.0,"City":1.0,"District":1.0,"Street":[1.0],"PostalCode":1.0},"Location":{"LocationId":"NT_PJwFjRb9slZyrxA7YRhywD_l_586506102_R","LocationType":"point","DisplayPosition":{"Latitude":52.3869408,"Longitude":9.7444341},"MapView":{"TopLeft":{"Latitude":52.38702,"Longitude":9.74434},"BottomRight":{"Latitude":52.38672,"Longitude":9.74453}},"Address":{"Label":"Lützerodestraße, 30161 Hannover, Deutschland","Country":"DEU","State":"Niedersachsen","County":"Region Hannover","City":"Hannover","District":"List","Street":"Lützerodestraße","PostalCode":"30161","AdditionalData":[{"value":"Deutschland","key":"CountryName"},{"value":"Niedersachsen","key":"StateName"},{"value":"Region Hannover","key":"CountyName"}]},"MapReference":{"ReferenceId":"586506102","Spot":0.69,"SideOfStreet":"right","CountryId":"20147700","StateId":"20151542","CountyId":"20153026","CityId":"20152674","DistrictId":"20360419"}}},{"Relevance":1.0,"Distance":58.2,"MatchLevel":"houseNumber","MatchQuality":{"Country":1.0,"State":1.0,"County":1.0,"City":1.0,"District":1.0,"Street":[1.0],"HouseNumber":1.0,"PostalCode":1.0},"MatchType":"interpolated","Location":{"LocationId":"NT_PwJcylFOwjG0fjL8V1s7SD_ycD","LocationType":"point","DisplayPosition":{"Latitude":52.38727,"Longitude":9.74569},"MapView":{"TopLeft":{"Latitude":52.3883942,"Longitude":9.7438481},"BottomRight":{"Latitude":52.3861458,"Longitude":9.7475319}},"Address":{"Label":"Drostestraße 27, 30161 Hannover, Deutschland","Country":"DEU","State":"Niedersachsen","County":"Region Hannover","City":"Hannover","District":"List","Street":"Drostestraße","HouseNumber":"27","PostalCode":"30161","AdditionalData":[{"value":"Deutschland","key":"CountryName"},{"value":"Niedersachsen","key":"StateName"},{"value":"Region Hannover","key":"CountyName"}]},"MapReference":{"ReferenceId":"51914256","Spot":0.58,"SideOfStreet":"left","CountryId":"20147700","StateId":"20151542","CountyId":"20153026","CityId":"20152674","DistrictId":"20360419","AddressId":"180661315","RoadLinkId":"36906509"}}},{"Relevance":1.0,"Distance":63.5,"MatchLevel":"houseNumber","MatchQuality":{"Country":1.0,"State":1.0,"County":1.0,"City":1.0,"District":1.0,"Street":[1.0],"HouseNumber":1.0,"PostalCode":1.0},"MatchType":"interpolated","Location":{"LocationId":"NT_PJwFjRb9slZyrxA7YRhywD_yA","LocationType":"point","DisplayPosition":{"Latitude":52.38705,"Longitude":9.74376},"MapView":{"TopLeft":{"Latitude":52.3881742,"Longitude":9.7419181},"BottomRight":{"Latitude":52.3859258,"Longitude":9.7456019}},"Address":{"Label":"Lützerodestraße 2, 30161 Hannover, Deutschland","Country":"DEU","State":"Niedersachsen","County":"Region Hannover","City":"Hannover","District":"List","Street":"Lützerodestraße","HouseNumber":"2","PostalCode":"30161","AdditionalData":[{"value":"Deutschland","key":"CountryName"},{"value":"Niedersachsen","key":"StateName"},{"value":"Region Hannover","key":"CountyName"}]},"MapReference":{"ReferenceId":"51914267","Spot":0.23,"SideOfStreet":"right","CountryId":"20147700","StateId":"20151542","CountyId":"20153026","CityId":"20152674","DistrictId":"20360419","AddressId":"177704997","RoadLinkId":"36932379"}}}]}]}}