{"Response":{"MetaInfo":{"Timestamp":"2020-03-28T09:56:45.958+0000","NextPageInformation":"2"},"View":[{"_type":"SearchResultsViewType","ViewId":0,"Result":[{"Relevance":1.0,"Distance":0.0,"Direction":0.0,"MatchLevel":"city","MatchQuality":{"Country":1.0,"State":1.0,"County":1.0,"City":1.0,"PostalCode":1.0},"Location":{"LocationId":"NT_zeXKwSCVCa6evOj8QHh8KA","LocationType":"point","DisplayPosition":{"Latitude":52.3817032,"Longitude":5.2482682},"MapView":{"TopLeft":{"Latitude":52.4018,"Longitude":5.13432},"BottomRight":{"Latitude":52.34109,"Longitude":5.27821}},"Address":{"Label":"Almere-Stad, Flevoland, Nederland","Country":"NLD","State":"Flevoland","County":"Almere","City":"Almere-Stad","PostalCode":"1315","AdditionalData":[{"value":"Nederland","key":"CountryName"},{"value":"Flevoland","key":"StateName"},{"value":"Almere","key":"CountyName"}]},"MapReference":{"ReferenceId":"999024674","SideOfStreet":"neither","CountryId":"23055544","StateId":"23055502","CountyId":"23056015","CityId":"20201005"}}},{"Relevance":1.0,"Distance":17.2,"MatchLevel":"landmark","MatchQuality":{"Country":1.0,"State":1.0,"Name":1.0},"Location":{"LocationId":"NT_abeJQawrCPWWIAck2hx8NA","LocationType":"canalWaterChannel","Name":"Hoge Vaart","DisplayPosition":{"Latitude":52.44401,"Longitude":5.66178},"MapView":{"TopLeft":{"Latitude":52.57886,"Longitude":5.22283},"BottomRight":{"Latitude":52.30916,"Longitude":5.77465}},"Address":{"Label":"Nederland","Country":"NLD","State":"Flevoland","AdditionalData":[{"value":"Nederland","key":"CountryName"},{"value":"Flevoland","key":"StateName"}]},"MapReference":{"CountryId":"23055544","StateId":"23055502","PlaceId":"50889707"}}},{"Relevance":1.0,"Distance":18.3,"MatchLevel":"street","MatchQuality":{"Country":1.0,"State":1.0,"County":1.0,"City":1.0,"PostalCode":1.0},"Location":{"LocationId":"NT_liI0HFgtqQidESnOA8TpDC_l_1236335447_R","LocationType":"point","DisplayPosition":{"Latitude":52.3818642,"Longitude":5.2482098},"MapView":{"TopLeft":{"Latitude":52.38269,"Longitude":5.24711},"BottomRight":{"Latitude":52.38147,"Longitude":5.25052}},"Address":{"Label":"1318 Almere-Stad, Nederland","Country":"NLD","State":"Flevoland","County":"Almere","City":"Almere-Stad","PostalCode":"1318","AdditionalData":[{"value":"Nederland","key":"CountryName"},{"value":"Flevoland","key":"StateName"},{"value":"Almere","key":"CountyName"}]},"MapReference":{"ReferenceId":"1236335447","Spot":0.32,"SideOfStreet":"right","CountryId":"23055544","StateId":"23055502","CountyId":"23056015","CityId":"20201005"}}},{"Relevance":1.0,"Distance":24.5,"MatchLevel":"street","MatchQuality":{"Country":1.0,"State":1.0,"County":1.0,"City":1.0,"Street":[1.0],"PostalCode":1.0},"Location":{"LocationId":"NT_Zefp3.59qosEoxvX3PBJJB_l_1233617161_R","LocationType":"point","DisplayPosition":{"Latitude":52.3819176,"Longitude":5.248184},"MapView":{"TopLeft":{"Latitude":52.38277,"Longitude":5.24497},"BottomRight":{"Latitude":52.38078,"Longitude":5.25046}},"Address":{"Label":"Geuzenpad, 1318 Almere-Stad, Nederland","Country":"NLD","State":"Flevoland","County":"Almere","City":"Almere-Stad","Street":"Geuzenpad","PostalCode":"1318","AdditionalData":[{"value":"Nederland","key":"CountryName"},{"value":"Flevoland","key":"StateName"},{"value":"Almere","key":"CountyName"}]},"MapReference":{"ReferenceId":"1233617161","Spot":0.58,"SideOfStreet":"right","CountryId":"23055544","StateId":"23055502","CountyId":"23056015","CityId":"20201005"}}},{"Relevance":1.0,"Distance":45.8,"MatchLevel":"houseNumber","MatchQuality":{"Country":1.0,"State":1.0,"County":1.0,"City":1.0,"Street":[1.0],"HouseNumber":1.0,"PostalCode":1.0},"MatchType":"interpolated","Location":{"LocationId":"NT_JXJ.Q8ue720DaoS0d9myfB_zA","LocationType":"point","DisplayPosition":{"Latitude":52.38171,"Longitude":5.24907},"MapView":{"TopLeft":{"Latitude":52.3828342,"Longitude":5.2472283},"BottomRight":{"Latitude":52.3805858,"Longitude":5.2509117}},"Address":{"Label":"Pieter de Hooghstraat 3, 1318 KC Almere-Stad, Nederland","Country":"NLD","State":"Flevoland","County":"Almere","City":"Almere-Stad","Street":"Pieter de Hooghstraat","HouseNumber":"3","PostalCode":"1318 KC","AdditionalData":[{"value":"Nederland","key":"CountryName"},{"value":"Flevoland","key":"StateName"},{"value":"Almere","key":"CountyName"}]},"MapReference":{"ReferenceId":"998962399","Spot":0.02,"SideOfStreet":"left","CountryId":"23055544","StateId":"23055502","CountyId":"23056015","CityId":"20201005","AddressId":"619925735","RoadLinkId":"325281455"}}},{"Relevance":1.0,"Distance":46.7,"MatchLevel":"houseNumber","MatchQuality":{"Country":1.0,"State":1.0,"County":1.0,"City":1.0,"Street":[1.0],"HouseNumber":1.0,"PostalCode":1.0},"MatchType":"interpolated","Location":{"LocationId":"NT_Cn-u1atO-wrSJ-vv7OLi7A_xAD","LocationType":"point","DisplayPosition":{"Latitude":52.38165,"Longitude":5.24895},"MapView":{"TopLeft":{"Latitude":52.3827742,"Longitude":5.2471083},"BottomRight":{"Latitude":52.3805258,"Longitude":5.2507917}},"Address":{"Label":"Pieter de Hooghstraat 10, 1318 KA Almere-Stad, Nederland","Country":"NLD","State":"Flevoland","County":"Almere","City":"Almere-Stad","Street":"Pieter de Hooghstraat","HouseNumber":"10","PostalCode":"1318 KA","AdditionalData":[{"value":"Nederland","key":"CountryName"},{"value":"Flevoland","key":"StateName"},{"value":"Almere","key":"CountyName"}]},"MapReference":{"ReferenceId":"998962398","Spot":0.9,"SideOfStreet":"right","CountryId":"23055544","StateId":"23055502","CountyId":"23056015","CityId":"20201005","AddressId":"619906401","RoadLinkId":"325281454"}}},{"Relevance":1.0,"Distance":70.4,"MatchLevel":"street","MatchQuality":{"Country":1.0,"State":1.0,"County":1.0,"City":1.0,"Street":[1.0],"PostalCode":1.0},"Location":{"LocationId":"NT_tUnZQWTgf55MSEp7Ja94oB_l_547724190_L","LocationType":"point","DisplayPosition":{"Latitude":52.38233,"Longitude":5.24812},"MapView":{"TopLeft":{"Latitude":52.38284,"Longitude":5.24764},"BottomRight":{"Latitude":52.38233,"Longitude":5.24812}},"Address":{"Label":"Gerard Doustraat, 1318 Almere-Stad, Nederland","Country":"NLD","State":"Flevoland","County":"Almere","City":"Almere-Stad","Street":"Gerard Doustraat","PostalCode":"1318","AdditionalData":[{"value":"Nederland","key":"CountryName"},{"value":"Flevoland","key":"StateName"},{"value":"Almere","key":"CountyName"}]},"MapReference":{"ReferenceId":"547724190","Spot":0.0,"SideOfStreet":"left","CountryId":"23055544","StateId":"23055502","CountyId":"23056015","CityId":"20201005"}}},{"Relevance":1.0,"Distance":76.5,"MatchLevel":"houseNumber","MatchQuality":{"Country":1.0,"State":1.0,"County":1.0,"City":1.0,"Street":[1.0],"HouseNumber":1.0,"PostalCode":1.0},"MatchType":"interpolated","Location":{"LocationId":"NT_gyrHQnMmxhRj4YdUoENe3A_5A","LocationType":"point","DisplayPosition":{"Latitude":52.38239,"Longitude":5.24833},"MapView":{"TopLeft":{"Latitude":52.3835142,"Longitude":5.2464883},"BottomRight":{"Latitude":52.3812658,"Longitude":5.2501717}},"Address":{"Label":"Jan Steenstraat 9, 1318 JN Almere-Stad, Nederland","Country":"NLD","State":"Flevoland","County":"Almere","City":"Almere-Stad","Street":"Jan Steenstraat","HouseNumber":"9","PostalCode":"1318 JN","AdditionalData":[{"value":"Nederland","key":"CountryName"},{"value":"Flevoland","key":"StateName"},{"value":"Almere","key":"CountyName"}]},"MapReference":{"ReferenceId":"999019880","Spot":0.17,"SideOfStreet":"left","CountryId":"23055544","StateId":"23055502","CountyId":"23056015","CityId":"20201005","AddressId":"619921064","RoadLinkId":"325318888"}}},{"Relevance":1.0,"Distance":82.8,"MatchLevel":"street","MatchQuality":{"Country":1.0,"State":1.0,"County":1.0,"City":1.0,"Street":[1.0],"PostalCode":1.0},"Location":{"LocationId":"NT_Ab8hXWr6Jmw4eQbhJopAEB_l_1236332111_R","LocationType":"point","DisplayPosition":{"Latitude":52.38147,"Longitude":5.24711},"MapView":{"TopLeft":{"Latitude":52.38418,"Longitude":5.24446},"BottomRight":{"Latitude":52.38147,"Longitude":5.24711}},"Address":{"Label":"Von Draispad, 1318 Almere-Stad, Nederland","Country":"NLD","State":"Flevoland","County":"Almere","City":"Almere-Stad","Street":"Von Draispad","PostalCode":"1318","AdditionalData":[{"value":"Nederland","key":"CountryName"},{"value":"Flevoland","key":"StateName"},{"value":"Almere","key":"CountyName"}]},"MapReference":{"ReferenceId":"1236332111","Spot":0.0,"SideOfStreet":"right","CountryId":"23055544","StateId":"23055502","CountyId":"23056015","CityId":"20201005"}}},{"Relevance":1.0,"Distance":82.8,"MatchLevel":"street","MatchQuality":{"Country":1.0,"State":1.0,"County":1.0,"City":1.0,"PostalCode":1.0},"Location":{"LocationId":"NT_liI0HFgtqQidESnOA8TpDC_l_1236332110_R","LocationType":"point","DisplayPosition":{"Latitude":52.38147,"Longitude":5.24711},"MapView":{"TopLeft":{"Latitude":52.38147,"Longitude":5.24507},"BottomRight":{"Latitude":52.38072,"Longitude":5.24711}},"Address":{"Label":"1318 Almere-Stad, Nederland","Country":"NLD","State":"Flevoland","County":"Almere","City":"Almere-Stad","PostalCode":"1318","AdditionalData":[{"value":"Nederland","key":"CountryName"},{"value":"Flevoland","key":"StateName"},{"value":"Almere","key":"CountyName"}]},"MapReference":{"ReferenceId":"1236332110","Spot":1.0,"SideOfStreet":"right","CountryId":"23055544","StateId":"23055502","CountyId":"23056015","CityId":"20201005"}}}]}]}}