{"Response":{"MetaInfo":{"Timestamp":"2020-03-28T12:05:14.220+0000","NextPageInformation":"2"},"View":[{"_type":"SearchResultsViewType","ViewId":0,"Result":[{"Relevance":1.0,"Distance":0.0,"Direction":0.0,"MatchLevel":"district","MatchQuality":{"Country":1.0,"State":1.0,"County":1.0,"City":1.0,"District":1.0,"Subdistrict":1.0,"PostalCode":1.0},"Location":{"LocationId":"NT_oP-qIZE-JK257ciseqKw2B","LocationType":"point","DisplayPosition":{"Latitude":52.3646717,"Longitude":17.0101786},"MapView":{"TopLeft":{"Latitude":52.40355,"Longitude":16.97718},"BottomRight":{"Latitude":52.35715,"Longitude":17.0521}},"Address":{"Label":"Kobylepole, Poznań, Woj. Wielkopolskie, Polska","Country":"POL","State":"Woj. Wielkopolskie","County":"Poznań","City":"Poznań","District":"Poznań","Subdistrict":"Kobylepole","PostalCode":"61-304","AdditionalData":[{"value":"Polska","key":"CountryName"},{"value":"Woj. Wielkopolskie","key":"StateName"},{"value":"Poznań","key":"CountyName"}]},"MapReference":{"ReferenceId":"843663763","SideOfStreet":"neither","CountryId":"20624059","StateId":"20629915","CountyId":"20631893","CityId":"20631894","DistrictId":"20646794"}}},{"Relevance":1.0,"Distance":8.1,"MatchLevel":"houseNumber","MatchQuality":{"Country":1.0,"State":1.0,"County":1.0,"City":1.0,"District":1.0,"Subdistrict":1.0,"Street":[1.0],"HouseNumber":1.0,"PostalCode":1.0},"MatchType":"interpolated","Location":{"LocationId":"NT_AKfO3sXpTN8qUlLilNLSdA_xUzQ","LocationType":"point","DisplayPosition":{"Latitude":52.36451,"Longitude":17.01029},"MapView":{"TopLeft":{"Latitude":52.3656342,"Longitude":17.008449},"BottomRight":{"Latitude":52.3633858,"Longitude":17.012131}},"Address":{"Label":"ulica Skibowa 15C, 61-306 Poznań, Polska","Country":"POL","State":"Woj. Wielkopolskie","County":"Poznań","City":"Poznań","District":"Poznań","Subdistrict":"Kobylepole","Street":"ulica Skibowa","HouseNumber":"15C","PostalCode":"61-306","AdditionalData":[{"value":"Polska","key":"CountryName"},{"value":"Woj. Wielkopolskie","key":"StateName"},{"value":"Poznań","key":"CountyName"}]},"MapReference":{"ReferenceId":"1192271744","Spot":0.15,"SideOfStreet":"left","CountryId":"20624059","StateId":"20629915","CountyId":"20631893","CityId":"20631894","DistrictId":"20646794","AddressId":"741691153","RoadLinkId":"501933001"}}},{"Relevance":1.0,"Distance":34.2,"MatchLevel":"street","MatchQuality":{"Country":1.0,"State":1.0,"County":1.0,"City":1.0,"District":1.0,"Subdistrict":1.0,"Street":[1.0],"PostalCode":1.0},"Location":{"LocationId":"NT_9xh3Boy7VCSVfLx2L-hkNA_l_902127936_R","LocationType":"point","DisplayPosition":{"Latitude":52.36438,"Longitude":17.01002},"MapView":{"TopLeft":{"Latitude":52.36452,"Longitude":17.00973},"BottomRight":{"Latitude":52.36438,"Longitude":17.01002}},"Address":{"Label":"ulica Szczepankowo, 61-311 Poznań, Polska","Country":"POL","State":"Woj. Wielkopolskie","County":"Poznań","City":"Poznań","District":"Poznań","Subdistrict":"Kobylepole","Street":"ulica Szczepankowo","PostalCode":"61-311","AdditionalData":[{"value":"Polska","key":"CountryName"},{"value":"Woj. Wielkopolskie","key":"StateName"},{"value":"Poznań","key":"CountyName"}]},"MapReference":{"ReferenceId":"902127936","Spot":0.0,"SideOfStreet":"right","CountryId":"20624059","StateId":"20629915","CountyId":"20631893","CityId":"20631894","DistrictId":"20646794"}}},{"Relevance":1.0,"Distance":34.2,"MatchLevel":"street","MatchQuality":{"Country":1.0,"State":1.0,"County":1.0,"City":1.0,"District":1.0,"Subdistrict":1.0,"Street":[1.0],"PostalCode":1.0},"Location":{"LocationId":"NT_g8CB1r0Y80gImzIVqT4lEC_l_1190026184_L","LocationType":"point","DisplayPosition":{"Latitude":52.36438,"Longitude":17.01002},"MapView":{"TopLeft":{"Latitude":52.36438,"Longitude":17.00942},"BottomRight":{"Latitude":52.36408,"Longitude":17.01002}},"Address":{"Label":"ulica Skibowa, 61-312 Poznań, Polska","Country":"POL","State":"Woj. Wielkopolskie","County":"Poznań","City":"Poznań","District":"Poznań","Subdistrict":"Kobylepole","Street":"ulica Skibowa","PostalCode":"61-312","AdditionalData":[{"value":"Polska","key":"CountryName"},{"value":"Woj. Wielkopolskie","key":"StateName"},{"value":"Poznań","key":"CountyName"}]},"MapReference":{"ReferenceId":"1190026184","Spot":1.0,"SideOfStreet":"left","CountryId":"20624059","StateId":"20629915","CountyId":"20631893","CityId":"20631894","DistrictId":"20646794"}}},{"Relevance":1.0,"Distance":60.4,"MatchLevel":"street","MatchQuality":{"Country":1.0,"State":1.0,"County":1.0,"City":1.0,"District":1.0,"Subdistrict":1.0,"PostalCode":1.0},"Location":{"LocationId":"NT_Du9jE7Ok0KNq3FQCaHGd7B_l_1190026192_L","LocationType":"point","DisplayPosition":{"Latitude":52.36416,"Longitude":17.00988},"MapView":{"TopLeft":{"Latitude":52.36416,"Longitude":17.00937},"BottomRight":{"Latitude":52.36383,"Longitude":17.00988}},"Address":{"Label":"61-312 Poznań, Polska","Country":"POL","State":"Woj. Wielkopolskie","County":"Poznań","City":"Poznań","District":"Poznań","Subdistrict":"Kobylepole","PostalCode":"61-312","AdditionalData":[{"value":"Polska","key":"CountryName"},{"value":"Woj. Wielkopolskie","key":"StateName"},{"value":"Poznań","key":"CountyName"}]},"MapReference":{"ReferenceId":"1190026192","Spot":1.0,"SideOfStreet":"left","CountryId":"20624059","StateId":"20629915","CountyId":"20631893","CityId":"20631894","DistrictId":"20646794"}}},{"Relevance":1.0,"Distance":65.7,"MatchLevel":"houseNumber","MatchQuality":{"Country":1.0,"State":1.0,"County":1.0,"City":1.0,"District":1.0,"Subdistrict":1.0,"Street":[1.0],"HouseNumber":1.0,"PostalCode":1.0},"MatchType":"interpolated","Location":{"LocationId":"NT_YOieTd5.ZDE0YDeSs1WSfA_4UD","LocationType":"point","DisplayPosition":{"Latitude":52.36481,"Longitude":17.00913},"MapView":{"TopLeft":{"Latitude":52.3659342,"Longitude":17.007289},"BottomRight":{"Latitude":52.3636858,"Longitude":17.010971}},"Address":{"Label":"ulica Szczepankowo 85, 61-311 Poznań, Polska","Country":"POL","State":"Woj. Wielkopolskie","County":"Poznań","City":"Poznań","District":"Poznań","Subdistrict":"Kobylepole","Street":"ulica Szczepankowo","HouseNumber":"85","PostalCode":"61-311","AdditionalData":[{"value":"Polska","key":"CountryName"},{"value":"Woj. Wielkopolskie","key":"StateName"},{"value":"Poznań","key":"CountyName"}]},"MapReference":{"ReferenceId":"902127937","Spot":0.25,"SideOfStreet":"right","CountryId":"20624059","StateId":"20629915","CountyId":"20631893","CityId":"20631894","DistrictId":"20646794","AddressId":"732211922","RoadLinkId":"263664159"}}},{"Relevance":1.0,"Distance":72.5,"MatchLevel":"street","MatchQuality":{"Country":1.0,"State":1.0,"County":1.0,"City":1.0,"District":1.0,"Subdistrict":1.0,"PostalCode":1.0},"Location":{"LocationId":"NT_Du9jE7Ok0KNq3FQCaHGd7B_l_1190026187_R","LocationType":"point","DisplayPosition":{"Latitude":52.36433,"Longitude":17.00927},"MapView":{"TopLeft":{"Latitude":52.36433,"Longitude":17.00914},"BottomRight":{"Latitude":52.36423,"Longitude":17.00927}},"Address":{"Label":"61-312 Poznań, Polska","Country":"POL","State":"Woj. Wielkopolskie","County":"Poznań","City":"Poznań","District":"Poznań","Subdistrict":"Kobylepole","PostalCode":"61-312","AdditionalData":[{"value":"Polska","key":"CountryName"},{"value":"Woj. Wielkopolskie","key":"StateName"},{"value":"Poznań","key":"CountyName"}]},"MapReference":{"ReferenceId":"1190026187","Spot":1.0,"SideOfStreet":"right","CountryId":"20624059","StateId":"20629915","CountyId":"20631893","CityId":"20631894","DistrictId":"20646794"}}},{"Relevance":1.0,"Distance":83.6,"MatchLevel":"street","MatchQuality":{"Country":1.0,"State":1.0,"County":1.0,"City":1.0,"District":1.0,"Subdistrict":1.0,"PostalCode":1.0},"Location":{"LocationId":"NT_Du9jE7Ok0KNq3FQCaHGd7B_l_1190026185_R","LocationType":"point","DisplayPosition":{"Latitude":52.36408,"Longitude":17.00942},"MapView":{"TopLeft":{"Latitude":52.36423,"Longitude":17.00914},"BottomRight":{"Latitude":52.36408,"Longitude":17.00942}},"Address":{"Label":"61-312 Poznań, Polska","Country":"POL","State":"Woj. Wielkopolskie","County":"Poznań","City":"Poznań","District":"Poznań","Subdistrict":"Kobylepole","PostalCode":"61-312","AdditionalData":[{"value":"Polska","key":"CountryName"},{"value":"Woj. Wielkopolskie","key":"StateName"},{"value":"Poznań","key":"CountyName"}]},"MapReference":{"ReferenceId":"1190026185","Spot":0.0,"SideOfStreet":"right","CountryId":"20624059","StateId":"20629915","CountyId":"20631893","CityId":"20631894","DistrictId":"20646794"}}},{"Relevance":1.0,"Distance":93.9,"MatchLevel":"houseNumber","MatchQuality":{"Country":1.0,"State":1.0,"County":1.0,"City":1.0,"District":1.0,"Subdistrict":1.0,"Street":[1.0],"HouseNumber":1.0,"PostalCode":1.0},"MatchType":"interpolated","Location":{"LocationId":"NT_g8CB1r0Y80gImzIVqT4lEC_xMTQ","LocationType":"point","DisplayPosition":{"Latitude":52.36401,"Longitude":17.00932},"MapView":{"TopLeft":{"Latitude":52.3651342,"Longitude":17.0074791},"BottomRight":{"Latitude":52.3628858,"Longitude":17.0111609}},"Address":{"Label":"ulica Skibowa 13A, 61-312 Poznań, Polska","Country":"POL","State":"Woj. Wielkopolskie","County":"Poznań","City":"Poznań","District":"Poznań","Subdistrict":"Kobylepole","Street":"ulica Skibowa","HouseNumber":"13A","PostalCode":"61-312","AdditionalData":[{"value":"Polska","key":"CountryName"},{"value":"Woj. Wielkopolskie","key":"StateName"},{"value":"Poznań","key":"CountyName"}]},"MapReference":{"ReferenceId":"1190026189","Spot":0.58,"SideOfStreet":"left","CountryId":"20624059","StateId":"20629915","CountyId":"20631893","CityId":"20631894","DistrictId":"20646794","AddressId":"209222853","RoadLinkId":"499301741"}}},{"Relevance":1.0,"Distance":100.7,"MatchLevel":"street","MatchQuality":{"Country":1.0,"State":1.0,"County":1.0,"City":1.0,"District":1.0,"Subdistrict":1.0,"PostalCode":1.0},"Location":{"LocationId":"NT_Du9jE7Ok0KNq3FQCaHGd7B_l_1192277214_L","LocationType":"point","DisplayPosition":{"Latitude":52.36377,"Longitude":17.01004},"MapView":{"TopLeft":{"Latitude":52.36377,"Longitude":17.00977},"BottomRight":{"Latitude":52.36363,"Longitude":17.01013}},"Address":{"Label":"61-312 Poznań, Polska","Country":"POL","State":"Woj. Wielkopolskie","County":"Poznań","City":"Poznań","District":"Poznań","Subdistrict":"Kobylepole","PostalCode":"61-312","AdditionalData":[{"value":"Polska","key":"CountryName"},{"value":"Woj. Wielkopolskie","key":"StateName"},{"value":"Poznań","key":"CountyName"}]},"MapReference":{"ReferenceId":"1192277214","Spot":0.77,"SideOfStreet":"left","CountryId":"20624059","StateId":"20629915","CountyId":"20631893","CityId":"20631894","DistrictId":"20646794"}}}]}]}}