{"Response":{"MetaInfo":{"Timestamp":"2020-03-28T10:05:58.268+0000","NextPageInformation":"2"},"View":[{"_type":"SearchResultsViewType","ViewId":0,"Result":[{"Relevance":1.0,"Distance":0.0,"Direction":0.0,"MatchLevel":"district","MatchQuality":{"Country":1.0,"State":1.0,"County":1.0,"City":1.0,"District":1.0,"PostalCode":1.0},"Location":{"LocationId":"NT_m06rcThaH59wj52ssKFIGA","LocationType":"point","DisplayPosition":{"Latitude":52.405183,"Longitude":13.285642},"MapView":{"TopLeft":{"Latitude":52.4161,"Longitude":13.23273},"BottomRight":{"Latitude":52.37829,"Longitude":13.31202}},"Address":{"Label":"Teltow, Brandenburg, Deutschland","Country":"DEU","State":"Brandenburg","County":"Potsdam-Mittelmark","City":"Teltow","District":"Teltow","PostalCode":"14513","AdditionalData":[{"value":"Deutschland","key":"CountryName"},{"value":"Brandenburg","key":"StateName"},{"value":"Potsdam-Mittelmark","key":"CountyName"}]},"MapReference":{"ReferenceId":"1194244260","SideOfStreet":"neither","CountryId":"20147700","StateId":"20187428","CountyId":"20188775","CityId":"20188946","DistrictId":"20188948"}}},{"Relevance":1.0,"Distance":2.0,"MatchLevel":"street","MatchQuality":{"Country":1.0,"State":1.0,"County":1.0,"City":1.0,"District":1.0,"Street":[1.0],"PostalCode":1.0},"Location":{"LocationId":"NT_m5z.sig4QQ6f6M1.Sv8UrD_l_60907513_L","LocationType":"point","DisplayPosition":{"Latitude":52.405192,"Longitude":13.2856675},"MapView":{"TopLeft":{"Latitude":52.40539,"Longitude":13.28564},"BottomRight":{"Latitude":52.4048,"Longitude":13.28591}},"Address":{"Label":"Jacobsonsteig, 14513 Teltow, Deutschland","Country":"DEU","State":"Brandenburg","County":"Potsdam-Mittelmark","City":"Teltow","District":"Teltow","Street":"Jacobsonsteig","PostalCode":"14513","AdditionalData":[{"value":"Deutschland","key":"CountryName"},{"value":"Brandenburg","key":"StateName"},{"value":"Potsdam-Mittelmark","key":"CountyName"}]},"MapReference":{"ReferenceId":"60907513","Spot":0.7,"SideOfStreet":"neither","CountryId":"20147700","StateId":"20187428","CountyId":"20188775","CityId":"20188946","DistrictId":"20188948"}}},{"Relevance":1.0,"Distance":20.7,"MatchLevel":"houseNumber","MatchQuality":{"Country":1.0,"State":1.0,"County":1.0,"City":1.0,"District":1.0,"Street":[1.0],"HouseNumber":1.0,"PostalCode":1.0},"MatchType":"interpolated","Location":{"LocationId":"NT_8X2TUOMwQ0Geaz85ZFoOmC_xgD","LocationType":"point","DisplayPosition":{"Latitude":52.4048,"Longitude":13.28591},"MapView":{"TopLeft":{"Latitude":52.4059242,"Longitude":13.2840674},"BottomRight":{"Latitude":52.4036758,"Longitude":13.2877526}},"Address":{"Label":"Marienfelder Anger 18, 14513 Teltow, Deutschland","Country":"DEU","State":"Brandenburg","County":"Potsdam-Mittelmark","City":"Teltow","District":"Teltow","Street":"Marienfelder Anger","HouseNumber":"18","PostalCode":"14513","AdditionalData":[{"value":"Deutschland","key":"CountryName"},{"value":"Brandenburg","key":"StateName"},{"value":"Potsdam-Mittelmark","key":"CountyName"}]},"MapReference":{"ReferenceId":"839625158","Spot":1.0,"SideOfStreet":"left","CountryId":"20147700","StateId":"20187428","CountyId":"20188775","CityId":"20188946","DistrictId":"20188948","AddressId":"732516114","RoadLinkId":"221786304"}}},{"Relevance":1.0,"Distance":23.0,"MatchLevel":"street","MatchQuality":{"Country":1.0,"State":1.0,"County":1.0,"City":1.0,"District":1.0,"Street":[1.0],"PostalCode":1.0},"Location":{"LocationId":"NT_ZKBg9NszGHdYyXWFM.t3BD_l_60907473_R","LocationType":"point","DisplayPosition":{"Latitude":52.40539,"Longitude":13.28564},"MapView":{"TopLeft":{"Latitude":52.40548,"Longitude":13.28564},"BottomRight":{"Latitude":52.40539,"Longitude":13.28649}},"Address":{"Label":"Roseggerstraße, 14513 Teltow, Deutschland","Country":"DEU","State":"Brandenburg","County":"Potsdam-Mittelmark","City":"Teltow","District":"Teltow","Street":"Roseggerstraße","PostalCode":"14513","AdditionalData":[{"value":"Deutschland","key":"CountryName"},{"value":"Brandenburg","key":"StateName"},{"value":"Potsdam-Mittelmark","key":"CountyName"}]},"MapReference":{"ReferenceId":"60907473","Spot":0.0,"SideOfStreet":"right","CountryId":"20147700","StateId":"20187428","CountyId":"20188775","CityId":"20188946","DistrictId":"20188948"}}},{"Relevance":1.0,"Distance":23.0,"MatchLevel":"street","MatchQuality":{"Country":1.0,"State":1.0,"County":1.0,"City":1.0,"District":1.0,"Street":[1.0],"PostalCode":1.0},"Location":{"LocationId":"NT_m5z.sig4QQ6f6M1.Sv8UrD_l_60907474_L","LocationType":"point","DisplayPosition":{"Latitude":52.40539,"Longitude":13.28564},"MapView":{"TopLeft":{"Latitude":52.40639,"Longitude":13.28556},"BottomRight":{"Latitude":52.40539,"Longitude":13.28564}},"Address":{"Label":"Jacobsonsteig, 14513 Teltow, Deutschland","Country":"DEU","State":"Brandenburg","County":"Potsdam-Mittelmark","City":"Teltow","District":"Teltow","Street":"Jacobsonsteig","PostalCode":"14513","AdditionalData":[{"value":"Deutschland","key":"CountryName"},{"value":"Brandenburg","key":"StateName"},{"value":"Potsdam-Mittelmark","key":"CountyName"}]},"MapReference":{"ReferenceId":"60907474","Spot":0.0,"SideOfStreet":"left","CountryId":"20147700","StateId":"20187428","CountyId":"20188775","CityId":"20188946","DistrictId":"20188948"}}},{"Relevance":1.0,"Distance":45.3,"MatchLevel":"houseNumber","MatchQuality":{"Country":1.0,"State":1.0,"County":1.0,"City":1.0,"District":1.0,"Street":[1.0],"HouseNumber":1.0,"PostalCode":1.0},"MatchType":"interpolated","Location":{"LocationId":"NT_WlmdjDnVzMtvlu8r3Fn0vD_xMTQ","LocationType":"point","DisplayPosition":{"Latitude":52.40575,"Longitude":13.2862},"MapView":{"TopLeft":{"Latitude":52.4068742,"Longitude":13.2843573},"BottomRight":{"Latitude":52.4046258,"Longitude":13.2880427}},"Address":{"Label":"Fritz-Reuter-Straße 13A, 14513 Teltow, Deutschland","Country":"DEU","State":"Brandenburg","County":"Potsdam-Mittelmark","City":"Teltow","District":"Teltow","Street":"Fritz-Reuter-Straße","HouseNumber":"13A","PostalCode":"14513","AdditionalData":[{"value":"Deutschland","key":"CountryName"},{"value":"Brandenburg","key":"StateName"},{"value":"Potsdam-Mittelmark","key":"CountyName"}]},"MapReference":{"ReferenceId":"60907471","Spot":0.41,"SideOfStreet":"left","CountryId":"20147700","StateId":"20187428","CountyId":"20188775","CityId":"20188946","DistrictId":"20188948","AddressId":"732518711","RoadLinkId":"38016214"}}},{"Relevance":1.0,"Distance":47.5,"MatchLevel":"houseNumber","MatchQuality":{"Country":1.0,"State":1.0,"County":1.0,"City":1.0,"District":1.0,"Street":[1.0],"HouseNumber":1.0,"PostalCode":1.0},"MatchType":"interpolated","Location":{"LocationId":"NT_WlmdjDnVzMtvlu8r3Fn0vD_xcD","LocationType":"point","DisplayPosition":{"Latitude":52.4054,"Longitude":13.28658},"MapView":{"TopLeft":{"Latitude":52.4065242,"Longitude":13.2847373},"BottomRight":{"Latitude":52.4042758,"Longitude":13.2884227}},"Address":{"Label":"Fritz-Reuter-Straße 17, 14513 Teltow, Deutschland","Country":"DEU","State":"Brandenburg","County":"Potsdam-Mittelmark","City":"Teltow","District":"Teltow","Street":"Fritz-Reuter-Straße","HouseNumber":"17","PostalCode":"14513","AdditionalData":[{"value":"Deutschland","key":"CountryName"},{"value":"Brandenburg","key":"StateName"},{"value":"Potsdam-Mittelmark","key":"CountyName"}]},"MapReference":{"ReferenceId":"60907482","Spot":0.6,"SideOfStreet":"left","CountryId":"20147700","StateId":"20187428","CountyId":"20188775","CityId":"20188946","DistrictId":"20188948","AddressId":"621820519","RoadLinkId":"37720921"}}},{"Relevance":1.0,"Distance":66.7,"MatchLevel":"houseNumber","MatchQuality":{"Country":1.0,"State":1.0,"County":1.0,"City":1.0,"District":1.0,"Street":[1.0],"HouseNumber":1.0,"PostalCode":1.0},"MatchType":"interpolated","Location":{"LocationId":"NT_WlmdjDnVzMtvlu8r3Fn0vD_xkD","LocationType":"point","DisplayPosition":{"Latitude":52.40512,"Longitude":13.28688},"MapView":{"TopLeft":{"Latitude":52.4062442,"Longitude":13.2850374},"BottomRight":{"Latitude":52.4039958,"Longitude":13.2887226}},"Address":{"Label":"Fritz-Reuter-Straße 19, 14513 Teltow, Deutschland","Country":"DEU","State":"Brandenburg","County":"Potsdam-Mittelmark","City":"Teltow","District":"Teltow","Street":"Fritz-Reuter-Straße","HouseNumber":"19","PostalCode":"14513","AdditionalData":[{"value":"Deutschland","key":"CountryName"},{"value":"Brandenburg","key":"StateName"},{"value":"Potsdam-Mittelmark","key":"CountyName"}]},"MapReference":{"ReferenceId":"60907543","Spot":0.85,"SideOfStreet":"left","CountryId":"20147700","StateId":"20187428","CountyId":"20188775","CityId":"20188946","DistrictId":"20188948","AddressId":"181782516","RoadLinkId":"37891172"}}},{"Relevance":1.0,"Distance":67.9,"MatchLevel":"houseNumber","MatchQuality":{"Country":1.0,"State":1.0,"County":1.0,"City":1.0,"District":1.0,"Street":[1.0],"HouseNumber":1.0,"PostalCode":1.0},"MatchType":"interpolated","Location":{"LocationId":"NT_cxd1.6YLvbk2sPYfhKURcB_yA","LocationType":"point","DisplayPosition":{"Latitude":52.40464,"Longitude":13.2861},"MapView":{"TopLeft":{"Latitude":52.4057642,"Longitude":13.2842574},"BottomRight":{"Latitude":52.4035158,"Longitude":13.2879426}},"Address":{"Label":"Klaus-Groth-Straße 2, 14513 Teltow, Deutschland","Country":"DEU","State":"Brandenburg","County":"Potsdam-Mittelmark","City":"Teltow","District":"Teltow","Street":"Klaus-Groth-Straße","HouseNumber":"2","PostalCode":"14513","AdditionalData":[{"value":"Deutschland","key":"CountryName"},{"value":"Brandenburg","key":"StateName"},{"value":"Potsdam-Mittelmark","key":"CountyName"}]},"MapReference":{"ReferenceId":"60907568","Spot":0.82,"SideOfStreet":"right","CountryId":"20147700","StateId":"20187428","CountyId":"20188775","CityId":"20188946","DistrictId":"20188948","AddressId":"182533420","RoadLinkId":"37341050"}}},{"Relevance":1.0,"Distance":89.8,"MatchLevel":"houseNumber","MatchQuality":{"Country":1.0,"State":1.0,"County":1.0,"City":1.0,"District":1.0,"Street":[1.0],"HouseNumber":1.0,"PostalCode":1.0},"MatchType":"interpolated","Location":{"LocationId":"NT_WlmdjDnVzMtvlu8r3Fn0vD_3A","LocationType":"point","DisplayPosition":{"Latitude":52.40614,"Longitude":13.2858},"MapView":{"TopLeft":{"Latitude":52.4072642,"Longitude":13.2839573},"BottomRight":{"Latitude":52.4050158,"Longitude":13.2876427}},"Address":{"Label":"Fritz-Reuter-Straße 7, 14513 Teltow, Deutschland","Country":"DEU","State":"Brandenburg","County":"Potsdam-Mittelmark","City":"Teltow","District":"Teltow","Street":"Fritz-Reuter-Straße","HouseNumber":"7","PostalCode":"14513","AdditionalData":[{"value":"Deutschland","key":"CountryName"},{"value":"Brandenburg","key":"StateName"},{"value":"Potsdam-Mittelmark","key":"CountyName"}]},"MapReference":{"ReferenceId":"60907433","Spot":0.0,"SideOfStreet":"left","CountryId":"20147700","StateId":"20187428","CountyId":"20188775","CityId":"20188946","DistrictId":"20188948","AddressId":"181914333","RoadLinkId":"37922532"}}}]}]}}