{"Response":{"MetaInfo":{"Timestamp":"2020-03-31T17:04:01.417+0000","NextPageInformation":"2"},"View":[{"_type":"SearchResultsViewType","ViewId":0,"Result":[{"Relevance":1.0,"Distance":0.0,"Direction":0.0,"MatchLevel":"district","MatchQuality":{"Country":1.0,"County":1.0,"City":1.0,"District":1.0,"PostalCode":1.0},"Location":{"LocationId":"NT_.FvnGvy761TWU-kxdQZyID","LocationType":"point","DisplayPosition":{"Latitude":52.4464,"Longitude":-9.485},"MapView":{"TopLeft":{"Latitude":52.46391,"Longitude":-9.51486},"BottomRight":{"Latitude":52.43624,"Longitude":-9.45852}},"Address":{"Label":"Listowel, Ireland","Country":"IRL","County":"County Kerry","City":"Listowel","District":"Listowel","AdditionalData":[{"value":"Ireland","key":"CountryName"},{"value":"County Kerry","key":"CountyName"}]},"MapReference":{"ReferenceId":"559807167","SideOfStreet":"neither","CountryId":"20403667","CountyId":"20411192","CityId":"20526042","DistrictId":"20526296"}}},{"Relevance":1.0,"Distance":3.3,"MatchLevel":"houseNumber","MatchQuality":{"Country":1.0,"County":1.0,"City":1.0,"District":1.0,"Street":[1.0],"HouseNumber":1.0,"PostalCode":1.0},"MatchType":"interpolated","Location":{"LocationId":"NT_Ut0xJhP43GdJmCEkY4YHWA_yID","LocationType":"point","DisplayPosition":{"Latitude":52.4463,"Longitude":-9.48489},"MapView":{"TopLeft":{"Latitude":52.4474242,"Longitude":-9.4867344},"BottomRight":{"Latitude":52.4451758,"Longitude":-9.4830456}},"Address":{"Label":"22 Church Street, Listowel, County Kerry, V31 KW81, Ireland","Country":"IRL","County":"County Kerry","City":"Listowel","District":"Listowel","Street":"Church Street","HouseNumber":"22","PostalCode":"V31 KW81","AdditionalData":[{"value":"Ireland","key":"CountryName"},{"value":"County Kerry","key":"CountyName"}]},"MapReference":{"ReferenceId":"559807234","Spot":0.34,"SideOfStreet":"left","CountryId":"20403667","CountyId":"20411192","CityId":"20526042","DistrictId":"20526296","AddressId":"214267533","RoadLinkId":"86506833"}}},{"Relevance":1.0,"Distance":9.1,"MatchLevel":"postalCode","MatchQuality":{"PostalCode":1.0},"MatchType":"interpolated","Location":{"LocationId":"NT_Ut0xJhP43GdJmCEkY4YHWA_yID","LocationType":"point","DisplayPosition":{"Latitude":52.44633,"Longitude":-9.48507},"MapView":{"TopLeft":{"Latitude":52.4553232,"Longitude":-9.499825},"BottomRight":{"Latitude":52.4373368,"Longitude":-9.470315}},"Address":{"Label":"V31 XP90, Listowel, Ireland","Country":"IRL","County":"County Kerry","City":"Listowel","PostalCode":"V31 XP90","AdditionalData":[{"value":"Ireland","key":"CountryName"},{"value":"County Kerry","key":"CountyName"}]},"MapReference":{"ReferenceId":"559807234","Spot":0.34,"SideOfStreet":"neither","CountryId":"20403667","CountyId":"20411192","CityId":"20526042"}}},{"Relevance":1.0,"Distance":49.7,"MatchLevel":"houseNumber","MatchQuality":{"Country":1.0,"County":1.0,"City":1.0,"District":1.0,"Street":[1.0],"HouseNumber":1.0,"PostalCode":1.0},"MatchType":"interpolated","Location":{"LocationId":"NT_b6vCYpIsjJmGVcqXTDpm3B_5A","LocationType":"point","DisplayPosition":{"Latitude":52.44636,"Longitude":-9.48584},"MapView":{"TopLeft":{"Latitude":52.4474842,"Longitude":-9.4876844},"BottomRight":{"Latitude":52.4452358,"Longitude":-9.4839956}},"Address":{"Label":"9 William Street, Listowel, County Kerry, V31 AW28, Ireland","Country":"IRL","County":"County Kerry","City":"Listowel","District":"Listowel","Street":"William Street","HouseNumber":"9","PostalCode":"V31 AW28","AdditionalData":[{"value":"Ireland","key":"CountryName"},{"value":"County Kerry","key":"CountyName"}]},"MapReference":{"ReferenceId":"590505347","Spot":0.25,"SideOfStreet":"right","CountryId":"20403667","CountyId":"20411192","CityId":"20526042","DistrictId":"20526296","AddressId":"743587409","RoadLinkId":"86663615"}}},{"Relevance":1.0,"Distance":50.2,"MatchLevel":"postalCode","MatchQuality":{"PostalCode":1.0},"MatchType":"interpolated","Location":{"LocationId":"NT_b6vCYpIsjJmGVcqXTDpm3B_5A","LocationType":"point","DisplayPosition":{"Latitude":52.44641,"Longitude":-9.48574},"MapView":{"TopLeft":{"Latitude":52.4554032,"Longitude":-9.500495},"BottomRight":{"Latitude":52.4374168,"Longitude":-9.470985}},"Address":{"Label":"V31 AE72, Listowel, Ireland","Country":"IRL","County":"County Kerry","City":"Listowel","PostalCode":"V31 AE72","AdditionalData":[{"value":"Ireland","key":"CountryName"},{"value":"County Kerry","key":"CountyName"}]},"MapReference":{"ReferenceId":"590505347","Spot":0.25,"SideOfStreet":"neither","CountryId":"20403667","CountyId":"20411192","CityId":"20526042"}}},{"Relevance":1.0,"Distance":58.6,"MatchLevel":"postalCode","MatchQuality":{"PostalCode":1.0},"MatchType":"interpolated","Location":{"LocationId":"NT_b6vCYpIsjJmGVcqXTDpm3B_xA","LocationType":"point","DisplayPosition":{"Latitude":52.44616,"Longitude":-9.48577},"MapView":{"TopLeft":{"Latitude":52.4551532,"Longitude":-9.5005249},"BottomRight":{"Latitude":52.4371668,"Longitude":-9.4710151}},"Address":{"Label":"V31 CA25, Listowel, Ireland","Country":"IRL","County":"County Kerry","City":"Listowel","PostalCode":"V31 CA25","AdditionalData":[{"value":"Ireland","key":"CountryName"},{"value":"County Kerry","key":"CountyName"}]},"MapReference":{"ReferenceId":"590505348","Spot":0.64,"SideOfStreet":"neither","CountryId":"20403667","CountyId":"20411192","CityId":"20526042"}}},{"Relevance":1.0,"Distance":60.3,"MatchLevel":"houseNumber","MatchQuality":{"Country":1.0,"County":1.0,"City":1.0,"District":1.0,"Street":[1.0],"HouseNumber":1.0,"PostalCode":1.0},"MatchType":"interpolated","Location":{"LocationId":"NT_b6vCYpIsjJmGVcqXTDpm3B_xA","LocationType":"point","DisplayPosition":{"Latitude":52.44609,"Longitude":-9.48575},"MapView":{"TopLeft":{"Latitude":52.4472142,"Longitude":-9.4875944},"BottomRight":{"Latitude":52.4449658,"Longitude":-9.4839056}},"Address":{"Label":"1 William Street, Listowel, County Kerry, V31, Ireland","Country":"IRL","County":"County Kerry","City":"Listowel","District":"Listowel","Street":"William Street","HouseNumber":"1","PostalCode":"V31","AdditionalData":[{"value":"Ireland","key":"CountryName"},{"value":"County Kerry","key":"CountyName"}]},"MapReference":{"ReferenceId":"590505348","Spot":0.64,"SideOfStreet":"right","CountryId":"20403667","CountyId":"20411192","CityId":"20526042","DistrictId":"20526296","AddressId":"359962119","RoadLinkId":"86535748"}}},{"Relevance":1.0,"Distance":75.2,"MatchLevel":"postalCode","MatchQuality":{"PostalCode":1.0},"MatchType":"interpolated","Location":{"LocationId":"NT_R6OKroEJ8DYDMsGDgs9fjC_xYD","LocationType":"point","DisplayPosition":{"Latitude":52.44582,"Longitude":-9.48557},"MapView":{"TopLeft":{"Latitude":52.4548132,"Longitude":-9.5003248},"BottomRight":{"Latitude":52.4368268,"Longitude":-9.4708152}},"Address":{"Label":"V31 HW30, Listowel, Ireland","Country":"IRL","County":"County Kerry","City":"Listowel","PostalCode":"V31 HW30","AdditionalData":[{"value":"Ireland","key":"CountryName"},{"value":"County Kerry","key":"CountyName"}]},"MapReference":{"ReferenceId":"559791595","Spot":0.72,"SideOfStreet":"neither","CountryId":"20403667","CountyId":"20411192","CityId":"20526042"}}},{"Relevance":1.0,"Distance":80.9,"MatchLevel":"houseNumber","MatchQuality":{"Country":1.0,"County":1.0,"City":1.0,"District":1.0,"Street":[1.0],"HouseNumber":1.0,"PostalCode":1.0},"MatchType":"interpolated","Location":{"LocationId":"NT_b6vCYpIsjJmGVcqXTDpm3B_zUD","LocationType":"point","DisplayPosition":{"Latitude":52.44698,"Longitude":-9.48588},"MapView":{"TopLeft":{"Latitude":52.4481042,"Longitude":-9.4877244},"BottomRight":{"Latitude":52.4458558,"Longitude":-9.4840356}},"Address":{"Label":"35 William Street, Listowel, County Kerry, V31 HW11, Ireland","Country":"IRL","County":"County Kerry","City":"Listowel","District":"Listowel","Street":"William Street","HouseNumber":"35","PostalCode":"V31 HW11","AdditionalData":[{"value":"Ireland","key":"CountryName"},{"value":"County Kerry","key":"CountyName"}]},"MapReference":{"ReferenceId":"590505220","Spot":0.09,"SideOfStreet":"right","CountryId":"20403667","CountyId":"20411192","CityId":"20526042","DistrictId":"20526296","AddressId":"214761452","RoadLinkId":"86686723"}}},{"Relevance":1.0,"Distance":84.6,"MatchLevel":"street","MatchQuality":{"Country":1.0,"County":1.0,"City":1.0,"District":1.0,"Street":[1.0],"PostalCode":1.0},"Location":{"LocationId":"NT_9wnT.ZAH9gLlBPEHK6JZZA_l_559791602_R","LocationType":"point","DisplayPosition":{"Latitude":52.44694,"Longitude":-9.48588},"MapView":{"TopLeft":{"Latitude":52.44694,"Longitude":-9.48614},"BottomRight":{"Latitude":52.44693,"Longitude":-9.48588}},"Address":{"Label":"Market Street, Listowel, County Kerry, V31, Ireland","Country":"IRL","County":"County Kerry","City":"Listowel","District":"Listowel","Street":"Market Street","PostalCode":"V31","AdditionalData":[{"value":"Ireland","key":"CountryName"},{"value":"County Kerry","key":"CountyName"}]},"MapReference":{"ReferenceId":"559791602","Spot":1.0,"SideOfStreet":"right","CountryId":"20403667","CountyId":"20411192","CityId":"20526042","DistrictId":"20526296"}}}]}]}}