{"Response":{"MetaInfo":{"Timestamp":"2020-03-28T10:41:13.698+0000","NextPageInformation":"2"},"View":[{"_type":"SearchResultsViewType","ViewId":0,"Result":[{"Relevance":1.0,"Distance":0.0,"Direction":0.0,"MatchLevel":"district","MatchQuality":{"Country":1.0,"State":1.0,"County":1.0,"City":1.0,"District":1.0,"PostalCode":1.0},"Location":{"LocationId":"NT_Hzo.UijWjZNq.rUWNf-5LB","LocationType":"point","DisplayPosition":{"Latitude":52.471232,"Longitude":1.7141795},"MapView":{"TopLeft":{"Latitude":52.50474,"Longitude":1.68382},"BottomRight":{"Latitude":52.43603,"Longitude":1.76357}},"Address":{"Label":"Lowestoft, England, United Kingdom","Country":"GBR","State":"England","County":"Suffolk","City":"Lowestoft","District":"Lowestoft","PostalCode":"NR33 0","AdditionalData":[{"value":"United Kingdom","key":"CountryName"},{"value":"England","key":"StateName"},{"value":"Suffolk","key":"CountyName"}]},"MapReference":{"ReferenceId":"802421002","SideOfStreet":"neither","StateId":"20248595","CountyId":"20338322","CityId":"20351285","DistrictId":"20351286"}}},{"Relevance":1.0,"Distance":3.3,"MatchLevel":"street","MatchQuality":{"Country":1.0,"State":1.0,"County":1.0,"City":1.0,"District":1.0,"PostalCode":1.0},"Location":{"LocationId":"NT_taT28bvnfsk7CYprnpDlDA_l_26490927_R","LocationType":"point","DisplayPosition":{"Latitude":52.4712481,"Longitude":1.7141392},"MapView":{"TopLeft":{"Latitude":52.47155,"Longitude":1.714},"BottomRight":{"Latitude":52.4709,"Longitude":1.71426}},"Address":{"Label":"Lowestoft, NR33 9, United Kingdom","Country":"GBR","State":"England","County":"Suffolk","City":"Lowestoft","District":"Lowestoft","PostalCode":"NR33 9","AdditionalData":[{"value":"United Kingdom","key":"CountryName"},{"value":"England","key":"StateName"},{"value":"Suffolk","key":"CountyName"}]},"MapReference":{"ReferenceId":"26490927","Spot":0.54,"SideOfStreet":"right","StateId":"20248595","CountyId":"20338322","CityId":"20351285","DistrictId":"20351286"}}},{"Relevance":1.0,"Distance":25.0,"MatchLevel":"houseNumber","MatchQuality":{"Country":1.0,"State":1.0,"County":1.0,"City":1.0,"District":1.0,"Street":[1.0],"HouseNumber":1.0,"PostalCode":1.0},"MatchType":"interpolated","Location":{"LocationId":"NT_0qYnPLjgABul7BoLQKMW5D_l_26490862_L_4AD","LocationType":"point","DisplayPosition":{"Latitude":52.47157,"Longitude":1.7140397},"MapView":{"TopLeft":{"Latitude":52.4726942,"Longitude":1.7121943},"BottomRight":{"Latitude":52.4704459,"Longitude":1.7158852}},"Address":{"Label":"80 Victoria Road, Lowestoft, NR33 9LT, United Kingdom","Country":"GBR","State":"England","County":"Suffolk","City":"Lowestoft","District":"Lowestoft","Street":"Victoria Road","HouseNumber":"80","PostalCode":"NR33 9LT","AdditionalData":[{"value":"United Kingdom","key":"CountryName"},{"value":"England","key":"StateName"},{"value":"Suffolk","key":"CountyName"}]},"MapReference":{"ReferenceId":"26490862","Spot":0.11,"SideOfStreet":"left","StateId":"20248595","CountyId":"20338322","CityId":"20351285","DistrictId":"20351286"}}},{"Relevance":1.0,"Distance":26.5,"MatchLevel":"houseNumber","MatchQuality":{"Country":1.0,"State":1.0,"County":1.0,"City":1.0,"District":1.0,"Street":[1.0],"HouseNumber":1.0,"PostalCode":1.0},"MatchType":"interpolated","Location":{"LocationId":"NT_pJOwJWC9Uy1eC67G96LgTA_l_26490872_L_4ID","LocationType":"point","DisplayPosition":{"Latitude":52.4715125,"Longitude":1.7145125},"MapView":{"TopLeft":{"Latitude":52.4726367,"Longitude":1.7126671},"BottomRight":{"Latitude":52.4703884,"Longitude":1.7163579}},"Address":{"Label":"82 Victoria Road, Lowestoft, NR33 9LU, United Kingdom","Country":"GBR","State":"England","County":"Suffolk","City":"Lowestoft","District":"Lowestoft","Street":"Victoria Road","HouseNumber":"82","PostalCode":"NR33 9LU","AdditionalData":[{"value":"United Kingdom","key":"CountryName"},{"value":"England","key":"StateName"},{"value":"Suffolk","key":"CountyName"}]},"MapReference":{"ReferenceId":"26490872","Spot":0.58,"SideOfStreet":"left","StateId":"20248595","CountyId":"20338322","CityId":"20351285","DistrictId":"20351286"}}},{"Relevance":1.0,"Distance":38.9,"MatchLevel":"street","MatchQuality":{"Country":1.0,"State":1.0,"County":1.0,"City":1.0,"District":1.0,"Street":[1.0],"PostalCode":1.0},"Location":{"LocationId":"NT_SYyGDBVWQZBZ2uC21KlK2D_l_779077230_L","LocationType":"point","DisplayPosition":{"Latitude":52.4709,"Longitude":1.714},"MapView":{"TopLeft":{"Latitude":52.4709,"Longitude":1.71253},"BottomRight":{"Latitude":52.47075,"Longitude":1.714}},"Address":{"Label":"The Beeches Mobile Home Park, Lowestoft, NR33 9, United Kingdom","Country":"GBR","State":"England","County":"Suffolk","City":"Lowestoft","District":"Lowestoft","Street":"The Beeches Mobile Home Park","PostalCode":"NR33 9","AdditionalData":[{"value":"United Kingdom","key":"CountryName"},{"value":"England","key":"StateName"},{"value":"Suffolk","key":"CountyName"}]},"MapReference":{"ReferenceId":"779077230","Spot":1.0,"SideOfStreet":"left","StateId":"20248595","CountyId":"20338322","CityId":"20351285","DistrictId":"20351286"}}},{"Relevance":1.0,"Distance":60.5,"MatchLevel":"houseNumber","MatchQuality":{"Country":1.0,"State":1.0,"County":1.0,"City":1.0,"District":1.0,"Street":[1.0],"HouseNumber":1.0,"PostalCode":1.0},"MatchType":"interpolated","Location":{"LocationId":"NT_1w95Bps0LsoK2uH3kyiifC_l_26490871_L_yA","LocationType":"point","DisplayPosition":{"Latitude":52.4716001,"Longitude":1.7149},"MapView":{"TopLeft":{"Latitude":52.4727242,"Longitude":1.7130546},"BottomRight":{"Latitude":52.4704759,"Longitude":1.7167455}},"Address":{"Label":"2 Crompton Road, Lowestoft, NR33 9NG, United Kingdom","Country":"GBR","State":"England","County":"Suffolk","City":"Lowestoft","District":"Lowestoft","Street":"Crompton Road","HouseNumber":"2","PostalCode":"NR33 9NG","AdditionalData":[{"value":"United Kingdom","key":"CountryName"},{"value":"England","key":"StateName"},{"value":"Suffolk","key":"CountyName"}]},"MapReference":{"ReferenceId":"26490871","Spot":0.11,"SideOfStreet":"left","StateId":"20248595","CountyId":"20338322","CityId":"20351285","DistrictId":"20351286"}}},{"Relevance":1.0,"Distance":63.8,"MatchLevel":"houseNumber","MatchQuality":{"Country":1.0,"State":1.0,"County":1.0,"City":1.0,"District":1.0,"Street":[1.0],"HouseNumber":1.0,"PostalCode":1.0},"MatchType":"interpolated","Location":{"LocationId":"NT_pJOwJWC9Uy1eC67G96LgTA_l_26490885_L_5AD","LocationType":"point","DisplayPosition":{"Latitude":52.4714313,"Longitude":1.7151337},"MapView":{"TopLeft":{"Latitude":52.4725554,"Longitude":1.7132883},"BottomRight":{"Latitude":52.4703071,"Longitude":1.7169792}},"Address":{"Label":"90 Victoria Road, Lowestoft, NR33 9LU, United Kingdom","Country":"GBR","State":"England","County":"Suffolk","City":"Lowestoft","District":"Lowestoft","Street":"Victoria Road","HouseNumber":"90","PostalCode":"NR33 9LU","AdditionalData":[{"value":"United Kingdom","key":"CountryName"},{"value":"England","key":"StateName"},{"value":"Suffolk","key":"CountyName"}]},"MapReference":{"ReferenceId":"26490885","Spot":0.71,"SideOfStreet":"left","StateId":"20248595","CountyId":"20338322","CityId":"20351285","DistrictId":"20351286"}}},{"Relevance":1.0,"Distance":88.7,"MatchLevel":"postalCode","MatchQuality":{"PostalCode":1.0},"MatchType":"interpolated","Location":{"LocationId":"NT_0qYnPLjgABul7BoLQKMW5D_l_26490862_L_4AD","LocationType":"point","DisplayPosition":{"Latitude":52.47174,"Longitude":1.71317},"MapView":{"TopLeft":{"Latitude":52.4807332,"Longitude":1.6984065},"BottomRight":{"Latitude":52.4627468,"Longitude":1.7279335}},"Address":{"Label":"NR33 9LW, Lowestoft, England, United Kingdom","Country":"GBR","State":"England","County":"Suffolk","City":"Lowestoft","PostalCode":"NR33 9LW","AdditionalData":[{"value":"United Kingdom","key":"CountryName"},{"value":"England","key":"StateName"},{"value":"Suffolk","key":"CountyName"}]},"MapReference":{"ReferenceId":"26490862","Spot":0.11,"SideOfStreet":"neither","StateId":"20248595","CountyId":"20338322","CityId":"20351285"}}},{"Relevance":1.0,"Distance":101.1,"MatchLevel":"houseNumber","MatchQuality":{"Country":1.0,"State":1.0,"County":1.0,"City":1.0,"District":1.0,"Street":[1.0],"HouseNumber":1.0,"PostalCode":1.0},"MatchType":"interpolated","Location":{"LocationId":"NT_c7E1wLaa9pLcytuVWyC7BA_l_26491018_L_xADN","LocationType":"point","DisplayPosition":{"Latitude":52.4702076,"Longitude":1.714506},"MapView":{"TopLeft":{"Latitude":52.4713317,"Longitude":1.7126606},"BottomRight":{"Latitude":52.4690834,"Longitude":1.7163514}},"Address":{"Label":"104 Dell Road, Lowestoft, NR33 9NT, United Kingdom","Country":"GBR","State":"England","County":"Suffolk","City":"Lowestoft","District":"Lowestoft","Street":"Dell Road","HouseNumber":"104","PostalCode":"NR33 9NT","AdditionalData":[{"value":"United Kingdom","key":"CountryName"},{"value":"England","key":"StateName"},{"value":"Suffolk","key":"CountyName"}]},"MapReference":{"ReferenceId":"26491018","Spot":0.72,"SideOfStreet":"left","StateId":"20248595","CountyId":"20338322","CityId":"20351285","DistrictId":"20351286"}}},{"Relevance":1.0,"Distance":110.1,"MatchLevel":"postalCode","MatchQuality":{"PostalCode":1.0},"MatchType":"interpolated","Location":{"LocationId":"NT_1w95Bps0LsoK2uH3kyiifC_l_26490871_L_yA","LocationType":"point","DisplayPosition":{"Latitude":52.47208,"Longitude":1.71502},"MapView":{"TopLeft":{"Latitude":52.4810732,"Longitude":1.7002564},"BottomRight":{"Latitude":52.4630868,"Longitude":1.7297836}},"Address":{"Label":"NR33 9NG, Lowestoft, England, United Kingdom","Country":"GBR","State":"England","County":"Suffolk","City":"Lowestoft","PostalCode":"NR33 9NG","AdditionalData":[{"value":"United Kingdom","key":"CountryName"},{"value":"England","key":"StateName"},{"value":"Suffolk","key":"CountyName"}]},"MapReference":{"ReferenceId":"26490871","Spot":0.11,"SideOfStreet":"neither","StateId":"20248595","CountyId":"20338322","CityId":"20351285"}}}]}]}}