{"Response":{"MetaInfo":{"Timestamp":"2020-03-28T11:43:05.223+0000","NextPageInformation":"2"},"View":[{"_type":"SearchResultsViewType","ViewId":0,"Result":[{"Relevance":1.0,"Distance":0.0,"Direction":0.0,"MatchLevel":"district","MatchQuality":{"Country":1.0,"State":1.0,"County":1.0,"City":1.0,"District":1.0,"PostalCode":1.0},"Location":{"LocationId":"NT_d4n7zMpVi0SFHjyUwbyl9A","LocationType":"point","DisplayPosition":{"Latitude":52.4750815,"Longitude":13.7741939},"MapView":{"TopLeft":{"Latitude":52.4879,"Longitude":13.76924},"BottomRight":{"Latitude":52.47407,"Longitude":13.78169}},"Address":{"Label":"Bergbrück, Rüdersdorf bei Berlin, Brandenburg, Deutschland","Country":"DEU","State":"Brandenburg","County":"Märkisch-Oderland","City":"Rüdersdorf bei Berlin","District":"Bergbrück","PostalCode":"15562","AdditionalData":[{"value":"Deutschland","key":"CountryName"},{"value":"Brandenburg","key":"StateName"},{"value":"Märkisch-Oderland","key":"CountyName"}]},"MapReference":{"ReferenceId":"1199329095","SideOfStreet":"neither","CountryId":"20147700","StateId":"20187428","CountyId":"20188078","CityId":"20212634","DistrictId":"20214477"}}},{"Relevance":1.0,"Distance":10.0,"MatchLevel":"houseNumber","MatchQuality":{"Country":1.0,"State":1.0,"County":1.0,"City":1.0,"District":1.0,"Street":[1.0],"HouseNumber":1.0,"PostalCode":1.0},"MatchType":"interpolated","Location":{"LocationId":"NT_brBnBVp5UghyfYdB5Z19mD_yEE","LocationType":"point","DisplayPosition":{"Latitude":52.47517,"Longitude":13.77417},"MapView":{"TopLeft":{"Latitude":52.4762942,"Longitude":13.7723244},"BottomRight":{"Latitude":52.4740458,"Longitude":13.7760156}},"Address":{"Label":"Am Kanal 2A, 15562 Rüdersdorf bei Berlin, Deutschland","Country":"DEU","State":"Brandenburg","County":"Märkisch-Oderland","City":"Rüdersdorf bei Berlin","District":"Bergbrück","Street":"Am Kanal","HouseNumber":"2A","PostalCode":"15562","AdditionalData":[{"value":"Deutschland","key":"CountryName"},{"value":"Brandenburg","key":"StateName"},{"value":"Märkisch-Oderland","key":"CountyName"}]},"MapReference":{"ReferenceId":"60883330","Spot":0.73,"SideOfStreet":"right","CountryId":"20147700","StateId":"20187428","CountyId":"20188078","CityId":"20212634","DistrictId":"20214477","AddressId":"181923854","RoadLinkId":"37873337"}}},{"Relevance":1.0,"Distance":30.9,"MatchLevel":"street","MatchQuality":{"Country":1.0,"State":1.0,"County":1.0,"City":1.0,"District":1.0,"Street":[1.0],"PostalCode":1.0},"Location":{"LocationId":"NT_brBnBVp5UghyfYdB5Z19mD_l_572682490_L","LocationType":"point","DisplayPosition":{"Latitude":52.4753583,"Longitude":13.7742393},"MapView":{"TopLeft":{"Latitude":52.47545,"Longitude":13.77368},"BottomRight":{"Latitude":52.47535,"Longitude":13.77429}},"Address":{"Label":"Am Kanal, 15562 Rüdersdorf bei Berlin, Deutschland","Country":"DEU","State":"Brandenburg","County":"Märkisch-Oderland","City":"Rüdersdorf bei Berlin","District":"Bergbrück","Street":"Am Kanal","PostalCode":"15562","AdditionalData":[{"value":"Deutschland","key":"CountryName"},{"value":"Brandenburg","key":"StateName"},{"value":"Märkisch-Oderland","key":"CountyName"}]},"MapReference":{"ReferenceId":"572682490","Spot":0.08,"SideOfStreet":"left","CountryId":"20147700","StateId":"20187428","CountyId":"20188078","CityId":"20212634","DistrictId":"20214477"}}},{"Relevance":1.0,"Distance":34.2,"MatchLevel":"houseNumber","MatchQuality":{"Country":1.0,"State":1.0,"County":1.0,"City":1.0,"District":1.0,"Street":[1.0],"HouseNumber":1.0,"PostalCode":1.0},"MatchType":"interpolated","Location":{"LocationId":"NT_sinEXrR.DqQhPvYe.7p2vD_1QTQ","LocationType":"point","DisplayPosition":{"Latitude":52.47517,"Longitude":13.77371},"MapView":{"TopLeft":{"Latitude":52.4762942,"Longitude":13.7718644},"BottomRight":{"Latitude":52.4740458,"Longitude":13.7755556}},"Address":{"Label":"Ernst-Thälmann-Straße 54A, 15562 Rüdersdorf bei Berlin, Deutschland","Country":"DEU","State":"Brandenburg","County":"Märkisch-Oderland","City":"Rüdersdorf bei Berlin","District":"Bergbrück","Street":"Ernst-Thälmann-Straße","HouseNumber":"54A","PostalCode":"15562","AdditionalData":[{"value":"Deutschland","key":"CountryName"},{"value":"Brandenburg","key":"StateName"},{"value":"Märkisch-Oderland","key":"CountyName"}]},"MapReference":{"ReferenceId":"60883331","Spot":0.6,"SideOfStreet":"left","CountryId":"20147700","StateId":"20187428","CountyId":"20188078","CityId":"20212634","DistrictId":"20214477","AddressId":"790334147","RoadLinkId":"37832232"}}},{"Relevance":1.0,"Distance":36.6,"MatchLevel":"houseNumber","MatchQuality":{"Country":1.0,"State":1.0,"County":1.0,"City":1.0,"District":1.0,"Street":[1.0],"HouseNumber":1.0,"PostalCode":1.0},"MatchType":"interpolated","Location":{"LocationId":"NT_brBnBVp5UghyfYdB5Z19mD_zA","LocationType":"point","DisplayPosition":{"Latitude":52.4754,"Longitude":13.77433},"MapView":{"TopLeft":{"Latitude":52.4765242,"Longitude":13.7724844},"BottomRight":{"Latitude":52.4742758,"Longitude":13.7761756}},"Address":{"Label":"Am Kanal 3, 15562 Rüdersdorf bei Berlin, Deutschland","Country":"DEU","State":"Brandenburg","County":"Märkisch-Oderland","City":"Rüdersdorf bei Berlin","District":"Bergbrück","Street":"Am Kanal","HouseNumber":"3","PostalCode":"15562","AdditionalData":[{"value":"Deutschland","key":"CountryName"},{"value":"Brandenburg","key":"StateName"},{"value":"Märkisch-Oderland","key":"CountyName"}]},"MapReference":{"ReferenceId":"60883313","Spot":0.02,"SideOfStreet":"right","CountryId":"20147700","StateId":"20187428","CountyId":"20188078","CityId":"20212634","DistrictId":"20214477","AddressId":"181809890","RoadLinkId":"37340910"}}},{"Relevance":1.0,"Distance":47.1,"MatchLevel":"street","MatchQuality":{"Country":1.0,"State":1.0,"County":1.0,"City":1.0,"District":1.0,"Street":[1.0],"PostalCode":1.0},"Location":{"LocationId":"NT_sinEXrR.DqQhPvYe.7p2vD_l_60893704_R","LocationType":"point","DisplayPosition":{"Latitude":52.47475,"Longitude":13.77376},"MapView":{"TopLeft":{"Latitude":52.47475,"Longitude":13.77376},"BottomRight":{"Latitude":52.47465,"Longitude":13.77379}},"Address":{"Label":"Ernst-Thälmann-Straße, 15562 Rüdersdorf bei Berlin, Deutschland","Country":"DEU","State":"Brandenburg","County":"Märkisch-Oderland","City":"Rüdersdorf bei Berlin","District":"Bergbrück","Street":"Ernst-Thälmann-Straße","PostalCode":"15562","AdditionalData":[{"value":"Deutschland","key":"CountryName"},{"value":"Brandenburg","key":"StateName"},{"value":"Märkisch-Oderland","key":"CountyName"}]},"MapReference":{"ReferenceId":"60893704","Spot":1.0,"SideOfStreet":"right","CountryId":"20147700","StateId":"20187428","CountyId":"20188078","CityId":"20212634","DistrictId":"20214477"}}},{"Relevance":1.0,"Distance":51.6,"MatchLevel":"houseNumber","MatchQuality":{"Country":1.0,"State":1.0,"County":1.0,"City":1.0,"District":1.0,"Street":[1.0],"HouseNumber":1.0,"PostalCode":1.0},"MatchType":"interpolated","Location":{"LocationId":"NT_sinEXrR.DqQhPvYe.7p2vD_1UTQ","LocationType":"point","DisplayPosition":{"Latitude":52.47552,"Longitude":13.77367},"MapView":{"TopLeft":{"Latitude":52.4766442,"Longitude":13.7718244},"BottomRight":{"Latitude":52.4743958,"Longitude":13.7755156}},"Address":{"Label":"Ernst-Thälmann-Straße 55A, 15562 Rüdersdorf bei Berlin, Deutschland","Country":"DEU","State":"Brandenburg","County":"Märkisch-Oderland","City":"Rüdersdorf bei Berlin","District":"Bergbrück","Street":"Ernst-Thälmann-Straße","HouseNumber":"55A","PostalCode":"15562","AdditionalData":[{"value":"Deutschland","key":"CountryName"},{"value":"Brandenburg","key":"StateName"},{"value":"Märkisch-Oderland","key":"CountyName"}]},"MapReference":{"ReferenceId":"60883311","Spot":0.04,"SideOfStreet":"right","CountryId":"20147700","StateId":"20187428","CountyId":"20188078","CityId":"20212634","DistrictId":"20214477","AddressId":"183231268","RoadLinkId":"37900540"}}},{"Relevance":1.0,"Distance":54.8,"MatchLevel":"street","MatchQuality":{"Country":1.0,"State":1.0,"County":1.0,"City":1.0,"District":1.0,"PostalCode":1.0},"Location":{"LocationId":"NT_vezyi8nXtmi1-qdGHCFJ5B_l_572686726_R","LocationType":"point","DisplayPosition":{"Latitude":52.47461,"Longitude":13.77396},"MapView":{"TopLeft":{"Latitude":52.47465,"Longitude":13.77379},"BottomRight":{"Latitude":52.47455,"Longitude":13.77399}},"Address":{"Label":"15562 Rüdersdorf bei Berlin, Deutschland","Country":"DEU","State":"Brandenburg","County":"Märkisch-Oderland","City":"Rüdersdorf bei Berlin","District":"Bergbrück","PostalCode":"15562","AdditionalData":[{"value":"Deutschland","key":"CountryName"},{"value":"Brandenburg","key":"StateName"},{"value":"Märkisch-Oderland","key":"CountyName"}]},"MapReference":{"ReferenceId":"572686726","Spot":0.28,"SideOfStreet":"right","CountryId":"20147700","StateId":"20187428","CountyId":"20188078","CityId":"20212634","DistrictId":"20214477"}}},{"Relevance":1.0,"Distance":55.2,"MatchLevel":"street","MatchQuality":{"Country":1.0,"State":1.0,"County":1.0,"City":1.0,"District":1.0,"PostalCode":1.0},"Location":{"LocationId":"NT_vezyi8nXtmi1-qdGHCFJ5B_l_572682488_L","LocationType":"point","DisplayPosition":{"Latitude":52.47465,"Longitude":13.77379},"MapView":{"TopLeft":{"Latitude":52.47465,"Longitude":13.77363},"BottomRight":{"Latitude":52.47453,"Longitude":13.77379}},"Address":{"Label":"15562 Rüdersdorf bei Berlin, Deutschland","Country":"DEU","State":"Brandenburg","County":"Märkisch-Oderland","City":"Rüdersdorf bei Berlin","District":"Bergbrück","PostalCode":"15562","AdditionalData":[{"value":"Deutschland","key":"CountryName"},{"value":"Brandenburg","key":"StateName"},{"value":"Märkisch-Oderland","key":"CountyName"}]},"MapReference":{"ReferenceId":"572682488","Spot":1.0,"SideOfStreet":"left","CountryId":"20147700","StateId":"20187428","CountyId":"20188078","CityId":"20212634","DistrictId":"20214477"}}},{"Relevance":1.0,"Distance":60.7,"MatchLevel":"street","MatchQuality":{"Country":1.0,"State":1.0,"County":1.0,"City":1.0,"District":1.0,"PostalCode":1.0},"Location":{"LocationId":"NT_vezyi8nXtmi1-qdGHCFJ5B_l_572686725_R","LocationType":"point","DisplayPosition":{"Latitude":52.47455,"Longitude":13.77399},"MapView":{"TopLeft":{"Latitude":52.47455,"Longitude":13.77383},"BottomRight":{"Latitude":52.47443,"Longitude":13.77399}},"Address":{"Label":"15562 Rüdersdorf bei Berlin, Deutschland","Country":"DEU","State":"Brandenburg","County":"Märkisch-Oderland","City":"Rüdersdorf bei Berlin","District":"Bergbrück","PostalCode":"15562","AdditionalData":[{"value":"Deutschland","key":"CountryName"},{"value":"Brandenburg","key":"StateName"},{"value":"Märkisch-Oderland","key":"CountyName"}]},"MapReference":{"ReferenceId":"572686725","Spot":1.0,"SideOfStreet":"right","CountryId":"20147700","StateId":"20187428","CountyId":"20188078","CityId":"20212634","DistrictId":"20214477"}}}]}]}}