{"Response":{"MetaInfo":{"Timestamp":"2020-03-28T10:31:45.163+0000","NextPageInformation":"2"},"View":[{"_type":"SearchResultsViewType","ViewId":0,"Result":[{"Relevance":1.0,"Distance":0.0,"Direction":0.0,"MatchLevel":"district","MatchQuality":{"Country":1.0,"State":1.0,"County":1.0,"City":1.0,"District":1.0,"PostalCode":1.0},"Location":{"LocationId":"NT_Hzo.UijWjZNq.rUWNf-5LB","LocationType":"point","DisplayPosition":{"Latitude":52.4557149,"Longitude":1.7135916},"MapView":{"TopLeft":{"Latitude":52.50474,"Longitude":1.68382},"BottomRight":{"Latitude":52.43603,"Longitude":1.76357}},"Address":{"Label":"Lowestoft, England, United Kingdom","Country":"GBR","State":"England","County":"Suffolk","City":"Lowestoft","District":"Lowestoft","PostalCode":"NR33 0","AdditionalData":[{"value":"United Kingdom","key":"CountryName"},{"value":"England","key":"StateName"},{"value":"Suffolk","key":"CountyName"}]},"MapReference":{"ReferenceId":"802421002","SideOfStreet":"neither","StateId":"20248595","CountyId":"20338322","CityId":"20351285","DistrictId":"20351286"}}},{"Relevance":1.0,"Distance":35.3,"MatchLevel":"houseNumber","MatchQuality":{"Country":1.0,"State":1.0,"County":1.0,"City":1.0,"District":1.0,"Street":[1.0],"HouseNumber":1.0,"PostalCode":1.0},"MatchType":"interpolated","Location":{"LocationId":"NT_cPMnsx3b60TNQlGodsfffB_l_26492212_L_zATM","LocationType":"point","DisplayPosition":{"Latitude":52.4553676,"Longitude":1.7140509},"MapView":{"TopLeft":{"Latitude":52.4564918,"Longitude":1.7122061},"BottomRight":{"Latitude":52.4542435,"Longitude":1.7158956}},"Address":{"Label":"301 Long Road, Lowestoft, NR33 9DF, United Kingdom","Country":"GBR","State":"England","County":"Suffolk","City":"Lowestoft","District":"Lowestoft","Street":"Long Road","HouseNumber":"301","PostalCode":"NR33 9DF","AdditionalData":[{"value":"United Kingdom","key":"CountryName"},{"value":"England","key":"StateName"},{"value":"Suffolk","key":"CountyName"}]},"MapReference":{"ReferenceId":"26492212","Spot":0.23,"SideOfStreet":"left","StateId":"20248595","CountyId":"20338322","CityId":"20351285","DistrictId":"20351286"}}},{"Relevance":1.0,"Distance":52.5,"MatchLevel":"houseNumber","MatchQuality":{"Country":1.0,"State":1.0,"County":1.0,"City":1.0,"District":1.0,"Street":[1.0],"HouseNumber":1.0,"PostalCode":1.0},"MatchType":"interpolated","Location":{"LocationId":"NT_pPkPwgll20MK-Cb1X3qvaD_l_26492214_L_xIDO","LocationType":"point","DisplayPosition":{"Latitude":52.45528,"Longitude":1.71329},"MapView":{"TopLeft":{"Latitude":52.4564042,"Longitude":1.7114452},"BottomRight":{"Latitude":52.4541559,"Longitude":1.7151347}},"Address":{"Label":"128 Elm Tree Road, Lowestoft, NR33 9ET, United Kingdom","Country":"GBR","State":"England","County":"Suffolk","City":"Lowestoft","District":"Lowestoft","Street":"Elm Tree Road","HouseNumber":"128","PostalCode":"NR33 9ET","AdditionalData":[{"value":"United Kingdom","key":"CountryName"},{"value":"England","key":"StateName"},{"value":"Suffolk","key":"CountyName"}]},"MapReference":{"ReferenceId":"26492214","Spot":0.08,"SideOfStreet":"left","StateId":"20248595","CountyId":"20338322","CityId":"20351285","DistrictId":"20351286"}}},{"Relevance":1.0,"Distance":55.1,"MatchLevel":"street","MatchQuality":{"Country":1.0,"State":1.0,"County":1.0,"City":1.0,"District":1.0,"PostalCode":1.0},"Location":{"LocationId":"NT_9fKNgE9D231i8oieVaIA3B_l_26492213_R","LocationType":"point","DisplayPosition":{"Latitude":52.4552196,"Longitude":1.7135562},"MapView":{"TopLeft":{"Latitude":52.45522,"Longitude":1.71344},"BottomRight":{"Latitude":52.45518,"Longitude":1.71379}},"Address":{"Label":"Lowestoft, NR33 7, United Kingdom","Country":"GBR","State":"England","County":"Suffolk","City":"Lowestoft","District":"Lowestoft","PostalCode":"NR33 7","AdditionalData":[{"value":"United Kingdom","key":"CountryName"},{"value":"England","key":"StateName"},{"value":"Suffolk","key":"CountyName"}]},"MapReference":{"ReferenceId":"26492213","Spot":0.66,"SideOfStreet":"right","StateId":"20248595","CountyId":"20338322","CityId":"20351285","DistrictId":"20351286"}}},{"Relevance":1.0,"Distance":59.3,"MatchLevel":"street","MatchQuality":{"Country":1.0,"State":1.0,"County":1.0,"City":1.0,"District":1.0,"PostalCode":1.0},"Location":{"LocationId":"NT_9fKNgE9D231i8oieVaIA3B_l_26492238_L","LocationType":"point","DisplayPosition":{"Latitude":52.45519,"Longitude":1.71344},"MapView":{"TopLeft":{"Latitude":52.45519,"Longitude":1.71335},"BottomRight":{"Latitude":52.45496,"Longitude":1.71344}},"Address":{"Label":"Lowestoft, NR33 7, United Kingdom","Country":"GBR","State":"England","County":"Suffolk","City":"Lowestoft","District":"Lowestoft","PostalCode":"NR33 7","AdditionalData":[{"value":"United Kingdom","key":"CountryName"},{"value":"England","key":"StateName"},{"value":"Suffolk","key":"CountyName"}]},"MapReference":{"ReferenceId":"26492238","Spot":1.0,"SideOfStreet":"left","StateId":"20248595","CountyId":"20338322","CityId":"20351285","DistrictId":"20351286"}}},{"Relevance":1.0,"Distance":61.0,"MatchLevel":"street","MatchQuality":{"Country":1.0,"State":1.0,"County":1.0,"City":1.0,"District":1.0,"PostalCode":1.0},"Location":{"LocationId":"NT_9fKNgE9D231i8oieVaIA3B_l_810762021_R","LocationType":"point","DisplayPosition":{"Latitude":52.45518,"Longitude":1.71379},"MapView":{"TopLeft":{"Latitude":52.45518,"Longitude":1.71377},"BottomRight":{"Latitude":52.45495,"Longitude":1.71385}},"Address":{"Label":"Lowestoft, NR33 7, United Kingdom","Country":"GBR","State":"England","County":"Suffolk","City":"Lowestoft","District":"Lowestoft","PostalCode":"NR33 7","AdditionalData":[{"value":"United Kingdom","key":"CountryName"},{"value":"England","key":"StateName"},{"value":"Suffolk","key":"CountyName"}]},"MapReference":{"ReferenceId":"810762021","Spot":1.0,"SideOfStreet":"right","StateId":"20248595","CountyId":"20338322","CityId":"20351285","DistrictId":"20351286"}}},{"Relevance":1.0,"Distance":83.8,"MatchLevel":"houseNumber","MatchQuality":{"Country":1.0,"State":1.0,"County":1.0,"City":1.0,"District":1.0,"Street":[1.0],"HouseNumber":1.0,"PostalCode":1.0},"MatchType":"interpolated","Location":{"LocationId":"NT_Mo8DanFr7tGI0hlrTwONlD_l_26492267_L_zATN","LocationType":"point","DisplayPosition":{"Latitude":52.45489,"Longitude":1.7131439},"MapView":{"TopLeft":{"Latitude":52.4560142,"Longitude":1.7112991},"BottomRight":{"Latitude":52.4537659,"Longitude":1.7149886}},"Address":{"Label":"305 Long Road, Lowestoft, NR33 9, United Kingdom","Country":"GBR","State":"England","County":"Suffolk","City":"Lowestoft","District":"Lowestoft","Street":"Long Road","HouseNumber":"305","PostalCode":"NR33 9","AdditionalData":[{"value":"United Kingdom","key":"CountryName"},{"value":"England","key":"StateName"},{"value":"Suffolk","key":"CountyName"}]},"MapReference":{"ReferenceId":"26492267","Spot":0.78,"SideOfStreet":"left","StateId":"20248595","CountyId":"20338322","CityId":"20351285","DistrictId":"20351286"}}},{"Relevance":1.0,"Distance":84.7,"MatchLevel":"street","MatchQuality":{"Country":1.0,"State":1.0,"County":1.0,"City":1.0,"District":1.0,"PostalCode":1.0},"Location":{"LocationId":"NT_9fKNgE9D231i8oieVaIA3B_l_810762020_R","LocationType":"point","DisplayPosition":{"Latitude":52.45496,"Longitude":1.71342},"MapView":{"TopLeft":{"Latitude":52.45496,"Longitude":1.71342},"BottomRight":{"Latitude":52.45492,"Longitude":1.71377}},"Address":{"Label":"Lowestoft, NR33 7, United Kingdom","Country":"GBR","State":"England","County":"Suffolk","City":"Lowestoft","District":"Lowestoft","PostalCode":"NR33 7","AdditionalData":[{"value":"United Kingdom","key":"CountryName"},{"value":"England","key":"StateName"},{"value":"Suffolk","key":"CountyName"}]},"MapReference":{"ReferenceId":"810762020","Spot":1.0,"SideOfStreet":"right","StateId":"20248595","CountyId":"20338322","CityId":"20351285","DistrictId":"20351286"}}},{"Relevance":1.0,"Distance":85.9,"MatchLevel":"street","MatchQuality":{"Country":1.0,"State":1.0,"County":1.0,"City":1.0,"District":1.0,"Street":[1.0],"PostalCode":1.0},"Location":{"LocationId":"NT_fe.rHJ3JZfmd4CXbmEztmB_l_26492265_R","LocationType":"point","DisplayPosition":{"Latitude":52.45495,"Longitude":1.71377},"MapView":{"TopLeft":{"Latitude":52.45495,"Longitude":1.71377},"BottomRight":{"Latitude":52.45456,"Longitude":1.7143}},"Address":{"Label":"Bloodmoor Road, Lowestoft, NR33 7, United Kingdom","Country":"GBR","State":"England","County":"Suffolk","City":"Lowestoft","District":"Lowestoft","Street":"Bloodmoor Road","PostalCode":"NR33 7","AdditionalData":[{"value":"United Kingdom","key":"CountryName"},{"value":"England","key":"StateName"},{"value":"Suffolk","key":"CountyName"}]},"MapReference":{"ReferenceId":"26492265","Spot":1.0,"SideOfStreet":"right","StateId":"20248595","CountyId":"20338322","CityId":"20351285","DistrictId":"20351286"}}},{"Relevance":1.0,"Distance":92.8,"MatchLevel":"street","MatchQuality":{"Country":1.0,"State":1.0,"County":1.0,"City":1.0,"District":1.0,"Street":[1.0],"PostalCode":1.0},"Location":{"LocationId":"NT_oBh2Gccx8KhePDaGlq28YD_l_26492139_L","LocationType":"point","DisplayPosition":{"Latitude":52.45603,"Longitude":1.71486},"MapView":{"TopLeft":{"Latitude":52.45603,"Longitude":1.71486},"BottomRight":{"Latitude":52.45591,"Longitude":1.71526}},"Address":{"Label":"Aldwyck Way, Lowestoft, NR33 9, United Kingdom","Country":"GBR","State":"England","County":"Suffolk","City":"Lowestoft","District":"Lowestoft","Street":"Aldwyck Way","PostalCode":"NR33 9","AdditionalData":[{"value":"United Kingdom","key":"CountryName"},{"value":"England","key":"StateName"},{"value":"Suffolk","key":"CountyName"}]},"MapReference":{"ReferenceId":"26492139","Spot":1.0,"SideOfStreet":"left","StateId":"20248595","CountyId":"20338322","CityId":"20351285","DistrictId":"20351286"}}}]}]}}