{"Response":{"MetaInfo":{"Timestamp":"2020-03-28T10:35:38.044+0000","NextPageInformation":"2"},"View":[{"_type":"SearchResultsViewType","ViewId":0,"Result":[{"Relevance":1.0,"Distance":0.0,"Direction":0.0,"MatchLevel":"district","MatchQuality":{"Country":1.0,"State":1.0,"County":1.0,"City":1.0,"District":1.0,"PostalCode":1.0},"Location":{"LocationId":"NT_SHgxyIbrk8Rxk9t2AOks0B","LocationType":"point","DisplayPosition":{"Latitude":52.466236,"Longitude":-1.7902169},"MapView":{"TopLeft":{"Latitude":52.47915,"Longitude":-1.84847},"BottomRight":{"Latitude":52.44957,"Longitude":-1.77632}},"Address":{"Label":"Yardley, Birmingham, England, United Kingdom","Country":"GBR","State":"England","County":"West Midlands","City":"Birmingham","District":"Yardley","PostalCode":"B25 8","AdditionalData":[{"value":"United Kingdom","key":"CountryName"},{"value":"England","key":"StateName"},{"value":"West Midlands","key":"CountyName"}]},"MapReference":{"ReferenceId":"1218175162","SideOfStreet":"neither","StateId":"20248595","CountyId":"20358328","CityId":"20358334","DistrictId":"20358412"}}},{"Relevance":1.0,"Distance":1.4,"MatchLevel":"houseNumber","MatchQuality":{"Country":1.0,"State":1.0,"County":1.0,"City":1.0,"District":1.0,"Street":[1.0],"HouseNumber":1.0,"PostalCode":1.0},"MatchType":"interpolated","Location":{"LocationId":"NT_sfbfSAyWt6.4C2zFMuIM6D_l_26318920_L_yUD","LocationType":"point","DisplayPosition":{"Latitude":52.4663465,"Longitude":-1.7901287},"MapView":{"TopLeft":{"Latitude":52.4674706,"Longitude":-1.791974},"BottomRight":{"Latitude":52.4652223,"Longitude":-1.7882835}},"Address":{"Label":"25 Horrell Road, Birmingham, B26 2PB, United Kingdom","Country":"GBR","State":"England","County":"West Midlands","City":"Birmingham","District":"Yardley","Street":"Horrell Road","HouseNumber":"25","PostalCode":"B26 2PB","AdditionalData":[{"value":"United Kingdom","key":"CountryName"},{"value":"England","key":"StateName"},{"value":"West Midlands","key":"CountyName"}]},"MapReference":{"ReferenceId":"26318920","Spot":0.81,"SideOfStreet":"left","StateId":"20248595","CountyId":"20358328","CityId":"20358334","DistrictId":"20358412"}}},{"Relevance":1.0,"Distance":40.8,"MatchLevel":"houseNumber","MatchQuality":{"Country":1.0,"State":1.0,"County":1.0,"City":1.0,"District":1.0,"Street":[1.0],"HouseNumber":1.0,"PostalCode":1.0},"MatchType":"interpolated","Location":{"LocationId":"NT_dU3PMZh9XkIKV7DGC73OCC_l_26318764_L_3ED","LocationType":"point","DisplayPosition":{"Latitude":52.4666067,"Longitude":-1.7906301},"MapView":{"TopLeft":{"Latitude":52.4677309,"Longitude":-1.7924753},"BottomRight":{"Latitude":52.4654825,"Longitude":-1.7887849}},"Address":{"Label":"71 Elmay Road, Birmingham, B26 2NH, United Kingdom","Country":"GBR","State":"England","County":"West Midlands","City":"Birmingham","District":"Yardley","Street":"Elmay Road","HouseNumber":"71","PostalCode":"B26 2NH","AdditionalData":[{"value":"United Kingdom","key":"CountryName"},{"value":"England","key":"StateName"},{"value":"West Midlands","key":"CountyName"}]},"MapReference":{"ReferenceId":"26318764","Spot":0.57,"SideOfStreet":"left","StateId":"20248595","CountyId":"20358328","CityId":"20358334","DistrictId":"20358412"}}},{"Relevance":1.0,"Distance":45.0,"MatchLevel":"street","MatchQuality":{"Country":1.0,"State":1.0,"County":1.0,"City":1.0,"District":1.0,"Street":[1.0],"PostalCode":1.0},"Location":{"LocationId":"NT_dU3PMZh9XkIKV7DGC73OCC_l_26318760_R","LocationType":"point","DisplayPosition":{"Latitude":52.46661,"Longitude":-1.79047},"MapView":{"TopLeft":{"Latitude":52.46674,"Longitude":-1.79047},"BottomRight":{"Latitude":52.46661,"Longitude":-1.79041}},"Address":{"Label":"Elmay Road, Birmingham, B26 2, United Kingdom","Country":"GBR","State":"England","County":"West Midlands","City":"Birmingham","District":"Yardley","Street":"Elmay Road","PostalCode":"B26 2","AdditionalData":[{"value":"United Kingdom","key":"CountryName"},{"value":"England","key":"StateName"},{"value":"West Midlands","key":"CountyName"}]},"MapReference":{"ReferenceId":"26318760","Spot":0.0,"SideOfStreet":"right","StateId":"20248595","CountyId":"20358328","CityId":"20358334","DistrictId":"20358412"}}},{"Relevance":1.0,"Distance":46.9,"MatchLevel":"houseNumber","MatchQuality":{"Country":1.0,"State":1.0,"County":1.0,"City":1.0,"District":1.0,"Street":[1.0],"HouseNumber":1.0,"PostalCode":1.0},"MatchType":"interpolated","Location":{"LocationId":"NT_dU3PMZh9XkIKV7DGC73OCC_l_26318740_R_4MD","LocationType":"point","DisplayPosition":{"Latitude":52.46679,"Longitude":-1.7902199},"MapView":{"TopLeft":{"Latitude":52.4679142,"Longitude":-1.7920652},"BottomRight":{"Latitude":52.4656659,"Longitude":-1.7883747}},"Address":{"Label":"83 Elmay Road, Birmingham, B26 2, United Kingdom","Country":"GBR","State":"England","County":"West Midlands","City":"Birmingham","District":"Yardley","Street":"Elmay Road","HouseNumber":"83","PostalCode":"B26 2","AdditionalData":[{"value":"United Kingdom","key":"CountryName"},{"value":"England","key":"StateName"},{"value":"West Midlands","key":"CountyName"}]},"MapReference":{"ReferenceId":"26318740","Spot":0.19,"SideOfStreet":"right","StateId":"20248595","CountyId":"20358328","CityId":"20358334","DistrictId":"20358412"}}},{"Relevance":1.0,"Distance":57.9,"MatchLevel":"street","MatchQuality":{"Country":1.0,"State":1.0,"County":1.0,"City":1.0,"District":1.0,"Street":[1.0],"PostalCode":1.0},"Location":{"LocationId":"NT_dU3PMZh9XkIKV7DGC73OCC_l_26318741_L","LocationType":"point","DisplayPosition":{"Latitude":52.46674,"Longitude":-1.79043},"MapView":{"TopLeft":{"Latitude":52.46679,"Longitude":-1.79066},"BottomRight":{"Latitude":52.46674,"Longitude":-1.79043}},"Address":{"Label":"Elmay Road, Birmingham, B26 2, United Kingdom","Country":"GBR","State":"England","County":"West Midlands","City":"Birmingham","District":"Yardley","Street":"Elmay Road","PostalCode":"B26 2","AdditionalData":[{"value":"United Kingdom","key":"CountryName"},{"value":"England","key":"StateName"},{"value":"West Midlands","key":"CountyName"}]},"MapReference":{"ReferenceId":"26318741","Spot":0.0,"SideOfStreet":"left","StateId":"20248595","CountyId":"20358328","CityId":"20358334","DistrictId":"20358412"}}},{"Relevance":1.0,"Distance":59.5,"MatchLevel":"street","MatchQuality":{"Country":1.0,"State":1.0,"County":1.0,"City":1.0,"District":1.0,"Street":[1.0],"PostalCode":1.0},"Location":{"LocationId":"NT_dU3PMZh9XkIKV7DGC73OCC_l_26318752_R","LocationType":"point","DisplayPosition":{"Latitude":52.46667,"Longitude":-1.79073},"MapView":{"TopLeft":{"Latitude":52.46678,"Longitude":-1.79073},"BottomRight":{"Latitude":52.46667,"Longitude":-1.79066}},"Address":{"Label":"Elmay Road, Birmingham, B26 2, United Kingdom","Country":"GBR","State":"England","County":"West Midlands","City":"Birmingham","District":"Yardley","Street":"Elmay Road","PostalCode":"B26 2","AdditionalData":[{"value":"United Kingdom","key":"CountryName"},{"value":"England","key":"StateName"},{"value":"West Midlands","key":"CountyName"}]},"MapReference":{"ReferenceId":"26318752","Spot":0.0,"SideOfStreet":"right","StateId":"20248595","CountyId":"20358328","CityId":"20358334","DistrictId":"20358412"}}},{"Relevance":1.0,"Distance":61.2,"MatchLevel":"houseNumber","MatchQuality":{"Country":1.0,"State":1.0,"County":1.0,"City":1.0,"District":1.0,"Street":[1.0],"HouseNumber":1.0,"PostalCode":1.0},"MatchType":"interpolated","Location":{"LocationId":"NT_dU3PMZh9XkIKV7DGC73OCC_l_26318793_R_2kD","LocationType":"point","DisplayPosition":{"Latitude":52.466586,"Longitude":-1.791078},"MapView":{"TopLeft":{"Latitude":52.4677102,"Longitude":-1.7929232},"BottomRight":{"Latitude":52.4654619,"Longitude":-1.7892328}},"Address":{"Label":"69 Elmay Road, Birmingham, B26 2NH, United Kingdom","Country":"GBR","State":"England","County":"West Midlands","City":"Birmingham","District":"Yardley","Street":"Elmay Road","HouseNumber":"69","PostalCode":"B26 2NH","AdditionalData":[{"value":"United Kingdom","key":"CountryName"},{"value":"England","key":"StateName"},{"value":"West Midlands","key":"CountyName"}]},"MapReference":{"ReferenceId":"26318793","Spot":0.7,"SideOfStreet":"right","StateId":"20248595","CountyId":"20358328","CityId":"20358334","DistrictId":"20358412"}}},{"Relevance":1.0,"Distance":63.4,"MatchLevel":"houseNumber","MatchQuality":{"Country":1.0,"State":1.0,"County":1.0,"City":1.0,"District":1.0,"Street":[1.0],"HouseNumber":1.0,"PostalCode":1.0},"MatchType":"interpolated","Location":{"LocationId":"NT_Rq2rHjto-wmyUT6gqvsFkD_l_26318895_R_yID","LocationType":"point","DisplayPosition":{"Latitude":52.4657776,"Longitude":-1.7910664},"MapView":{"TopLeft":{"Latitude":52.4669017,"Longitude":-1.7929115},"BottomRight":{"Latitude":52.4646534,"Longitude":-1.7892212}},"Address":{"Label":"22 Benedon Road, Birmingham, B26 2NJ, United Kingdom","Country":"GBR","State":"England","County":"West Midlands","City":"Birmingham","District":"Yardley","Street":"Benedon Road","HouseNumber":"22","PostalCode":"B26 2NJ","AdditionalData":[{"value":"United Kingdom","key":"CountryName"},{"value":"England","key":"StateName"},{"value":"West Midlands","key":"CountyName"}]},"MapReference":{"ReferenceId":"26318895","Spot":0.35,"SideOfStreet":"right","StateId":"20248595","CountyId":"20358328","CityId":"20358334","DistrictId":"20358412"}}},{"Relevance":1.0,"Distance":63.4,"MatchLevel":"postalCode","MatchQuality":{"PostalCode":1.0},"MatchType":"interpolated","Location":{"LocationId":"NT_sfbfSAyWt6.4C2zFMuIM6D_l_26318920_L_yUD","LocationType":"point","DisplayPosition":{"Latitude":52.4659,"Longitude":-1.78946},"MapView":{"TopLeft":{"Latitude":52.4748932,"Longitude":-1.8042215},"BottomRight":{"Latitude":52.4569068,"Longitude":-1.7746985}},"Address":{"Label":"B26 2PD, Birmingham, England, United Kingdom","Country":"GBR","State":"England","County":"West Midlands","City":"Birmingham","PostalCode":"B26 2PD","AdditionalData":[{"value":"United Kingdom","key":"CountryName"},{"value":"England","key":"StateName"},{"value":"West Midlands","key":"CountyName"}]},"MapReference":{"ReferenceId":"26318920","Spot":0.81,"SideOfStreet":"neither","StateId":"20248595","CountyId":"20358328","CityId":"20358334"}}}]}]}}