{"Response":{"MetaInfo":{"Timestamp":"2020-03-28T11:31:16.122+0000","NextPageInformation":"2"},"View":[{"_type":"SearchResultsViewType","ViewId":0,"Result":[{"Relevance":1.0,"Distance":0.0,"Direction":0.0,"MatchLevel":"district","MatchQuality":{"Country":1.0,"State":1.0,"County":1.0,"City":1.0,"District":1.0,"Subdistrict":1.0,"PostalCode":1.0},"Location":{"LocationId":"NT_rpfl.y1ZGVg9ZrLSM.lk9D","LocationType":"point","DisplayPosition":{"Latitude":52.4026579,"Longitude":16.9362603},"MapView":{"TopLeft":{"Latitude":52.42627,"Longitude":16.91109},"BottomRight":{"Latitude":52.39818,"Longitude":16.94671}},"Address":{"Label":"Stare Miasto, Poznań, Woj. Wielkopolskie, Polska","Country":"POL","State":"Woj. Wielkopolskie","County":"Poznań","City":"Poznań","District":"Poznań","Subdistrict":"Stare Miasto","PostalCode":"61-747","AdditionalData":[{"value":"Polska","key":"CountryName"},{"value":"Woj. Wielkopolskie","key":"StateName"},{"value":"Poznań","key":"CountyName"}]},"MapReference":{"ReferenceId":"594895275","SideOfStreet":"neither","CountryId":"20624059","StateId":"20629915","CountyId":"20631893","CityId":"20631894","DistrictId":"20646794"}}},{"Relevance":1.0,"Distance":31.5,"MatchLevel":"houseNumber","MatchQuality":{"Country":1.0,"State":1.0,"County":1.0,"City":1.0,"District":1.0,"Subdistrict":1.0,"Street":[1.0],"HouseNumber":1.0,"PostalCode":1.0},"MatchType":"interpolated","Location":{"LocationId":"NT_8Vj48Q8EgYHcVUdTjb4dvD_xcD","LocationType":"point","DisplayPosition":{"Latitude":52.40286,"Longitude":16.93677},"MapView":{"TopLeft":{"Latitude":52.4039842,"Longitude":16.9349274},"BottomRight":{"Latitude":52.4017358,"Longitude":16.9386126}},"Address":{"Label":"ulica Garbary 17, 61-866 Poznań, Polska","Country":"POL","State":"Woj. Wielkopolskie","County":"Poznań","City":"Poznań","District":"Poznań","Subdistrict":"Stare Miasto","Street":"ulica Garbary","HouseNumber":"17","PostalCode":"61-866","AdditionalData":[{"value":"Polska","key":"CountryName"},{"value":"Woj. Wielkopolskie","key":"StateName"},{"value":"Poznań","key":"CountyName"}]},"MapReference":{"ReferenceId":"1159215053","Spot":0.4,"SideOfStreet":"left","CountryId":"20624059","StateId":"20629915","CountyId":"20631893","CityId":"20631894","DistrictId":"20646794","AddressId":"211400092","RoadLinkId":"465836284"}}},{"Relevance":1.0,"Distance":35.9,"MatchLevel":"houseNumber","MatchQuality":{"Country":1.0,"State":1.0,"County":1.0,"City":1.0,"District":1.0,"Subdistrict":1.0,"Street":[1.0],"HouseNumber":1.0,"PostalCode":1.0},"MatchType":"interpolated","Location":{"LocationId":"NT_8Vj48Q8EgYHcVUdTjb4dvD_xUD","LocationType":"point","DisplayPosition":{"Latitude":52.40241,"Longitude":16.9366},"MapView":{"TopLeft":{"Latitude":52.4035342,"Longitude":16.9347575},"BottomRight":{"Latitude":52.4012858,"Longitude":16.9384425}},"Address":{"Label":"ulica Garbary 15, 61-866 Poznań, Polska","Country":"POL","State":"Woj. Wielkopolskie","County":"Poznań","City":"Poznań","District":"Poznań","Subdistrict":"Stare Miasto","Street":"ulica Garbary","HouseNumber":"15","PostalCode":"61-866","AdditionalData":[{"value":"Polska","key":"CountryName"},{"value":"Woj. Wielkopolskie","key":"StateName"},{"value":"Poznań","key":"CountyName"}]},"MapReference":{"ReferenceId":"833349257","Spot":0.17,"SideOfStreet":"left","CountryId":"20624059","StateId":"20629915","CountyId":"20631893","CityId":"20631894","DistrictId":"20646794","AddressId":"210357956","RoadLinkId":"216650285"}}},{"Relevance":1.0,"Distance":38.7,"MatchLevel":"street","MatchQuality":{"Country":1.0,"State":1.0,"County":1.0,"City":1.0,"District":1.0,"Subdistrict":1.0,"PostalCode":1.0},"Location":{"LocationId":"NT_zpRp.EpoI0AQb3VstItz.B_l_843919347_R","LocationType":"point","DisplayPosition":{"Latitude":52.40237,"Longitude":16.93658},"MapView":{"TopLeft":{"Latitude":52.40237,"Longitude":16.93658},"BottomRight":{"Latitude":52.40231,"Longitude":16.9371}},"Address":{"Label":"61-867 Poznań, Polska","Country":"POL","State":"Woj. Wielkopolskie","County":"Poznań","City":"Poznań","District":"Poznań","Subdistrict":"Stare Miasto","PostalCode":"61-867","AdditionalData":[{"value":"Polska","key":"CountryName"},{"value":"Woj. Wielkopolskie","key":"StateName"},{"value":"Poznań","key":"CountyName"}]},"MapReference":{"ReferenceId":"843919347","Spot":1.0,"SideOfStreet":"right","CountryId":"20624059","StateId":"20629915","CountyId":"20631893","CityId":"20631894","DistrictId":"20646794"}}},{"Relevance":1.0,"Distance":48.9,"MatchLevel":"houseNumber","MatchQuality":{"Country":1.0,"State":1.0,"County":1.0,"City":1.0,"District":1.0,"Subdistrict":1.0,"Street":[1.0],"HouseNumber":1.0,"PostalCode":1.0},"MatchType":"interpolated","Location":{"LocationId":"NT_Z6TuLgS79fLrxpD2mYHQGB_xQTQ","LocationType":"point","DisplayPosition":{"Latitude":52.40225,"Longitude":16.93653},"MapView":{"TopLeft":{"Latitude":52.4033742,"Longitude":16.9346875},"BottomRight":{"Latitude":52.4011258,"Longitude":16.9383725}},"Address":{"Label":"ulica Garbary 14A, 61-867 Poznań, Polska","Country":"POL","State":"Woj. Wielkopolskie","County":"Poznań","City":"Poznań","District":"Poznań","Subdistrict":"Stare Miasto","Street":"ulica Garbary","HouseNumber":"14A","PostalCode":"61-867","AdditionalData":[{"value":"Polska","key":"CountryName"},{"value":"Woj. Wielkopolskie","key":"StateName"},{"value":"Poznań","key":"CountyName"}]},"MapReference":{"ReferenceId":"902066746","Spot":0.2,"SideOfStreet":"right","CountryId":"20624059","StateId":"20629915","CountyId":"20631893","CityId":"20631894","DistrictId":"20646794","AddressId":"209567215","RoadLinkId":"263592296"}}},{"Relevance":1.0,"Distance":58.6,"MatchLevel":"houseNumber","MatchQuality":{"Country":1.0,"State":1.0,"County":1.0,"City":1.0,"District":1.0,"Subdistrict":1.0,"Street":[1.0],"HouseNumber":1.0,"PostalCode":1.0},"MatchType":"interpolated","Location":{"LocationId":"NT_ppufNBnh6qPLHXIbSuEa7A_xA","LocationType":"point","DisplayPosition":{"Latitude":52.40261,"Longitude":16.93712},"MapView":{"TopLeft":{"Latitude":52.4037342,"Longitude":16.9352775},"BottomRight":{"Latitude":52.4014858,"Longitude":16.9389625}},"Address":{"Label":"ulica św. Marii Magdaleny 1, 61-861 Poznań, Polska","Country":"POL","State":"Woj. Wielkopolskie","County":"Poznań","City":"Poznań","District":"Poznań","Subdistrict":"Stare Miasto","Street":"ulica św. Marii Magdaleny","HouseNumber":"1","PostalCode":"61-861","AdditionalData":[{"value":"Polska","key":"CountryName"},{"value":"Woj. Wielkopolskie","key":"StateName"},{"value":"Poznań","key":"CountyName"}]},"MapReference":{"ReferenceId":"594882973","Spot":0.72,"SideOfStreet":"right","CountryId":"20624059","StateId":"20629915","CountyId":"20631893","CityId":"20631894","DistrictId":"20646794","AddressId":"222007854","RoadLinkId":"95007276"}}},{"Relevance":1.0,"Distance":64.7,"MatchLevel":"houseNumber","MatchQuality":{"Country":1.0,"State":1.0,"County":1.0,"City":1.0,"District":1.0,"Subdistrict":1.0,"Street":[1.0],"HouseNumber":1.0,"PostalCode":1.0},"MatchType":"interpolated","Location":{"LocationId":"NT_Z6TuLgS79fLrxpD2mYHQGB_xQD","LocationType":"point","DisplayPosition":{"Latitude":52.40209,"Longitude":16.93647},"MapView":{"TopLeft":{"Latitude":52.4032142,"Longitude":16.9346275},"BottomRight":{"Latitude":52.4009658,"Longitude":16.9383125}},"Address":{"Label":"ulica Garbary 14, 61-867 Poznań, Polska","Country":"POL","State":"Woj. Wielkopolskie","County":"Poznań","City":"Poznań","District":"Poznań","Subdistrict":"Stare Miasto","Street":"ulica Garbary","HouseNumber":"14","PostalCode":"61-867","AdditionalData":[{"value":"Polska","key":"CountryName"},{"value":"Woj. Wielkopolskie","key":"StateName"},{"value":"Poznań","key":"CountyName"}]},"MapReference":{"ReferenceId":"902066745","Spot":0.76,"SideOfStreet":"right","CountryId":"20624059","StateId":"20629915","CountyId":"20631893","CityId":"20631894","DistrictId":"20646794","AddressId":"210385177","RoadLinkId":"263592295"}}},{"Relevance":1.0,"Distance":68.9,"MatchLevel":"street","MatchQuality":{"Country":1.0,"State":1.0,"County":1.0,"City":1.0,"District":1.0,"Subdistrict":1.0,"PostalCode":1.0},"Location":{"LocationId":"NT_zpRp.EpoI0AQb3VstItz.B_l_843919348_R","LocationType":"point","DisplayPosition":{"Latitude":52.40231,"Longitude":16.9371},"MapView":{"TopLeft":{"Latitude":52.40231,"Longitude":16.9371},"BottomRight":{"Latitude":52.40228,"Longitude":16.93747}},"Address":{"Label":"61-867 Poznań, Polska","Country":"POL","State":"Woj. Wielkopolskie","County":"Poznań","City":"Poznań","District":"Poznań","Subdistrict":"Stare Miasto","PostalCode":"61-867","AdditionalData":[{"value":"Polska","key":"CountryName"},{"value":"Woj. Wielkopolskie","key":"StateName"},{"value":"Poznań","key":"CountyName"}]},"MapReference":{"ReferenceId":"843919348","Spot":1.0,"SideOfStreet":"right","CountryId":"20624059","StateId":"20629915","CountyId":"20631893","CityId":"20631894","DistrictId":"20646794"}}},{"Relevance":1.0,"Distance":69.7,"MatchLevel":"street","MatchQuality":{"Country":1.0,"State":1.0,"County":1.0,"City":1.0,"District":1.0,"Subdistrict":1.0,"PostalCode":1.0},"Location":{"LocationId":"NT_zpRp.EpoI0AQb3VstItz.B_l_843919346_L","LocationType":"point","DisplayPosition":{"Latitude":52.4022889,"Longitude":16.9370906},"MapView":{"TopLeft":{"Latitude":52.40231,"Longitude":16.93678},"BottomRight":{"Latitude":52.40159,"Longitude":16.9371}},"Address":{"Label":"61-867 Poznań, Polska","Country":"POL","State":"Woj. Wielkopolskie","County":"Poznań","City":"Poznań","District":"Poznań","Subdistrict":"Stare Miasto","PostalCode":"61-867","AdditionalData":[{"value":"Polska","key":"CountryName"},{"value":"Woj. Wielkopolskie","key":"StateName"},{"value":"Poznań","key":"CountyName"}]},"MapReference":{"ReferenceId":"843919346","Spot":0.97,"SideOfStreet":"left","CountryId":"20624059","StateId":"20629915","CountyId":"20631893","CityId":"20631894","DistrictId":"20646794"}}},{"Relevance":1.0,"Distance":88.0,"MatchLevel":"houseNumber","MatchQuality":{"Country":1.0,"State":1.0,"County":1.0,"City":1.0,"District":1.0,"Subdistrict":1.0,"Street":[1.0],"HouseNumber":1.0,"PostalCode":1.0},"MatchType":"interpolated","Location":{"LocationId":"NT_8Vj48Q8EgYHcVUdTjb4dvD_l_1159215054_L_yMD","LocationType":"point","DisplayPosition":{"Latitude":52.40336,"Longitude":16.93691},"MapView":{"TopLeft":{"Latitude":52.4044842,"Longitude":16.9350674},"BottomRight":{"Latitude":52.4022359,"Longitude":16.9387526}},"Address":{"Label":"ulica Garbary 23, 61-866 Poznań, Polska","Country":"POL","State":"Woj. Wielkopolskie","County":"Poznań","City":"Poznań","District":"Poznań","Subdistrict":"Stare Miasto","Street":"ulica Garbary","HouseNumber":"23","PostalCode":"61-866","AdditionalData":[{"value":"Polska","key":"CountryName"},{"value":"Woj. Wielkopolskie","key":"StateName"},{"value":"Poznań","key":"CountyName"}]},"MapReference":{"ReferenceId":"1159215054","Spot":0.31,"SideOfStreet":"left","CountryId":"20624059","StateId":"20629915","CountyId":"20631893","CityId":"20631894","DistrictId":"20646794"}}}]}]}}