{"Response":{"MetaInfo":{"Timestamp":"2020-03-28T12:00:02.544+0000","NextPageInformation":"2"},"View":[{"_type":"SearchResultsViewType","ViewId":0,"Result":[{"Relevance":1.0,"Distance":0.0,"Direction":0.0,"MatchLevel":"district","MatchQuality":{"Country":1.0,"State":1.0,"County":1.0,"City":1.0,"District":1.0,"PostalCode":1.0},"Location":{"LocationId":"NT_6eeVKnNwT-kClIhGyuCvmA","LocationType":"point","DisplayPosition":{"Latitude":52.4976867,"Longitude":-0.7217996},"MapView":{"TopLeft":{"Latitude":52.51471,"Longitude":-0.74081},"BottomRight":{"Latitude":52.45791,"Longitude":-0.62233}},"Address":{"Label":"Corby, England, United Kingdom","Country":"GBR","State":"England","County":"Northamptonshire","City":"Corby","District":"Corby","PostalCode":"NN18 0","AdditionalData":[{"value":"United Kingdom","key":"CountryName"},{"value":"England","key":"StateName"},{"value":"Northamptonshire","key":"CountyName"}]},"MapReference":{"ReferenceId":"846044578","SideOfStreet":"neither","StateId":"20248595","CountyId":"20337655","CityId":"20350813","DistrictId":"20350814"}}},{"Relevance":1.0,"Distance":7.3,"MatchLevel":"houseNumber","MatchQuality":{"Country":1.0,"State":1.0,"County":1.0,"City":1.0,"District":1.0,"Street":[1.0],"HouseNumber":1.0,"PostalCode":1.0},"MatchType":"interpolated","Location":{"LocationId":"NT_ea4KSjcSS-.J0zuVrrrOMC_l_577311021_L_xA","LocationType":"point","DisplayPosition":{"Latitude":52.4978801,"Longitude":-0.7218004},"MapView":{"TopLeft":{"Latitude":52.4990043,"Longitude":-0.7236469},"BottomRight":{"Latitude":52.496756,"Longitude":-0.7199538}},"Address":{"Label":"1 Pytchley Court, Corby, NN17 2QD, United Kingdom","Country":"GBR","State":"England","County":"Northamptonshire","City":"Corby","District":"Corby","Street":"Pytchley Court","HouseNumber":"1","PostalCode":"NN17 2QD","AdditionalData":[{"value":"United Kingdom","key":"CountryName"},{"value":"England","key":"StateName"},{"value":"Northamptonshire","key":"CountyName"}]},"MapReference":{"ReferenceId":"577311021","Spot":0.0,"SideOfStreet":"left","StateId":"20248595","CountyId":"20337655","CityId":"20350813","DistrictId":"20350814"}}},{"Relevance":1.0,"Distance":18.5,"MatchLevel":"houseNumber","MatchQuality":{"Country":1.0,"State":1.0,"County":1.0,"City":1.0,"District":1.0,"Street":[1.0],"HouseNumber":1.0,"PostalCode":1.0},"MatchType":"interpolated","Location":{"LocationId":"NT_vuhVG31n5cuIY5MHI1qlkD_l_743633893_R_yAD","LocationType":"point","DisplayPosition":{"Latitude":52.49739,"Longitude":-0.72188},"MapView":{"TopLeft":{"Latitude":52.4985142,"Longitude":-0.7237265},"BottomRight":{"Latitude":52.4962659,"Longitude":-0.7200335}},"Address":{"Label":"20 Fotheringhay Road, Corby, NN17 2RF, United Kingdom","Country":"GBR","State":"England","County":"Northamptonshire","City":"Corby","District":"Corby","Street":"Fotheringhay Road","HouseNumber":"20","PostalCode":"NN17 2RF","AdditionalData":[{"value":"United Kingdom","key":"CountryName"},{"value":"England","key":"StateName"},{"value":"Northamptonshire","key":"CountyName"}]},"MapReference":{"ReferenceId":"743633893","Spot":0.49,"SideOfStreet":"right","StateId":"20248595","CountyId":"20337655","CityId":"20350813","DistrictId":"20350814"}}},{"Relevance":1.0,"Distance":18.5,"MatchLevel":"postalCode","MatchQuality":{"PostalCode":1.0},"MatchType":"interpolated","Location":{"LocationId":"NT_ea4KSjcSS-.J0zuVrrrOMC_l_577311021_L_xA","LocationType":"point","DisplayPosition":{"Latitude":52.49785,"Longitude":-0.72175},"MapView":{"TopLeft":{"Latitude":52.5068432,"Longitude":-0.7365223},"BottomRight":{"Latitude":52.4888568,"Longitude":-0.7069777}},"Address":{"Label":"NN17 2QD, Corby, England, United Kingdom","Country":"GBR","State":"England","County":"Northamptonshire","City":"Corby","PostalCode":"NN17 2QD","AdditionalData":[{"value":"United Kingdom","key":"CountryName"},{"value":"England","key":"StateName"},{"value":"Northamptonshire","key":"CountyName"}]},"MapReference":{"ReferenceId":"577311021","Spot":0.0,"SideOfStreet":"neither","StateId":"20248595","CountyId":"20337655","CityId":"20350813"}}},{"Relevance":1.0,"Distance":26.2,"MatchLevel":"street","MatchQuality":{"Country":1.0,"State":1.0,"County":1.0,"City":1.0,"District":1.0,"Street":[1.0],"PostalCode":1.0},"Location":{"LocationId":"NT_3mRgJ9y08HPGKP1RvliztD_l_26103930_L","LocationType":"point","DisplayPosition":{"Latitude":52.4976,"Longitude":-0.72144},"MapView":{"TopLeft":{"Latitude":52.49814,"Longitude":-0.72144},"BottomRight":{"Latitude":52.4976,"Longitude":-0.72075}},"Address":{"Label":"Ringstead Close, Corby, NN17 2, United Kingdom","Country":"GBR","State":"England","County":"Northamptonshire","City":"Corby","District":"Corby","Street":"Ringstead Close","PostalCode":"NN17 2","AdditionalData":[{"value":"United Kingdom","key":"CountryName"},{"value":"England","key":"StateName"},{"value":"Northamptonshire","key":"CountyName"}]},"MapReference":{"ReferenceId":"26103930","Spot":0.0,"SideOfStreet":"left","StateId":"20248595","CountyId":"20337655","CityId":"20350813","DistrictId":"20350814"}}},{"Relevance":1.0,"Distance":29.0,"MatchLevel":"street","MatchQuality":{"Country":1.0,"State":1.0,"County":1.0,"City":1.0,"District":1.0,"Street":[1.0],"PostalCode":1.0},"Location":{"LocationId":"NT_3mRgJ9y08HPGKP1RvliztD_l_743633894_L","LocationType":"point","DisplayPosition":{"Latitude":52.4974923,"Longitude":-0.7215131},"MapView":{"TopLeft":{"Latitude":52.4976,"Longitude":-0.72163},"BottomRight":{"Latitude":52.49732,"Longitude":-0.72144}},"Address":{"Label":"Ringstead Close, Corby, NN17 2, United Kingdom","Country":"GBR","State":"England","County":"Northamptonshire","City":"Corby","District":"Corby","Street":"Ringstead Close","PostalCode":"NN17 2","AdditionalData":[{"value":"United Kingdom","key":"CountryName"},{"value":"England","key":"StateName"},{"value":"Northamptonshire","key":"CountyName"}]},"MapReference":{"ReferenceId":"743633894","Spot":0.62,"SideOfStreet":"left","StateId":"20248595","CountyId":"20337655","CityId":"20350813","DistrictId":"20350814"}}},{"Relevance":1.0,"Distance":33.3,"MatchLevel":"street","MatchQuality":{"Country":1.0,"State":1.0,"County":1.0,"City":1.0,"District":1.0,"Street":[1.0],"PostalCode":1.0},"Location":{"LocationId":"NT_vuhVG31n5cuIY5MHI1qlkD_l_26103941_R","LocationType":"point","DisplayPosition":{"Latitude":52.49747,"Longitude":-0.72214},"MapView":{"TopLeft":{"Latitude":52.4976,"Longitude":-0.72252},"BottomRight":{"Latitude":52.49747,"Longitude":-0.72214}},"Address":{"Label":"Fotheringhay Road, Corby, NN17 2, United Kingdom","Country":"GBR","State":"England","County":"Northamptonshire","City":"Corby","District":"Corby","Street":"Fotheringhay Road","PostalCode":"NN17 2","AdditionalData":[{"value":"United Kingdom","key":"CountryName"},{"value":"England","key":"StateName"},{"value":"Northamptonshire","key":"CountyName"}]},"MapReference":{"ReferenceId":"26103941","Spot":0.0,"SideOfStreet":"right","StateId":"20248595","CountyId":"20337655","CityId":"20350813","DistrictId":"20350814"}}},{"Relevance":1.0,"Distance":43.7,"MatchLevel":"street","MatchQuality":{"Country":1.0,"State":1.0,"County":1.0,"City":1.0,"District":1.0,"Street":[1.0],"PostalCode":1.0},"Location":{"LocationId":"NT_AULuV8DacWrXXEsBoIqjyC_l_743633869_R","LocationType":"point","DisplayPosition":{"Latitude":52.498,"Longitude":-0.72219},"MapView":{"TopLeft":{"Latitude":52.49819,"Longitude":-0.72219},"BottomRight":{"Latitude":52.498,"Longitude":-0.72205}},"Address":{"Label":"Denford Road, Corby, NN17 2, United Kingdom","Country":"GBR","State":"England","County":"Northamptonshire","City":"Corby","District":"Corby","Street":"Denford Road","PostalCode":"NN17 2","AdditionalData":[{"value":"United Kingdom","key":"CountryName"},{"value":"England","key":"StateName"},{"value":"Northamptonshire","key":"CountyName"}]},"MapReference":{"ReferenceId":"743633869","Spot":0.0,"SideOfStreet":"right","StateId":"20248595","CountyId":"20337655","CityId":"20350813","DistrictId":"20350814"}}},{"Relevance":1.0,"Distance":43.7,"MatchLevel":"street","MatchQuality":{"Country":1.0,"State":1.0,"County":1.0,"City":1.0,"District":1.0,"Street":[1.0],"PostalCode":1.0},"Location":{"LocationId":"NT_AULuV8DacWrXXEsBoIqjyC_l_577311020_R","LocationType":"point","DisplayPosition":{"Latitude":52.498,"Longitude":-0.72219},"MapView":{"TopLeft":{"Latitude":52.498,"Longitude":-0.72252},"BottomRight":{"Latitude":52.4976,"Longitude":-0.72219}},"Address":{"Label":"Denford Road, Corby, NN17 2, United Kingdom","Country":"GBR","State":"England","County":"Northamptonshire","City":"Corby","District":"Corby","Street":"Denford Road","PostalCode":"NN17 2","AdditionalData":[{"value":"United Kingdom","key":"CountryName"},{"value":"England","key":"StateName"},{"value":"Northamptonshire","key":"CountyName"}]},"MapReference":{"ReferenceId":"577311020","Spot":1.0,"SideOfStreet":"right","StateId":"20248595","CountyId":"20337655","CityId":"20350813","DistrictId":"20350814"}}},{"Relevance":1.0,"Distance":52.2,"MatchLevel":"street","MatchQuality":{"Country":1.0,"State":1.0,"County":1.0,"City":1.0,"District":1.0,"PostalCode":1.0},"Location":{"LocationId":"NT_zlmocAHNYUJPeRbXMKTmLB_l_743633871_R","LocationType":"point","DisplayPosition":{"Latitude":52.4981553,"Longitude":-0.721746},"MapView":{"TopLeft":{"Latitude":52.49832,"Longitude":-0.72205},"BottomRight":{"Latitude":52.49815,"Longitude":-0.72159}},"Address":{"Label":"Corby, NN17 2, United Kingdom","Country":"GBR","State":"England","County":"Northamptonshire","City":"Corby","District":"Corby","PostalCode":"NN17 2","AdditionalData":[{"value":"United Kingdom","key":"CountryName"},{"value":"England","key":"StateName"},{"value":"Northamptonshire","key":"CountyName"}]},"MapReference":{"ReferenceId":"743633871","Spot":0.52,"SideOfStreet":"right","StateId":"20248595","CountyId":"20337655","CityId":"20350813","DistrictId":"20350814"}}}]}]}}