{"Response":{"MetaInfo":{"Timestamp":"2020-03-28T10:41:58.999+0000","NextPageInformation":"2"},"View":[{"_type":"SearchResultsViewType","ViewId":0,"Result":[{"Relevance":1.0,"Distance":0.0,"Direction":0.0,"MatchLevel":"district","MatchQuality":{"Country":1.0,"State":1.0,"County":1.0,"City":1.0,"District":1.0,"PostalCode":1.0},"Location":{"LocationId":"NT_rS5Kx5kSHEssxGYQPRhgTD","LocationType":"point","DisplayPosition":{"Latitude":52.4213339,"Longitude":-1.7652246},"MapView":{"TopLeft":{"Latitude":52.458,"Longitude":-1.83025},"BottomRight":{"Latitude":52.36806,"Longitude":-1.72753}},"Address":{"Label":"Solihull, England, United Kingdom","Country":"GBR","State":"England","County":"West Midlands","City":"Solihull","District":"Solihull","PostalCode":"B91 3","AdditionalData":[{"value":"United Kingdom","key":"CountryName"},{"value":"England","key":"StateName"},{"value":"West Midlands","key":"CountyName"}]},"MapReference":{"ReferenceId":"565679266","SideOfStreet":"neither","StateId":"20248595","CountyId":"20358328","CityId":"20358495","DistrictId":"20358496"}}},{"Relevance":1.0,"Distance":13.7,"MatchLevel":"houseNumber","MatchQuality":{"Country":1.0,"State":1.0,"County":1.0,"City":1.0,"District":1.0,"Street":[1.0],"HouseNumber":1.0,"PostalCode":1.0},"MatchType":"interpolated","Location":{"LocationId":"NT_E8jWbfs7CC-t5WdNhl9r3A_l_26322571_R_xAjN","LocationType":"point","DisplayPosition":{"Latitude":52.4211598,"Longitude":-1.7655352},"MapView":{"TopLeft":{"Latitude":52.4222839,"Longitude":-1.7673785},"BottomRight":{"Latitude":52.4200356,"Longitude":-1.7636919}},"Address":{"Label":"106 Yew Tree Lane, Solihull, B91 2RA, United Kingdom","Country":"GBR","State":"England","County":"West Midlands","City":"Solihull","District":"Solihull","Street":"Yew Tree Lane","HouseNumber":"106","PostalCode":"B91 2RA","AdditionalData":[{"value":"United Kingdom","key":"CountryName"},{"value":"England","key":"StateName"},{"value":"West Midlands","key":"CountyName"}]},"MapReference":{"ReferenceId":"26322571","Spot":0.68,"SideOfStreet":"right","StateId":"20248595","CountyId":"20358328","CityId":"20358495","DistrictId":"20358496"}}},{"Relevance":1.0,"Distance":28.5,"MatchLevel":"street","MatchQuality":{"Country":1.0,"State":1.0,"County":1.0,"City":1.0,"District":1.0,"Street":[1.0],"PostalCode":1.0},"Location":{"LocationId":"NT_0XGiKnE.BUQr4-ayTCPVIA_l_26322493_R","LocationType":"point","DisplayPosition":{"Latitude":52.4215343,"Longitude":-1.7654867},"MapView":{"TopLeft":{"Latitude":52.4217,"Longitude":-1.76573},"BottomRight":{"Latitude":52.4214,"Longitude":-1.76536}},"Address":{"Label":"Damson Lane, Solihull, B91 2, United Kingdom","Country":"GBR","State":"England","County":"West Midlands","City":"Solihull","District":"Solihull","Street":"Damson Lane","PostalCode":"B91 2","AdditionalData":[{"value":"United Kingdom","key":"CountryName"},{"value":"England","key":"StateName"},{"value":"West Midlands","key":"CountyName"}]},"MapReference":{"ReferenceId":"26322493","Spot":0.57,"SideOfStreet":"right","StateId":"20248595","CountyId":"20358328","CityId":"20358495","DistrictId":"20358496"}}},{"Relevance":1.0,"Distance":29.7,"MatchLevel":"houseNumber","MatchQuality":{"Country":1.0,"State":1.0,"County":1.0,"City":1.0,"District":1.0,"Street":[1.0],"HouseNumber":1.0,"PostalCode":1.0},"MatchType":"interpolated","Location":{"LocationId":"NT_scfIXFffS1DWaSRC-zJK0B_l_26322467_R_yA","LocationType":"point","DisplayPosition":{"Latitude":52.4217202,"Longitude":-1.7651596},"MapView":{"TopLeft":{"Latitude":52.4228443,"Longitude":-1.7670029},"BottomRight":{"Latitude":52.420596,"Longitude":-1.7633162}},"Address":{"Label":"2 Wherretts Well Lane, Solihull, B91 2SD, United Kingdom","Country":"GBR","State":"England","County":"West Midlands","City":"Solihull","District":"Solihull","Street":"Wherretts Well Lane","HouseNumber":"2","PostalCode":"B91 2SD","AdditionalData":[{"value":"United Kingdom","key":"CountryName"},{"value":"England","key":"StateName"},{"value":"West Midlands","key":"CountyName"}]},"MapReference":{"ReferenceId":"26322467","Spot":0.05,"SideOfStreet":"right","StateId":"20248595","CountyId":"20358328","CityId":"20358495","DistrictId":"20358496"}}},{"Relevance":1.0,"Distance":37.2,"MatchLevel":"postalCode","MatchQuality":{"PostalCode":1.0},"MatchType":"interpolated","Location":{"LocationId":"NT_E8jWbfs7CC-t5WdNhl9r3A_l_26322571_R_xAjN","LocationType":"point","DisplayPosition":{"Latitude":52.42106,"Longitude":-1.76554},"MapView":{"TopLeft":{"Latitude":52.4300532,"Longitude":-1.7802865},"BottomRight":{"Latitude":52.4120668,"Longitude":-1.7507935}},"Address":{"Label":"B91 2NX, Solihull, England, United Kingdom","Country":"GBR","State":"England","County":"West Midlands","City":"Solihull","PostalCode":"B91 2NX","AdditionalData":[{"value":"United Kingdom","key":"CountryName"},{"value":"England","key":"StateName"},{"value":"West Midlands","key":"CountyName"}]},"MapReference":{"ReferenceId":"26322571","Spot":0.68,"SideOfStreet":"neither","StateId":"20248595","CountyId":"20358328","CityId":"20358495"}}},{"Relevance":1.0,"Distance":47.7,"MatchLevel":"houseNumber","MatchQuality":{"Country":1.0,"State":1.0,"County":1.0,"City":1.0,"District":1.0,"Street":[1.0],"HouseNumber":1.0,"PostalCode":1.0},"MatchType":"interpolated","Location":{"LocationId":"NT_QMR3ZaoLoylAfsaUke67KB_l_26322494_R_3UD","LocationType":"point","DisplayPosition":{"Latitude":52.42149,"Longitude":-1.7658801},"MapView":{"TopLeft":{"Latitude":52.4226142,"Longitude":-1.7677234},"BottomRight":{"Latitude":52.4203659,"Longitude":-1.7640367}},"Address":{"Label":"75 Cornyx Lane, Solihull, B91 2SF, United Kingdom","Country":"GBR","State":"England","County":"West Midlands","City":"Solihull","District":"Solihull","Street":"Cornyx Lane","HouseNumber":"75","PostalCode":"B91 2SF","AdditionalData":[{"value":"United Kingdom","key":"CountryName"},{"value":"England","key":"StateName"},{"value":"West Midlands","key":"CountyName"}]},"MapReference":{"ReferenceId":"26322494","Spot":0.09,"SideOfStreet":"right","StateId":"20248595","CountyId":"20358328","CityId":"20358495","DistrictId":"20358496"}}},{"Relevance":1.0,"Distance":52.4,"MatchLevel":"houseNumber","MatchQuality":{"Country":1.0,"State":1.0,"County":1.0,"City":1.0,"District":1.0,"Street":[1.0],"HouseNumber":1.0,"PostalCode":1.0},"MatchType":"interpolated","Location":{"LocationId":"NT_0XGiKnE.BUQr4-ayTCPVIA_l_26322466_R_yA","LocationType":"point","DisplayPosition":{"Latitude":52.4218301,"Longitude":-1.76533},"MapView":{"TopLeft":{"Latitude":52.4229542,"Longitude":-1.7671733},"BottomRight":{"Latitude":52.4207059,"Longitude":-1.7634866}},"Address":{"Label":"2 Damson Lane, Solihull, B91 2RD, United Kingdom","Country":"GBR","State":"England","County":"West Midlands","City":"Solihull","District":"Solihull","Street":"Damson Lane","HouseNumber":"2","PostalCode":"B91 2RD","AdditionalData":[{"value":"United Kingdom","key":"CountryName"},{"value":"England","key":"StateName"},{"value":"West Midlands","key":"CountyName"}]},"MapReference":{"ReferenceId":"26322466","Spot":0.11,"SideOfStreet":"right","StateId":"20248595","CountyId":"20358328","CityId":"20358495","DistrictId":"20358496"}}},{"Relevance":1.0,"Distance":61.5,"MatchLevel":"postalCode","MatchQuality":{"PostalCode":1.0},"MatchType":"interpolated","Location":{"LocationId":"NT_0XGiKnE.BUQr4-ayTCPVIA_l_26322466_R_yA","LocationType":"point","DisplayPosition":{"Latitude":52.42188,"Longitude":-1.76537},"MapView":{"TopLeft":{"Latitude":52.4308732,"Longitude":-1.7801168},"BottomRight":{"Latitude":52.4128868,"Longitude":-1.7506232}},"Address":{"Label":"B91 2RB, Solihull, England, United Kingdom","Country":"GBR","State":"England","County":"West Midlands","City":"Solihull","PostalCode":"B91 2RB","AdditionalData":[{"value":"United Kingdom","key":"CountryName"},{"value":"England","key":"StateName"},{"value":"West Midlands","key":"CountyName"}]},"MapReference":{"ReferenceId":"26322466","Spot":0.11,"SideOfStreet":"neither","StateId":"20248595","CountyId":"20358328","CityId":"20358495"}}},{"Relevance":1.0,"Distance":69.9,"MatchLevel":"postalCode","MatchQuality":{"PostalCode":1.0},"MatchType":"interpolated","Location":{"LocationId":"NT_QMR3ZaoLoylAfsaUke67KB_l_26322494_R_3UD","LocationType":"point","DisplayPosition":{"Latitude":52.42157,"Longitude":-1.76618},"MapView":{"TopLeft":{"Latitude":52.4305632,"Longitude":-1.7809267},"BottomRight":{"Latitude":52.4125768,"Longitude":-1.7514333}},"Address":{"Label":"B91 2SE, Solihull, England, United Kingdom","Country":"GBR","State":"England","County":"West Midlands","City":"Solihull","PostalCode":"B91 2SE","AdditionalData":[{"value":"United Kingdom","key":"CountryName"},{"value":"England","key":"StateName"},{"value":"West Midlands","key":"CountyName"}]},"MapReference":{"ReferenceId":"26322494","Spot":0.09,"SideOfStreet":"neither","StateId":"20248595","CountyId":"20358328","CityId":"20358495"}}},{"Relevance":1.0,"Distance":77.9,"MatchLevel":"houseNumber","MatchQuality":{"Country":1.0,"State":1.0,"County":1.0,"City":1.0,"District":1.0,"Street":[1.0],"HouseNumber":1.0,"PostalCode":1.0},"MatchType":"interpolated","Location":{"LocationId":"NT_Jz2bCjnp74z8S4C5Z6u3LA_l_26322594_L_zcD","LocationType":"point","DisplayPosition":{"Latitude":52.4210959,"Longitude":-1.7641401},"MapView":{"TopLeft":{"Latitude":52.4222201,"Longitude":-1.7659835},"BottomRight":{"Latitude":52.4199718,"Longitude":-1.7622968}},"Address":{"Label":"37 Hainfield Drive, Solihull, B91 2PL, United Kingdom","Country":"GBR","State":"England","County":"West Midlands","City":"Solihull","District":"Solihull","Street":"Hainfield Drive","HouseNumber":"37","PostalCode":"B91 2PL","AdditionalData":[{"value":"United Kingdom","key":"CountryName"},{"value":"England","key":"StateName"},{"value":"West Midlands","key":"CountyName"}]},"MapReference":{"ReferenceId":"26322594","Spot":0.87,"SideOfStreet":"left","StateId":"20248595","CountyId":"20358328","CityId":"20358495","DistrictId":"20358496"}}}]}]}}