{"Response":{"MetaInfo":{"Timestamp":"2020-03-28T10:35:10.058+0000","NextPageInformation":"2"},"View":[{"_type":"SearchResultsViewType","ViewId":0,"Result":[{"Relevance":1.0,"Distance":0.0,"Direction":0.0,"MatchLevel":"district","MatchQuality":{"Country":1.0,"State":1.0,"County":1.0,"City":1.0,"District":1.0,"PostalCode":1.0},"Location":{"LocationId":"NT_s6.D1WH9VTEzzrCuIGsEBA","LocationType":"point","DisplayPosition":{"Latitude":52.459148,"Longitude":-1.946471},"MapView":{"TopLeft":{"Latitude":52.47227,"Longitude":-1.98961},"BottomRight":{"Latitude":52.44526,"Longitude":-1.94244}},"Address":{"Label":"Harborne, Birmingham, England, United Kingdom","Country":"GBR","State":"England","County":"West Midlands","City":"Birmingham","District":"Harborne","PostalCode":"B17 9","AdditionalData":[{"value":"United Kingdom","key":"CountryName"},{"value":"England","key":"StateName"},{"value":"West Midlands","key":"CountyName"}]},"MapReference":{"ReferenceId":"577326352","SideOfStreet":"neither","StateId":"20248595","CountyId":"20358328","CityId":"20358334","DistrictId":"20358368"}}},{"Relevance":1.0,"Distance":3.8,"MatchLevel":"houseNumber","MatchQuality":{"Country":1.0,"State":1.0,"County":1.0,"City":1.0,"District":1.0,"Street":[1.0],"HouseNumber":1.0,"PostalCode":1.0},"MatchType":"interpolated","Location":{"LocationId":"NT_dPNS7x1utDkUhaW-jBZSHD_l_577326356_R_xID","LocationType":"point","DisplayPosition":{"Latitude":52.45906,"Longitude":-1.9465525},"MapView":{"TopLeft":{"Latitude":52.4601842,"Longitude":-1.9483975},"BottomRight":{"Latitude":52.4579359,"Longitude":-1.9447076}},"Address":{"Label":"12 York Street, Birmingham, B17 0, United Kingdom","Country":"GBR","State":"England","County":"West Midlands","City":"Birmingham","District":"Harborne","Street":"York Street","HouseNumber":"12","PostalCode":"B17 0","AdditionalData":[{"value":"United Kingdom","key":"CountryName"},{"value":"England","key":"StateName"},{"value":"West Midlands","key":"CountyName"}]},"MapReference":{"ReferenceId":"577326356","Spot":0.33,"SideOfStreet":"right","StateId":"20248595","CountyId":"20358328","CityId":"20358334","DistrictId":"20358368"}}},{"Relevance":1.0,"Distance":34.3,"MatchLevel":"street","MatchQuality":{"Country":1.0,"State":1.0,"County":1.0,"City":1.0,"District":1.0,"PostalCode":1.0},"Location":{"LocationId":"NT_d2G1s3ayCIrcB11ZdSw9sD_l_1167113417_L","LocationType":"point","DisplayPosition":{"Latitude":52.45885,"Longitude":-1.94634},"MapView":{"TopLeft":{"Latitude":52.4595,"Longitude":-1.94634},"BottomRight":{"Latitude":52.45885,"Longitude":-1.9455}},"Address":{"Label":"Birmingham, B17 0, United Kingdom","Country":"GBR","State":"England","County":"West Midlands","City":"Birmingham","District":"Harborne","PostalCode":"B17 0","AdditionalData":[{"value":"United Kingdom","key":"CountryName"},{"value":"England","key":"StateName"},{"value":"West Midlands","key":"CountyName"}]},"MapReference":{"ReferenceId":"1167113417","Spot":0.0,"SideOfStreet":"left","StateId":"20248595","CountyId":"20358328","CityId":"20358334","DistrictId":"20358368"}}},{"Relevance":1.0,"Distance":35.7,"MatchLevel":"houseNumber","MatchQuality":{"Country":1.0,"State":1.0,"County":1.0,"City":1.0,"District":1.0,"Street":[1.0],"HouseNumber":1.0,"PostalCode":1.0},"MatchType":"interpolated","Location":{"LocationId":"NT_low57oclsUHH36mlCXzy.A_l_1026818144_R_xADN","LocationType":"point","DisplayPosition":{"Latitude":52.45953,"Longitude":-1.94685},"MapView":{"TopLeft":{"Latitude":52.4606542,"Longitude":-1.9486949},"BottomRight":{"Latitude":52.4584059,"Longitude":-1.9450051}},"Address":{"Label":"104 High Street, Birmingham, B17 9NJ, United Kingdom","Country":"GBR","State":"England","County":"West Midlands","City":"Birmingham","District":"Harborne","Street":"High Street","HouseNumber":"104","PostalCode":"B17 9NJ","AdditionalData":[{"value":"United Kingdom","key":"CountryName"},{"value":"England","key":"StateName"},{"value":"West Midlands","key":"CountyName"}]},"MapReference":{"ReferenceId":"1026818144","Spot":0.33,"SideOfStreet":"right","StateId":"20248595","CountyId":"20358328","CityId":"20358334","DistrictId":"20358368"}}},{"Relevance":1.0,"Distance":39.3,"MatchLevel":"houseNumber","MatchQuality":{"Country":1.0,"State":1.0,"County":1.0,"City":1.0,"District":1.0,"Street":[1.0],"HouseNumber":1.0,"PostalCode":1.0},"MatchType":"interpolated","Location":{"LocationId":"NT_57mdELkbkBqQLksSMoBMlC_l_1167113418_R_xADM","LocationType":"point","DisplayPosition":{"Latitude":52.45963,"Longitude":-1.9465899},"MapView":{"TopLeft":{"Latitude":52.4607542,"Longitude":-1.9484349},"BottomRight":{"Latitude":52.4585059,"Longitude":-1.944745}},"Address":{"Label":"100 High Street, Birmingham, B17 9, United Kingdom","Country":"GBR","State":"England","County":"West Midlands","City":"Birmingham","District":"Harborne","Street":"High Street","HouseNumber":"100","PostalCode":"B17 9","AdditionalData":[{"value":"United Kingdom","key":"CountryName"},{"value":"England","key":"StateName"},{"value":"West Midlands","key":"CountyName"}]},"MapReference":{"ReferenceId":"1167113418","Spot":0.0,"SideOfStreet":"right","StateId":"20248595","CountyId":"20358328","CityId":"20358334","DistrictId":"20358368"}}},{"Relevance":1.0,"Distance":47.0,"MatchLevel":"houseNumber","MatchQuality":{"Country":1.0,"State":1.0,"County":1.0,"City":1.0,"District":1.0,"Street":[1.0],"HouseNumber":1.0,"PostalCode":1.0},"MatchType":"interpolated","Location":{"LocationId":"NT_dPNS7x1utDkUhaW-jBZSHD_l_837223222_R_xgD","LocationType":"point","DisplayPosition":{"Latitude":52.45869,"Longitude":-1.94618},"MapView":{"TopLeft":{"Latitude":52.4598142,"Longitude":-1.9480249},"BottomRight":{"Latitude":52.4575659,"Longitude":-1.9443351}},"Address":{"Label":"18 York Street, Birmingham, B17 0HG, United Kingdom","Country":"GBR","State":"England","County":"West Midlands","City":"Birmingham","District":"Harborne","Street":"York Street","HouseNumber":"18","PostalCode":"B17 0HG","AdditionalData":[{"value":"United Kingdom","key":"CountryName"},{"value":"England","key":"StateName"},{"value":"West Midlands","key":"CountyName"}]},"MapReference":{"ReferenceId":"837223222","Spot":0.59,"SideOfStreet":"right","StateId":"20248595","CountyId":"20358328","CityId":"20358334","DistrictId":"20358368"}}},{"Relevance":1.0,"Distance":47.2,"MatchLevel":"houseNumber","MatchQuality":{"Country":1.0,"State":1.0,"County":1.0,"City":1.0,"District":1.0,"Street":[1.0],"HouseNumber":1.0,"PostalCode":1.0},"MatchType":"interpolated","Location":{"LocationId":"NT_low57oclsUHH36mlCXzy.A_l_26345313_R_xIDN","LocationType":"point","DisplayPosition":{"Latitude":52.4593922,"Longitude":-1.9471844},"MapView":{"TopLeft":{"Latitude":52.4605164,"Longitude":-1.9490293},"BottomRight":{"Latitude":52.4582681,"Longitude":-1.9453395}},"Address":{"Label":"124 High Street, Birmingham, B17 9NN, United Kingdom","Country":"GBR","State":"England","County":"West Midlands","City":"Birmingham","District":"Harborne","Street":"High Street","HouseNumber":"124","PostalCode":"B17 9NN","AdditionalData":[{"value":"United Kingdom","key":"CountryName"},{"value":"England","key":"StateName"},{"value":"West Midlands","key":"CountyName"}]},"MapReference":{"ReferenceId":"26345313","Spot":0.65,"SideOfStreet":"right","StateId":"20248595","CountyId":"20358328","CityId":"20358334","DistrictId":"20358368"}}},{"Relevance":1.0,"Distance":51.7,"MatchLevel":"street","MatchQuality":{"Country":1.0,"State":1.0,"County":1.0,"City":1.0,"District":1.0,"PostalCode":1.0},"Location":{"LocationId":"NT_d2G1s3ayCIrcB11ZdSw9sD_l_1167113420_L","LocationType":"point","DisplayPosition":{"Latitude":52.4595628,"Longitude":-1.9461253},"MapView":{"TopLeft":{"Latitude":52.45973,"Longitude":-1.94636},"BottomRight":{"Latitude":52.4595,"Longitude":-1.94588}},"Address":{"Label":"Birmingham, B17 0, United Kingdom","Country":"GBR","State":"England","County":"West Midlands","City":"Birmingham","District":"Harborne","PostalCode":"B17 0","AdditionalData":[{"value":"United Kingdom","key":"CountryName"},{"value":"England","key":"StateName"},{"value":"West Midlands","key":"CountyName"}]},"MapReference":{"ReferenceId":"1167113420","Spot":0.48,"SideOfStreet":"left","StateId":"20248595","CountyId":"20358328","CityId":"20358334","DistrictId":"20358368"}}},{"Relevance":1.0,"Distance":59.0,"MatchLevel":"postalCode","MatchQuality":{"PostalCode":1.0},"MatchType":"interpolated","Location":{"LocationId":"NT_low57oclsUHH36mlCXzy.A_l_1026818144_R_xADN","LocationType":"point","DisplayPosition":{"Latitude":52.45967,"Longitude":-1.94663},"MapView":{"TopLeft":{"Latitude":52.4686632,"Longitude":-1.9613894},"BottomRight":{"Latitude":52.4506768,"Longitude":-1.9318706}},"Address":{"Label":"B17 9NR, Birmingham, England, United Kingdom","Country":"GBR","State":"England","County":"West Midlands","City":"Birmingham","PostalCode":"B17 9NR","AdditionalData":[{"value":"United Kingdom","key":"CountryName"},{"value":"England","key":"StateName"},{"value":"West Midlands","key":"CountyName"}]},"MapReference":{"ReferenceId":"1026818144","Spot":0.33,"SideOfStreet":"neither","StateId":"20248595","CountyId":"20358328","CityId":"20358334"}}},{"Relevance":1.0,"Distance":63.2,"MatchLevel":"houseNumber","MatchQuality":{"Country":1.0,"State":1.0,"County":1.0,"City":1.0,"District":1.0,"Street":[1.0],"HouseNumber":1.0,"PostalCode":1.0},"MatchType":"interpolated","Location":{"LocationId":"NT_low57oclsUHH36mlCXzy.A_l_1167113419_R_4gD","LocationType":"point","DisplayPosition":{"Latitude":52.4598,"Longitude":-1.9461699},"MapView":{"TopLeft":{"Latitude":52.4609242,"Longitude":-1.9480149},"BottomRight":{"Latitude":52.4586759,"Longitude":-1.944325}},"Address":{"Label":"88 High Street, Birmingham, B17 9, United Kingdom","Country":"GBR","State":"England","County":"West Midlands","City":"Birmingham","District":"Harborne","Street":"High Street","HouseNumber":"88","PostalCode":"B17 9","AdditionalData":[{"value":"United Kingdom","key":"CountryName"},{"value":"England","key":"StateName"},{"value":"West Midlands","key":"CountyName"}]},"MapReference":{"ReferenceId":"1167113419","Spot":0.22,"SideOfStreet":"right","StateId":"20248595","CountyId":"20358328","CityId":"20358334","DistrictId":"20358368"}}}]}]}}