{"Response":{"MetaInfo":{"Timestamp":"2020-03-28T11:31:13.197+0000","NextPageInformation":"2"},"View":[{"_type":"SearchResultsViewType","ViewId":0,"Result":[{"Relevance":1.0,"Distance":-8.1,"MatchLevel":"landmark","MatchQuality":{"Country":1.0,"State":1.0,"County":1.0,"City":1.0,"District":1.0,"PostalCode":1.0,"Name":1.0},"Location":{"LocationId":"NT_q70OsIlPB4iPeapPC4pGvA","LocationType":"hospital","Name":"Specjal. Zesp. Opieki Zdrowotnej","DisplayPosition":{"Latitude":52.40439,"Longitude":16.92933},"MapView":{"TopLeft":{"Latitude":52.40479,"Longitude":16.92873},"BottomRight":{"Latitude":52.40398,"Longitude":16.9302}},"Address":{"Label":"61-758 Poznań, Polska","Country":"POL","State":"Woj. Wielkopolskie","County":"Poznań","City":"Poznań","District":"Poznań","PostalCode":"61-758","AdditionalData":[{"value":"Polska","key":"CountryName"},{"value":"Woj. Wielkopolskie","key":"StateName"},{"value":"Poznań","key":"CountyName"}]},"MapReference":{"CountryId":"20624059","StateId":"20629915","CountyId":"20631893","CityId":"20631894","DistrictId":"20646794","PlaceId":"1421200836"}}},{"Relevance":1.0,"Distance":0.0,"Direction":0.0,"MatchLevel":"district","MatchQuality":{"Country":1.0,"State":1.0,"County":1.0,"City":1.0,"District":1.0,"Subdistrict":1.0,"PostalCode":1.0},"Location":{"LocationId":"NT_rpfl.y1ZGVg9ZrLSM.lk9D","LocationType":"point","DisplayPosition":{"Latitude":52.404163,"Longitude":16.9294335},"MapView":{"TopLeft":{"Latitude":52.42627,"Longitude":16.91109},"BottomRight":{"Latitude":52.39818,"Longitude":16.94671}},"Address":{"Label":"Stare Miasto, Poznań, Woj. Wielkopolskie, Polska","Country":"POL","State":"Woj. Wielkopolskie","County":"Poznań","City":"Poznań","District":"Poznań","Subdistrict":"Stare Miasto","PostalCode":"61-747","AdditionalData":[{"value":"Polska","key":"CountryName"},{"value":"Woj. Wielkopolskie","key":"StateName"},{"value":"Poznań","key":"CountyName"}]},"MapReference":{"ReferenceId":"594895275","SideOfStreet":"neither","CountryId":"20624059","StateId":"20629915","CountyId":"20631893","CityId":"20631894","DistrictId":"20646794"}}},{"Relevance":1.0,"Distance":17.7,"MatchLevel":"houseNumber","MatchQuality":{"Country":1.0,"State":1.0,"County":1.0,"City":1.0,"District":1.0,"Subdistrict":1.0,"Street":[1.0],"HouseNumber":1.0,"PostalCode":1.0},"MatchType":"interpolated","Location":{"LocationId":"NT_gp3.iYbtNvwJvlBuYpWKLB_2A","LocationType":"point","DisplayPosition":{"Latitude":52.40401,"Longitude":16.92936},"MapView":{"TopLeft":{"Latitude":52.4051342,"Longitude":16.9275174},"BottomRight":{"Latitude":52.4028858,"Longitude":16.9312026}},"Address":{"Label":"ulica Bolesława Krysiewicza 6, 61-825 Poznań, Polska","Country":"POL","State":"Woj. Wielkopolskie","County":"Poznań","City":"Poznań","District":"Poznań","Subdistrict":"Stare Miasto","Street":"ulica Bolesława Krysiewicza","HouseNumber":"6","PostalCode":"61-825","AdditionalData":[{"value":"Polska","key":"CountryName"},{"value":"Woj. Wielkopolskie","key":"StateName"},{"value":"Poznań","key":"CountyName"}]},"MapReference":{"ReferenceId":"901919724","Spot":0.07,"SideOfStreet":"left","CountryId":"20624059","StateId":"20629915","CountyId":"20631893","CityId":"20631894","DistrictId":"20646794","AddressId":"210320514","RoadLinkId":"263478261"}}},{"Relevance":1.0,"Distance":20.3,"MatchLevel":"houseNumber","MatchQuality":{"Country":1.0,"State":1.0,"County":1.0,"City":1.0,"District":1.0,"Subdistrict":1.0,"Street":[1.0],"HouseNumber":1.0,"PostalCode":1.0},"MatchType":"interpolated","Location":{"LocationId":"NT_mMMu0IJnqwcQV3Dp18GMMA_xkD","LocationType":"point","DisplayPosition":{"Latitude":52.40393,"Longitude":16.92955},"MapView":{"TopLeft":{"Latitude":52.4050542,"Longitude":16.9277074},"BottomRight":{"Latitude":52.4028058,"Longitude":16.9313926}},"Address":{"Label":"ulica Ogrodowa 19, 61-825 Poznań, Polska","Country":"POL","State":"Woj. Wielkopolskie","County":"Poznań","City":"Poznań","District":"Poznań","Subdistrict":"Stare Miasto","Street":"ulica Ogrodowa","HouseNumber":"19","PostalCode":"61-825","AdditionalData":[{"value":"Polska","key":"CountryName"},{"value":"Woj. Wielkopolskie","key":"StateName"},{"value":"Poznań","key":"CountyName"}]},"MapReference":{"ReferenceId":"843671543","Spot":0.49,"SideOfStreet":"left","CountryId":"20624059","StateId":"20629915","CountyId":"20631893","CityId":"20631894","DistrictId":"20646794","AddressId":"210073007","RoadLinkId":"365148401"}}},{"Relevance":1.0,"Distance":21.5,"MatchLevel":"street","MatchQuality":{"Country":1.0,"State":1.0,"County":1.0,"City":1.0,"District":1.0,"Subdistrict":1.0,"Street":[1.0],"PostalCode":1.0},"Location":{"LocationId":"NT_gp3.iYbtNvwJvlBuYpWKLB_l_843671540_L","LocationType":"point","DisplayPosition":{"Latitude":52.40398,"Longitude":16.92933},"MapView":{"TopLeft":{"Latitude":52.40398,"Longitude":16.92922},"BottomRight":{"Latitude":52.40391,"Longitude":16.92933}},"Address":{"Label":"ulica Bolesława Krysiewicza, 61-825 Poznań, Polska","Country":"POL","State":"Woj. Wielkopolskie","County":"Poznań","City":"Poznań","District":"Poznań","Subdistrict":"Stare Miasto","Street":"ulica Bolesława Krysiewicza","PostalCode":"61-825","AdditionalData":[{"value":"Polska","key":"CountryName"},{"value":"Woj. Wielkopolskie","key":"StateName"},{"value":"Poznań","key":"CountyName"}]},"MapReference":{"ReferenceId":"843671540","Spot":1.0,"SideOfStreet":"left","CountryId":"20624059","StateId":"20629915","CountyId":"20631893","CityId":"20631894","DistrictId":"20646794"}}},{"Relevance":1.0,"Distance":36.2,"MatchLevel":"houseNumber","MatchQuality":{"Country":1.0,"State":1.0,"County":1.0,"City":1.0,"District":1.0,"Subdistrict":1.0,"Street":[1.0],"HouseNumber":1.0,"PostalCode":1.0},"MatchType":"interpolated","Location":{"LocationId":"NT_z6UJAs1MneiDfv-qnf6HWC_zA","LocationType":"point","DisplayPosition":{"Latitude":52.40384,"Longitude":16.9295},"MapView":{"TopLeft":{"Latitude":52.4049642,"Longitude":16.9276574},"BottomRight":{"Latitude":52.4027158,"Longitude":16.9313426}},"Address":{"Label":"ulica Ogrodowa 3, 61-820 Poznań, Polska","Country":"POL","State":"Woj. Wielkopolskie","County":"Poznań","City":"Poznań","District":"Poznań","Subdistrict":"Stare Miasto","Street":"ulica Ogrodowa","HouseNumber":"3","PostalCode":"61-820","AdditionalData":[{"value":"Polska","key":"CountryName"},{"value":"Woj. Wielkopolskie","key":"StateName"},{"value":"Poznań","key":"CountyName"}]},"MapReference":{"ReferenceId":"1202689148","Spot":0.95,"SideOfStreet":"right","CountryId":"20624059","StateId":"20629915","CountyId":"20631893","CityId":"20631894","DistrictId":"20646794","AddressId":"210144486","RoadLinkId":"515573593"}}},{"Relevance":1.0,"Distance":37.6,"MatchLevel":"street","MatchQuality":{"Country":1.0,"State":1.0,"County":1.0,"City":1.0,"District":1.0,"Subdistrict":1.0,"PostalCode":1.0},"Location":{"LocationId":"NT_mPMPbo80Zf3vuXNLgNkq7A_l_830475432_L","LocationType":"point","DisplayPosition":{"Latitude":52.4045,"Longitude":16.92938},"MapView":{"TopLeft":{"Latitude":52.40464,"Longitude":16.92938},"BottomRight":{"Latitude":52.40446,"Longitude":16.92996}},"Address":{"Label":"61-825 Poznań, Polska","Country":"POL","State":"Woj. Wielkopolskie","County":"Poznań","City":"Poznań","District":"Poznań","Subdistrict":"Stare Miasto","PostalCode":"61-825","AdditionalData":[{"value":"Polska","key":"CountryName"},{"value":"Woj. Wielkopolskie","key":"StateName"},{"value":"Poznań","key":"CountyName"}]},"MapReference":{"ReferenceId":"830475432","Spot":1.0,"SideOfStreet":"left","CountryId":"20624059","StateId":"20629915","CountyId":"20631893","CityId":"20631894","DistrictId":"20646794"}}},{"Relevance":1.0,"Distance":37.9,"MatchLevel":"houseNumber","MatchQuality":{"Country":1.0,"State":1.0,"County":1.0,"City":1.0,"District":1.0,"Subdistrict":1.0,"Street":[1.0],"HouseNumber":1.0,"PostalCode":1.0},"MatchType":"interpolated","Location":{"LocationId":"NT_z6UJAs1MneiDfv-qnf6HWC_yA","LocationType":"point","DisplayPosition":{"Latitude":52.4039,"Longitude":16.92979},"MapView":{"TopLeft":{"Latitude":52.4050242,"Longitude":16.9279474},"BottomRight":{"Latitude":52.4027758,"Longitude":16.9316326}},"Address":{"Label":"ulica Ogrodowa 2, 61-820 Poznań, Polska","Country":"POL","State":"Woj. Wielkopolskie","County":"Poznań","City":"Poznań","District":"Poznań","Subdistrict":"Stare Miasto","Street":"ulica Ogrodowa","HouseNumber":"2","PostalCode":"61-820","AdditionalData":[{"value":"Polska","key":"CountryName"},{"value":"Woj. Wielkopolskie","key":"StateName"},{"value":"Poznań","key":"CountyName"}]},"MapReference":{"ReferenceId":"1202689149","Spot":0.7,"SideOfStreet":"right","CountryId":"20624059","StateId":"20629915","CountyId":"20631893","CityId":"20631894","DistrictId":"20646794","AddressId":"211050520","RoadLinkId":"515573594"}}},{"Relevance":1.0,"Distance":39.4,"MatchLevel":"houseNumber","MatchQuality":{"Country":1.0,"State":1.0,"County":1.0,"City":1.0,"District":1.0,"Subdistrict":1.0,"Street":[1.0],"HouseNumber":1.0,"PostalCode":1.0},"MatchType":"interpolated","Location":{"LocationId":"NT_z6UJAs1MneiDfv-qnf6HWC_yAD","LocationType":"point","DisplayPosition":{"Latitude":52.40392,"Longitude":16.92992},"MapView":{"TopLeft":{"Latitude":52.4050442,"Longitude":16.9280774},"BottomRight":{"Latitude":52.4027958,"Longitude":16.9317626}},"Address":{"Label":"ulica Ogrodowa 20, 61-820 Poznań, Polska","Country":"POL","State":"Woj. Wielkopolskie","County":"Poznań","City":"Poznań","District":"Poznań","Subdistrict":"Stare Miasto","Street":"ulica Ogrodowa","HouseNumber":"20","PostalCode":"61-820","AdditionalData":[{"value":"Polska","key":"CountryName"},{"value":"Woj. Wielkopolskie","key":"StateName"},{"value":"Poznań","key":"CountyName"}]},"MapReference":{"ReferenceId":"843671542","Spot":0.96,"SideOfStreet":"right","CountryId":"20624059","StateId":"20629915","CountyId":"20631893","CityId":"20631894","DistrictId":"20646794","AddressId":"301991880","RoadLinkId":"225068945"}}},{"Relevance":1.0,"Distance":42.2,"MatchLevel":"houseNumber","MatchQuality":{"Country":1.0,"State":1.0,"County":1.0,"City":1.0,"District":1.0,"Subdistrict":1.0,"Street":[1.0],"HouseNumber":1.0,"PostalCode":1.0},"MatchType":"interpolated","Location":{"LocationId":"NT_gp3.iYbtNvwJvlBuYpWKLB_4A","LocationType":"point","DisplayPosition":{"Latitude":52.40442,"Longitude":16.92991},"MapView":{"TopLeft":{"Latitude":52.4055442,"Longitude":16.9280674},"BottomRight":{"Latitude":52.4032958,"Longitude":16.9317526}},"Address":{"Label":"ulica Bolesława Krysiewicza 8, 61-825 Poznań, Polska","Country":"POL","State":"Woj. Wielkopolskie","County":"Poznań","City":"Poznań","District":"Poznań","Subdistrict":"Stare Miasto","Street":"ulica Bolesława Krysiewicza","HouseNumber":"8","PostalCode":"61-825","AdditionalData":[{"value":"Polska","key":"CountryName"},{"value":"Woj. Wielkopolskie","key":"StateName"},{"value":"Poznań","key":"CountyName"}]},"MapReference":{"ReferenceId":"901919725","Spot":0.7,"SideOfStreet":"left","CountryId":"20624059","StateId":"20629915","CountyId":"20631893","CityId":"20631894","DistrictId":"20646794","AddressId":"582337965","RoadLinkId":"263478262"}}}]}]}}