{"Response":{"MetaInfo":{"Timestamp":"2020-03-28T11:58:30.880+0000","NextPageInformation":"2"},"View":[{"_type":"SearchResultsViewType","ViewId":0,"Result":[{"Relevance":1.0,"Distance":0.0,"Direction":0.0,"MatchLevel":"district","MatchQuality":{"Country":1.0,"State":1.0,"County":1.0,"City":1.0,"District":1.0,"PostalCode":1.0},"Location":{"LocationId":"NT_rS5Kx5kSHEssxGYQPRhgTD","LocationType":"point","DisplayPosition":{"Latitude":52.4211498,"Longitude":-1.7659155},"MapView":{"TopLeft":{"Latitude":52.458,"Longitude":-1.83025},"BottomRight":{"Latitude":52.36806,"Longitude":-1.72753}},"Address":{"Label":"Solihull, England, United Kingdom","Country":"GBR","State":"England","County":"West Midlands","City":"Solihull","District":"Solihull","PostalCode":"B91 3","AdditionalData":[{"value":"United Kingdom","key":"CountryName"},{"value":"England","key":"StateName"},{"value":"West Midlands","key":"CountyName"}]},"MapReference":{"ReferenceId":"565679266","SideOfStreet":"neither","StateId":"20248595","CountyId":"20358328","CityId":"20358495","DistrictId":"20358496"}}},{"Relevance":1.0,"Distance":15.2,"MatchLevel":"houseNumber","MatchQuality":{"Country":1.0,"State":1.0,"County":1.0,"City":1.0,"District":1.0,"Street":[1.0],"HouseNumber":1.0,"PostalCode":1.0},"MatchType":"interpolated","Location":{"LocationId":"NT_E8jWbfs7CC-t5WdNhl9r3A_l_26322571_L_2MD","LocationType":"point","DisplayPosition":{"Latitude":52.4212153,"Longitude":-1.7655808},"MapView":{"TopLeft":{"Latitude":52.4223395,"Longitude":-1.7674241},"BottomRight":{"Latitude":52.4200912,"Longitude":-1.7637375}},"Address":{"Label":"63 Yew Tree Lane, Solihull, B91 2NX, United Kingdom","Country":"GBR","State":"England","County":"West Midlands","City":"Solihull","District":"Solihull","Street":"Yew Tree Lane","HouseNumber":"63","PostalCode":"B91 2NX","AdditionalData":[{"value":"United Kingdom","key":"CountryName"},{"value":"England","key":"StateName"},{"value":"West Midlands","key":"CountyName"}]},"MapReference":{"ReferenceId":"26322571","Spot":0.76,"SideOfStreet":"left","StateId":"20248595","CountyId":"20358328","CityId":"20358495","DistrictId":"20358496"}}},{"Relevance":1.0,"Distance":23.3,"MatchLevel":"houseNumber","MatchQuality":{"Country":1.0,"State":1.0,"County":1.0,"City":1.0,"District":1.0,"Street":[1.0],"HouseNumber":1.0,"PostalCode":1.0},"MatchType":"interpolated","Location":{"LocationId":"NT_QMR3ZaoLoylAfsaUke67KB_l_26322494_L_5YD","LocationType":"point","DisplayPosition":{"Latitude":52.42149,"Longitude":-1.7658801},"MapView":{"TopLeft":{"Latitude":52.4226142,"Longitude":-1.7677234},"BottomRight":{"Latitude":52.4203659,"Longitude":-1.7640368}},"Address":{"Label":"96 Cornyx Lane, Solihull, B91 2SE, United Kingdom","Country":"GBR","State":"England","County":"West Midlands","City":"Solihull","District":"Solihull","Street":"Cornyx Lane","HouseNumber":"96","PostalCode":"B91 2SE","AdditionalData":[{"value":"United Kingdom","key":"CountryName"},{"value":"England","key":"StateName"},{"value":"West Midlands","key":"CountyName"}]},"MapReference":{"ReferenceId":"26322494","Spot":0.09,"SideOfStreet":"left","StateId":"20248595","CountyId":"20358328","CityId":"20358495","DistrictId":"20358496"}}},{"Relevance":1.0,"Distance":27.4,"MatchLevel":"postalCode","MatchQuality":{"PostalCode":1.0},"MatchType":"interpolated","Location":{"LocationId":"NT_E8jWbfs7CC-t5WdNhl9r3A_l_26322571_L_2MD","LocationType":"point","DisplayPosition":{"Latitude":52.42106,"Longitude":-1.76554},"MapView":{"TopLeft":{"Latitude":52.4300532,"Longitude":-1.7802865},"BottomRight":{"Latitude":52.4120668,"Longitude":-1.7507935}},"Address":{"Label":"B91 2NX, Solihull, England, United Kingdom","Country":"GBR","State":"England","County":"West Midlands","City":"Solihull","PostalCode":"B91 2NX","AdditionalData":[{"value":"United Kingdom","key":"CountryName"},{"value":"England","key":"StateName"},{"value":"West Midlands","key":"CountyName"}]},"MapReference":{"ReferenceId":"26322571","Spot":0.76,"SideOfStreet":"neither","StateId":"20248595","CountyId":"20358328","CityId":"20358495"}}},{"Relevance":1.0,"Distance":30.5,"MatchLevel":"street","MatchQuality":{"Country":1.0,"State":1.0,"County":1.0,"City":1.0,"District":1.0,"Street":[1.0],"PostalCode":1.0},"Location":{"LocationId":"NT_0XGiKnE.BUQr4-ayTCPVIA_l_26322493_R","LocationType":"point","DisplayPosition":{"Latitude":52.4214,"Longitude":-1.76573},"MapView":{"TopLeft":{"Latitude":52.4217,"Longitude":-1.76573},"BottomRight":{"Latitude":52.4214,"Longitude":-1.76536}},"Address":{"Label":"Damson Lane, Solihull, B91 2, United Kingdom","Country":"GBR","State":"England","County":"West Midlands","City":"Solihull","District":"Solihull","Street":"Damson Lane","PostalCode":"B91 2","AdditionalData":[{"value":"United Kingdom","key":"CountryName"},{"value":"England","key":"StateName"},{"value":"West Midlands","key":"CountyName"}]},"MapReference":{"ReferenceId":"26322493","Spot":0.0,"SideOfStreet":"right","StateId":"20248595","CountyId":"20358328","CityId":"20358495","DistrictId":"20358496"}}},{"Relevance":1.0,"Distance":50.0,"MatchLevel":"postalCode","MatchQuality":{"PostalCode":1.0},"MatchType":"interpolated","Location":{"LocationId":"NT_QMR3ZaoLoylAfsaUke67KB_l_26322494_L_5YD","LocationType":"point","DisplayPosition":{"Latitude":52.42157,"Longitude":-1.76618},"MapView":{"TopLeft":{"Latitude":52.4305632,"Longitude":-1.7809267},"BottomRight":{"Latitude":52.4125768,"Longitude":-1.7514333}},"Address":{"Label":"B91 2SE, Solihull, England, United Kingdom","Country":"GBR","State":"England","County":"West Midlands","City":"Solihull","PostalCode":"B91 2SE","AdditionalData":[{"value":"United Kingdom","key":"CountryName"},{"value":"England","key":"StateName"},{"value":"West Midlands","key":"CountyName"}]},"MapReference":{"ReferenceId":"26322494","Spot":0.09,"SideOfStreet":"neither","StateId":"20248595","CountyId":"20358328","CityId":"20358495"}}},{"Relevance":1.0,"Distance":69.0,"MatchLevel":"houseNumber","MatchQuality":{"Country":1.0,"State":1.0,"County":1.0,"City":1.0,"District":1.0,"Street":[1.0],"HouseNumber":1.0,"PostalCode":1.0},"MatchType":"interpolated","Location":{"LocationId":"NT_XnDbgwJp-e6sCrLbtvg2JB_l_26322597_L_4ED","LocationType":"point","DisplayPosition":{"Latitude":52.4204436,"Longitude":-1.7654765},"MapView":{"TopLeft":{"Latitude":52.4215678,"Longitude":-1.7673198},"BottomRight":{"Latitude":52.4193195,"Longitude":-1.7636332}},"Address":{"Label":"81 Beechnut Lane, Solihull, B91 2, United Kingdom","Country":"GBR","State":"England","County":"West Midlands","City":"Solihull","District":"Solihull","Street":"Beechnut Lane","HouseNumber":"81","PostalCode":"B91 2","AdditionalData":[{"value":"United Kingdom","key":"CountryName"},{"value":"England","key":"StateName"},{"value":"West Midlands","key":"CountyName"}]},"MapReference":{"ReferenceId":"26322597","Spot":0.66,"SideOfStreet":"left","StateId":"20248595","CountyId":"20358328","CityId":"20358495","DistrictId":"20358496"}}},{"Relevance":1.0,"Distance":73.8,"MatchLevel":"houseNumber","MatchQuality":{"Country":1.0,"State":1.0,"County":1.0,"City":1.0,"District":1.0,"Street":[1.0],"HouseNumber":1.0,"PostalCode":1.0},"MatchType":"interpolated","Location":{"LocationId":"NT_scfIXFffS1DWaSRC-zJK0B_l_26322467_R_yA","LocationType":"point","DisplayPosition":{"Latitude":52.4217202,"Longitude":-1.7651596},"MapView":{"TopLeft":{"Latitude":52.4228443,"Longitude":-1.7670029},"BottomRight":{"Latitude":52.420596,"Longitude":-1.7633162}},"Address":{"Label":"2 Wherretts Well Lane, Solihull, B91 2SD, United Kingdom","Country":"GBR","State":"England","County":"West Midlands","City":"Solihull","District":"Solihull","Street":"Wherretts Well Lane","HouseNumber":"2","PostalCode":"B91 2SD","AdditionalData":[{"value":"United Kingdom","key":"CountryName"},{"value":"England","key":"StateName"},{"value":"West Midlands","key":"CountyName"}]},"MapReference":{"ReferenceId":"26322467","Spot":0.05,"SideOfStreet":"right","StateId":"20248595","CountyId":"20358328","CityId":"20358495","DistrictId":"20358496"}}},{"Relevance":1.0,"Distance":75.9,"MatchLevel":"houseNumber","MatchQuality":{"Country":1.0,"State":1.0,"County":1.0,"City":1.0,"District":1.0,"Street":[1.0],"HouseNumber":1.0,"PostalCode":1.0},"MatchType":"interpolated","Location":{"LocationId":"NT_FwXX27txOkHBklnEkR1b5B_l_26322567_R_xED","LocationType":"point","DisplayPosition":{"Latitude":52.4210534,"Longitude":-1.7671589},"MapView":{"TopLeft":{"Latitude":52.4221776,"Longitude":-1.7690022},"BottomRight":{"Latitude":52.4199293,"Longitude":-1.7653156}},"Address":{"Label":"11 Warmley Close, Solihull, B91 2NB, United Kingdom","Country":"GBR","State":"England","County":"West Midlands","City":"Solihull","District":"Solihull","Street":"Warmley Close","HouseNumber":"11","PostalCode":"B91 2NB","AdditionalData":[{"value":"United Kingdom","key":"CountryName"},{"value":"England","key":"StateName"},{"value":"West Midlands","key":"CountyName"}]},"MapReference":{"ReferenceId":"26322567","Spot":0.81,"SideOfStreet":"right","StateId":"20248595","CountyId":"20358328","CityId":"20358495","DistrictId":"20358496"}}},{"Relevance":1.0,"Distance":82.8,"MatchLevel":"postalCode","MatchQuality":{"PostalCode":1.0},"MatchType":"interpolated","Location":{"LocationId":"NT_FwXX27txOkHBklnEkR1b5B_l_26322567_R_xED","LocationType":"point","DisplayPosition":{"Latitude":52.42103,"Longitude":-1.76712},"MapView":{"TopLeft":{"Latitude":52.4300232,"Longitude":-1.7818665},"BottomRight":{"Latitude":52.4120368,"Longitude":-1.7523735}},"Address":{"Label":"B91 2NB, Solihull, England, United Kingdom","Country":"GBR","State":"England","County":"West Midlands","City":"Solihull","PostalCode":"B91 2NB","AdditionalData":[{"value":"United Kingdom","key":"CountryName"},{"value":"England","key":"StateName"},{"value":"West Midlands","key":"CountyName"}]},"MapReference":{"ReferenceId":"26322567","Spot":0.81,"SideOfStreet":"neither","StateId":"20248595","CountyId":"20358328","CityId":"20358495"}}}]}]}}