{"Response":{"MetaInfo":{"Timestamp":"2020-03-28T10:33:26.691+0000","NextPageInformation":"2"},"View":[{"_type":"SearchResultsViewType","ViewId":0,"Result":[{"Relevance":1.0,"Distance":0.0,"Direction":0.0,"MatchLevel":"district","MatchQuality":{"Country":1.0,"State":1.0,"County":1.0,"City":1.0,"District":1.0,"PostalCode":1.0},"Location":{"LocationId":"NT_oV-mqebatv9PMroL27QC-A","LocationType":"point","DisplayPosition":{"Latitude":52.4419897,"Longitude":-1.8669071},"MapView":{"TopLeft":{"Latitude":52.45425,"Longitude":-1.9126},"BottomRight":{"Latitude":52.41796,"Longitude":-1.85411}},"Address":{"Label":"Moseley, Birmingham, England, United Kingdom","Country":"GBR","State":"England","County":"West Midlands","City":"Birmingham","District":"Moseley","PostalCode":"B13 9","AdditionalData":[{"value":"United Kingdom","key":"CountryName"},{"value":"England","key":"StateName"},{"value":"West Midlands","key":"CountyName"}]},"MapReference":{"ReferenceId":"26346909","SideOfStreet":"neither","StateId":"20248595","CountyId":"20358328","CityId":"20358334","DistrictId":"20358383"}}},{"Relevance":1.0,"Distance":12.2,"MatchLevel":"houseNumber","MatchQuality":{"Country":1.0,"State":1.0,"County":1.0,"City":1.0,"District":1.0,"Street":[1.0],"HouseNumber":1.0,"PostalCode":1.0},"MatchType":"interpolated","Location":{"LocationId":"NT_G7X0IBIdab1.HDGoUXfqdD_l_26347141_L_xUDO","LocationType":"point","DisplayPosition":{"Latitude":52.4417533,"Longitude":-1.8668275},"MapView":{"TopLeft":{"Latitude":52.4428774,"Longitude":-1.8686717},"BottomRight":{"Latitude":52.4406291,"Longitude":-1.8649833}},"Address":{"Label":"158 College Road, Birmingham, B13 9LH, United Kingdom","Country":"GBR","State":"England","County":"West Midlands","City":"Birmingham","District":"Moseley","Street":"College Road","HouseNumber":"158","PostalCode":"B13 9LH","AdditionalData":[{"value":"United Kingdom","key":"CountryName"},{"value":"England","key":"StateName"},{"value":"West Midlands","key":"CountyName"}]},"MapReference":{"ReferenceId":"26347141","Spot":0.1,"SideOfStreet":"left","StateId":"20248595","CountyId":"20358328","CityId":"20358334","DistrictId":"20358383"}}},{"Relevance":1.0,"Distance":31.5,"MatchLevel":"street","MatchQuality":{"Country":1.0,"State":1.0,"County":1.0,"City":1.0,"District":1.0,"PostalCode":1.0},"Location":{"LocationId":"NT_B4uZWjFHBChOrO.38prRjD_l_759382652_R","LocationType":"point","DisplayPosition":{"Latitude":52.44177,"Longitude":-1.8672},"MapView":{"TopLeft":{"Latitude":52.44179,"Longitude":-1.86733},"BottomRight":{"Latitude":52.44175,"Longitude":-1.86719}},"Address":{"Label":"Birmingham, B13 9, United Kingdom","Country":"GBR","State":"England","County":"West Midlands","City":"Birmingham","District":"Moseley","PostalCode":"B13 9","AdditionalData":[{"value":"United Kingdom","key":"CountryName"},{"value":"England","key":"StateName"},{"value":"West Midlands","key":"CountyName"}]},"MapReference":{"ReferenceId":"759382652","Spot":0.14,"SideOfStreet":"right","StateId":"20248595","CountyId":"20358328","CityId":"20358334","DistrictId":"20358383"}}},{"Relevance":1.0,"Distance":32.8,"MatchLevel":"street","MatchQuality":{"Country":1.0,"State":1.0,"County":1.0,"City":1.0,"District":1.0,"PostalCode":1.0},"Location":{"LocationId":"NT_B4uZWjFHBChOrO.38prRjD_l_759385918_R","LocationType":"point","DisplayPosition":{"Latitude":52.44175,"Longitude":-1.86719},"MapView":{"TopLeft":{"Latitude":52.44175,"Longitude":-1.86727},"BottomRight":{"Latitude":52.44169,"Longitude":-1.86719}},"Address":{"Label":"Birmingham, B13 9, United Kingdom","Country":"GBR","State":"England","County":"West Midlands","City":"Birmingham","District":"Moseley","PostalCode":"B13 9","AdditionalData":[{"value":"United Kingdom","key":"CountryName"},{"value":"England","key":"StateName"},{"value":"West Midlands","key":"CountyName"}]},"MapReference":{"ReferenceId":"759385918","Spot":1.0,"SideOfStreet":"right","StateId":"20248595","CountyId":"20358328","CityId":"20358334","DistrictId":"20358383"}}},{"Relevance":1.0,"Distance":33.2,"MatchLevel":"houseNumber","MatchQuality":{"Country":1.0,"State":1.0,"County":1.0,"City":1.0,"District":1.0,"Street":[1.0],"HouseNumber":1.0,"PostalCode":1.0},"MatchType":"interpolated","Location":{"LocationId":"NT_G7X0IBIdab1.HDGoUXfqdD_l_26843382_R_xETN","LocationType":"point","DisplayPosition":{"Latitude":52.4418701,"Longitude":-1.8674801},"MapView":{"TopLeft":{"Latitude":52.4429942,"Longitude":-1.8693243},"BottomRight":{"Latitude":52.4407459,"Longitude":-1.8656359}},"Address":{"Label":"115 Wake Green Road, Birmingham, B13 9US, United Kingdom","Country":"GBR","State":"England","County":"West Midlands","City":"Birmingham","District":"Moseley","Street":"Wake Green Road","HouseNumber":"115","PostalCode":"B13 9US","AdditionalData":[{"value":"United Kingdom","key":"CountryName"},{"value":"England","key":"StateName"},{"value":"West Midlands","key":"CountyName"}]},"MapReference":{"ReferenceId":"26843382","Spot":0.08,"SideOfStreet":"right","StateId":"20248595","CountyId":"20358328","CityId":"20358334","DistrictId":"20358383"}}},{"Relevance":1.0,"Distance":37.0,"MatchLevel":"street","MatchQuality":{"Country":1.0,"State":1.0,"County":1.0,"City":1.0,"District":1.0,"PostalCode":1.0},"Location":{"LocationId":"NT_B4uZWjFHBChOrO.38prRjD_l_759382651_R","LocationType":"point","DisplayPosition":{"Latitude":52.44178,"Longitude":-1.86733},"MapView":{"TopLeft":{"Latitude":52.44178,"Longitude":-1.86736},"BottomRight":{"Latitude":52.44172,"Longitude":-1.86733}},"Address":{"Label":"Birmingham, B13 9, United Kingdom","Country":"GBR","State":"England","County":"West Midlands","City":"Birmingham","District":"Moseley","PostalCode":"B13 9","AdditionalData":[{"value":"United Kingdom","key":"CountryName"},{"value":"England","key":"StateName"},{"value":"West Midlands","key":"CountyName"}]},"MapReference":{"ReferenceId":"759382651","Spot":1.0,"SideOfStreet":"right","StateId":"20248595","CountyId":"20358328","CityId":"20358334","DistrictId":"20358383"}}},{"Relevance":1.0,"Distance":41.4,"MatchLevel":"street","MatchQuality":{"Country":1.0,"State":1.0,"County":1.0,"City":1.0,"District":1.0,"PostalCode":1.0},"Location":{"LocationId":"NT_B4uZWjFHBChOrO.38prRjD_l_759382650_R","LocationType":"point","DisplayPosition":{"Latitude":52.44169,"Longitude":-1.86727},"MapView":{"TopLeft":{"Latitude":52.44172,"Longitude":-1.86735},"BottomRight":{"Latitude":52.44169,"Longitude":-1.86727}},"Address":{"Label":"Birmingham, B13 9, United Kingdom","Country":"GBR","State":"England","County":"West Midlands","City":"Birmingham","District":"Moseley","PostalCode":"B13 9","AdditionalData":[{"value":"United Kingdom","key":"CountryName"},{"value":"England","key":"StateName"},{"value":"West Midlands","key":"CountyName"}]},"MapReference":{"ReferenceId":"759382650","Spot":0.0,"SideOfStreet":"right","StateId":"20248595","CountyId":"20358328","CityId":"20358334","DistrictId":"20358383"}}},{"Relevance":1.0,"Distance":51.9,"MatchLevel":"houseNumber","MatchQuality":{"Country":1.0,"State":1.0,"County":1.0,"City":1.0,"District":1.0,"Street":[1.0],"HouseNumber":1.0,"PostalCode":1.0},"MatchType":"interpolated","Location":{"LocationId":"NT_yAnYqdFiNb938OCsiwZK6C_l_26347203_L_xADN","LocationType":"point","DisplayPosition":{"Latitude":52.4415352,"Longitude":-1.8670807},"MapView":{"TopLeft":{"Latitude":52.4426593,"Longitude":-1.8689249},"BottomRight":{"Latitude":52.440411,"Longitude":-1.8652365}},"Address":{"Label":"104 Wake Green Road, Birmingham, B13 9PZ, United Kingdom","Country":"GBR","State":"England","County":"West Midlands","City":"Birmingham","District":"Moseley","Street":"Wake Green Road","HouseNumber":"104","PostalCode":"B13 9PZ","AdditionalData":[{"value":"United Kingdom","key":"CountryName"},{"value":"England","key":"StateName"},{"value":"West Midlands","key":"CountyName"}]},"MapReference":{"ReferenceId":"26347203","Spot":0.5,"SideOfStreet":"left","StateId":"20248595","CountyId":"20358328","CityId":"20358334","DistrictId":"20358383"}}},{"Relevance":1.0,"Distance":56.2,"MatchLevel":"houseNumber","MatchQuality":{"Country":1.0,"State":1.0,"County":1.0,"City":1.0,"District":1.0,"Street":[1.0],"HouseNumber":1.0,"PostalCode":1.0},"MatchType":"interpolated","Location":{"LocationId":"NT_yAnYqdFiNb938OCsiwZK6C_l_26796069_R_xETO","LocationType":"point","DisplayPosition":{"Latitude":52.4414001,"Longitude":-1.8665904},"MapView":{"TopLeft":{"Latitude":52.4425243,"Longitude":-1.8684346},"BottomRight":{"Latitude":52.440276,"Longitude":-1.8647462}},"Address":{"Label":"119 Wake Green Road, Birmingham, B13 9UT, United Kingdom","Country":"GBR","State":"England","County":"West Midlands","City":"Birmingham","District":"Moseley","Street":"Wake Green Road","HouseNumber":"119","PostalCode":"B13 9UT","AdditionalData":[{"value":"United Kingdom","key":"CountryName"},{"value":"England","key":"StateName"},{"value":"West Midlands","key":"CountyName"}]},"MapReference":{"ReferenceId":"26796069","Spot":0.71,"SideOfStreet":"right","StateId":"20248595","CountyId":"20358328","CityId":"20358334","DistrictId":"20358383"}}},{"Relevance":1.0,"Distance":61.1,"MatchLevel":"houseNumber","MatchQuality":{"Country":1.0,"State":1.0,"County":1.0,"City":1.0,"District":1.0,"Street":[1.0],"HouseNumber":1.0,"PostalCode":1.0},"MatchType":"interpolated","Location":{"LocationId":"NT_FdDcOvneYT7lM9kkJV.amB_l_26843385_L_xA","LocationType":"point","DisplayPosition":{"Latitude":52.4415767,"Longitude":-1.8676117},"MapView":{"TopLeft":{"Latitude":52.4427008,"Longitude":-1.8694558},"BottomRight":{"Latitude":52.4404525,"Longitude":-1.8657675}},"Address":{"Label":"1 Hayfield Road, Birmingham, B13 9LG, United Kingdom","Country":"GBR","State":"England","County":"West Midlands","City":"Birmingham","District":"Moseley","Street":"Hayfield Road","HouseNumber":"1","PostalCode":"B13 9LG","AdditionalData":[{"value":"United Kingdom","key":"CountryName"},{"value":"England","key":"StateName"},{"value":"West Midlands","key":"CountyName"}]},"MapReference":{"ReferenceId":"26843385","Spot":0.72,"SideOfStreet":"left","StateId":"20248595","CountyId":"20358328","CityId":"20358334","DistrictId":"20358383"}}}]}]}}