{"Response":{"MetaInfo":{"Timestamp":"2020-03-28T10:09:53.846+0000","NextPageInformation":"2"},"View":[{"_type":"SearchResultsViewType","ViewId":0,"Result":[{"Relevance":1.0,"Distance":0.0,"Direction":0.0,"MatchLevel":"district","MatchQuality":{"Country":1.0,"State":1.0,"County":1.0,"City":1.0,"District":1.0,"PostalCode":1.0},"Location":{"LocationId":"NT_Ggm8bvDcVTxac6cOYilZ3C","LocationType":"point","DisplayPosition":{"Latitude":52.4885207,"Longitude":-0.675914},"MapView":{"TopLeft":{"Latitude":52.50126,"Longitude":-0.6769},"BottomRight":{"Latitude":52.47946,"Longitude":-0.64397}},"Address":{"Label":"Weldon South Industrial Estate, Corby, England, United Kingdom","Country":"GBR","State":"England","County":"Northamptonshire","City":"Corby","District":"Weldon South Industrial Estate","PostalCode":"NN18 8","AdditionalData":[{"value":"United Kingdom","key":"CountryName"},{"value":"England","key":"StateName"},{"value":"Northamptonshire","key":"CountyName"}]},"MapReference":{"ReferenceId":"736207575","SideOfStreet":"neither","StateId":"20248595","CountyId":"20337655","CityId":"20350813","DistrictId":"20350828"}}},{"Relevance":1.0,"Distance":16.5,"MatchLevel":"street","MatchQuality":{"Country":1.0,"State":1.0,"County":1.0,"City":1.0,"District":1.0,"Street":[1.0],"PostalCode":1.0},"Location":{"LocationId":"NT_gIO6OLSSl.AThDmu2lVpGA_l_26104880_L","LocationType":"point","DisplayPosition":{"Latitude":52.4886515,"Longitude":-0.6757992},"MapView":{"TopLeft":{"Latitude":52.48874,"Longitude":-0.6759},"BottomRight":{"Latitude":52.48838,"Longitude":-0.67549}},"Address":{"Label":"Geddington Road, Corby, NN18 8, United Kingdom","Country":"GBR","State":"England","County":"Northamptonshire","City":"Corby","District":"Weldon South Industrial Estate","Street":"Geddington Road","PostalCode":"NN18 8","AdditionalData":[{"value":"United Kingdom","key":"CountryName"},{"value":"England","key":"StateName"},{"value":"Northamptonshire","key":"CountyName"}]},"MapReference":{"ReferenceId":"26104880","Spot":0.75,"SideOfStreet":"left","StateId":"20248595","CountyId":"20337655","CityId":"20350813","DistrictId":"20350828"}}},{"Relevance":1.0,"Distance":19.0,"MatchLevel":"houseNumber","MatchQuality":{"Country":1.0,"State":1.0,"County":1.0,"City":1.0,"District":1.0,"Street":[1.0],"HouseNumber":1.0,"PostalCode":1.0},"MatchType":"interpolated","Location":{"LocationId":"NT_.CXttGul8rXneoes-Ykh5A_l_1196968726_R_xcD","LocationType":"point","DisplayPosition":{"Latitude":52.4882408,"Longitude":-0.6761105},"MapView":{"TopLeft":{"Latitude":52.489365,"Longitude":-0.6779566},"BottomRight":{"Latitude":52.4871167,"Longitude":-0.6742644}},"Address":{"Label":"17 Stanion Lane, Corby, NN18 8ES, United Kingdom","Country":"GBR","State":"England","County":"Northamptonshire","City":"Corby","District":"St James Industrial Estate","Street":"Stanion Lane","HouseNumber":"17","PostalCode":"NN18 8ES","AdditionalData":[{"value":"United Kingdom","key":"CountryName"},{"value":"England","key":"StateName"},{"value":"Northamptonshire","key":"CountyName"}]},"MapReference":{"ReferenceId":"1196968726","Spot":0.52,"SideOfStreet":"right","StateId":"20248595","CountyId":"20337655","CityId":"20350813","DistrictId":"20350825"}}},{"Relevance":1.0,"Distance":24.4,"MatchLevel":"street","MatchQuality":{"Country":1.0,"State":1.0,"County":1.0,"City":1.0,"District":1.0,"Street":[1.0],"PostalCode":1.0},"Location":{"LocationId":"NT_24Eo5JhPPSt2b6d0ASo.OC_l_26117032_L","LocationType":"point","DisplayPosition":{"Latitude":52.48874,"Longitude":-0.6759},"MapView":{"TopLeft":{"Latitude":52.48921,"Longitude":-0.67638},"BottomRight":{"Latitude":52.48874,"Longitude":-0.6759}},"Address":{"Label":"Geddington Road, Corby, NN18 8, United Kingdom","Country":"GBR","State":"England","County":"Northamptonshire","City":"Corby","District":"Weldon South Industrial Estate","Street":"Geddington Road","PostalCode":"NN18 8","AdditionalData":[{"value":"United Kingdom","key":"CountryName"},{"value":"England","key":"StateName"},{"value":"Northamptonshire","key":"CountyName"}]},"MapReference":{"ReferenceId":"26117032","Spot":0.0,"SideOfStreet":"left","StateId":"20248595","CountyId":"20337655","CityId":"20350813","DistrictId":"20350828"}}},{"Relevance":1.0,"Distance":24.4,"MatchLevel":"street","MatchQuality":{"Country":1.0,"State":1.0,"County":1.0,"City":1.0,"District":1.0,"Street":[1.0],"PostalCode":1.0},"Location":{"LocationId":"NT_VPqe1-eCm216kt0Kja6xbB_l_26104848_R","LocationType":"point","DisplayPosition":{"Latitude":52.48874,"Longitude":-0.6759},"MapView":{"TopLeft":{"Latitude":52.48904,"Longitude":-0.6759},"BottomRight":{"Latitude":52.48874,"Longitude":-0.67515}},"Address":{"Label":"The Grove, Corby, NN18 8, United Kingdom","Country":"GBR","State":"England","County":"Northamptonshire","City":"Corby","District":"Weldon South Industrial Estate","Street":"The Grove","PostalCode":"NN18 8","AdditionalData":[{"value":"United Kingdom","key":"CountryName"},{"value":"England","key":"StateName"},{"value":"Northamptonshire","key":"CountyName"}]},"MapReference":{"ReferenceId":"26104848","Spot":0.0,"SideOfStreet":"right","StateId":"20248595","CountyId":"20337655","CityId":"20350813","DistrictId":"20350828"}}},{"Relevance":1.0,"Distance":29.5,"MatchLevel":"houseNumber","MatchQuality":{"Country":1.0,"State":1.0,"County":1.0,"City":1.0,"District":1.0,"Street":[1.0],"HouseNumber":1.0,"PostalCode":1.0},"MatchType":"interpolated","Location":{"LocationId":"NT_.CXttGul8rXneoes-Ykh5A_l_1196968727_R_xUD","LocationType":"point","DisplayPosition":{"Latitude":52.4884,"Longitude":-0.6764201},"MapView":{"TopLeft":{"Latitude":52.4895242,"Longitude":-0.6782662},"BottomRight":{"Latitude":52.4872759,"Longitude":-0.6745739}},"Address":{"Label":"15 Stanion Lane, Corby, NN18 8ES, United Kingdom","Country":"GBR","State":"England","County":"Northamptonshire","City":"Corby","District":"St James Industrial Estate","Street":"Stanion Lane","HouseNumber":"15","PostalCode":"NN18 8ES","AdditionalData":[{"value":"United Kingdom","key":"CountryName"},{"value":"England","key":"StateName"},{"value":"Northamptonshire","key":"CountyName"}]},"MapReference":{"ReferenceId":"1196968727","Spot":0.11,"SideOfStreet":"right","StateId":"20248595","CountyId":"20337655","CityId":"20350813","DistrictId":"20350825"}}},{"Relevance":1.0,"Distance":32.4,"MatchLevel":"street","MatchQuality":{"Country":1.0,"State":1.0,"County":1.0,"City":1.0,"District":1.0,"Street":[1.0],"PostalCode":1.0},"Location":{"LocationId":"NT_6uHGzNCRfyf1a4advx.ViC_l_1196968729_R","LocationType":"point","DisplayPosition":{"Latitude":52.48832,"Longitude":-0.67626},"MapView":{"TopLeft":{"Latitude":52.48832,"Longitude":-0.67695},"BottomRight":{"Latitude":52.4877,"Longitude":-0.67626}},"Address":{"Label":"Waterside Lane, Corby, NN18 8, United Kingdom","Country":"GBR","State":"England","County":"Northamptonshire","City":"Corby","District":"St James Industrial Estate","Street":"Waterside Lane","PostalCode":"NN18 8","AdditionalData":[{"value":"United Kingdom","key":"CountryName"},{"value":"England","key":"StateName"},{"value":"Northamptonshire","key":"CountyName"}]},"MapReference":{"ReferenceId":"1196968729","Spot":1.0,"SideOfStreet":"right","StateId":"20248595","CountyId":"20337655","CityId":"20350813","DistrictId":"20350825"}}},{"Relevance":1.0,"Distance":32.7,"MatchLevel":"street","MatchQuality":{"Country":1.0,"State":1.0,"County":1.0,"City":1.0,"District":1.0,"Street":[1.0],"PostalCode":1.0},"Location":{"LocationId":"NT_24Eo5JhPPSt2b6d0ASo.OC_l_1208732120_L","LocationType":"point","DisplayPosition":{"Latitude":52.48838,"Longitude":-0.67549},"MapView":{"TopLeft":{"Latitude":52.48838,"Longitude":-0.67549},"BottomRight":{"Latitude":52.48829,"Longitude":-0.67535}},"Address":{"Label":"Geddington Road, Corby, NN18 8, United Kingdom","Country":"GBR","State":"England","County":"Northamptonshire","City":"Corby","District":"Weldon South Industrial Estate","Street":"Geddington Road","PostalCode":"NN18 8","AdditionalData":[{"value":"United Kingdom","key":"CountryName"},{"value":"England","key":"StateName"},{"value":"Northamptonshire","key":"CountyName"}]},"MapReference":{"ReferenceId":"1208732120","Spot":1.0,"SideOfStreet":"left","StateId":"20248595","CountyId":"20337655","CityId":"20350813","DistrictId":"20350828"}}},{"Relevance":1.0,"Distance":32.8,"MatchLevel":"street","MatchQuality":{"Country":1.0,"State":1.0,"County":1.0,"City":1.0,"District":1.0,"Street":[1.0],"PostalCode":1.0},"Location":{"LocationId":"NT_.CXttGul8rXneoes-Ykh5A_l_26104897_L","LocationType":"point","DisplayPosition":{"Latitude":52.4882385,"Longitude":-0.6757729},"MapView":{"TopLeft":{"Latitude":52.48838,"Longitude":-0.67594},"BottomRight":{"Latitude":52.48818,"Longitude":-0.67549}},"Address":{"Label":"Stanion Lane, Corby, NN18 8, United Kingdom","Country":"GBR","State":"England","County":"Northamptonshire","City":"Corby","District":"St James Industrial Estate","Street":"Stanion Lane","PostalCode":"NN18 8","AdditionalData":[{"value":"United Kingdom","key":"CountryName"},{"value":"England","key":"StateName"},{"value":"Northamptonshire","key":"CountyName"}]},"MapReference":{"ReferenceId":"26104897","Spot":0.36,"SideOfStreet":"left","StateId":"20248595","CountyId":"20337655","CityId":"20350813","DistrictId":"20350825"}}},{"Relevance":1.0,"Distance":37.9,"MatchLevel":"street","MatchQuality":{"Country":1.0,"State":1.0,"County":1.0,"City":1.0,"District":1.0,"Street":[1.0],"PostalCode":1.0},"Location":{"LocationId":"NT_.CXttGul8rXneoes-Ykh5A_l_1208732116_R","LocationType":"point","DisplayPosition":{"Latitude":52.48818,"Longitude":-0.67594},"MapView":{"TopLeft":{"Latitude":52.48818,"Longitude":-0.67594},"BottomRight":{"Latitude":52.48809,"Longitude":-0.67584}},"Address":{"Label":"Stanion Lane, Corby, NN18 8, United Kingdom","Country":"GBR","State":"England","County":"Northamptonshire","City":"Corby","District":"St James Industrial Estate","Street":"Stanion Lane","PostalCode":"NN18 8","AdditionalData":[{"value":"United Kingdom","key":"CountryName"},{"value":"England","key":"StateName"},{"value":"Northamptonshire","key":"CountyName"}]},"MapReference":{"ReferenceId":"1208732116","Spot":1.0,"SideOfStreet":"right","StateId":"20248595","CountyId":"20337655","CityId":"20350813","DistrictId":"20350825"}}}]}]}}