{"Response":{"MetaInfo":{"Timestamp":"2020-03-28T11:58:57.527+0000","NextPageInformation":"2"},"View":[{"_type":"SearchResultsViewType","ViewId":0,"Result":[{"Relevance":1.0,"Distance":0.0,"Direction":0.0,"MatchLevel":"city","MatchQuality":{"Country":1.0,"State":1.0,"County":1.0,"City":1.0,"PostalCode":1.0},"Location":{"LocationId":"NT_BjY2Rg.jElKZgvw5oomi7D","LocationType":"point","DisplayPosition":{"Latitude":52.4263046,"Longitude":-0.8114983},"MapView":{"TopLeft":{"Latitude":52.47827,"Longitude":-0.89068},"BottomRight":{"Latitude":52.34707,"Longitude":-0.61378}},"Address":{"Label":"Kettering, England, United Kingdom","Country":"GBR","State":"England","County":"Northamptonshire","City":"Kettering","PostalCode":"NN16 0","AdditionalData":[{"value":"United Kingdom","key":"CountryName"},{"value":"England","key":"StateName"},{"value":"Northamptonshire","key":"CountyName"}]},"MapReference":{"ReferenceId":"26110406","SideOfStreet":"neither","StateId":"20248595","CountyId":"20337655","CityId":"20350851"}}},{"Relevance":1.0,"Distance":45.3,"MatchLevel":"street","MatchQuality":{"Country":1.0,"State":1.0,"County":1.0,"City":1.0,"District":1.0,"Street":[1.0],"PostalCode":1.0},"Location":{"LocationId":"NT_rG71Qac0neR9dKRIcx8mKC_l_759325820_L","LocationType":"point","DisplayPosition":{"Latitude":52.4266872,"Longitude":-0.8112687},"MapView":{"TopLeft":{"Latitude":52.42693,"Longitude":-0.8116},"BottomRight":{"Latitude":52.42643,"Longitude":-0.81081}},"Address":{"Label":"B576, Kettering, NN14 6, United Kingdom","Country":"GBR","State":"England","County":"Northamptonshire","City":"Kettering","District":"Desborough","Street":"B576","PostalCode":"NN14 6","AdditionalData":[{"value":"United Kingdom","key":"CountryName"},{"value":"England","key":"StateName"},{"value":"Northamptonshire","key":"CountyName"}]},"MapReference":{"ReferenceId":"759325820","Spot":0.56,"SideOfStreet":"left","StateId":"20248595","CountyId":"20337655","CityId":"20350851","DistrictId":"20350863"}}},{"Relevance":1.0,"Distance":48.7,"MatchLevel":"street","MatchQuality":{"Country":1.0,"State":1.0,"County":1.0,"City":1.0,"District":1.0,"Street":[1.0],"PostalCode":1.0},"Location":{"LocationId":"NT_rG71Qac0neR9dKRIcx8mKC_l_759325819_L","LocationType":"point","DisplayPosition":{"Latitude":52.42643,"Longitude":-0.81081},"MapView":{"TopLeft":{"Latitude":52.42643,"Longitude":-0.81081},"BottomRight":{"Latitude":52.42615,"Longitude":-0.81014}},"Address":{"Label":"B576, Kettering, NN14 6, United Kingdom","Country":"GBR","State":"England","County":"Northamptonshire","City":"Kettering","District":"Desborough","Street":"B576","PostalCode":"NN14 6","AdditionalData":[{"value":"United Kingdom","key":"CountryName"},{"value":"England","key":"StateName"},{"value":"Northamptonshire","key":"CountyName"}]},"MapReference":{"ReferenceId":"759325819","Spot":1.0,"SideOfStreet":"left","StateId":"20248595","CountyId":"20337655","CityId":"20350851","DistrictId":"20350863"}}},{"Relevance":1.0,"Distance":50.3,"MatchLevel":"landmark","MatchQuality":{"Country":1.0,"State":1.0,"County":1.0,"City":1.0,"District":1.0,"PostalCode":1.0,"Name":1.0},"Location":{"LocationId":"NT_A9b3jPXqEYkZaRq9l-nDiA","LocationType":"universityCollege","Name":"Montsaye Community College","DisplayPosition":{"Latitude":52.42398,"Longitude":-0.81148},"MapView":{"TopLeft":{"Latitude":52.42603,"Longitude":-0.81424},"BottomRight":{"Latitude":52.42192,"Longitude":-0.80864}},"Address":{"Label":"Kettering, NN14 6, United Kingdom","Country":"GBR","State":"England","County":"Northamptonshire","City":"Kettering","District":"Rothwell","PostalCode":"NN14 6","AdditionalData":[{"value":"United Kingdom","key":"CountryName"},{"value":"England","key":"StateName"},{"value":"Northamptonshire","key":"CountyName"}]},"MapReference":{"StateId":"20248595","CountyId":"20337655","CityId":"20350851","DistrictId":"20350882","PlaceId":"1513301792"}}},{"Relevance":1.0,"Distance":69.9,"MatchLevel":"street","MatchQuality":{"Country":1.0,"State":1.0,"County":1.0,"City":1.0,"District":1.0,"Street":[1.0],"PostalCode":1.0},"Location":{"LocationId":"NT_rG71Qac0neR9dKRIcx8mKC_l_759325818_L","LocationType":"point","DisplayPosition":{"Latitude":52.42693,"Longitude":-0.8116},"MapView":{"TopLeft":{"Latitude":52.42712,"Longitude":-0.81183},"BottomRight":{"Latitude":52.42693,"Longitude":-0.8116}},"Address":{"Label":"B576, Kettering, NN14 6, United Kingdom","Country":"GBR","State":"England","County":"Northamptonshire","City":"Kettering","District":"Desborough","Street":"B576","PostalCode":"NN14 6","AdditionalData":[{"value":"United Kingdom","key":"CountryName"},{"value":"England","key":"StateName"},{"value":"Northamptonshire","key":"CountyName"}]},"MapReference":{"ReferenceId":"759325818","Spot":0.0,"SideOfStreet":"left","StateId":"20248595","CountyId":"20337655","CityId":"20350851","DistrictId":"20350863"}}},{"Relevance":1.0,"Distance":93.4,"MatchLevel":"street","MatchQuality":{"Country":1.0,"State":1.0,"County":1.0,"City":1.0,"District":1.0,"Street":[1.0],"PostalCode":1.0},"Location":{"LocationId":"NT_rG71Qac0neR9dKRIcx8mKC_l_759325838_L","LocationType":"point","DisplayPosition":{"Latitude":52.42712,"Longitude":-0.81183},"MapView":{"TopLeft":{"Latitude":52.42768,"Longitude":-0.81239},"BottomRight":{"Latitude":52.42712,"Longitude":-0.81183}},"Address":{"Label":"B576, Kettering, NN14 6, United Kingdom","Country":"GBR","State":"England","County":"Northamptonshire","City":"Kettering","District":"Desborough","Street":"B576","PostalCode":"NN14 6","AdditionalData":[{"value":"United Kingdom","key":"CountryName"},{"value":"England","key":"StateName"},{"value":"Northamptonshire","key":"CountyName"}]},"MapReference":{"ReferenceId":"759325838","Spot":0.0,"SideOfStreet":"left","StateId":"20248595","CountyId":"20337655","CityId":"20350851","DistrictId":"20350863"}}},{"Relevance":1.0,"Distance":103.8,"MatchLevel":"houseNumber","MatchQuality":{"Country":1.0,"State":1.0,"County":1.0,"City":1.0,"District":1.0,"Street":[1.0],"HouseNumber":1.0,"PostalCode":1.0},"MatchType":"interpolated","Location":{"LocationId":"NT_987rmu3KW91DojWcBROSmA_l_26108777_L_2A","LocationType":"point","DisplayPosition":{"Latitude":52.4259506,"Longitude":-0.8100056},"MapView":{"TopLeft":{"Latitude":52.4270747,"Longitude":-0.8118491},"BottomRight":{"Latitude":52.4248264,"Longitude":-0.808162}},"Address":{"Label":"6 Greening Road, Kettering, NN14 6JA, United Kingdom","Country":"GBR","State":"England","County":"Northamptonshire","City":"Kettering","District":"Rothwell","Street":"Greening Road","HouseNumber":"6","PostalCode":"NN14 6JA","AdditionalData":[{"value":"United Kingdom","key":"CountryName"},{"value":"England","key":"StateName"},{"value":"Northamptonshire","key":"CountyName"}]},"MapReference":{"ReferenceId":"26108777","Spot":0.87,"SideOfStreet":"left","StateId":"20248595","CountyId":"20337655","CityId":"20350851","DistrictId":"20350882"}}},{"Relevance":1.0,"Distance":125.4,"MatchLevel":"houseNumber","MatchQuality":{"Country":1.0,"State":1.0,"County":1.0,"City":1.0,"District":1.0,"Street":[1.0],"HouseNumber":1.0,"PostalCode":1.0},"MatchType":"interpolated","Location":{"LocationId":"NT_oMmGdJdBnY6wKy1TO16snB_l_78780938_L_xAzN","LocationType":"point","DisplayPosition":{"Latitude":52.426102,"Longitude":-0.8096796},"MapView":{"TopLeft":{"Latitude":52.4272261,"Longitude":-0.8115231},"BottomRight":{"Latitude":52.4249778,"Longitude":-0.8078361}},"Address":{"Label":"107 Desborough Road, Kettering, NN14 6JQ, United Kingdom","Country":"GBR","State":"England","County":"Northamptonshire","City":"Kettering","District":"Rothwell","Street":"Desborough Road","HouseNumber":"107","PostalCode":"NN14 6JQ","AdditionalData":[{"value":"United Kingdom","key":"CountryName"},{"value":"England","key":"StateName"},{"value":"Northamptonshire","key":"CountyName"}]},"MapReference":{"ReferenceId":"78780938","Spot":0.6,"SideOfStreet":"left","StateId":"20248595","CountyId":"20337655","CityId":"20350851","DistrictId":"20350882"}}},{"Relevance":1.0,"Distance":164.5,"MatchLevel":"street","MatchQuality":{"Country":1.0,"State":1.0,"County":1.0,"City":1.0,"District":1.0,"Street":[1.0],"PostalCode":1.0},"Location":{"LocationId":"NT_rG71Qac0neR9dKRIcx8mKC_l_759325839_L","LocationType":"point","DisplayPosition":{"Latitude":52.42768,"Longitude":-0.81239},"MapView":{"TopLeft":{"Latitude":52.42984,"Longitude":-0.81421},"BottomRight":{"Latitude":52.42768,"Longitude":-0.81239}},"Address":{"Label":"B576, Kettering, NN14 6, United Kingdom","Country":"GBR","State":"England","County":"Northamptonshire","City":"Kettering","District":"Desborough","Street":"B576","PostalCode":"NN14 6","AdditionalData":[{"value":"United Kingdom","key":"CountryName"},{"value":"England","key":"StateName"},{"value":"Northamptonshire","key":"CountyName"}]},"MapReference":{"ReferenceId":"759325839","Spot":0.0,"SideOfStreet":"left","StateId":"20248595","CountyId":"20337655","CityId":"20350851","DistrictId":"20350863"}}},{"Relevance":1.0,"Distance":172.4,"MatchLevel":"street","MatchQuality":{"Country":1.0,"State":1.0,"County":1.0,"City":1.0,"District":1.0,"Street":[1.0],"PostalCode":1.0},"Location":{"LocationId":"NT_oMmGdJdBnY6wKy1TO16snB_l_759325817_R","LocationType":"point","DisplayPosition":{"Latitude":52.42605,"Longitude":-0.80899},"MapView":{"TopLeft":{"Latitude":52.42605,"Longitude":-0.80899},"BottomRight":{"Latitude":52.42597,"Longitude":-0.80778}},"Address":{"Label":"Desborough Road, Kettering, NN14 6, United Kingdom","Country":"GBR","State":"England","County":"Northamptonshire","City":"Kettering","District":"Rothwell","Street":"Desborough Road","PostalCode":"NN14 6","AdditionalData":[{"value":"United Kingdom","key":"CountryName"},{"value":"England","key":"StateName"},{"value":"Northamptonshire","key":"CountyName"}]},"MapReference":{"ReferenceId":"759325817","Spot":1.0,"SideOfStreet":"right","StateId":"20248595","CountyId":"20337655","CityId":"20350851","DistrictId":"20350882"}}}]}]}}