{"Response":{"MetaInfo":{"Timestamp":"2020-03-28T09:35:31.132+0000","NextPageInformation":"2"},"View":[{"_type":"SearchResultsViewType","ViewId":0,"Result":[{"Relevance":1.0,"Distance":0.0,"Direction":0.0,"MatchLevel":"district","MatchQuality":{"Country":1.0,"State":1.0,"County":1.0,"City":1.0,"District":1.0,"PostalCode":1.0},"Location":{"LocationId":"NT_mdM2bLyn7Wyvv3SvaJ.V1C","LocationType":"point","DisplayPosition":{"Latitude":52.478962,"Longitude":13.4286372},"MapView":{"TopLeft":{"Latitude":52.49591,"Longitude":13.40617},"BottomRight":{"Latitude":52.45915,"Longitude":13.47862}},"Address":{"Label":"Neukölln, Berlin, Deutschland","Country":"DEU","State":"Berlin","County":"Berlin","City":"Berlin","District":"Neukölln","PostalCode":"12043","AdditionalData":[{"value":"Deutschland","key":"CountryName"},{"value":"Berlin","key":"StateName"},{"value":"Berlin","key":"CountyName"}]},"MapReference":{"ReferenceId":"1199317220","SideOfStreet":"neither","CountryId":"20147700","StateId":"20187401","CountyId":"20187402","CityId":"20187403","DistrictId":"20187414"}}},{"Relevance":1.0,"Distance":9.3,"MatchLevel":"houseNumber","MatchQuality":{"Country":1.0,"State":1.0,"County":1.0,"City":1.0,"District":1.0,"Street":[1.0],"HouseNumber":1.0,"PostalCode":1.0},"MatchType":"interpolated","Location":{"LocationId":"NT_r5V10CeQ-B0EAdcj63qg9C_l_1207177189_L_ygD","LocationType":"point","DisplayPosition":{"Latitude":52.478965,"Longitude":13.4285},"MapView":{"TopLeft":{"Latitude":52.4800892,"Longitude":13.4266543},"BottomRight":{"Latitude":52.4778409,"Longitude":13.4303457}},"Address":{"Label":"Mainzer Straße 28, 12053 Berlin, Deutschland","Country":"DEU","State":"Berlin","County":"Berlin","City":"Berlin","District":"Neukölln","Street":"Mainzer Straße","HouseNumber":"28","PostalCode":"12053","AdditionalData":[{"value":"Deutschland","key":"CountryName"},{"value":"Berlin","key":"StateName"},{"value":"Berlin","key":"CountyName"}]},"MapReference":{"ReferenceId":"1207177189","Spot":0.5,"SideOfStreet":"left","CountryId":"20147700","StateId":"20187401","CountyId":"20187402","CityId":"20187403","DistrictId":"20187414"}}},{"Relevance":1.0,"Distance":9.6,"MatchLevel":"street","MatchQuality":{"Country":1.0,"State":1.0,"County":1.0,"City":1.0,"District":1.0,"Street":[1.0],"PostalCode":1.0},"Location":{"LocationId":"NT_r5V10CeQ-B0EAdcj63qg9C_l_53478011_R","LocationType":"point","DisplayPosition":{"Latitude":52.4789206,"Longitude":13.4285131},"MapView":{"TopLeft":{"Latitude":52.47893,"Longitude":13.42851},"BottomRight":{"Latitude":52.47851,"Longitude":13.42865}},"Address":{"Label":"Mainzer Straße, 12053 Berlin, Deutschland","Country":"DEU","State":"Berlin","County":"Berlin","City":"Berlin","District":"Neukölln","Street":"Mainzer Straße","PostalCode":"12053","AdditionalData":[{"value":"Deutschland","key":"CountryName"},{"value":"Berlin","key":"StateName"},{"value":"Berlin","key":"CountyName"}]},"MapReference":{"ReferenceId":"53478011","Spot":0.98,"SideOfStreet":"right","CountryId":"20147700","StateId":"20187401","CountyId":"20187402","CityId":"20187403","DistrictId":"20187414"}}},{"Relevance":1.0,"Distance":24.5,"MatchLevel":"houseNumber","MatchQuality":{"Country":1.0,"State":1.0,"County":1.0,"City":1.0,"District":1.0,"Street":[1.0],"HouseNumber":1.0,"PostalCode":1.0},"MatchType":"interpolated","Location":{"LocationId":"NT_r5V10CeQ-B0EAdcj63qg9C_zQD","LocationType":"point","DisplayPosition":{"Latitude":52.47915,"Longitude":13.42844},"MapView":{"TopLeft":{"Latitude":52.4802742,"Longitude":13.4265943},"BottomRight":{"Latitude":52.4780258,"Longitude":13.4302857}},"Address":{"Label":"Mainzer Straße 34, 12053 Berlin, Deutschland","Country":"DEU","State":"Berlin","County":"Berlin","City":"Berlin","District":"Neukölln","Street":"Mainzer Straße","HouseNumber":"34","PostalCode":"12053","AdditionalData":[{"value":"Deutschland","key":"CountryName"},{"value":"Berlin","key":"StateName"},{"value":"Berlin","key":"CountyName"}]},"MapReference":{"ReferenceId":"1207177190","Spot":0.2,"SideOfStreet":"right","CountryId":"20147700","StateId":"20187401","CountyId":"20187402","CityId":"20187403","DistrictId":"20187414","AddressId":"732566129","RoadLinkId":"521307244"}}},{"Relevance":1.0,"Distance":31.0,"MatchLevel":"houseNumber","MatchQuality":{"Country":1.0,"State":1.0,"County":1.0,"City":1.0,"District":1.0,"Street":[1.0],"HouseNumber":1.0,"PostalCode":1.0},"MatchType":"interpolated","Location":{"LocationId":"NT_B-ChD1YDYzDW9QsoojW1SD_xA","LocationType":"point","DisplayPosition":{"Latitude":52.47907,"Longitude":13.42906},"MapView":{"TopLeft":{"Latitude":52.4801942,"Longitude":13.4272143},"BottomRight":{"Latitude":52.4779458,"Longitude":13.4309057}},"Address":{"Label":"Am Sudhaus 1, 12053 Berlin, Deutschland","Country":"DEU","State":"Berlin","County":"Berlin","City":"Berlin","District":"Neukölln","Street":"Am Sudhaus","HouseNumber":"1","PostalCode":"12053","AdditionalData":[{"value":"Deutschland","key":"CountryName"},{"value":"Berlin","key":"StateName"},{"value":"Berlin","key":"CountyName"}]},"MapReference":{"ReferenceId":"917261496","Spot":0.63,"SideOfStreet":"left","CountryId":"20147700","StateId":"20187401","CountyId":"20187402","CityId":"20187403","DistrictId":"20187414","AddressId":"621813295","RoadLinkId":"274790622"}}},{"Relevance":1.0,"Distance":31.7,"MatchLevel":"street","MatchQuality":{"Country":1.0,"State":1.0,"County":1.0,"City":1.0,"District":1.0,"PostalCode":1.0},"Location":{"LocationId":"NT_RCb5f6TY6y9ylXQrxwkLKD_l_1207180120_L","LocationType":"point","DisplayPosition":{"Latitude":52.47879,"Longitude":13.42901},"MapView":{"TopLeft":{"Latitude":52.47883,"Longitude":13.429},"BottomRight":{"Latitude":52.47861,"Longitude":13.42923}},"Address":{"Label":"12053 Berlin, Deutschland","Country":"DEU","State":"Berlin","County":"Berlin","City":"Berlin","District":"Neukölln","PostalCode":"12053","AdditionalData":[{"value":"Deutschland","key":"CountryName"},{"value":"Berlin","key":"StateName"},{"value":"Berlin","key":"CountyName"}]},"MapReference":{"ReferenceId":"1207180120","Spot":0.45,"SideOfStreet":"left","CountryId":"20147700","StateId":"20187401","CountyId":"20187402","CityId":"20187403","DistrictId":"20187414"}}},{"Relevance":1.0,"Distance":42.3,"MatchLevel":"houseNumber","MatchQuality":{"Country":1.0,"State":1.0,"County":1.0,"City":1.0,"District":1.0,"Street":[1.0],"HouseNumber":1.0,"PostalCode":1.0},"MatchType":"interpolated","Location":{"LocationId":"NT_.lcXu4ytjZS7dKuBCyfzlA_2AD","LocationType":"point","DisplayPosition":{"Latitude":52.47865,"Longitude":13.42934},"MapView":{"TopLeft":{"Latitude":52.4797742,"Longitude":13.4274943},"BottomRight":{"Latitude":52.4775258,"Longitude":13.4311857}},"Address":{"Label":"Rollbergstraße 60, 12053 Berlin, Deutschland","Country":"DEU","State":"Berlin","County":"Berlin","City":"Berlin","District":"Neukölln","Street":"Rollbergstraße","HouseNumber":"60","PostalCode":"12053","AdditionalData":[{"value":"Deutschland","key":"CountryName"},{"value":"Berlin","key":"StateName"},{"value":"Berlin","key":"CountyName"}]},"MapReference":{"ReferenceId":"1207177198","Spot":0.61,"SideOfStreet":"left","CountryId":"20147700","StateId":"20187401","CountyId":"20187402","CityId":"20187403","DistrictId":"20187414","AddressId":"621813292","RoadLinkId":"521307252"}}},{"Relevance":1.0,"Distance":42.7,"MatchLevel":"street","MatchQuality":{"Country":1.0,"State":1.0,"County":1.0,"City":1.0,"District":1.0,"PostalCode":1.0},"Location":{"LocationId":"NT_RCb5f6TY6y9ylXQrxwkLKD_l_1207165302_L","LocationType":"point","DisplayPosition":{"Latitude":52.47883,"Longitude":13.42923},"MapView":{"TopLeft":{"Latitude":52.47886,"Longitude":13.42923},"BottomRight":{"Latitude":52.47883,"Longitude":13.42947}},"Address":{"Label":"12053 Berlin, Deutschland","Country":"DEU","State":"Berlin","County":"Berlin","City":"Berlin","District":"Neukölln","PostalCode":"12053","AdditionalData":[{"value":"Deutschland","key":"CountryName"},{"value":"Berlin","key":"StateName"},{"value":"Berlin","key":"CountyName"}]},"MapReference":{"ReferenceId":"1207165302","Spot":0.0,"SideOfStreet":"left","CountryId":"20147700","StateId":"20187401","CountyId":"20187402","CityId":"20187403","DistrictId":"20187414"}}},{"Relevance":1.0,"Distance":42.7,"MatchLevel":"street","MatchQuality":{"Country":1.0,"State":1.0,"County":1.0,"City":1.0,"District":1.0,"PostalCode":1.0},"Location":{"LocationId":"NT_RCb5f6TY6y9ylXQrxwkLKD_l_1207165307_L","LocationType":"point","DisplayPosition":{"Latitude":52.47883,"Longitude":13.42923},"MapView":{"TopLeft":{"Latitude":52.47883,"Longitude":13.42923},"BottomRight":{"Latitude":52.4787,"Longitude":13.42926}},"Address":{"Label":"12053 Berlin, Deutschland","Country":"DEU","State":"Berlin","County":"Berlin","City":"Berlin","District":"Neukölln","PostalCode":"12053","AdditionalData":[{"value":"Deutschland","key":"CountryName"},{"value":"Berlin","key":"StateName"},{"value":"Berlin","key":"CountyName"}]},"MapReference":{"ReferenceId":"1207165307","Spot":1.0,"SideOfStreet":"left","CountryId":"20147700","StateId":"20187401","CountyId":"20187402","CityId":"20187403","DistrictId":"20187414"}}},{"Relevance":1.0,"Distance":44.5,"MatchLevel":"street","MatchQuality":{"Country":1.0,"State":1.0,"County":1.0,"City":1.0,"District":1.0,"Street":[1.0],"PostalCode":1.0},"Location":{"LocationId":"NT_.lcXu4ytjZS7dKuBCyfzlA_l_1207177197_L","LocationType":"point","DisplayPosition":{"Latitude":52.47857,"Longitude":13.42877},"MapView":{"TopLeft":{"Latitude":52.47861,"Longitude":13.42865},"BottomRight":{"Latitude":52.47851,"Longitude":13.42904}},"Address":{"Label":"Rollbergstraße, 12053 Berlin, Deutschland","Country":"DEU","State":"Berlin","County":"Berlin","City":"Berlin","District":"Neukölln","Street":"Rollbergstraße","PostalCode":"12053","AdditionalData":[{"value":"Deutschland","key":"CountryName"},{"value":"Berlin","key":"StateName"},{"value":"Berlin","key":"CountyName"}]},"MapReference":{"ReferenceId":"1207177197","Spot":0.33,"SideOfStreet":"left","CountryId":"20147700","StateId":"20187401","CountyId":"20187402","CityId":"20187403","DistrictId":"20187414"}}}]}]}}