{"Response":{"MetaInfo":{"Timestamp":"2020-03-28T10:25:23.934+0000","NextPageInformation":"2"},"View":[{"_type":"SearchResultsViewType","ViewId":0,"Result":[{"Relevance":1.0,"Distance":0.0,"Direction":0.0,"MatchLevel":"district","MatchQuality":{"Country":1.0,"State":1.0,"County":1.0,"City":1.0,"District":1.0,"PostalCode":1.0},"Location":{"LocationId":"NT_JsbJGXs8lt9idncdaq5hYC","LocationType":"point","DisplayPosition":{"Latitude":52.4977603,"Longitude":13.5097272},"MapView":{"TopLeft":{"Latitude":52.51434,"Longitude":13.49396},"BottomRight":{"Latitude":52.49111,"Longitude":13.54123}},"Address":{"Label":"Friedrichsfelde, Berlin, Deutschland","Country":"DEU","State":"Berlin","County":"Berlin","City":"Berlin","District":"Friedrichsfelde","PostalCode":"10315","AdditionalData":[{"value":"Deutschland","key":"CountryName"},{"value":"Berlin","key":"StateName"},{"value":"Berlin","key":"CountyName"}]},"MapReference":{"ReferenceId":"900944929","SideOfStreet":"neither","CountryId":"20147700","StateId":"20187401","CountyId":"20187402","CityId":"20187403","DistrictId":"20328188"}}},{"Relevance":1.0,"Distance":22.3,"MatchLevel":"street","MatchQuality":{"Country":1.0,"State":1.0,"County":1.0,"City":1.0,"District":1.0,"PostalCode":1.0},"Location":{"LocationId":"NT_umzYrNiqztpxhBnZTAZouB_l_1231330155_R","LocationType":"point","DisplayPosition":{"Latitude":52.49794,"Longitude":13.50958},"MapView":{"TopLeft":{"Latitude":52.49829,"Longitude":13.50806},"BottomRight":{"Latitude":52.49773,"Longitude":13.50974}},"Address":{"Label":"10319 Berlin, Deutschland","Country":"DEU","State":"Berlin","County":"Berlin","City":"Berlin","District":"Friedrichsfelde","PostalCode":"10319","AdditionalData":[{"value":"Deutschland","key":"CountryName"},{"value":"Berlin","key":"StateName"},{"value":"Berlin","key":"CountyName"}]},"MapReference":{"ReferenceId":"1231330155","Spot":0.82,"SideOfStreet":"right","CountryId":"20147700","StateId":"20187401","CountyId":"20187402","CityId":"20187403","DistrictId":"20328188"}}},{"Relevance":1.0,"Distance":24.3,"MatchLevel":"houseNumber","MatchQuality":{"Country":1.0,"State":1.0,"County":1.0,"City":1.0,"District":1.0,"Street":[1.0],"HouseNumber":1.0,"PostalCode":1.0},"MatchType":"interpolated","Location":{"LocationId":"NT_DlUWoAh7zW766WeBfQ8-zA_yAD","LocationType":"point","DisplayPosition":{"Latitude":52.49825,"Longitude":13.50996},"MapView":{"TopLeft":{"Latitude":52.4993742,"Longitude":13.5081135},"BottomRight":{"Latitude":52.4971258,"Longitude":13.5118065}},"Address":{"Label":"Balatonstraße 20, 10319 Berlin, Deutschland","Country":"DEU","State":"Berlin","County":"Berlin","City":"Berlin","District":"Friedrichsfelde","Street":"Balatonstraße","HouseNumber":"20","PostalCode":"10319","AdditionalData":[{"value":"Deutschland","key":"CountryName"},{"value":"Berlin","key":"StateName"},{"value":"Berlin","key":"CountyName"}]},"MapReference":{"ReferenceId":"1231258257","Spot":0.7,"SideOfStreet":"left","CountryId":"20147700","StateId":"20187401","CountyId":"20187402","CityId":"20187403","DistrictId":"20328188","AddressId":"168638047","RoadLinkId":"550790711"}}},{"Relevance":1.0,"Distance":32.4,"MatchLevel":"street","MatchQuality":{"Country":1.0,"State":1.0,"County":1.0,"City":1.0,"District":1.0,"Street":[1.0],"PostalCode":1.0},"Location":{"LocationId":"NT_pa4i.J4-DdkN0PGvmeJvcD_l_1231330160_R","LocationType":"point","DisplayPosition":{"Latitude":52.49747,"Longitude":13.50969},"MapView":{"TopLeft":{"Latitude":52.49752,"Longitude":13.5093},"BottomRight":{"Latitude":52.49742,"Longitude":13.51008}},"Address":{"Label":"Sewanstraße, 10319 Berlin, Deutschland","Country":"DEU","State":"Berlin","County":"Berlin","City":"Berlin","District":"Friedrichsfelde","Street":"Sewanstraße","PostalCode":"10319","AdditionalData":[{"value":"Deutschland","key":"CountryName"},{"value":"Berlin","key":"StateName"},{"value":"Berlin","key":"CountyName"}]},"MapReference":{"ReferenceId":"1231330160","Spot":0.5,"SideOfStreet":"right","CountryId":"20147700","StateId":"20187401","CountyId":"20187402","CityId":"20187403","DistrictId":"20328188"}}},{"Relevance":1.0,"Distance":37.1,"MatchLevel":"houseNumber","MatchQuality":{"Country":1.0,"State":1.0,"County":1.0,"City":1.0,"District":1.0,"Street":[1.0],"HouseNumber":1.0,"PostalCode":1.0},"MatchType":"interpolated","Location":{"LocationId":"NT_DlUWoAh7zW766WeBfQ8-zA_xID","LocationType":"point","DisplayPosition":{"Latitude":52.49834,"Longitude":13.50944},"MapView":{"TopLeft":{"Latitude":52.4994642,"Longitude":13.5075934},"BottomRight":{"Latitude":52.4972158,"Longitude":13.5112866}},"Address":{"Label":"Balatonstraße 12, 10319 Berlin, Deutschland","Country":"DEU","State":"Berlin","County":"Berlin","City":"Berlin","District":"Friedrichsfelde","Street":"Balatonstraße","HouseNumber":"12","PostalCode":"10319","AdditionalData":[{"value":"Deutschland","key":"CountryName"},{"value":"Berlin","key":"StateName"},{"value":"Berlin","key":"CountyName"}]},"MapReference":{"ReferenceId":"1231258258","Spot":0.15,"SideOfStreet":"left","CountryId":"20147700","StateId":"20187401","CountyId":"20187402","CityId":"20187403","DistrictId":"20328188","AddressId":"168638057","RoadLinkId":"550790712"}}},{"Relevance":1.0,"Distance":39.4,"MatchLevel":"street","MatchQuality":{"Country":1.0,"State":1.0,"County":1.0,"City":1.0,"District":1.0,"PostalCode":1.0},"Location":{"LocationId":"NT_umzYrNiqztpxhBnZTAZouB_l_1231330154_R","LocationType":"point","DisplayPosition":{"Latitude":52.49752,"Longitude":13.5093},"MapView":{"TopLeft":{"Latitude":52.49773,"Longitude":13.50806},"BottomRight":{"Latitude":52.49752,"Longitude":13.5093}},"Address":{"Label":"10319 Berlin, Deutschland","Country":"DEU","State":"Berlin","County":"Berlin","City":"Berlin","District":"Friedrichsfelde","PostalCode":"10319","AdditionalData":[{"value":"Deutschland","key":"CountryName"},{"value":"Berlin","key":"StateName"},{"value":"Berlin","key":"CountyName"}]},"MapReference":{"ReferenceId":"1231330154","Spot":0.0,"SideOfStreet":"right","CountryId":"20147700","StateId":"20187401","CountyId":"20187402","CityId":"20187403","DistrictId":"20328188"}}},{"Relevance":1.0,"Distance":44.7,"MatchLevel":"street","MatchQuality":{"Country":1.0,"State":1.0,"County":1.0,"City":1.0,"District":1.0,"Street":[1.0],"PostalCode":1.0},"Location":{"LocationId":"NT_pa4i.J4-DdkN0PGvmeJvcD_l_53473417_R","LocationType":"point","DisplayPosition":{"Latitude":52.49742,"Longitude":13.51008},"MapView":{"TopLeft":{"Latitude":52.49742,"Longitude":13.51008},"BottomRight":{"Latitude":52.49676,"Longitude":13.51039}},"Address":{"Label":"Sewanstraße, 10319 Berlin, Deutschland","Country":"DEU","State":"Berlin","County":"Berlin","City":"Berlin","District":"Friedrichsfelde","Street":"Sewanstraße","PostalCode":"10319","AdditionalData":[{"value":"Deutschland","key":"CountryName"},{"value":"Berlin","key":"StateName"},{"value":"Berlin","key":"CountyName"}]},"MapReference":{"ReferenceId":"53473417","Spot":1.0,"SideOfStreet":"right","CountryId":"20147700","StateId":"20187401","CountyId":"20187402","CityId":"20187403","DistrictId":"20328188"}}},{"Relevance":1.0,"Distance":46.4,"MatchLevel":"houseNumber","MatchQuality":{"Country":1.0,"State":1.0,"County":1.0,"City":1.0,"District":1.0,"Street":[1.0],"HouseNumber":1.0,"PostalCode":1.0},"MatchType":"interpolated","Location":{"LocationId":"NT_pa4i.J4-DdkN0PGvmeJvcD_xUTM","LocationType":"point","DisplayPosition":{"Latitude":52.49745,"Longitude":13.50927},"MapView":{"TopLeft":{"Latitude":52.4985742,"Longitude":13.5074235},"BottomRight":{"Latitude":52.4963258,"Longitude":13.5111165}},"Address":{"Label":"Sewanstraße 151, 10319 Berlin, Deutschland","Country":"DEU","State":"Berlin","County":"Berlin","City":"Berlin","District":"Friedrichsfelde","Street":"Sewanstraße","HouseNumber":"151","PostalCode":"10319","AdditionalData":[{"value":"Deutschland","key":"CountryName"},{"value":"Berlin","key":"StateName"},{"value":"Berlin","key":"CountyName"}]},"MapReference":{"ReferenceId":"1231330159","Spot":0.8,"SideOfStreet":"left","CountryId":"20147700","StateId":"20187401","CountyId":"20187402","CityId":"20187403","DistrictId":"20328188","AddressId":"170205630","RoadLinkId":"550884009"}}},{"Relevance":1.0,"Distance":51.2,"MatchLevel":"houseNumber","MatchQuality":{"Country":1.0,"State":1.0,"County":1.0,"City":1.0,"District":1.0,"Street":[1.0],"HouseNumber":1.0,"PostalCode":1.0},"MatchType":"interpolated","Location":{"LocationId":"NT_pa4i.J4-DdkN0PGvmeJvcD_xYzM","LocationType":"point","DisplayPosition":{"Latitude":52.49726,"Longitude":13.51001},"MapView":{"TopLeft":{"Latitude":52.4983842,"Longitude":13.5081635},"BottomRight":{"Latitude":52.4961358,"Longitude":13.5118565}},"Address":{"Label":"Sewanstraße 163, 10319 Berlin, Deutschland","Country":"DEU","State":"Berlin","County":"Berlin","City":"Berlin","District":"Friedrichsfelde","Street":"Sewanstraße","HouseNumber":"163","PostalCode":"10319","AdditionalData":[{"value":"Deutschland","key":"CountryName"},{"value":"Berlin","key":"StateName"},{"value":"Berlin","key":"CountyName"}]},"MapReference":{"ReferenceId":"53473409","Spot":0.74,"SideOfStreet":"left","CountryId":"20147700","StateId":"20187401","CountyId":"20187402","CityId":"20187403","DistrictId":"20328188","AddressId":"169491751","RoadLinkId":"37551607"}}},{"Relevance":1.0,"Distance":63.0,"MatchLevel":"houseNumber","MatchQuality":{"Country":1.0,"State":1.0,"County":1.0,"City":1.0,"District":1.0,"Street":[1.0],"HouseNumber":1.0,"PostalCode":1.0},"MatchType":"interpolated","Location":{"LocationId":"NT_DlUWoAh7zW766WeBfQ8-zA_yQD","LocationType":"point","DisplayPosition":{"Latitude":52.49813,"Longitude":13.51063},"MapView":{"TopLeft":{"Latitude":52.4992542,"Longitude":13.5087835},"BottomRight":{"Latitude":52.4970058,"Longitude":13.5124765}},"Address":{"Label":"Balatonstraße 24, 10319 Berlin, Deutschland","Country":"DEU","State":"Berlin","County":"Berlin","City":"Berlin","District":"Friedrichsfelde","Street":"Balatonstraße","HouseNumber":"24","PostalCode":"10319","AdditionalData":[{"value":"Deutschland","key":"CountryName"},{"value":"Berlin","key":"StateName"},{"value":"Berlin","key":"CountyName"}]},"MapReference":{"ReferenceId":"53601258","Spot":0.85,"SideOfStreet":"left","CountryId":"20147700","StateId":"20187401","CountyId":"20187402","CityId":"20187403","DistrictId":"20328188","AddressId":"168783412","RoadLinkId":"37762531"}}}]}]}}