{"Response":{"MetaInfo":{"Timestamp":"2020-03-28T11:58:21.748+0000","NextPageInformation":"2"},"View":[{"_type":"SearchResultsViewType","ViewId":0,"Result":[{"Relevance":1.0,"Distance":0.0,"Direction":0.0,"MatchLevel":"district","MatchQuality":{"Country":1.0,"State":1.0,"County":1.0,"City":1.0,"District":1.0,"PostalCode":1.0},"Location":{"LocationId":"NT_cr0gcPDLVAxo-M98aTPhBB","LocationType":"point","DisplayPosition":{"Latitude":52.4473902,"Longitude":-1.8616579},"MapView":{"TopLeft":{"Latitude":52.45934,"Longitude":-1.87349},"BottomRight":{"Latitude":52.44301,"Longitude":-1.84757}},"Address":{"Label":"Sparkhill, Birmingham, England, United Kingdom","Country":"GBR","State":"England","County":"West Midlands","City":"Birmingham","District":"Sparkhill","PostalCode":"B11 4","AdditionalData":[{"value":"United Kingdom","key":"CountryName"},{"value":"England","key":"StateName"},{"value":"West Midlands","key":"CountyName"}]},"MapReference":{"ReferenceId":"837505683","SideOfStreet":"neither","StateId":"20248595","CountyId":"20358328","CityId":"20358334","DistrictId":"20358398"}}},{"Relevance":1.0,"Distance":7.4,"MatchLevel":"houseNumber","MatchQuality":{"Country":1.0,"State":1.0,"County":1.0,"City":1.0,"District":1.0,"Street":[1.0],"HouseNumber":1.0,"PostalCode":1.0},"MatchType":"interpolated","Location":{"LocationId":"NT_XdjI9zVC4MMotv80mWeQTD_l_26346640_R_xkD","LocationType":"point","DisplayPosition":{"Latitude":52.4474583,"Longitude":-1.8616853},"MapView":{"TopLeft":{"Latitude":52.4485824,"Longitude":-1.8635297},"BottomRight":{"Latitude":52.4463341,"Longitude":-1.8598409}},"Address":{"Label":"19 Oakwood Road, Birmingham, B11 4EX, United Kingdom","Country":"GBR","State":"England","County":"West Midlands","City":"Birmingham","District":"Sparkhill","Street":"Oakwood Road","HouseNumber":"19","PostalCode":"B11 4EX","AdditionalData":[{"value":"United Kingdom","key":"CountryName"},{"value":"England","key":"StateName"},{"value":"West Midlands","key":"CountyName"}]},"MapReference":{"ReferenceId":"26346640","Spot":0.73,"SideOfStreet":"right","StateId":"20248595","CountyId":"20358328","CityId":"20358334","DistrictId":"20358398"}}},{"Relevance":1.0,"Distance":54.7,"MatchLevel":"houseNumber","MatchQuality":{"Country":1.0,"State":1.0,"County":1.0,"City":1.0,"District":1.0,"Street":[1.0],"HouseNumber":1.0,"PostalCode":1.0},"MatchType":"interpolated","Location":{"LocationId":"NT_C-WBicZYK-PGnN7HMNzJPD_l_1220072211_L_2UTM","LocationType":"point","DisplayPosition":{"Latitude":52.4477857,"Longitude":-1.8608843},"MapView":{"TopLeft":{"Latitude":52.4489099,"Longitude":-1.8627287},"BottomRight":{"Latitude":52.4466616,"Longitude":-1.8590399}},"Address":{"Label":"651 Stratford Road, Birmingham, B11 4, United Kingdom","Country":"GBR","State":"England","County":"West Midlands","City":"Birmingham","District":"Sparkhill","Street":"Stratford Road","HouseNumber":"651","PostalCode":"B11 4","AdditionalData":[{"value":"United Kingdom","key":"CountryName"},{"value":"England","key":"StateName"},{"value":"West Midlands","key":"CountyName"}]},"MapReference":{"ReferenceId":"1220072211","Spot":0.59,"SideOfStreet":"left","StateId":"20248595","CountyId":"20358328","CityId":"20358334","DistrictId":"20358398"}}},{"Relevance":1.0,"Distance":57.8,"MatchLevel":"houseNumber","MatchQuality":{"Country":1.0,"State":1.0,"County":1.0,"City":1.0,"District":1.0,"Street":[1.0],"HouseNumber":1.0,"PostalCode":1.0},"MatchType":"interpolated","Location":{"LocationId":"NT_C-WBicZYK-PGnN7HMNzJPD_l_1220072212_L_2QTO","LocationType":"point","DisplayPosition":{"Latitude":52.44792,"Longitude":-1.86103},"MapView":{"TopLeft":{"Latitude":52.4490442,"Longitude":-1.8628745},"BottomRight":{"Latitude":52.4467959,"Longitude":-1.8591856}},"Address":{"Label":"649 Stratford Road, Birmingham, B11 4, United Kingdom","Country":"GBR","State":"England","County":"West Midlands","City":"Birmingham","District":"Sparkhill","Street":"Stratford Road","HouseNumber":"649","PostalCode":"B11 4","AdditionalData":[{"value":"United Kingdom","key":"CountryName"},{"value":"England","key":"StateName"},{"value":"West Midlands","key":"CountyName"}]},"MapReference":{"ReferenceId":"1220072212","Spot":0.0,"SideOfStreet":"left","StateId":"20248595","CountyId":"20358328","CityId":"20358334","DistrictId":"20358398"}}},{"Relevance":1.0,"Distance":62.8,"MatchLevel":"houseNumber","MatchQuality":{"Country":1.0,"State":1.0,"County":1.0,"City":1.0,"District":1.0,"Street":[1.0],"HouseNumber":1.0,"PostalCode":1.0},"MatchType":"interpolated","Location":{"LocationId":"NT_9BJs0NtlvHZDx7eSHwr.WA_l_26346595_L_2YTN","LocationType":"point","DisplayPosition":{"Latitude":52.4475263,"Longitude":-1.8606163},"MapView":{"TopLeft":{"Latitude":52.4486504,"Longitude":-1.8624607},"BottomRight":{"Latitude":52.4464021,"Longitude":-1.8587719}},"Address":{"Label":"665 Stratford Road, Birmingham, B11 4DX, United Kingdom","Country":"GBR","State":"England","County":"West Midlands","City":"Birmingham","District":"Sparkhill","Street":"Stratford Road","HouseNumber":"665","PostalCode":"B11 4DX","AdditionalData":[{"value":"United Kingdom","key":"CountryName"},{"value":"England","key":"StateName"},{"value":"West Midlands","key":"CountyName"}]},"MapReference":{"ReferenceId":"26346595","Spot":0.49,"SideOfStreet":"left","StateId":"20248595","CountyId":"20358328","CityId":"20358334","DistrictId":"20358398"}}},{"Relevance":1.0,"Distance":69.0,"MatchLevel":"landmark","MatchQuality":{"Country":1.0,"State":1.0,"County":1.0,"City":1.0,"District":1.0,"Street":[1.0],"PostalCode":1.0,"Name":1.0},"Location":{"LocationId":"NT_KGKByqI3tHBF1iJe4IgYUA_p_ZiR1VNflqob4S1Aw1HdMTA","LocationType":"park","Name":"Sparkhill Park","DisplayPosition":{"Latitude":52.44926,"Longitude":-1.86251},"MapView":{"TopLeft":{"Latitude":52.45022,"Longitude":-1.86758},"BottomRight":{"Latitude":52.44756,"Longitude":-1.86127}},"Address":{"Label":"Stratford Road, Birmingham, B11 4, United Kingdom","Country":"GBR","State":"England","County":"West Midlands","City":"Birmingham","District":"Sparkhill","Street":"Stratford Road","PostalCode":"B11 4","AdditionalData":[{"value":"United Kingdom","key":"CountryName"},{"value":"England","key":"StateName"},{"value":"West Midlands","key":"CountyName"}]},"MapReference":{"StateId":"20248595","CountyId":"20358328","CityId":"20358334","DistrictId":"20358398","PlaceId":"1024034419"}}},{"Relevance":1.0,"Distance":69.0,"MatchLevel":"street","MatchQuality":{"Country":1.0,"State":1.0,"County":1.0,"City":1.0,"District":1.0,"PostalCode":1.0},"Location":{"LocationId":"NT_fvRmw1wcbXW81vCvbhjYzB_l_1167499652_R","LocationType":"point","DisplayPosition":{"Latitude":52.4480058,"Longitude":-1.8617875},"MapView":{"TopLeft":{"Latitude":52.44806,"Longitude":-1.86403},"BottomRight":{"Latitude":52.4476,"Longitude":-1.86153}},"Address":{"Label":"Birmingham, B11 4, United Kingdom","Country":"GBR","State":"England","County":"West Midlands","City":"Birmingham","District":"Sparkhill","PostalCode":"B11 4","AdditionalData":[{"value":"United Kingdom","key":"CountryName"},{"value":"England","key":"StateName"},{"value":"West Midlands","key":"CountyName"}]},"MapReference":{"ReferenceId":"1167499652","Spot":0.9,"SideOfStreet":"right","StateId":"20248595","CountyId":"20358328","CityId":"20358334","DistrictId":"20358398"}}},{"Relevance":1.0,"Distance":72.5,"MatchLevel":"postalCode","MatchQuality":{"PostalCode":1.0},"MatchType":"interpolated","Location":{"LocationId":"NT_9BJs0NtlvHZDx7eSHwr.WA_l_26346539_R_2gjN","LocationType":"point","DisplayPosition":{"Latitude":52.44802,"Longitude":-1.86138},"MapView":{"TopLeft":{"Latitude":52.4570132,"Longitude":-1.8761355},"BottomRight":{"Latitude":52.4390268,"Longitude":-1.8466245}},"Address":{"Label":"B11 4DY, Birmingham, England, United Kingdom","Country":"GBR","State":"England","County":"West Midlands","City":"Birmingham","PostalCode":"B11 4DY","AdditionalData":[{"value":"United Kingdom","key":"CountryName"},{"value":"England","key":"StateName"},{"value":"West Midlands","key":"CountyName"}]},"MapReference":{"ReferenceId":"26346539","Spot":0.13,"SideOfStreet":"neither","StateId":"20248595","CountyId":"20358328","CityId":"20358334"}}},{"Relevance":1.0,"Distance":73.0,"MatchLevel":"postalCode","MatchQuality":{"PostalCode":1.0},"MatchType":"interpolated","Location":{"LocationId":"NT_C-WBicZYK-PGnN7HMNzJPD_l_1220072211_L_2UTM","LocationType":"point","DisplayPosition":{"Latitude":52.44781,"Longitude":-1.86083},"MapView":{"TopLeft":{"Latitude":52.4568032,"Longitude":-1.8755855},"BottomRight":{"Latitude":52.4388168,"Longitude":-1.8460745}},"Address":{"Label":"B11 4AT, Birmingham, England, United Kingdom","Country":"GBR","State":"England","County":"West Midlands","City":"Birmingham","PostalCode":"B11 4AT","AdditionalData":[{"value":"United Kingdom","key":"CountryName"},{"value":"England","key":"StateName"},{"value":"West Midlands","key":"CountyName"}]},"MapReference":{"ReferenceId":"1220072211","Spot":0.59,"SideOfStreet":"neither","StateId":"20248595","CountyId":"20358328","CityId":"20358334"}}},{"Relevance":1.0,"Distance":74.9,"MatchLevel":"houseNumber","MatchQuality":{"Country":1.0,"State":1.0,"County":1.0,"City":1.0,"District":1.0,"Street":[1.0],"HouseNumber":1.0,"PostalCode":1.0},"MatchType":"interpolated","Location":{"LocationId":"NT_C-WBicZYK-PGnN7HMNzJPD_l_1220127771_L_2YTO","LocationType":"point","DisplayPosition":{"Latitude":52.4473105,"Longitude":-1.8604554},"MapView":{"TopLeft":{"Latitude":52.4484347,"Longitude":-1.8622998},"BottomRight":{"Latitude":52.4461864,"Longitude":-1.858611}},"Address":{"Label":"669 Stratford Road, Birmingham, B11 4DX, United Kingdom","Country":"GBR","State":"England","County":"West Midlands","City":"Birmingham","District":"Sparkhill","Street":"Stratford Road","HouseNumber":"669","PostalCode":"B11 4DX","AdditionalData":[{"value":"United Kingdom","key":"CountryName"},{"value":"England","key":"StateName"},{"value":"West Midlands","key":"CountyName"}]},"MapReference":{"ReferenceId":"1220127771","Spot":0.53,"SideOfStreet":"left","StateId":"20248595","CountyId":"20358328","CityId":"20358334","DistrictId":"20358398"}}}]}]}}