{"Response":{"MetaInfo":{"Timestamp":"2020-03-28T10:55:23.514+0000","NextPageInformation":"2"},"View":[{"_type":"SearchResultsViewType","ViewId":0,"Result":[{"Relevance":1.0,"Distance":-7.5,"MatchLevel":"landmark","MatchQuality":{"Country":1.0,"State":1.0,"County":1.0,"City":1.0,"District":1.0,"PostalCode":1.0,"Name":1.0},"Location":{"LocationId":"NT_Qc.tE8I-QQxYOhvLaid1OB","LocationType":"park","Name":"Schlosspark Lichterfelde","DisplayPosition":{"Latitude":52.4388,"Longitude":13.31836},"MapView":{"TopLeft":{"Latitude":52.44039,"Longitude":13.31607},"BottomRight":{"Latitude":52.43721,"Longitude":13.3209}},"Address":{"Label":"12207 Berlin, Deutschland","Country":"DEU","State":"Berlin","County":"Berlin","City":"Berlin","District":"Lichterfelde","PostalCode":"12207","AdditionalData":[{"value":"Deutschland","key":"CountryName"},{"value":"Berlin","key":"StateName"},{"value":"Berlin","key":"CountyName"}]},"MapReference":{"CountryId":"20147700","StateId":"20187401","CountyId":"20187402","CityId":"20187403","DistrictId":"20328168","PlaceId":"50669650"}}},{"Relevance":1.0,"Distance":0.0,"Direction":0.0,"MatchLevel":"district","MatchQuality":{"Country":1.0,"State":1.0,"County":1.0,"City":1.0,"District":1.0,"PostalCode":1.0},"Location":{"LocationId":"NT_GLfNHB9v4bX9Gn.FqomTYC","LocationType":"point","DisplayPosition":{"Latitude":52.4402845,"Longitude":13.3165958},"MapView":{"TopLeft":{"Latitude":52.45863,"Longitude":13.26736},"BottomRight":{"Latitude":52.39921,"Longitude":13.34328}},"Address":{"Label":"Lichterfelde, Berlin, Deutschland","Country":"DEU","State":"Berlin","County":"Berlin","City":"Berlin","District":"Lichterfelde","PostalCode":"12207","AdditionalData":[{"value":"Deutschland","key":"CountryName"},{"value":"Berlin","key":"StateName"},{"value":"Berlin","key":"CountyName"}]},"MapReference":{"ReferenceId":"53488900","SideOfStreet":"neither","CountryId":"20147700","StateId":"20187401","CountyId":"20187402","CityId":"20187403","DistrictId":"20328168"}}},{"Relevance":1.0,"Distance":7.6,"MatchLevel":"landmark","MatchQuality":{"Country":1.0,"State":1.0,"County":1.0,"City":1.0,"District":1.0,"Street":[1.0],"HouseNumber":1.0,"PostalCode":1.0,"Name":1.0},"Location":{"LocationId":"NT_BMOHm-JSi1J6DfUenstbgD_p_X5MnhuUPGSG-tea1Ceo0IB","LocationType":"hospital","Name":"Charite Campus Benjamin Franklin","DisplayPosition":{"Latitude":52.44086,"Longitude":13.3162},"MapView":{"TopLeft":{"Latitude":52.4419842,"Longitude":13.3143559},"BottomRight":{"Latitude":52.4397358,"Longitude":13.3180441}},"Address":{"Label":"Hindenburgdamm 30, 12203 Berlin, Deutschland","Country":"DEU","State":"Berlin","County":"Berlin","City":"Berlin","District":"Lichterfelde","Street":"Hindenburgdamm","HouseNumber":"30","PostalCode":"12203","AdditionalData":[{"value":"Deutschland","key":"CountryName"},{"value":"Berlin","key":"StateName"},{"value":"Berlin","key":"CountyName"}]},"MapReference":{"CountryId":"20147700","StateId":"20187401","CountyId":"20187402","CityId":"20187403","DistrictId":"20328168","PlaceId":"50668589"}}},{"Relevance":1.0,"Distance":12.2,"MatchLevel":"street","MatchQuality":{"Country":1.0,"State":1.0,"County":1.0,"City":1.0,"District":1.0,"Street":[1.0],"PostalCode":1.0},"Location":{"LocationId":"NT_vAqcYoKfE.yIxXA.Xz2rCD_l_53515106_R","LocationType":"point","DisplayPosition":{"Latitude":52.4403941,"Longitude":13.3165939},"MapView":{"TopLeft":{"Latitude":52.44041,"Longitude":13.31636},"BottomRight":{"Latitude":52.44039,"Longitude":13.31751}},"Address":{"Label":"Hindenburgdamm, 12203 Berlin, Deutschland","Country":"DEU","State":"Berlin","County":"Berlin","City":"Berlin","District":"Lichterfelde","Street":"Hindenburgdamm","PostalCode":"12203","AdditionalData":[{"value":"Deutschland","key":"CountryName"},{"value":"Berlin","key":"StateName"},{"value":"Berlin","key":"CountyName"}]},"MapReference":{"ReferenceId":"53515106","Spot":0.2,"SideOfStreet":"right","CountryId":"20147700","StateId":"20187401","CountyId":"20187402","CityId":"20187403","DistrictId":"20328168"}}},{"Relevance":1.0,"Distance":13.5,"MatchLevel":"street","MatchQuality":{"Country":1.0,"State":1.0,"County":1.0,"City":1.0,"District":1.0,"Street":[1.0],"PostalCode":1.0},"Location":{"LocationId":"NT_vAqcYoKfE.yIxXA.Xz2rCD_l_925220558_R","LocationType":"point","DisplayPosition":{"Latitude":52.44024,"Longitude":13.31641},"MapView":{"TopLeft":{"Latitude":52.44039,"Longitude":13.31636},"BottomRight":{"Latitude":52.44007,"Longitude":13.31645}},"Address":{"Label":"Hindenburgdamm, 12203 Berlin, Deutschland","Country":"DEU","State":"Berlin","County":"Berlin","City":"Berlin","District":"Lichterfelde","Street":"Hindenburgdamm","PostalCode":"12203","AdditionalData":[{"value":"Deutschland","key":"CountryName"},{"value":"Berlin","key":"StateName"},{"value":"Berlin","key":"CountyName"}]},"MapReference":{"ReferenceId":"925220558","Spot":0.52,"SideOfStreet":"right","CountryId":"20147700","StateId":"20187401","CountyId":"20187402","CityId":"20187403","DistrictId":"20328168"}}},{"Relevance":1.0,"Distance":19.8,"MatchLevel":"street","MatchQuality":{"Country":1.0,"State":1.0,"County":1.0,"City":1.0,"District":1.0,"Street":[1.0],"PostalCode":1.0},"Location":{"LocationId":"NT_vAqcYoKfE.yIxXA.Xz2rCD_l_833619591_R","LocationType":"point","DisplayPosition":{"Latitude":52.44039,"Longitude":13.31636},"MapView":{"TopLeft":{"Latitude":52.44054,"Longitude":13.31631},"BottomRight":{"Latitude":52.44039,"Longitude":13.31636}},"Address":{"Label":"Hindenburgdamm, 12203 Berlin, Deutschland","Country":"DEU","State":"Berlin","County":"Berlin","City":"Berlin","District":"Lichterfelde","Street":"Hindenburgdamm","PostalCode":"12203","AdditionalData":[{"value":"Deutschland","key":"CountryName"},{"value":"Berlin","key":"StateName"},{"value":"Berlin","key":"CountyName"}]},"MapReference":{"ReferenceId":"833619591","Spot":0.0,"SideOfStreet":"right","CountryId":"20147700","StateId":"20187401","CountyId":"20187402","CityId":"20187403","DistrictId":"20328168"}}},{"Relevance":1.0,"Distance":19.8,"MatchLevel":"street","MatchQuality":{"Country":1.0,"State":1.0,"County":1.0,"City":1.0,"District":1.0,"PostalCode":1.0},"Location":{"LocationId":"NT_8ewh.vtZboDeq4oeauaqLC_l_53487007_L","LocationType":"point","DisplayPosition":{"Latitude":52.44039,"Longitude":13.31636},"MapView":{"TopLeft":{"Latitude":52.44045,"Longitude":13.31616},"BottomRight":{"Latitude":52.44039,"Longitude":13.31636}},"Address":{"Label":"12203 Berlin, Deutschland","Country":"DEU","State":"Berlin","County":"Berlin","City":"Berlin","District":"Lichterfelde","PostalCode":"12203","AdditionalData":[{"value":"Deutschland","key":"CountryName"},{"value":"Berlin","key":"StateName"},{"value":"Berlin","key":"CountyName"}]},"MapReference":{"ReferenceId":"53487007","Spot":0.0,"SideOfStreet":"left","CountryId":"20147700","StateId":"20187401","CountyId":"20187402","CityId":"20187403","DistrictId":"20328168"}}},{"Relevance":1.0,"Distance":24.3,"MatchLevel":"street","MatchQuality":{"Country":1.0,"State":1.0,"County":1.0,"City":1.0,"District":1.0,"PostalCode":1.0},"Location":{"LocationId":"NT_8ewh.vtZboDeq4oeauaqLC_l_925220559_R","LocationType":"point","DisplayPosition":{"Latitude":52.4400657,"Longitude":13.316589},"MapView":{"TopLeft":{"Latitude":52.44007,"Longitude":13.31645},"BottomRight":{"Latitude":52.44006,"Longitude":13.31677}},"Address":{"Label":"12203 Berlin, Deutschland","Country":"DEU","State":"Berlin","County":"Berlin","City":"Berlin","District":"Lichterfelde","PostalCode":"12203","AdditionalData":[{"value":"Deutschland","key":"CountryName"},{"value":"Berlin","key":"StateName"},{"value":"Berlin","key":"CountyName"}]},"MapReference":{"ReferenceId":"925220559","Spot":0.57,"SideOfStreet":"right","CountryId":"20147700","StateId":"20187401","CountyId":"20187402","CityId":"20187403","DistrictId":"20328168"}}},{"Relevance":1.0,"Distance":25.8,"MatchLevel":"houseNumber","MatchQuality":{"Country":1.0,"State":1.0,"County":1.0,"City":1.0,"District":1.0,"Street":[1.0],"HouseNumber":1.0,"PostalCode":1.0},"MatchType":"interpolated","Location":{"LocationId":"NT_vAqcYoKfE.yIxXA.Xz2rCD_5YD","LocationType":"point","DisplayPosition":{"Latitude":52.44022,"Longitude":13.31623},"MapView":{"TopLeft":{"Latitude":52.4413442,"Longitude":13.3143859},"BottomRight":{"Latitude":52.4390958,"Longitude":13.3180741}},"Address":{"Label":"Hindenburgdamm 96, 12203 Berlin, Deutschland","Country":"DEU","State":"Berlin","County":"Berlin","City":"Berlin","District":"Lichterfelde","Street":"Hindenburgdamm","HouseNumber":"96","PostalCode":"12203","AdditionalData":[{"value":"Deutschland","key":"CountryName"},{"value":"Berlin","key":"StateName"},{"value":"Berlin","key":"CountyName"}]},"MapReference":{"ReferenceId":"925220556","Spot":0.43,"SideOfStreet":"left","CountryId":"20147700","StateId":"20187401","CountyId":"20187402","CityId":"20187403","DistrictId":"20328168","AddressId":"169524747","RoadLinkId":"280632532"}}},{"Relevance":1.0,"Distance":27.6,"MatchLevel":"street","MatchQuality":{"Country":1.0,"State":1.0,"County":1.0,"City":1.0,"District":1.0,"PostalCode":1.0},"Location":{"LocationId":"NT_8ewh.vtZboDeq4oeauaqLC_l_1250600603_R","LocationType":"point","DisplayPosition":{"Latitude":52.44006,"Longitude":13.31677},"MapView":{"TopLeft":{"Latitude":52.44009,"Longitude":13.31677},"BottomRight":{"Latitude":52.43951,"Longitude":13.3187}},"Address":{"Label":"12203 Berlin, Deutschland","Country":"DEU","State":"Berlin","County":"Berlin","City":"Berlin","District":"Lichterfelde","PostalCode":"12203","AdditionalData":[{"value":"Deutschland","key":"CountryName"},{"value":"Berlin","key":"StateName"},{"value":"Berlin","key":"CountyName"}]},"MapReference":{"ReferenceId":"1250600603","Spot":1.0,"SideOfStreet":"right","CountryId":"20147700","StateId":"20187401","CountyId":"20187402","CityId":"20187403","DistrictId":"20328168"}}}]}]}}