{"Response":{"MetaInfo":{"Timestamp":"2020-03-28T10:45:52.493+0000","NextPageInformation":"2"},"View":[{"_type":"SearchResultsViewType","ViewId":0,"Result":[{"Relevance":1.0,"Distance":0.0,"Direction":0.0,"MatchLevel":"district","MatchQuality":{"Country":1.0,"State":1.0,"County":1.0,"City":1.0,"District":1.0,"PostalCode":1.0},"Location":{"LocationId":"NT_cPPN1mw6rEV12Y3A-xjiSC","LocationType":"point","DisplayPosition":{"Latitude":52.4081203,"Longitude":22.2482474},"MapView":{"TopLeft":{"Latitude":52.43792,"Longitude":22.18919},"BottomRight":{"Latitude":52.38806,"Longitude":22.27462}},"Address":{"Label":"Sokołów Podlaski, Woj. Mazowieckie, Polska","Country":"POL","State":"Woj. Mazowieckie","County":"Powiat Sokołowski","City":"Sokołów Podlaski","District":"Sokołów Podlaski","PostalCode":"08-300","AdditionalData":[{"value":"Polska","key":"CountryName"},{"value":"Woj. Mazowieckie","key":"StateName"},{"value":"Powiat Sokołowski","key":"CountyName"}]},"MapReference":{"ReferenceId":"595937651","SideOfStreet":"neither","CountryId":"20624059","StateId":"20627182","CountyId":"20627737","CityId":"20689489","DistrictId":"20689490"}}},{"Relevance":1.0,"Distance":15.2,"MatchLevel":"houseNumber","MatchQuality":{"Country":1.0,"State":1.0,"County":1.0,"City":1.0,"District":1.0,"Street":[1.0],"HouseNumber":1.0,"PostalCode":1.0},"MatchType":"interpolated","Location":{"LocationId":"NT_mfclJBXBQXi6hg0FDUqpjD_1A","LocationType":"point","DisplayPosition":{"Latitude":52.40817,"Longitude":22.24848},"MapView":{"TopLeft":{"Latitude":52.4092942,"Longitude":22.2466372},"BottomRight":{"Latitude":52.4070458,"Longitude":22.2503228}},"Address":{"Label":"ulica Lipowa 5, 08-300 Sokołów Podlaski, Polska","Country":"POL","State":"Woj. Mazowieckie","County":"Powiat Sokołowski","City":"Sokołów Podlaski","District":"Sokołów Podlaski","Street":"ulica Lipowa","HouseNumber":"5","PostalCode":"08-300","AdditionalData":[{"value":"Polska","key":"CountryName"},{"value":"Woj. Mazowieckie","key":"StateName"},{"value":"Powiat Sokołowski","key":"CountyName"}]},"MapReference":{"ReferenceId":"1092284105","Spot":0.23,"SideOfStreet":"left","CountryId":"20624059","StateId":"20627182","CountyId":"20627737","CityId":"20689489","DistrictId":"20689490","AddressId":"210249739","RoadLinkId":"407196134"}}},{"Relevance":1.0,"Distance":36.2,"MatchLevel":"houseNumber","MatchQuality":{"Country":1.0,"State":1.0,"County":1.0,"City":1.0,"District":1.0,"Street":[1.0],"HouseNumber":1.0,"PostalCode":1.0},"MatchType":"interpolated","Location":{"LocationId":"NT_C64-J1UXevLEoU6xc9oLpB_4A","LocationType":"point","DisplayPosition":{"Latitude":52.40737,"Longitude":22.24847},"MapView":{"TopLeft":{"Latitude":52.4084942,"Longitude":22.2466273},"BottomRight":{"Latitude":52.4062458,"Longitude":22.2503127}},"Address":{"Label":"ulica Wolności 8, 08-300 Sokołów Podlaski, Polska","Country":"POL","State":"Woj. Mazowieckie","County":"Powiat Sokołowski","City":"Sokołów Podlaski","District":"Sokołów Podlaski","Street":"ulica Wolności","HouseNumber":"8","PostalCode":"08-300","AdditionalData":[{"value":"Polska","key":"CountryName"},{"value":"Woj. Mazowieckie","key":"StateName"},{"value":"Powiat Sokołowski","key":"CountyName"}]},"MapReference":{"ReferenceId":"974680572","Spot":0.25,"SideOfStreet":"left","CountryId":"20624059","StateId":"20627182","CountyId":"20627737","CityId":"20689489","DistrictId":"20689490","AddressId":"209768848","RoadLinkId":"310256417"}}},{"Relevance":1.0,"Distance":76.4,"MatchLevel":"houseNumber","MatchQuality":{"Country":1.0,"State":1.0,"County":1.0,"City":1.0,"District":1.0,"Street":[1.0],"HouseNumber":1.0,"PostalCode":1.0},"MatchType":"interpolated","Location":{"LocationId":"NT_mfclJBXBQXi6hg0FDUqpjD_xA","LocationType":"point","DisplayPosition":{"Latitude":52.40797,"Longitude":22.24937},"MapView":{"TopLeft":{"Latitude":52.4090942,"Longitude":22.2475272},"BottomRight":{"Latitude":52.4068458,"Longitude":22.2512128}},"Address":{"Label":"ulica Lipowa 1, 08-300 Sokołów Podlaski, Polska","Country":"POL","State":"Woj. Mazowieckie","County":"Powiat Sokołowski","City":"Sokołów Podlaski","District":"Sokołów Podlaski","Street":"ulica Lipowa","HouseNumber":"1","PostalCode":"08-300","AdditionalData":[{"value":"Polska","key":"CountryName"},{"value":"Woj. Mazowieckie","key":"StateName"},{"value":"Powiat Sokołowski","key":"CountyName"}]},"MapReference":{"ReferenceId":"974680569","Spot":0.24,"SideOfStreet":"left","CountryId":"20624059","StateId":"20627182","CountyId":"20627737","CityId":"20689489","DistrictId":"20689490","AddressId":"210948724","RoadLinkId":"310256414"}}},{"Relevance":1.0,"Distance":78.9,"MatchLevel":"houseNumber","MatchQuality":{"Country":1.0,"State":1.0,"County":1.0,"City":1.0,"District":1.0,"Street":[1.0],"HouseNumber":1.0,"PostalCode":1.0},"MatchType":"interpolated","Location":{"LocationId":"NT_d2v8JfiGNFz3UNSiTiSNNA_xA","LocationType":"point","DisplayPosition":{"Latitude":52.40839,"Longitude":22.24951},"MapView":{"TopLeft":{"Latitude":52.4095142,"Longitude":22.2476672},"BottomRight":{"Latitude":52.4072658,"Longitude":22.2513528}},"Address":{"Label":"ulica Kubusia Puchatka 1, 08-300 Sokołów Podlaski, Polska","Country":"POL","State":"Woj. Mazowieckie","County":"Powiat Sokołowski","City":"Sokołów Podlaski","District":"Sokołów Podlaski","Street":"ulica Kubusia Puchatka","HouseNumber":"1","PostalCode":"08-300","AdditionalData":[{"value":"Polska","key":"CountryName"},{"value":"Woj. Mazowieckie","key":"StateName"},{"value":"Powiat Sokołowski","key":"CountyName"}]},"MapReference":{"ReferenceId":"595937126","Spot":0.39,"SideOfStreet":"left","CountryId":"20624059","StateId":"20627182","CountyId":"20627737","CityId":"20689489","DistrictId":"20689490","AddressId":"211026457","RoadLinkId":"95526517"}}},{"Relevance":1.0,"Distance":89.5,"MatchLevel":"houseNumber","MatchQuality":{"Country":1.0,"State":1.0,"County":1.0,"City":1.0,"District":1.0,"Street":[1.0],"HouseNumber":1.0,"PostalCode":1.0},"MatchType":"interpolated","Location":{"LocationId":"NT_mfclJBXBQXi6hg0FDUqpjD_0A","LocationType":"point","DisplayPosition":{"Latitude":52.40793,"Longitude":22.24953},"MapView":{"TopLeft":{"Latitude":52.4090542,"Longitude":22.2476872},"BottomRight":{"Latitude":52.4068058,"Longitude":22.2513728}},"Address":{"Label":"ulica Lipowa 4, 08-300 Sokołów Podlaski, Polska","Country":"POL","State":"Woj. Mazowieckie","County":"Powiat Sokołowski","City":"Sokołów Podlaski","District":"Sokołów Podlaski","Street":"ulica Lipowa","HouseNumber":"4","PostalCode":"08-300","AdditionalData":[{"value":"Polska","key":"CountryName"},{"value":"Woj. Mazowieckie","key":"StateName"},{"value":"Powiat Sokołowski","key":"CountyName"}]},"MapReference":{"ReferenceId":"974680568","Spot":0.69,"SideOfStreet":"right","CountryId":"20624059","StateId":"20627182","CountyId":"20627737","CityId":"20689489","DistrictId":"20689490","AddressId":"731911520","RoadLinkId":"310256413"}}},{"Relevance":1.0,"Distance":91.8,"MatchLevel":"street","MatchQuality":{"Country":1.0,"State":1.0,"County":1.0,"City":1.0,"District":1.0,"Street":[1.0],"PostalCode":1.0},"Location":{"LocationId":"NT_enPul9jKZFesszCZfexpsC_l_974680573_L","LocationType":"point","DisplayPosition":{"Latitude":52.40778,"Longitude":22.24948},"MapView":{"TopLeft":{"Latitude":52.40785,"Longitude":22.24948},"BottomRight":{"Latitude":52.40778,"Longitude":22.24973}},"Address":{"Label":"ulica Wolności, 08-300 Sokołów Podlaski, Polska","Country":"POL","State":"Woj. Mazowieckie","County":"Powiat Sokołowski","City":"Sokołów Podlaski","District":"Sokołów Podlaski","Street":"ulica Wolności","PostalCode":"08-300","AdditionalData":[{"value":"Polska","key":"CountryName"},{"value":"Woj. Mazowieckie","key":"StateName"},{"value":"Powiat Sokołowski","key":"CountyName"}]},"MapReference":{"ReferenceId":"974680573","Spot":0.0,"SideOfStreet":"left","CountryId":"20624059","StateId":"20627182","CountyId":"20627737","CityId":"20689489","DistrictId":"20689490"}}},{"Relevance":1.0,"Distance":99.1,"MatchLevel":"houseNumber","MatchQuality":{"Country":1.0,"State":1.0,"County":1.0,"City":1.0,"District":1.0,"Street":[1.0],"HouseNumber":1.0,"PostalCode":1.0},"MatchType":"interpolated","Location":{"LocationId":"NT_NSSgqg.9gAKEY3oIxN6GMC_xA","LocationType":"point","DisplayPosition":{"Latitude":52.40912,"Longitude":22.24786},"MapView":{"TopLeft":{"Latitude":52.4102442,"Longitude":22.2460172},"BottomRight":{"Latitude":52.4079958,"Longitude":22.2497028}},"Address":{"Label":"ulica Zaułek 1, 08-300 Sokołów Podlaski, Polska","Country":"POL","State":"Woj. Mazowieckie","County":"Powiat Sokołowski","City":"Sokołów Podlaski","District":"Sokołów Podlaski","Street":"ulica Zaułek","HouseNumber":"1","PostalCode":"08-300","AdditionalData":[{"value":"Polska","key":"CountryName"},{"value":"Woj. Mazowieckie","key":"StateName"},{"value":"Powiat Sokołowski","key":"CountyName"}]},"MapReference":{"ReferenceId":"595936971","Spot":0.0,"SideOfStreet":"right","CountryId":"20624059","StateId":"20627182","CountyId":"20627737","CityId":"20689489","DistrictId":"20689490","AddressId":"211566180","RoadLinkId":"95727835"}}},{"Relevance":1.0,"Distance":100.8,"MatchLevel":"houseNumber","MatchQuality":{"Country":1.0,"State":1.0,"County":1.0,"City":1.0,"District":1.0,"Street":[1.0],"HouseNumber":1.0,"PostalCode":1.0},"MatchType":"interpolated","Location":{"LocationId":"NT_C64-J1UXevLEoU6xc9oLpB_xID","LocationType":"point","DisplayPosition":{"Latitude":52.40713,"Longitude":22.24776},"MapView":{"TopLeft":{"Latitude":52.4082542,"Longitude":22.2459173},"BottomRight":{"Latitude":52.4060058,"Longitude":22.2496027}},"Address":{"Label":"ulica Wolności 12, 08-300 Sokołów Podlaski, Polska","Country":"POL","State":"Woj. Mazowieckie","County":"Powiat Sokołowski","City":"Sokołów Podlaski","District":"Sokołów Podlaski","Street":"ulica Wolności","HouseNumber":"12","PostalCode":"08-300","AdditionalData":[{"value":"Polska","key":"CountryName"},{"value":"Woj. Mazowieckie","key":"StateName"},{"value":"Powiat Sokołowski","key":"CountyName"}]},"MapReference":{"ReferenceId":"974680575","Spot":0.86,"SideOfStreet":"left","CountryId":"20624059","StateId":"20627182","CountyId":"20627737","CityId":"20689489","DistrictId":"20689490","AddressId":"211545906","RoadLinkId":"310256424"}}},{"Relevance":1.0,"Distance":108.8,"MatchLevel":"houseNumber","MatchQuality":{"Country":1.0,"State":1.0,"County":1.0,"City":1.0,"District":1.0,"Street":[1.0],"HouseNumber":1.0,"PostalCode":1.0},"MatchType":"interpolated","Location":{"LocationId":"NT_bi5OFOM81YcefhxxikL54C_5EE","LocationType":"point","DisplayPosition":{"Latitude":52.40916,"Longitude":22.24709},"MapView":{"TopLeft":{"Latitude":52.4102842,"Longitude":22.2452472},"BottomRight":{"Latitude":52.4080358,"Longitude":22.2489328}},"Address":{"Label":"ulica Topolowa 9A, 08-300 Sokołów Podlaski, Polska","Country":"POL","State":"Woj. Mazowieckie","County":"Powiat Sokołowski","City":"Sokołów Podlaski","District":"Sokołów Podlaski","Street":"ulica Topolowa","HouseNumber":"9A","PostalCode":"08-300","AdditionalData":[{"value":"Polska","key":"CountryName"},{"value":"Woj. Mazowieckie","key":"StateName"},{"value":"Powiat Sokołowski","key":"CountyName"}]},"MapReference":{"ReferenceId":"595936954","Spot":0.0,"SideOfStreet":"left","CountryId":"20624059","StateId":"20627182","CountyId":"20627737","CityId":"20689489","DistrictId":"20689490","AddressId":"209260285","RoadLinkId":"95612716"}}}]}]}}