{"Response":{"MetaInfo":{"Timestamp":"2020-03-28T12:01:29.384+0000","NextPageInformation":"2"},"View":[{"_type":"SearchResultsViewType","ViewId":0,"Result":[{"Relevance":1.0,"Distance":0.0,"Direction":0.0,"MatchLevel":"district","MatchQuality":{"Country":1.0,"State":1.0,"County":1.0,"City":1.0,"District":1.0,"PostalCode":1.0},"Location":{"LocationId":"NT_SHgxyIbrk8Rxk9t2AOks0B","LocationType":"point","DisplayPosition":{"Latitude":52.4665617,"Longitude":-1.8110538},"MapView":{"TopLeft":{"Latitude":52.47915,"Longitude":-1.84847},"BottomRight":{"Latitude":52.44957,"Longitude":-1.77632}},"Address":{"Label":"Yardley, Birmingham, England, United Kingdom","Country":"GBR","State":"England","County":"West Midlands","City":"Birmingham","District":"Yardley","PostalCode":"B25 8","AdditionalData":[{"value":"United Kingdom","key":"CountryName"},{"value":"England","key":"StateName"},{"value":"West Midlands","key":"CountyName"}]},"MapReference":{"ReferenceId":"1218175162","SideOfStreet":"neither","StateId":"20248595","CountyId":"20358328","CityId":"20358334","DistrictId":"20358412"}}},{"Relevance":1.0,"Distance":18.7,"MatchLevel":"street","MatchQuality":{"Country":1.0,"State":1.0,"County":1.0,"City":1.0,"District":1.0,"PostalCode":1.0},"Location":{"LocationId":"NT_w3Jvc.aca68xox2oWrEHjD_l_1167424524_L","LocationType":"point","DisplayPosition":{"Latitude":52.4666625,"Longitude":-1.810832},"MapView":{"TopLeft":{"Latitude":52.46688,"Longitude":-1.81086},"BottomRight":{"Latitude":52.46629,"Longitude":-1.81079}},"Address":{"Label":"Birmingham, B25 8, United Kingdom","Country":"GBR","State":"England","County":"West Midlands","City":"Birmingham","District":"Yardley","PostalCode":"B25 8","AdditionalData":[{"value":"United Kingdom","key":"CountryName"},{"value":"England","key":"StateName"},{"value":"West Midlands","key":"CountyName"}]},"MapReference":{"ReferenceId":"1167424524","Spot":0.63,"SideOfStreet":"left","StateId":"20248595","CountyId":"20358328","CityId":"20358334","DistrictId":"20358412"}}},{"Relevance":1.0,"Distance":19.0,"MatchLevel":"houseNumber","MatchQuality":{"Country":1.0,"State":1.0,"County":1.0,"City":1.0,"District":1.0,"Street":[1.0],"HouseNumber":1.0,"PostalCode":1.0},"MatchType":"interpolated","Location":{"LocationId":"NT_EQ6NmY3m68Fg7hjdBq4AUD_l_837321708_L_xUTN","LocationType":"point","DisplayPosition":{"Latitude":52.4664,"Longitude":-1.81068},"MapView":{"TopLeft":{"Latitude":52.4675242,"Longitude":-1.8125252},"BottomRight":{"Latitude":52.4652759,"Longitude":-1.8088347}},"Address":{"Label":"155 Church Road, Birmingham, B25 8UP, United Kingdom","Country":"GBR","State":"England","County":"West Midlands","City":"Birmingham","District":"Yardley","Street":"Church Road","HouseNumber":"155","PostalCode":"B25 8UP","AdditionalData":[{"value":"United Kingdom","key":"CountryName"},{"value":"England","key":"StateName"},{"value":"West Midlands","key":"CountyName"}]},"MapReference":{"ReferenceId":"837321708","Spot":0.29,"SideOfStreet":"left","StateId":"20248595","CountyId":"20358328","CityId":"20358334","DistrictId":"20358412"}}},{"Relevance":1.0,"Distance":23.4,"MatchLevel":"houseNumber","MatchQuality":{"Country":1.0,"State":1.0,"County":1.0,"City":1.0,"District":1.0,"Street":[1.0],"HouseNumber":1.0,"PostalCode":1.0},"MatchType":"interpolated","Location":{"LocationId":"NT_lAfbgpj-.qmKTVVQHH-c-B_l_1220100043_L_1QTN","LocationType":"point","DisplayPosition":{"Latitude":52.46688,"Longitude":-1.81085},"MapView":{"TopLeft":{"Latitude":52.4680042,"Longitude":-1.8126953},"BottomRight":{"Latitude":52.4657559,"Longitude":-1.8090048}},"Address":{"Label":"545 Hob Moor Road, Birmingham, B25 8TH, United Kingdom","Country":"GBR","State":"England","County":"West Midlands","City":"Birmingham","District":"Yardley","Street":"Hob Moor Road","HouseNumber":"545","PostalCode":"B25 8TH","AdditionalData":[{"value":"United Kingdom","key":"CountryName"},{"value":"England","key":"StateName"},{"value":"West Midlands","key":"CountyName"}]},"MapReference":{"ReferenceId":"1220100043","Spot":0.0,"SideOfStreet":"left","StateId":"20248595","CountyId":"20358328","CityId":"20358334","DistrictId":"20358412"}}},{"Relevance":1.0,"Distance":27.2,"MatchLevel":"houseNumber","MatchQuality":{"Country":1.0,"State":1.0,"County":1.0,"City":1.0,"District":1.0,"Street":[1.0],"HouseNumber":1.0,"PostalCode":1.0},"MatchType":"interpolated","Location":{"LocationId":"NT_ib.rpgW4mWsaminojYxXyB_l_1220099936_L_xUzM","LocationType":"point","DisplayPosition":{"Latitude":52.4662,"Longitude":-1.81091},"MapView":{"TopLeft":{"Latitude":52.4673242,"Longitude":-1.8127552},"BottomRight":{"Latitude":52.4650759,"Longitude":-1.8090648}},"Address":{"Label":"153 Church Road, Birmingham, B25 8UP, United Kingdom","Country":"GBR","State":"England","County":"West Midlands","City":"Birmingham","District":"Yardley","Street":"Church Road","HouseNumber":"153","PostalCode":"B25 8UP","AdditionalData":[{"value":"United Kingdom","key":"CountryName"},{"value":"England","key":"StateName"},{"value":"West Midlands","key":"CountyName"}]},"MapReference":{"ReferenceId":"1220099936","Spot":0.5,"SideOfStreet":"left","StateId":"20248595","CountyId":"20358328","CityId":"20358334","DistrictId":"20358412"}}},{"Relevance":1.0,"Distance":28.1,"MatchLevel":"houseNumber","MatchQuality":{"Country":1.0,"State":1.0,"County":1.0,"City":1.0,"District":1.0,"Street":[1.0],"HouseNumber":1.0,"PostalCode":1.0},"MatchType":"interpolated","Location":{"LocationId":"NT_lAfbgpj-.qmKTVVQHH-c-B_l_759955028_L_1QzN","LocationType":"point","DisplayPosition":{"Latitude":52.4668,"Longitude":-1.810625},"MapView":{"TopLeft":{"Latitude":52.4679242,"Longitude":-1.8124702},"BottomRight":{"Latitude":52.4656759,"Longitude":-1.8087798}},"Address":{"Label":"547 Hob Moor Road, Birmingham, B25 8TH, United Kingdom","Country":"GBR","State":"England","County":"West Midlands","City":"Birmingham","District":"Yardley","Street":"Hob Moor Road","HouseNumber":"547","PostalCode":"B25 8TH","AdditionalData":[{"value":"United Kingdom","key":"CountryName"},{"value":"England","key":"StateName"},{"value":"West Midlands","key":"CountyName"}]},"MapReference":{"ReferenceId":"759955028","Spot":0.54,"SideOfStreet":"left","StateId":"20248595","CountyId":"20358328","CityId":"20358334","DistrictId":"20358412"}}},{"Relevance":1.0,"Distance":44.9,"MatchLevel":"houseNumber","MatchQuality":{"Country":1.0,"State":1.0,"County":1.0,"City":1.0,"District":1.0,"Street":[1.0],"HouseNumber":1.0,"PostalCode":1.0},"MatchType":"interpolated","Location":{"LocationId":"NT_lAfbgpj-.qmKTVVQHH-c-B_l_1220100044_L_1QTM","LocationType":"point","DisplayPosition":{"Latitude":52.46703,"Longitude":-1.81138},"MapView":{"TopLeft":{"Latitude":52.4681542,"Longitude":-1.8132253},"BottomRight":{"Latitude":52.4659059,"Longitude":-1.8095348}},"Address":{"Label":"541 Hob Moor Road, Birmingham, B25 8TH, United Kingdom","Country":"GBR","State":"England","County":"West Midlands","City":"Birmingham","District":"Yardley","Street":"Hob Moor Road","HouseNumber":"541","PostalCode":"B25 8TH","AdditionalData":[{"value":"United Kingdom","key":"CountryName"},{"value":"England","key":"StateName"},{"value":"West Midlands","key":"CountyName"}]},"MapReference":{"ReferenceId":"1220100044","Spot":0.22,"SideOfStreet":"left","StateId":"20248595","CountyId":"20358328","CityId":"20358334","DistrictId":"20358412"}}},{"Relevance":1.0,"Distance":48.0,"MatchLevel":"houseNumber","MatchQuality":{"Country":1.0,"State":1.0,"County":1.0,"City":1.0,"District":1.0,"Street":[1.0],"HouseNumber":1.0,"PostalCode":1.0},"MatchType":"interpolated","Location":{"LocationId":"NT_EQ6NmY3m68Fg7hjdBq4AUD_l_837321710_R_xAjN","LocationType":"point","DisplayPosition":{"Latitude":52.4663533,"Longitude":-1.8104333},"MapView":{"TopLeft":{"Latitude":52.4674775,"Longitude":-1.8122785},"BottomRight":{"Latitude":52.4652292,"Longitude":-1.8085881}},"Address":{"Label":"106 Church Road, Birmingham, B25 8, United Kingdom","Country":"GBR","State":"England","County":"West Midlands","City":"Birmingham","District":"Yardley","Street":"Church Road","HouseNumber":"106","PostalCode":"B25 8","AdditionalData":[{"value":"United Kingdom","key":"CountryName"},{"value":"England","key":"StateName"},{"value":"West Midlands","key":"CountyName"}]},"MapReference":{"ReferenceId":"837321710","Spot":0.51,"SideOfStreet":"right","StateId":"20248595","CountyId":"20358328","CityId":"20358334","DistrictId":"20358412"}}},{"Relevance":1.0,"Distance":48.2,"MatchLevel":"street","MatchQuality":{"Country":1.0,"State":1.0,"County":1.0,"City":1.0,"District":1.0,"PostalCode":1.0},"Location":{"LocationId":"NT_w3Jvc.aca68xox2oWrEHjD_l_26318772_L","LocationType":"point","DisplayPosition":{"Latitude":52.46668,"Longitude":-1.81037},"MapView":{"TopLeft":{"Latitude":52.46668,"Longitude":-1.81037},"BottomRight":{"Latitude":52.46661,"Longitude":-1.81021}},"Address":{"Label":"Birmingham, B25 8, United Kingdom","Country":"GBR","State":"England","County":"West Midlands","City":"Birmingham","District":"Yardley","PostalCode":"B25 8","AdditionalData":[{"value":"United Kingdom","key":"CountryName"},{"value":"England","key":"StateName"},{"value":"West Midlands","key":"CountyName"}]},"MapReference":{"ReferenceId":"26318772","Spot":1.0,"SideOfStreet":"left","StateId":"20248595","CountyId":"20358328","CityId":"20358334","DistrictId":"20358412"}}},{"Relevance":1.0,"Distance":48.2,"MatchLevel":"street","MatchQuality":{"Country":1.0,"State":1.0,"County":1.0,"City":1.0,"District":1.0,"PostalCode":1.0},"Location":{"LocationId":"NT_w3Jvc.aca68xox2oWrEHjD_l_26318759_L","LocationType":"point","DisplayPosition":{"Latitude":52.46668,"Longitude":-1.81037},"MapView":{"TopLeft":{"Latitude":52.46671,"Longitude":-1.81037},"BottomRight":{"Latitude":52.46668,"Longitude":-1.81036}},"Address":{"Label":"Birmingham, B25 8, United Kingdom","Country":"GBR","State":"England","County":"West Midlands","City":"Birmingham","District":"Yardley","PostalCode":"B25 8","AdditionalData":[{"value":"United Kingdom","key":"CountryName"},{"value":"England","key":"StateName"},{"value":"West Midlands","key":"CountyName"}]},"MapReference":{"ReferenceId":"26318759","Spot":0.0,"SideOfStreet":"left","StateId":"20248595","CountyId":"20358328","CityId":"20358334","DistrictId":"20358412"}}}]}]}}