{"Response":{"MetaInfo":{"Timestamp":"2020-03-28T09:35:17.973+0000","NextPageInformation":"2"},"View":[{"_type":"SearchResultsViewType","ViewId":0,"Result":[{"Relevance":1.0,"Distance":0.0,"Direction":0.0,"MatchLevel":"district","MatchQuality":{"Country":1.0,"State":1.0,"County":1.0,"City":1.0,"District":1.0,"PostalCode":1.0},"Location":{"LocationId":"NT_GkImthzXJbbD9IhTmu0G4D","LocationType":"point","DisplayPosition":{"Latitude":52.4599467,"Longitude":13.5804706},"MapView":{"TopLeft":{"Latitude":52.48115,"Longitude":13.54573},"BottomRight":{"Latitude":52.38014,"Longitude":13.68056}},"Address":{"Label":"Köpenick, Berlin, Deutschland","Country":"DEU","State":"Berlin","County":"Berlin","City":"Berlin","District":"Köpenick","PostalCode":"12559","AdditionalData":[{"value":"Deutschland","key":"CountryName"},{"value":"Berlin","key":"StateName"},{"value":"Berlin","key":"CountyName"}]},"MapReference":{"ReferenceId":"1252426405","SideOfStreet":"neither","CountryId":"20147700","StateId":"20187401","CountyId":"20187402","CityId":"20187403","DistrictId":"20187422"}}},{"Relevance":1.0,"Distance":8.5,"MatchLevel":"houseNumber","MatchQuality":{"Country":1.0,"State":1.0,"County":1.0,"City":1.0,"District":1.0,"Street":[1.0],"HouseNumber":1.0,"PostalCode":1.0},"MatchType":"interpolated","Location":{"LocationId":"NT_MsbqOHOpOkt9ckWQDJIhlB_xAjN","LocationType":"point","DisplayPosition":{"Latitude":52.45983,"Longitude":13.58053},"MapView":{"TopLeft":{"Latitude":52.4609542,"Longitude":13.5786851},"BottomRight":{"Latitude":52.4587058,"Longitude":13.5823749}},"Address":{"Label":"Mahlsdorfer Straße 106, 12555 Berlin, Deutschland","Country":"DEU","State":"Berlin","County":"Berlin","City":"Berlin","District":"Köpenick","Street":"Mahlsdorfer Straße","HouseNumber":"106","PostalCode":"12555","AdditionalData":[{"value":"Deutschland","key":"CountryName"},{"value":"Berlin","key":"StateName"},{"value":"Berlin","key":"CountyName"}]},"MapReference":{"ReferenceId":"1199243961","Spot":0.84,"SideOfStreet":"left","CountryId":"20147700","StateId":"20187401","CountyId":"20187402","CityId":"20187403","DistrictId":"20187422","AddressId":"168366941","RoadLinkId":"511033372"}}},{"Relevance":1.0,"Distance":10.8,"MatchLevel":"street","MatchQuality":{"Country":1.0,"State":1.0,"County":1.0,"City":1.0,"District":1.0,"Street":[1.0],"PostalCode":1.0},"Location":{"LocationId":"NT_MsbqOHOpOkt9ckWQDJIhlB_l_1199243956_L","LocationType":"point","DisplayPosition":{"Latitude":52.4599,"Longitude":13.58061},"MapView":{"TopLeft":{"Latitude":52.46007,"Longitude":13.58061},"BottomRight":{"Latitude":52.4599,"Longitude":13.58081}},"Address":{"Label":"Mahlsdorfer Straße, 12555 Berlin, Deutschland","Country":"DEU","State":"Berlin","County":"Berlin","City":"Berlin","District":"Köpenick","Street":"Mahlsdorfer Straße","PostalCode":"12555","AdditionalData":[{"value":"Deutschland","key":"CountryName"},{"value":"Berlin","key":"StateName"},{"value":"Berlin","key":"CountyName"}]},"MapReference":{"ReferenceId":"1199243956","Spot":0.0,"SideOfStreet":"left","CountryId":"20147700","StateId":"20187401","CountyId":"20187402","CityId":"20187403","DistrictId":"20187422"}}},{"Relevance":1.0,"Distance":23.8,"MatchLevel":"houseNumber","MatchQuality":{"Country":1.0,"State":1.0,"County":1.0,"City":1.0,"District":1.0,"Street":[1.0],"HouseNumber":1.0,"PostalCode":1.0},"MatchType":"interpolated","Location":{"LocationId":"NT_MsbqOHOpOkt9ckWQDJIhlB_yEE","LocationType":"point","DisplayPosition":{"Latitude":52.45977,"Longitude":13.58067},"MapView":{"TopLeft":{"Latitude":52.4608942,"Longitude":13.5788251},"BottomRight":{"Latitude":52.4586458,"Longitude":13.5825149}},"Address":{"Label":"Mahlsdorfer Straße 2A, 12555 Berlin, Deutschland","Country":"DEU","State":"Berlin","County":"Berlin","City":"Berlin","District":"Köpenick","Street":"Mahlsdorfer Straße","HouseNumber":"2A","PostalCode":"12555","AdditionalData":[{"value":"Deutschland","key":"CountryName"},{"value":"Berlin","key":"StateName"},{"value":"Berlin","key":"CountyName"}]},"MapReference":{"ReferenceId":"1199479502","Spot":0.71,"SideOfStreet":"right","CountryId":"20147700","StateId":"20187401","CountyId":"20187402","CityId":"20187403","DistrictId":"20187422","AddressId":"790358046","RoadLinkId":"511422348"}}},{"Relevance":1.0,"Distance":26.8,"MatchLevel":"street","MatchQuality":{"Country":1.0,"State":1.0,"County":1.0,"City":1.0,"District":1.0,"Street":[1.0],"PostalCode":1.0},"Location":{"LocationId":"NT_XUQqlDRLXLfnLVkqDwfI8C_l_53482142_L","LocationType":"point","DisplayPosition":{"Latitude":52.46007,"Longitude":13.58081},"MapView":{"TopLeft":{"Latitude":52.46007,"Longitude":13.58081},"BottomRight":{"Latitude":52.46001,"Longitude":13.58095}},"Address":{"Label":"Kaulsdorfer Straße, 12555 Berlin, Deutschland","Country":"DEU","State":"Berlin","County":"Berlin","City":"Berlin","District":"Köpenick","Street":"Kaulsdorfer Straße","PostalCode":"12555","AdditionalData":[{"value":"Deutschland","key":"CountryName"},{"value":"Berlin","key":"StateName"},{"value":"Berlin","key":"CountyName"}]},"MapReference":{"ReferenceId":"53482142","Spot":1.0,"SideOfStreet":"left","CountryId":"20147700","StateId":"20187401","CountyId":"20187402","CityId":"20187403","DistrictId":"20187422"}}},{"Relevance":1.0,"Distance":40.1,"MatchLevel":"houseNumber","MatchQuality":{"Country":1.0,"State":1.0,"County":1.0,"City":1.0,"District":1.0,"Street":[1.0],"HouseNumber":1.0,"PostalCode":1.0},"MatchType":"interpolated","Location":{"LocationId":"NT_MsbqOHOpOkt9ckWQDJIhlB_0A","LocationType":"point","DisplayPosition":{"Latitude":52.46008,"Longitude":13.58102},"MapView":{"TopLeft":{"Latitude":52.4612042,"Longitude":13.5791751},"BottomRight":{"Latitude":52.4589558,"Longitude":13.5828649}},"Address":{"Label":"Mahlsdorfer Straße 4, 12555 Berlin, Deutschland","Country":"DEU","State":"Berlin","County":"Berlin","City":"Berlin","District":"Köpenick","Street":"Mahlsdorfer Straße","HouseNumber":"4","PostalCode":"12555","AdditionalData":[{"value":"Deutschland","key":"CountryName"},{"value":"Berlin","key":"StateName"},{"value":"Berlin","key":"CountyName"}]},"MapReference":{"ReferenceId":"1199243978","Spot":0.13,"SideOfStreet":"right","CountryId":"20147700","StateId":"20187401","CountyId":"20187402","CityId":"20187403","DistrictId":"20187422","AddressId":"168223662","RoadLinkId":"511033391"}}},{"Relevance":1.0,"Distance":40.5,"MatchLevel":"houseNumber","MatchQuality":{"Country":1.0,"State":1.0,"County":1.0,"City":1.0,"District":1.0,"Street":[1.0],"HouseNumber":1.0,"PostalCode":1.0},"MatchType":"interpolated","Location":{"LocationId":"NT_MsbqOHOpOkt9ckWQDJIhlB_l_1199243953_L_xATN","LocationType":"point","DisplayPosition":{"Latitude":52.46018,"Longitude":13.58093},"MapView":{"TopLeft":{"Latitude":52.4613042,"Longitude":13.5790851},"BottomRight":{"Latitude":52.4590559,"Longitude":13.582775}},"Address":{"Label":"Mahlsdorfer Straße 105, 12555 Berlin, Deutschland","Country":"DEU","State":"Berlin","County":"Berlin","City":"Berlin","District":"Köpenick","Street":"Mahlsdorfer Straße","HouseNumber":"105","PostalCode":"12555","AdditionalData":[{"value":"Deutschland","key":"CountryName"},{"value":"Berlin","key":"StateName"},{"value":"Berlin","key":"CountyName"}]},"MapReference":{"ReferenceId":"1199243953","Spot":0.3,"SideOfStreet":"left","CountryId":"20147700","StateId":"20187401","CountyId":"20187402","CityId":"20187403","DistrictId":"20187422"}}},{"Relevance":1.0,"Distance":58.4,"MatchLevel":"houseNumber","MatchQuality":{"Country":1.0,"State":1.0,"County":1.0,"City":1.0,"District":1.0,"Street":[1.0],"HouseNumber":1.0,"PostalCode":1.0},"MatchType":"interpolated","Location":{"LocationId":"NT_Ysi7ITuqsudCwAz6XsCLeA_yUTQ","LocationType":"point","DisplayPosition":{"Latitude":52.45983,"Longitude":13.57963},"MapView":{"TopLeft":{"Latitude":52.4609542,"Longitude":13.5777851},"BottomRight":{"Latitude":52.4587058,"Longitude":13.5814749}},"Address":{"Label":"Alte Kaulsdorfer Straße 25A, 12555 Berlin, Deutschland","Country":"DEU","State":"Berlin","County":"Berlin","City":"Berlin","District":"Köpenick","Street":"Alte Kaulsdorfer Straße","HouseNumber":"25A","PostalCode":"12555","AdditionalData":[{"value":"Deutschland","key":"CountryName"},{"value":"Berlin","key":"StateName"},{"value":"Berlin","key":"CountyName"}]},"MapReference":{"ReferenceId":"1254752419","Spot":0.02,"SideOfStreet":"left","CountryId":"20147700","StateId":"20187401","CountyId":"20187402","CityId":"20187403","DistrictId":"20187422","AddressId":"790102053","RoadLinkId":"578069935"}}},{"Relevance":1.0,"Distance":71.3,"MatchLevel":"houseNumber","MatchQuality":{"Country":1.0,"State":1.0,"County":1.0,"City":1.0,"District":1.0,"Street":[1.0],"HouseNumber":1.0,"PostalCode":1.0},"MatchType":"interpolated","Location":{"LocationId":"NT_MsbqOHOpOkt9ckWQDJIhlB_xATO","LocationType":"point","DisplayPosition":{"Latitude":52.45937,"Longitude":13.58001},"MapView":{"TopLeft":{"Latitude":52.4604942,"Longitude":13.5781651},"BottomRight":{"Latitude":52.4582458,"Longitude":13.5818549}},"Address":{"Label":"Mahlsdorfer Straße 109, 12555 Berlin, Deutschland","Country":"DEU","State":"Berlin","County":"Berlin","City":"Berlin","District":"Köpenick","Street":"Mahlsdorfer Straße","HouseNumber":"109","PostalCode":"12555","AdditionalData":[{"value":"Deutschland","key":"CountryName"},{"value":"Berlin","key":"StateName"},{"value":"Berlin","key":"CountyName"}]},"MapReference":{"ReferenceId":"1199243963","Spot":0.53,"SideOfStreet":"left","CountryId":"20147700","StateId":"20187401","CountyId":"20187402","CityId":"20187403","DistrictId":"20187422","AddressId":"168366942","RoadLinkId":"511033374"}}},{"Relevance":1.0,"Distance":88.7,"MatchLevel":"houseNumber","MatchQuality":{"Country":1.0,"State":1.0,"County":1.0,"City":1.0,"District":1.0,"Street":[1.0],"HouseNumber":1.0,"PostalCode":1.0},"MatchType":"interpolated","Location":{"LocationId":"NT_P7NaCvmF1v6Gjq-W7QlQ-C_xEE","LocationType":"point","DisplayPosition":{"Latitude":52.45903,"Longitude":13.58053},"MapView":{"TopLeft":{"Latitude":52.4601542,"Longitude":13.5786851},"BottomRight":{"Latitude":52.4579058,"Longitude":13.5823749}},"Address":{"Label":"Stellingdamm 1A, 12555 Berlin, Deutschland","Country":"DEU","State":"Berlin","County":"Berlin","City":"Berlin","District":"Köpenick","Street":"Stellingdamm","HouseNumber":"1A","PostalCode":"12555","AdditionalData":[{"value":"Deutschland","key":"CountryName"},{"value":"Berlin","key":"StateName"},{"value":"Berlin","key":"CountyName"}]},"MapReference":{"ReferenceId":"778444766","Spot":0.07,"SideOfStreet":"left","CountryId":"20147700","StateId":"20187401","CountyId":"20187402","CityId":"20187403","DistrictId":"20187422","AddressId":"170151638","RoadLinkId":"171891781"}}}]}]}}