{"Response":{"MetaInfo":{"Timestamp":"2020-03-28T10:11:33.195+0000","NextPageInformation":"2"},"View":[{"_type":"SearchResultsViewType","ViewId":0,"Result":[{"Relevance":1.0,"Distance":0.0,"Direction":0.0,"MatchLevel":"district","MatchQuality":{"Country":1.0,"State":1.0,"County":1.0,"City":1.0,"District":1.0,"PostalCode":1.0},"Location":{"LocationId":"NT_cbWy.znTusPKGxAH9DgTxC","LocationType":"point","DisplayPosition":{"Latitude":52.4009808,"Longitude":-1.9611094},"MapView":{"TopLeft":{"Latitude":52.43814,"Longitude":-2.004},"BottomRight":{"Latitude":52.38339,"Longitude":-1.94679}},"Address":{"Label":"Northfield, Birmingham, England, United Kingdom","Country":"GBR","State":"England","County":"West Midlands","City":"Birmingham","District":"Northfield","PostalCode":"B31 2","AdditionalData":[{"value":"United Kingdom","key":"CountryName"},{"value":"England","key":"StateName"},{"value":"West Midlands","key":"CountyName"}]},"MapReference":{"ReferenceId":"837455861","SideOfStreet":"neither","StateId":"20248595","CountyId":"20358328","CityId":"20358334","DistrictId":"20358386"}}},{"Relevance":1.0,"Distance":6.2,"MatchLevel":"houseNumber","MatchQuality":{"Country":1.0,"State":1.0,"County":1.0,"City":1.0,"District":1.0,"Street":[1.0],"HouseNumber":1.0,"PostalCode":1.0},"MatchType":"interpolated","Location":{"LocationId":"NT_roUkF9P46kNVkaZctC7paC_l_26351485_R_xczN","LocationType":"point","DisplayPosition":{"Latitude":52.4010028,"Longitude":-1.9612368},"MapView":{"TopLeft":{"Latitude":52.4021269,"Longitude":-1.9630793},"BottomRight":{"Latitude":52.3998786,"Longitude":-1.9593943}},"Address":{"Label":"177 West Heath Road, Birmingham, B31 3HD, United Kingdom","Country":"GBR","State":"England","County":"West Midlands","City":"Birmingham","District":"Northfield","Street":"West Heath Road","HouseNumber":"177","PostalCode":"B31 3HD","AdditionalData":[{"value":"United Kingdom","key":"CountryName"},{"value":"England","key":"StateName"},{"value":"West Midlands","key":"CountyName"}]},"MapReference":{"ReferenceId":"26351485","Spot":0.62,"SideOfStreet":"right","StateId":"20248595","CountyId":"20358328","CityId":"20358334","DistrictId":"20358386"}}},{"Relevance":1.0,"Distance":35.1,"MatchLevel":"houseNumber","MatchQuality":{"Country":1.0,"State":1.0,"County":1.0,"City":1.0,"District":1.0,"Street":[1.0],"HouseNumber":1.0,"PostalCode":1.0},"MatchType":"interpolated","Location":{"LocationId":"NT_roUkF9P46kNVkaZctC7paC_l_758698037_L_xkDN","LocationType":"point","DisplayPosition":{"Latitude":52.40108,"Longitude":-1.9616},"MapView":{"TopLeft":{"Latitude":52.4022042,"Longitude":-1.9634425},"BottomRight":{"Latitude":52.3999559,"Longitude":-1.9597575}},"Address":{"Label":"194 West Heath Road, Birmingham, B31 3HB, United Kingdom","Country":"GBR","State":"England","County":"West Midlands","City":"Birmingham","District":"Northfield","Street":"West Heath Road","HouseNumber":"194","PostalCode":"B31 3HB","AdditionalData":[{"value":"United Kingdom","key":"CountryName"},{"value":"England","key":"StateName"},{"value":"West Midlands","key":"CountyName"}]},"MapReference":{"ReferenceId":"758698037","Spot":0.25,"SideOfStreet":"left","StateId":"20248595","CountyId":"20358328","CityId":"20358334","DistrictId":"20358386"}}},{"Relevance":1.0,"Distance":35.3,"MatchLevel":"houseNumber","MatchQuality":{"Country":1.0,"State":1.0,"County":1.0,"City":1.0,"District":1.0,"Street":[1.0],"HouseNumber":1.0,"PostalCode":1.0},"MatchType":"interpolated","Location":{"LocationId":"NT_roUkF9P46kNVkaZctC7paC_l_1204861616_L_xkjN","LocationType":"point","DisplayPosition":{"Latitude":52.4009051,"Longitude":-1.9616145},"MapView":{"TopLeft":{"Latitude":52.4020293,"Longitude":-1.963457},"BottomRight":{"Latitude":52.399781,"Longitude":-1.959772}},"Address":{"Label":"196 West Heath Road, Birmingham, B31 3, United Kingdom","Country":"GBR","State":"England","County":"West Midlands","City":"Birmingham","District":"Northfield","Street":"West Heath Road","HouseNumber":"196","PostalCode":"B31 3","AdditionalData":[{"value":"United Kingdom","key":"CountryName"},{"value":"England","key":"StateName"},{"value":"West Midlands","key":"CountyName"}]},"MapReference":{"ReferenceId":"1204861616","Spot":0.55,"SideOfStreet":"left","StateId":"20248595","CountyId":"20358328","CityId":"20358334","DistrictId":"20358386"}}},{"Relevance":1.0,"Distance":43.0,"MatchLevel":"postalCode","MatchQuality":{"PostalCode":1.0},"MatchType":"interpolated","Location":{"LocationId":"NT_roUkF9P46kNVkaZctC7paC_l_1204861615_L_xkDO","LocationType":"point","DisplayPosition":{"Latitude":52.40079,"Longitude":-1.96166},"MapView":{"TopLeft":{"Latitude":52.4097832,"Longitude":-1.9763997},"BottomRight":{"Latitude":52.3917968,"Longitude":-1.9469203}},"Address":{"Label":"B31 3AN, Birmingham, England, United Kingdom","Country":"GBR","State":"England","County":"West Midlands","City":"Birmingham","PostalCode":"B31 3AN","AdditionalData":[{"value":"United Kingdom","key":"CountryName"},{"value":"England","key":"StateName"},{"value":"West Midlands","key":"CountyName"}]},"MapReference":{"ReferenceId":"1204861615","Spot":0.52,"SideOfStreet":"neither","StateId":"20248595","CountyId":"20358328","CityId":"20358334"}}},{"Relevance":1.0,"Distance":45.1,"MatchLevel":"houseNumber","MatchQuality":{"Country":1.0,"State":1.0,"County":1.0,"City":1.0,"District":1.0,"Street":[1.0],"HouseNumber":1.0,"PostalCode":1.0},"MatchType":"interpolated","Location":{"LocationId":"NT_roUkF9P46kNVkaZctC7paC_l_1204861615_L_xkDO","LocationType":"point","DisplayPosition":{"Latitude":52.4007241,"Longitude":-1.9616248},"MapView":{"TopLeft":{"Latitude":52.4018483,"Longitude":-1.9634673},"BottomRight":{"Latitude":52.3996,"Longitude":-1.9597824}},"Address":{"Label":"198 West Heath Road, Birmingham, B31 3AN, United Kingdom","Country":"GBR","State":"England","County":"West Midlands","City":"Birmingham","District":"Northfield","Street":"West Heath Road","HouseNumber":"198","PostalCode":"B31 3AN","AdditionalData":[{"value":"United Kingdom","key":"CountryName"},{"value":"England","key":"StateName"},{"value":"West Midlands","key":"CountyName"}]},"MapReference":{"ReferenceId":"1204861615","Spot":0.52,"SideOfStreet":"left","StateId":"20248595","CountyId":"20358328","CityId":"20358334","DistrictId":"20358386"}}},{"Relevance":1.0,"Distance":53.6,"MatchLevel":"street","MatchQuality":{"Country":1.0,"State":1.0,"County":1.0,"City":1.0,"District":1.0,"Street":[1.0],"PostalCode":1.0},"Location":{"LocationId":"NT_roUkF9P46kNVkaZctC7paC_l_26351416_L","LocationType":"point","DisplayPosition":{"Latitude":52.40146,"Longitude":-1.9612},"MapView":{"TopLeft":{"Latitude":52.40147,"Longitude":-1.96158},"BottomRight":{"Latitude":52.40146,"Longitude":-1.9612}},"Address":{"Label":"West Heath Road, Birmingham, B31 3, United Kingdom","Country":"GBR","State":"England","County":"West Midlands","City":"Birmingham","District":"Northfield","Street":"West Heath Road","PostalCode":"B31 3","AdditionalData":[{"value":"United Kingdom","key":"CountryName"},{"value":"England","key":"StateName"},{"value":"West Midlands","key":"CountyName"}]},"MapReference":{"ReferenceId":"26351416","Spot":0.0,"SideOfStreet":"left","StateId":"20248595","CountyId":"20358328","CityId":"20358334","DistrictId":"20358386"}}},{"Relevance":1.0,"Distance":61.0,"MatchLevel":"postalCode","MatchQuality":{"PostalCode":1.0},"MatchType":"interpolated","Location":{"LocationId":"NT_TJpRZkKmlmBzuIpCaRXcrD_l_78789243_L_5A","LocationType":"point","DisplayPosition":{"Latitude":52.4008,"Longitude":-1.96026},"MapView":{"TopLeft":{"Latitude":52.4097932,"Longitude":-1.9749997},"BottomRight":{"Latitude":52.3918068,"Longitude":-1.9455203}},"Address":{"Label":"B31 3HF, Birmingham, England, United Kingdom","Country":"GBR","State":"England","County":"West Midlands","City":"Birmingham","PostalCode":"B31 3HF","AdditionalData":[{"value":"United Kingdom","key":"CountryName"},{"value":"England","key":"StateName"},{"value":"West Midlands","key":"CountyName"}]},"MapReference":{"ReferenceId":"78789243","Spot":0.24,"SideOfStreet":"neither","StateId":"20248595","CountyId":"20358328","CityId":"20358334"}}},{"Relevance":1.0,"Distance":65.4,"MatchLevel":"houseNumber","MatchQuality":{"Country":1.0,"State":1.0,"County":1.0,"City":1.0,"District":1.0,"Street":[1.0],"HouseNumber":1.0,"PostalCode":1.0},"MatchType":"interpolated","Location":{"LocationId":"NT_JburqxY7xNcZFaeqbG2yrC_l_26351525_L_4A","LocationType":"point","DisplayPosition":{"Latitude":52.40026,"Longitude":-1.961015},"MapView":{"TopLeft":{"Latitude":52.4013842,"Longitude":-1.9628574},"BottomRight":{"Latitude":52.3991359,"Longitude":-1.9591725}},"Address":{"Label":"8 The Fordrough, Birmingham, B31 3LX, United Kingdom","Country":"GBR","State":"England","County":"West Midlands","City":"Birmingham","District":"Northfield","Street":"The Fordrough","HouseNumber":"8","PostalCode":"B31 3LX","AdditionalData":[{"value":"United Kingdom","key":"CountryName"},{"value":"England","key":"StateName"},{"value":"West Midlands","key":"CountyName"}]},"MapReference":{"ReferenceId":"26351525","Spot":0.32,"SideOfStreet":"left","StateId":"20248595","CountyId":"20358328","CityId":"20358334","DistrictId":"20358386"}}},{"Relevance":1.0,"Distance":67.9,"MatchLevel":"houseNumber","MatchQuality":{"Country":1.0,"State":1.0,"County":1.0,"City":1.0,"District":1.0,"Street":[1.0],"HouseNumber":1.0,"PostalCode":1.0},"MatchType":"interpolated","Location":{"LocationId":"NT_roUkF9P46kNVkaZctC7paC_l_26351415_R_xYTO","LocationType":"point","DisplayPosition":{"Latitude":52.4015901,"Longitude":-1.96119},"MapView":{"TopLeft":{"Latitude":52.4027143,"Longitude":-1.9630325},"BottomRight":{"Latitude":52.400466,"Longitude":-1.9593475}},"Address":{"Label":"169 West Heath Road, Birmingham, B31 3HD, United Kingdom","Country":"GBR","State":"England","County":"West Midlands","City":"Birmingham","District":"Northfield","Street":"West Heath Road","HouseNumber":"169","PostalCode":"B31 3HD","AdditionalData":[{"value":"United Kingdom","key":"CountryName"},{"value":"England","key":"StateName"},{"value":"West Midlands","key":"CountyName"}]},"MapReference":{"ReferenceId":"26351415","Spot":0.16,"SideOfStreet":"right","StateId":"20248595","CountyId":"20358328","CityId":"20358334","DistrictId":"20358386"}}}]}]}}