{"Response":{"MetaInfo":{"Timestamp":"2020-03-28T10:32:33.276+0000","NextPageInformation":"2"},"View":[{"_type":"SearchResultsViewType","ViewId":0,"Result":[{"Relevance":1.0,"Distance":0.0,"Direction":0.0,"MatchLevel":"district","MatchQuality":{"Country":1.0,"State":1.0,"County":1.0,"City":1.0,"District":1.0,"PostalCode":1.0},"Location":{"LocationId":"NT_rS5Kx5kSHEssxGYQPRhgTD","LocationType":"point","DisplayPosition":{"Latitude":52.4248001,"Longitude":-1.7959589},"MapView":{"TopLeft":{"Latitude":52.458,"Longitude":-1.83025},"BottomRight":{"Latitude":52.36806,"Longitude":-1.72753}},"Address":{"Label":"Solihull, England, United Kingdom","Country":"GBR","State":"England","County":"West Midlands","City":"Solihull","District":"Solihull","PostalCode":"B91 3","AdditionalData":[{"value":"United Kingdom","key":"CountryName"},{"value":"England","key":"StateName"},{"value":"West Midlands","key":"CountyName"}]},"MapReference":{"ReferenceId":"565679266","SideOfStreet":"neither","StateId":"20248595","CountyId":"20358328","CityId":"20358495","DistrictId":"20358496"}}},{"Relevance":1.0,"Distance":10.5,"MatchLevel":"houseNumber","MatchQuality":{"Country":1.0,"State":1.0,"County":1.0,"City":1.0,"District":1.0,"Street":[1.0],"HouseNumber":1.0,"PostalCode":1.0},"MatchType":"interpolated","Location":{"LocationId":"NT_OPHyrvdswz0EM65HqS9LPA_l_1219325557_L_zkDM","LocationType":"point","DisplayPosition":{"Latitude":52.4250045,"Longitude":-1.7957984},"MapView":{"TopLeft":{"Latitude":52.4261287,"Longitude":-1.7976419},"BottomRight":{"Latitude":52.4238804,"Longitude":-1.7939549}},"Address":{"Label":"390 Warwick Road, Solihull, B91 1BB, United Kingdom","Country":"GBR","State":"England","County":"West Midlands","City":"Solihull","District":"Solihull","Street":"Warwick Road","HouseNumber":"390","PostalCode":"B91 1BB","AdditionalData":[{"value":"United Kingdom","key":"CountryName"},{"value":"England","key":"StateName"},{"value":"West Midlands","key":"CountyName"}]},"MapReference":{"ReferenceId":"1219325557","Spot":0.53,"SideOfStreet":"left","StateId":"20248595","CountyId":"20358328","CityId":"20358495","DistrictId":"20358496"}}},{"Relevance":1.0,"Distance":20.4,"MatchLevel":"postalCode","MatchQuality":{"PostalCode":1.0},"MatchType":"interpolated","Location":{"LocationId":"NT_OPHyrvdswz0EM65HqS9LPA_l_1219325557_L_zkDM","LocationType":"point","DisplayPosition":{"Latitude":52.42496,"Longitude":-1.79581},"MapView":{"TopLeft":{"Latitude":52.4339532,"Longitude":-1.8105578},"BottomRight":{"Latitude":52.4159668,"Longitude":-1.7810622}},"Address":{"Label":"B91 1BB, Solihull, England, United Kingdom","Country":"GBR","State":"England","County":"West Midlands","City":"Solihull","PostalCode":"B91 1BB","AdditionalData":[{"value":"United Kingdom","key":"CountryName"},{"value":"England","key":"StateName"},{"value":"West Midlands","key":"CountyName"}]},"MapReference":{"ReferenceId":"1219325557","Spot":0.53,"SideOfStreet":"neither","StateId":"20248595","CountyId":"20358328","CityId":"20358495"}}},{"Relevance":1.0,"Distance":30.6,"MatchLevel":"postalCode","MatchQuality":{"PostalCode":1.0},"MatchType":"interpolated","Location":{"LocationId":"NT_SkpC-dwWckWxu1GeZmo7VD_l_1219325556_L_zkjM","LocationType":"point","DisplayPosition":{"Latitude":52.42494,"Longitude":-1.79557},"MapView":{"TopLeft":{"Latitude":52.4339332,"Longitude":-1.8103178},"BottomRight":{"Latitude":52.4159468,"Longitude":-1.7808222}},"Address":{"Label":"B91 1BA, Solihull, England, United Kingdom","Country":"GBR","State":"England","County":"West Midlands","City":"Solihull","PostalCode":"B91 1BA","AdditionalData":[{"value":"United Kingdom","key":"CountryName"},{"value":"England","key":"StateName"},{"value":"West Midlands","key":"CountyName"}]},"MapReference":{"ReferenceId":"1219325556","Spot":0.49,"SideOfStreet":"neither","StateId":"20248595","CountyId":"20358328","CityId":"20358495"}}},{"Relevance":1.0,"Distance":32.3,"MatchLevel":"houseNumber","MatchQuality":{"Country":1.0,"State":1.0,"County":1.0,"City":1.0,"District":1.0,"Street":[1.0],"HouseNumber":1.0,"PostalCode":1.0},"MatchType":"interpolated","Location":{"LocationId":"NT_SkpC-dwWckWxu1GeZmo7VD_l_1219325556_L_zkjM","LocationType":"point","DisplayPosition":{"Latitude":52.424825,"Longitude":-1.79545},"MapView":{"TopLeft":{"Latitude":52.4259492,"Longitude":-1.7972935},"BottomRight":{"Latitude":52.4237009,"Longitude":-1.7936065}},"Address":{"Label":"392 Warwick Road, Solihull, B91 1BB, United Kingdom","Country":"GBR","State":"England","County":"West Midlands","City":"Solihull","District":"Solihull","Street":"Warwick Road","HouseNumber":"392","PostalCode":"B91 1BB","AdditionalData":[{"value":"United Kingdom","key":"CountryName"},{"value":"England","key":"StateName"},{"value":"West Midlands","key":"CountyName"}]},"MapReference":{"ReferenceId":"1219325556","Spot":0.49,"SideOfStreet":"left","StateId":"20248595","CountyId":"20358328","CityId":"20358495","DistrictId":"20358496"}}},{"Relevance":1.0,"Distance":34.4,"MatchLevel":"houseNumber","MatchQuality":{"Country":1.0,"State":1.0,"County":1.0,"City":1.0,"District":1.0,"Street":[1.0],"HouseNumber":1.0,"PostalCode":1.0},"MatchType":"interpolated","Location":{"LocationId":"NT_n96rtmouLbvRCzlcpc5MvB_l_836342999_L_yA","LocationType":"point","DisplayPosition":{"Latitude":52.4244718,"Longitude":-1.7954727},"MapView":{"TopLeft":{"Latitude":52.425596,"Longitude":-1.7973161},"BottomRight":{"Latitude":52.4233477,"Longitude":-1.7936292}},"Address":{"Label":"2 Broad Oaks Road, Solihull, B91 1JB, United Kingdom","Country":"GBR","State":"England","County":"West Midlands","City":"Solihull","District":"Solihull","Street":"Broad Oaks Road","HouseNumber":"2","PostalCode":"B91 1JB","AdditionalData":[{"value":"United Kingdom","key":"CountryName"},{"value":"England","key":"StateName"},{"value":"West Midlands","key":"CountyName"}]},"MapReference":{"ReferenceId":"836342999","Spot":0.95,"SideOfStreet":"left","StateId":"20248595","CountyId":"20358328","CityId":"20358495","DistrictId":"20358496"}}},{"Relevance":1.0,"Distance":34.5,"MatchLevel":"houseNumber","MatchQuality":{"Country":1.0,"State":1.0,"County":1.0,"City":1.0,"District":1.0,"Street":[1.0],"HouseNumber":1.0,"PostalCode":1.0},"MatchType":"interpolated","Location":{"LocationId":"NT_idRY5MnaaHPHuT9Tqgv5IB_l_26322196_R_yA","LocationType":"point","DisplayPosition":{"Latitude":52.4251802,"Longitude":-1.7957898},"MapView":{"TopLeft":{"Latitude":52.4263043,"Longitude":-1.7976333},"BottomRight":{"Latitude":52.424056,"Longitude":-1.7939463}},"Address":{"Label":"2 Mirfield Road, Solihull, B91 1JD, United Kingdom","Country":"GBR","State":"England","County":"West Midlands","City":"Solihull","District":"Solihull","Street":"Mirfield Road","HouseNumber":"2","PostalCode":"B91 1JD","AdditionalData":[{"value":"United Kingdom","key":"CountryName"},{"value":"England","key":"StateName"},{"value":"West Midlands","key":"CountyName"}]},"MapReference":{"ReferenceId":"26322196","Spot":0.04,"SideOfStreet":"right","StateId":"20248595","CountyId":"20358328","CityId":"20358495","DistrictId":"20358496"}}},{"Relevance":1.0,"Distance":38.9,"MatchLevel":"houseNumber","MatchQuality":{"Country":1.0,"State":1.0,"County":1.0,"City":1.0,"District":1.0,"Street":[1.0],"HouseNumber":1.0,"PostalCode":1.0},"MatchType":"interpolated","Location":{"LocationId":"NT_OPHyrvdswz0EM65HqS9LPA_l_26322197_L_zgDO","LocationType":"point","DisplayPosition":{"Latitude":52.4252258,"Longitude":-1.7961625},"MapView":{"TopLeft":{"Latitude":52.4263499,"Longitude":-1.798006},"BottomRight":{"Latitude":52.4241016,"Longitude":-1.794319}},"Address":{"Label":"388 Warwick Road, Solihull, B91 1, United Kingdom","Country":"GBR","State":"England","County":"West Midlands","City":"Solihull","District":"Solihull","Street":"Warwick Road","HouseNumber":"388","PostalCode":"B91 1","AdditionalData":[{"value":"United Kingdom","key":"CountryName"},{"value":"England","key":"StateName"},{"value":"West Midlands","key":"CountyName"}]},"MapReference":{"ReferenceId":"26322197","Spot":0.51,"SideOfStreet":"left","StateId":"20248595","CountyId":"20358328","CityId":"20358495","DistrictId":"20358496"}}},{"Relevance":1.0,"Distance":62.6,"MatchLevel":"postalCode","MatchQuality":{"PostalCode":1.0},"MatchType":"interpolated","Location":{"LocationId":"NT_U70Lw4B2XXekf05POOfAUD_l_26322214_L_xUD","LocationType":"point","DisplayPosition":{"Latitude":52.4247,"Longitude":-1.79505},"MapView":{"TopLeft":{"Latitude":52.4336932,"Longitude":-1.8097977},"BottomRight":{"Latitude":52.4157068,"Longitude":-1.7803023}},"Address":{"Label":"B91 2DD, Solihull, England, United Kingdom","Country":"GBR","State":"England","County":"West Midlands","City":"Solihull","PostalCode":"B91 2DD","AdditionalData":[{"value":"United Kingdom","key":"CountryName"},{"value":"England","key":"StateName"},{"value":"West Midlands","key":"CountyName"}]},"MapReference":{"ReferenceId":"26322214","Spot":0.68,"SideOfStreet":"neither","StateId":"20248595","CountyId":"20358328","CityId":"20358495"}}},{"Relevance":1.0,"Distance":71.5,"MatchLevel":"street","MatchQuality":{"Country":1.0,"State":1.0,"County":1.0,"City":1.0,"District":1.0,"Street":[1.0],"PostalCode":1.0},"Location":{"LocationId":"NT_p18RYvtZFqkEQxX5jJZrsB_l_26322187_R","LocationType":"point","DisplayPosition":{"Latitude":52.42539,"Longitude":-1.79638},"MapView":{"TopLeft":{"Latitude":52.42539,"Longitude":-1.79656},"BottomRight":{"Latitude":52.42539,"Longitude":-1.79638}},"Address":{"Label":"Wadleys Road, Solihull, B91 1, United Kingdom","Country":"GBR","State":"England","County":"West Midlands","City":"Solihull","District":"Solihull","Street":"Wadleys Road","PostalCode":"B91 1","AdditionalData":[{"value":"United Kingdom","key":"CountryName"},{"value":"England","key":"StateName"},{"value":"West Midlands","key":"CountyName"}]},"MapReference":{"ReferenceId":"26322187","Spot":1.0,"SideOfStreet":"right","StateId":"20248595","CountyId":"20358328","CityId":"20358495","DistrictId":"20358496"}}}]}]}}