{"Response":{"MetaInfo":{"Timestamp":"2020-03-28T10:12:59.456+0000","NextPageInformation":"2"},"View":[{"_type":"SearchResultsViewType","ViewId":0,"Result":[{"Relevance":1.0,"Distance":0.0,"Direction":0.0,"MatchLevel":"district","MatchQuality":{"Country":1.0,"State":1.0,"County":1.0,"City":1.0,"District":1.0,"PostalCode":1.0},"Location":{"LocationId":"NT_uqq2-xleEzqboflaxJR8SB","LocationType":"point","DisplayPosition":{"Latitude":52.4283431,"Longitude":20.7190577},"MapView":{"TopLeft":{"Latitude":52.45223,"Longitude":20.66101},"BottomRight":{"Latitude":52.41173,"Longitude":20.76553}},"Address":{"Label":"Nowy Dwór Mazowiecki, Woj. Mazowieckie, Polska","Country":"POL","State":"Woj. Mazowieckie","County":"Powiat Nowodworski","City":"Nowy Dwór Mazowiecki","District":"Nowy Dwór Mazowiecki","PostalCode":"05-100","AdditionalData":[{"value":"Polska","key":"CountryName"},{"value":"Woj. Mazowieckie","key":"StateName"},{"value":"Powiat Nowodworski","key":"CountyName"}]},"MapReference":{"ReferenceId":"973205341","SideOfStreet":"neither","CountryId":"20624059","StateId":"20627182","CountyId":"20627432","CityId":"20627439","DistrictId":"20688125"}}},{"Relevance":1.0,"Distance":6.1,"MatchLevel":"houseNumber","MatchQuality":{"Country":1.0,"State":1.0,"County":1.0,"City":1.0,"District":1.0,"Street":[1.0],"HouseNumber":1.0,"PostalCode":1.0},"MatchType":"interpolated","Location":{"LocationId":"NT_Pap-HJdgdEFPzg7peZh8lD_4IE","LocationType":"point","DisplayPosition":{"Latitude":52.42821,"Longitude":20.71891},"MapView":{"TopLeft":{"Latitude":52.4293342,"Longitude":20.7170664},"BottomRight":{"Latitude":52.4270858,"Longitude":20.7207536}},"Address":{"Label":"aleja Ignacego Paderewskiego 8B, 05-100 Nowy Dwór Mazowiecki, Polska","Country":"POL","State":"Woj. Mazowieckie","County":"Powiat Nowodworski","City":"Nowy Dwór Mazowiecki","District":"Nowy Dwór Mazowiecki","Street":"aleja Ignacego Paderewskiego","HouseNumber":"8B","PostalCode":"05-100","AdditionalData":[{"value":"Polska","key":"CountryName"},{"value":"Woj. Mazowieckie","key":"StateName"},{"value":"Powiat Nowodworski","key":"CountyName"}]},"MapReference":{"ReferenceId":"1021880132","Spot":0.83,"SideOfStreet":"right","CountryId":"20624059","StateId":"20627182","CountyId":"20627432","CityId":"20627439","DistrictId":"20688125","AddressId":"703661233","RoadLinkId":"346367085"}}},{"Relevance":1.0,"Distance":19.0,"MatchLevel":"houseNumber","MatchQuality":{"Country":1.0,"State":1.0,"County":1.0,"City":1.0,"District":1.0,"Street":[1.0],"HouseNumber":1.0,"PostalCode":1.0},"MatchType":"interpolated","Location":{"LocationId":"NT_Pap-HJdgdEFPzg7peZh8lD_xQTQ","LocationType":"point","DisplayPosition":{"Latitude":52.42837,"Longitude":20.71868},"MapView":{"TopLeft":{"Latitude":52.4294942,"Longitude":20.7168364},"BottomRight":{"Latitude":52.4272458,"Longitude":20.7205236}},"Address":{"Label":"aleja Ignacego Paderewskiego 14A, 05-100 Nowy Dwór Mazowiecki, Polska","Country":"POL","State":"Woj. Mazowieckie","County":"Powiat Nowodworski","City":"Nowy Dwór Mazowiecki","District":"Nowy Dwór Mazowiecki","Street":"aleja Ignacego Paderewskiego","HouseNumber":"14A","PostalCode":"05-100","AdditionalData":[{"value":"Polska","key":"CountryName"},{"value":"Woj. Mazowieckie","key":"StateName"},{"value":"Powiat Nowodworski","key":"CountyName"}]},"MapReference":{"ReferenceId":"1021880133","Spot":0.16,"SideOfStreet":"right","CountryId":"20624059","StateId":"20627182","CountyId":"20627432","CityId":"20627439","DistrictId":"20688125","AddressId":"209295143","RoadLinkId":"346367086"}}},{"Relevance":1.0,"Distance":62.0,"MatchLevel":"houseNumber","MatchQuality":{"Country":1.0,"State":1.0,"County":1.0,"City":1.0,"District":1.0,"Street":[1.0],"HouseNumber":1.0,"PostalCode":1.0},"MatchType":"interpolated","Location":{"LocationId":"NT_Orhk066RyG8XZvgQuyLR7D_xAD","LocationType":"point","DisplayPosition":{"Latitude":52.42867,"Longitude":20.72041},"MapView":{"TopLeft":{"Latitude":52.4297942,"Longitude":20.7185664},"BottomRight":{"Latitude":52.4275458,"Longitude":20.7222536}},"Address":{"Label":"ulica Inżynierska 10, 05-100 Nowy Dwór Mazowiecki, Polska","Country":"POL","State":"Woj. Mazowieckie","County":"Powiat Nowodworski","City":"Nowy Dwór Mazowiecki","District":"Nowy Dwór Mazowiecki","Street":"ulica Inżynierska","HouseNumber":"10","PostalCode":"05-100","AdditionalData":[{"value":"Polska","key":"CountryName"},{"value":"Woj. Mazowieckie","key":"StateName"},{"value":"Powiat Nowodworski","key":"CountyName"}]},"MapReference":{"ReferenceId":"595934614","Spot":0.8,"SideOfStreet":"left","CountryId":"20624059","StateId":"20627182","CountyId":"20627432","CityId":"20627439","DistrictId":"20688125","AddressId":"741994710","RoadLinkId":"95445158"}}},{"Relevance":1.0,"Distance":66.7,"MatchLevel":"houseNumber","MatchQuality":{"Country":1.0,"State":1.0,"County":1.0,"City":1.0,"District":1.0,"Street":[1.0],"HouseNumber":1.0,"PostalCode":1.0},"MatchType":"interpolated","Location":{"LocationId":"NT_Pap-HJdgdEFPzg7peZh8lD_xED","LocationType":"point","DisplayPosition":{"Latitude":52.42855,"Longitude":20.71789},"MapView":{"TopLeft":{"Latitude":52.4296742,"Longitude":20.7160464},"BottomRight":{"Latitude":52.4274258,"Longitude":20.7197336}},"Address":{"Label":"aleja Ignacego Paderewskiego 11, 05-100 Nowy Dwór Mazowiecki, Polska","Country":"POL","State":"Woj. Mazowieckie","County":"Powiat Nowodworski","City":"Nowy Dwór Mazowiecki","District":"Nowy Dwór Mazowiecki","Street":"aleja Ignacego Paderewskiego","HouseNumber":"11","PostalCode":"05-100","AdditionalData":[{"value":"Polska","key":"CountryName"},{"value":"Woj. Mazowieckie","key":"StateName"},{"value":"Powiat Nowodworski","key":"CountyName"}]},"MapReference":{"ReferenceId":"1021481328","Spot":0.59,"SideOfStreet":"right","CountryId":"20624059","StateId":"20627182","CountyId":"20627432","CityId":"20627439","DistrictId":"20688125","AddressId":"703661512","RoadLinkId":"346369315"}}},{"Relevance":1.0,"Distance":70.2,"MatchLevel":"houseNumber","MatchQuality":{"Country":1.0,"State":1.0,"County":1.0,"City":1.0,"District":1.0,"Street":[1.0],"HouseNumber":1.0,"PostalCode":1.0},"MatchType":"interpolated","Location":{"LocationId":"NT_2RhuOTQDPFhWMw1xAkKyjD_xgTQ","LocationType":"point","DisplayPosition":{"Latitude":52.42888,"Longitude":20.71823},"MapView":{"TopLeft":{"Latitude":52.4300042,"Longitude":20.7163864},"BottomRight":{"Latitude":52.4277558,"Longitude":20.7200736}},"Address":{"Label":"ulica Stefanii Sempołowskiej 18A, 05-100 Nowy Dwór Mazowiecki, Polska","Country":"POL","State":"Woj. Mazowieckie","County":"Powiat Nowodworski","City":"Nowy Dwór Mazowiecki","District":"Nowy Dwór Mazowiecki","Street":"ulica Stefanii Sempołowskiej","HouseNumber":"18A","PostalCode":"05-100","AdditionalData":[{"value":"Polska","key":"CountryName"},{"value":"Woj. Mazowieckie","key":"StateName"},{"value":"Powiat Nowodworski","key":"CountyName"}]},"MapReference":{"ReferenceId":"595934441","Spot":0.08,"SideOfStreet":"right","CountryId":"20624059","StateId":"20627182","CountyId":"20627432","CityId":"20627439","DistrictId":"20688125","AddressId":"741994719","RoadLinkId":"95815112"}}},{"Relevance":1.0,"Distance":70.6,"MatchLevel":"street","MatchQuality":{"Country":1.0,"State":1.0,"County":1.0,"City":1.0,"District":1.0,"Street":[1.0],"PostalCode":1.0},"Location":{"LocationId":"NT_Pap-HJdgdEFPzg7peZh8lD_l_1021481327_R","LocationType":"point","DisplayPosition":{"Latitude":52.42872,"Longitude":20.71822},"MapView":{"TopLeft":{"Latitude":52.42881,"Longitude":20.7181},"BottomRight":{"Latitude":52.42872,"Longitude":20.71822}},"Address":{"Label":"aleja Ignacego Paderewskiego, 05-100 Nowy Dwór Mazowiecki, Polska","Country":"POL","State":"Woj. Mazowieckie","County":"Powiat Nowodworski","City":"Nowy Dwór Mazowiecki","District":"Nowy Dwór Mazowiecki","Street":"aleja Ignacego Paderewskiego","PostalCode":"05-100","AdditionalData":[{"value":"Polska","key":"CountryName"},{"value":"Woj. Mazowieckie","key":"StateName"},{"value":"Powiat Nowodworski","key":"CountyName"}]},"MapReference":{"ReferenceId":"1021481327","Spot":0.0,"SideOfStreet":"right","CountryId":"20624059","StateId":"20627182","CountyId":"20627432","CityId":"20627439","DistrictId":"20688125"}}},{"Relevance":1.0,"Distance":77.8,"MatchLevel":"street","MatchQuality":{"Country":1.0,"State":1.0,"County":1.0,"City":1.0,"District":1.0,"Street":[1.0],"PostalCode":1.0},"Location":{"LocationId":"NT_Pap-HJdgdEFPzg7peZh8lD_l_972431070_R","LocationType":"point","DisplayPosition":{"Latitude":52.42772,"Longitude":20.71958},"MapView":{"TopLeft":{"Latitude":52.42772,"Longitude":20.71958},"BottomRight":{"Latitude":52.42764,"Longitude":20.7197}},"Address":{"Label":"aleja Ignacego Paderewskiego, 05-100 Nowy Dwór Mazowiecki, Polska","Country":"POL","State":"Woj. Mazowieckie","County":"Powiat Nowodworski","City":"Nowy Dwór Mazowiecki","District":"Nowy Dwór Mazowiecki","Street":"aleja Ignacego Paderewskiego","PostalCode":"05-100","AdditionalData":[{"value":"Polska","key":"CountryName"},{"value":"Woj. Mazowieckie","key":"StateName"},{"value":"Powiat Nowodworski","key":"CountyName"}]},"MapReference":{"ReferenceId":"972431070","Spot":1.0,"SideOfStreet":"right","CountryId":"20624059","StateId":"20627182","CountyId":"20627432","CityId":"20627439","DistrictId":"20688125"}}},{"Relevance":1.0,"Distance":89.5,"MatchLevel":"street","MatchQuality":{"Country":1.0,"State":1.0,"County":1.0,"City":1.0,"District":1.0,"PostalCode":1.0},"Location":{"LocationId":"NT_Rn1LVO3EJWebTMcSjkJd0B_l_974859582_R","LocationType":"point","DisplayPosition":{"Latitude":52.42764,"Longitude":20.7197},"MapView":{"TopLeft":{"Latitude":52.42766,"Longitude":20.7197},"BottomRight":{"Latitude":52.42763,"Longitude":20.71994}},"Address":{"Label":"05-100 Nowy Dwór Mazowiecki, Polska","Country":"POL","State":"Woj. Mazowieckie","County":"Powiat Nowodworski","City":"Nowy Dwór Mazowiecki","District":"Nowy Dwór Mazowiecki","PostalCode":"05-100","AdditionalData":[{"value":"Polska","key":"CountryName"},{"value":"Woj. Mazowieckie","key":"StateName"},{"value":"Powiat Nowodworski","key":"CountyName"}]},"MapReference":{"ReferenceId":"974859582","Spot":1.0,"SideOfStreet":"right","CountryId":"20624059","StateId":"20627182","CountyId":"20627432","CityId":"20627439","DistrictId":"20688125"}}},{"Relevance":1.0,"Distance":90.2,"MatchLevel":"houseNumber","MatchQuality":{"Country":1.0,"State":1.0,"County":1.0,"City":1.0,"District":1.0,"Street":[1.0],"HouseNumber":1.0,"PostalCode":1.0},"MatchType":"interpolated","Location":{"LocationId":"NT_Pap-HJdgdEFPzg7peZh8lD_yAD","LocationType":"point","DisplayPosition":{"Latitude":52.42885,"Longitude":20.71804},"MapView":{"TopLeft":{"Latitude":52.4299742,"Longitude":20.7161964},"BottomRight":{"Latitude":52.4277258,"Longitude":20.7198836}},"Address":{"Label":"aleja Ignacego Paderewskiego 20, 05-100 Nowy Dwór Mazowiecki, Polska","Country":"POL","State":"Woj. Mazowieckie","County":"Powiat Nowodworski","City":"Nowy Dwór Mazowiecki","District":"Nowy Dwór Mazowiecki","Street":"aleja Ignacego Paderewskiego","HouseNumber":"20","PostalCode":"05-100","AdditionalData":[{"value":"Polska","key":"CountryName"},{"value":"Woj. Mazowieckie","key":"StateName"},{"value":"Powiat Nowodworski","key":"CountyName"}]},"MapReference":{"ReferenceId":"972431068","Spot":0.44,"SideOfStreet":"right","CountryId":"20624059","StateId":"20627182","CountyId":"20627432","CityId":"20627439","DistrictId":"20688125","AddressId":"211286343","RoadLinkId":"308854644"}}}]}]}}