{"Response":{"MetaInfo":{"Timestamp":"2020-03-28T10:49:57.156+0000","NextPageInformation":"2"},"View":[{"_type":"SearchResultsViewType","ViewId":0,"Result":[{"Relevance":1.0,"Distance":0.0,"Direction":0.0,"MatchLevel":"district","MatchQuality":{"Country":1.0,"State":1.0,"County":1.0,"City":1.0,"District":1.0,"PostalCode":1.0},"Location":{"LocationId":"NT_aXBHQK9.8hatEuxv5L7HiD","LocationType":"point","DisplayPosition":{"Latitude":52.4043344,"Longitude":20.9500026},"MapView":{"TopLeft":{"Latitude":52.42582,"Longitude":20.89875},"BottomRight":{"Latitude":52.38475,"Longitude":20.98011}},"Address":{"Label":"Legionowo, Woj. Mazowieckie, Polska","Country":"POL","State":"Woj. Mazowieckie","County":"Powiat Legionowski","City":"Legionowo","District":"Legionowo","PostalCode":"05-120","AdditionalData":[{"value":"Polska","key":"CountryName"},{"value":"Woj. Mazowieckie","key":"StateName"},{"value":"Powiat Legionowski","key":"CountyName"}]},"MapReference":{"ReferenceId":"884061253","SideOfStreet":"neither","CountryId":"20624059","StateId":"20627182","CountyId":"20627318","CityId":"20627321","DistrictId":"20633141"}}},{"Relevance":1.0,"Distance":8.9,"MatchLevel":"street","MatchQuality":{"Country":1.0,"State":1.0,"County":1.0,"City":1.0,"District":1.0,"Street":[1.0],"PostalCode":1.0},"Location":{"LocationId":"NT_.RF.JUzl5z71wz4vl-2lRD_l_1171376251_L","LocationType":"point","DisplayPosition":{"Latitude":52.4044069,"Longitude":20.9500587},"MapView":{"TopLeft":{"Latitude":52.40446,"Longitude":20.94999},"BottomRight":{"Latitude":52.40429,"Longitude":20.95021}},"Address":{"Label":"ulica Strużańska, 05-119 Legionowo, Polska","Country":"POL","State":"Woj. Mazowieckie","County":"Powiat Legionowski","City":"Legionowo","District":"Legionowo","Street":"ulica Strużańska","PostalCode":"05-119","AdditionalData":[{"value":"Polska","key":"CountryName"},{"value":"Woj. Mazowieckie","key":"StateName"},{"value":"Powiat Legionowski","key":"CountyName"}]},"MapReference":{"ReferenceId":"1171376251","Spot":0.69,"SideOfStreet":"left","CountryId":"20624059","StateId":"20627182","CountyId":"20627318","CityId":"20627321","DistrictId":"20633141"}}},{"Relevance":1.0,"Distance":10.2,"MatchLevel":"street","MatchQuality":{"Country":1.0,"State":1.0,"County":1.0,"City":1.0,"District":1.0,"Street":[1.0],"PostalCode":1.0},"Location":{"LocationId":"NT_OAYAr5PtdEKnWOqc9na40D_l_880308654_R","LocationType":"point","DisplayPosition":{"Latitude":52.4044171,"Longitude":20.9499364},"MapView":{"TopLeft":{"Latitude":52.40446,"Longitude":20.94984},"BottomRight":{"Latitude":52.40434,"Longitude":20.94999}},"Address":{"Label":"ulica Warszawska, 05-119 Legionowo, Polska","Country":"POL","State":"Woj. Mazowieckie","County":"Powiat Legionowski","City":"Legionowo","District":"Legionowo","Street":"ulica Warszawska","PostalCode":"05-119","AdditionalData":[{"value":"Polska","key":"CountryName"},{"value":"Woj. Mazowieckie","key":"StateName"},{"value":"Powiat Legionowski","key":"CountyName"}]},"MapReference":{"ReferenceId":"880308654","Spot":0.64,"SideOfStreet":"right","CountryId":"20624059","StateId":"20627182","CountyId":"20627318","CityId":"20627321","DistrictId":"20633141"}}},{"Relevance":1.0,"Distance":14.0,"MatchLevel":"street","MatchQuality":{"Country":1.0,"State":1.0,"County":1.0,"City":1.0,"District":1.0,"Street":[1.0],"PostalCode":1.0},"Location":{"LocationId":"NT_OAYAr5PtdEKnWOqc9na40D_l_595591845_R","LocationType":"point","DisplayPosition":{"Latitude":52.40446,"Longitude":20.94999},"MapView":{"TopLeft":{"Latitude":52.40452,"Longitude":20.94999},"BottomRight":{"Latitude":52.40446,"Longitude":20.95006}},"Address":{"Label":"ulica Warszawska, 05-119 Legionowo, Polska","Country":"POL","State":"Woj. Mazowieckie","County":"Powiat Legionowski","City":"Legionowo","District":"Legionowo","Street":"ulica Warszawska","PostalCode":"05-119","AdditionalData":[{"value":"Polska","key":"CountryName"},{"value":"Woj. Mazowieckie","key":"StateName"},{"value":"Powiat Legionowski","key":"CountyName"}]},"MapReference":{"ReferenceId":"595591845","Spot":0.0,"SideOfStreet":"right","CountryId":"20624059","StateId":"20627182","CountyId":"20627318","CityId":"20627321","DistrictId":"20633141"}}},{"Relevance":1.0,"Distance":26.2,"MatchLevel":"houseNumber","MatchQuality":{"Country":1.0,"State":1.0,"County":1.0,"City":1.0,"District":1.0,"Street":[1.0],"HouseNumber":1.0,"PostalCode":1.0},"MatchType":"interpolated","Location":{"LocationId":"NT_.ziEkdt1kYczDFHHblXxDB_xA","LocationType":"point","DisplayPosition":{"Latitude":52.4042,"Longitude":20.95032},"MapView":{"TopLeft":{"Latitude":52.4053242,"Longitude":20.9484774},"BottomRight":{"Latitude":52.4030758,"Longitude":20.9521626}},"Address":{"Label":"ulica Strużańska 1, 05-119 Legionowo, Polska","Country":"POL","State":"Woj. Mazowieckie","County":"Powiat Legionowski","City":"Legionowo","District":"Legionowo","Street":"ulica Strużańska","HouseNumber":"1","PostalCode":"05-119","AdditionalData":[{"value":"Polska","key":"CountryName"},{"value":"Woj. Mazowieckie","key":"StateName"},{"value":"Powiat Legionowski","key":"CountyName"}]},"MapReference":{"ReferenceId":"1171376250","Spot":0.91,"SideOfStreet":"right","CountryId":"20624059","StateId":"20627182","CountyId":"20627318","CityId":"20627321","DistrictId":"20633141","AddressId":"701770487","RoadLinkId":"478407455"}}},{"Relevance":1.0,"Distance":37.0,"MatchLevel":"houseNumber","MatchQuality":{"Country":1.0,"State":1.0,"County":1.0,"City":1.0,"District":1.0,"Street":[1.0],"HouseNumber":1.0,"PostalCode":1.0},"MatchType":"interpolated","Location":{"LocationId":"NT_x8HZyvQPXoraa0KqTVHAZC_4EE","LocationType":"point","DisplayPosition":{"Latitude":52.40464,"Longitude":20.95022},"MapView":{"TopLeft":{"Latitude":52.4057642,"Longitude":20.9483774},"BottomRight":{"Latitude":52.4035158,"Longitude":20.9520626}},"Address":{"Label":"ulica Zegrzyńska 8A, 05-119 Legionowo, Polska","Country":"POL","State":"Woj. Mazowieckie","County":"Powiat Legionowski","City":"Legionowo","District":"Legionowo","Street":"ulica Zegrzyńska","HouseNumber":"8A","PostalCode":"05-119","AdditionalData":[{"value":"Polska","key":"CountryName"},{"value":"Woj. Mazowieckie","key":"StateName"},{"value":"Powiat Legionowski","key":"CountyName"}]},"MapReference":{"ReferenceId":"1170981778","Spot":0.54,"SideOfStreet":"right","CountryId":"20624059","StateId":"20627182","CountyId":"20627318","CityId":"20627321","DistrictId":"20633141","AddressId":"210343753","RoadLinkId":"477938901"}}},{"Relevance":1.0,"Distance":43.7,"MatchLevel":"houseNumber","MatchQuality":{"Country":1.0,"State":1.0,"County":1.0,"City":1.0,"District":1.0,"Street":[1.0],"HouseNumber":1.0,"PostalCode":1.0},"MatchType":"interpolated","Location":{"LocationId":"NT_OAYAr5PtdEKnWOqc9na40D_4A","LocationType":"point","DisplayPosition":{"Latitude":52.4041,"Longitude":20.94954},"MapView":{"TopLeft":{"Latitude":52.4052242,"Longitude":20.9476974},"BottomRight":{"Latitude":52.4029758,"Longitude":20.9513826}},"Address":{"Label":"ulica Warszawska 8, 05-119 Legionowo, Polska","Country":"POL","State":"Woj. Mazowieckie","County":"Powiat Legionowski","City":"Legionowo","District":"Legionowo","Street":"ulica Warszawska","HouseNumber":"8","PostalCode":"05-119","AdditionalData":[{"value":"Polska","key":"CountryName"},{"value":"Woj. Mazowieckie","key":"StateName"},{"value":"Powiat Legionowski","key":"CountyName"}]},"MapReference":{"ReferenceId":"1171376249","Spot":0.23,"SideOfStreet":"right","CountryId":"20624059","StateId":"20627182","CountyId":"20627318","CityId":"20627321","DistrictId":"20633141","AddressId":"209246538","RoadLinkId":"478407452"}}},{"Relevance":1.0,"Distance":50.5,"MatchLevel":"street","MatchQuality":{"Country":1.0,"State":1.0,"County":1.0,"City":1.0,"District":1.0,"Street":[1.0],"PostalCode":1.0},"Location":{"LocationId":"NT_OAYAr5PtdEKnWOqc9na40D_l_1171376248_R","LocationType":"point","DisplayPosition":{"Latitude":52.40403,"Longitude":20.94945},"MapView":{"TopLeft":{"Latitude":52.40403,"Longitude":20.94887},"BottomRight":{"Latitude":52.40359,"Longitude":20.94945}},"Address":{"Label":"ulica Warszawska, 05-119 Legionowo, Polska","Country":"POL","State":"Woj. Mazowieckie","County":"Powiat Legionowski","City":"Legionowo","District":"Legionowo","Street":"ulica Warszawska","PostalCode":"05-119","AdditionalData":[{"value":"Polska","key":"CountryName"},{"value":"Woj. Mazowieckie","key":"StateName"},{"value":"Powiat Legionowski","key":"CountyName"}]},"MapReference":{"ReferenceId":"1171376248","Spot":1.0,"SideOfStreet":"right","CountryId":"20624059","StateId":"20627182","CountyId":"20627318","CityId":"20627321","DistrictId":"20633141"}}},{"Relevance":1.0,"Distance":57.4,"MatchLevel":"houseNumber","MatchQuality":{"Country":1.0,"State":1.0,"County":1.0,"City":1.0,"District":1.0,"Street":[1.0],"HouseNumber":1.0,"PostalCode":1.0},"MatchType":"interpolated","Location":{"LocationId":"NT_x8HZyvQPXoraa0KqTVHAZC_xAD","LocationType":"point","DisplayPosition":{"Latitude":52.40479,"Longitude":20.9504},"MapView":{"TopLeft":{"Latitude":52.4059142,"Longitude":20.9485574},"BottomRight":{"Latitude":52.4036658,"Longitude":20.9522426}},"Address":{"Label":"ulica Zegrzyńska 10, 05-119 Legionowo, Polska","Country":"POL","State":"Woj. Mazowieckie","County":"Powiat Legionowski","City":"Legionowo","District":"Legionowo","Street":"ulica Zegrzyńska","HouseNumber":"10","PostalCode":"05-119","AdditionalData":[{"value":"Polska","key":"CountryName"},{"value":"Woj. Mazowieckie","key":"StateName"},{"value":"Powiat Legionowski","key":"CountyName"}]},"MapReference":{"ReferenceId":"1170981779","Spot":0.15,"SideOfStreet":"right","CountryId":"20624059","StateId":"20627182","CountyId":"20627318","CityId":"20627321","DistrictId":"20633141","AddressId":"211422904","RoadLinkId":"477938902"}}},{"Relevance":1.0,"Distance":59.5,"MatchLevel":"houseNumber","MatchQuality":{"Country":1.0,"State":1.0,"County":1.0,"City":1.0,"District":1.0,"Street":[1.0],"HouseNumber":1.0,"PostalCode":1.0},"MatchType":"interpolated","Location":{"LocationId":"NT_x8HZyvQPXoraa0KqTVHAZC_xcD","LocationType":"point","DisplayPosition":{"Latitude":52.40456,"Longitude":20.94891},"MapView":{"TopLeft":{"Latitude":52.4056842,"Longitude":20.9470674},"BottomRight":{"Latitude":52.4034358,"Longitude":20.9507526}},"Address":{"Label":"ulica Zegrzyńska 17, 05-119 Legionowo, Polska","Country":"POL","State":"Woj. Mazowieckie","County":"Powiat Legionowski","City":"Legionowo","District":"Legionowo","Street":"ulica Zegrzyńska","HouseNumber":"17","PostalCode":"05-119","AdditionalData":[{"value":"Polska","key":"CountryName"},{"value":"Woj. Mazowieckie","key":"StateName"},{"value":"Powiat Legionowski","key":"CountyName"}]},"MapReference":{"ReferenceId":"595638056","Spot":0.84,"SideOfStreet":"right","CountryId":"20624059","StateId":"20627182","CountyId":"20627318","CityId":"20627321","DistrictId":"20633141","AddressId":"209246539","RoadLinkId":"95856101"}}}]}]}}