{"Response":{"MetaInfo":{"Timestamp":"2020-03-28T10:45:06.748+0000","NextPageInformation":"2"},"View":[{"_type":"SearchResultsViewType","ViewId":0,"Result":[{"Relevance":1.0,"Distance":0.0,"Direction":0.0,"MatchLevel":"city","MatchQuality":{"Country":1.0,"State":1.0,"County":1.0,"City":1.0,"PostalCode":1.0},"Location":{"LocationId":"NT_hAMdBM.6IGZQ6qUPb3t9lD","LocationType":"point","DisplayPosition":{"Latitude":52.4986668,"Longitude":4.9591762},"MapView":{"TopLeft":{"Latitude":52.52811,"Longitude":4.92542},"BottomRight":{"Latitude":52.48332,"Longitude":5.01494}},"Address":{"Label":"Purmerend, Noord-Holland, Nederland","Country":"NLD","State":"Noord-Holland","County":"Purmerend","City":"Purmerend","PostalCode":"1441","AdditionalData":[{"value":"Nederland","key":"CountryName"},{"value":"Noord-Holland","key":"StateName"},{"value":"Purmerend","key":"CountyName"}]},"MapReference":{"ReferenceId":"917272740","SideOfStreet":"neither","CountryId":"23055544","StateId":"23055789","CountyId":"23055851","CityId":"20201851"}}},{"Relevance":1.0,"Distance":6.6,"MatchLevel":"houseNumber","MatchQuality":{"Country":1.0,"State":1.0,"County":1.0,"City":1.0,"Street":[1.0],"HouseNumber":1.0,"PostalCode":1.0},"MatchType":"interpolated","Location":{"LocationId":"NT_aZ-DUSumm5tK3HiWvABNhB_zATR","LocationType":"point","DisplayPosition":{"Latitude":52.49855,"Longitude":4.95933},"MapView":{"TopLeft":{"Latitude":52.4996742,"Longitude":4.9574834},"BottomRight":{"Latitude":52.4974258,"Longitude":4.9611766}},"Address":{"Label":"Lisdoddestraat 30E, 1441 NN Purmerend, Nederland","Country":"NLD","State":"Noord-Holland","County":"Purmerend","City":"Purmerend","Street":"Lisdoddestraat","HouseNumber":"30E","PostalCode":"1441 NN","AdditionalData":[{"value":"Nederland","key":"CountryName"},{"value":"Noord-Holland","key":"StateName"},{"value":"Purmerend","key":"CountyName"}]},"MapReference":{"ReferenceId":"54193339","Spot":0.71,"SideOfStreet":"left","CountryId":"23055544","StateId":"23055789","CountyId":"23055851","CityId":"20201851","AddressId":"615291287","RoadLinkId":"32042636"}}},{"Relevance":1.0,"Distance":28.0,"MatchLevel":"houseNumber","MatchQuality":{"Country":1.0,"State":1.0,"County":1.0,"City":1.0,"Street":[1.0],"HouseNumber":1.0,"PostalCode":1.0},"MatchType":"interpolated","Location":{"LocationId":"NT_aZ-DUSumm5tK3HiWvABNhB_yYD","LocationType":"point","DisplayPosition":{"Latitude":52.49864,"Longitude":4.95971},"MapView":{"TopLeft":{"Latitude":52.4997642,"Longitude":4.9578634},"BottomRight":{"Latitude":52.4975158,"Longitude":4.9615566}},"Address":{"Label":"Lisdoddestraat 26, 1441 NN Purmerend, Nederland","Country":"NLD","State":"Noord-Holland","County":"Purmerend","City":"Purmerend","Street":"Lisdoddestraat","HouseNumber":"26","PostalCode":"1441 NN","AdditionalData":[{"value":"Nederland","key":"CountryName"},{"value":"Noord-Holland","key":"StateName"},{"value":"Purmerend","key":"CountyName"}]},"MapReference":{"ReferenceId":"54193374","Spot":0.4,"SideOfStreet":"left","CountryId":"23055544","StateId":"23055789","CountyId":"23055851","CityId":"20201851","AddressId":"615291007","RoadLinkId":"32151315"}}},{"Relevance":1.0,"Distance":30.7,"MatchLevel":"houseNumber","MatchQuality":{"Country":1.0,"State":1.0,"County":1.0,"City":1.0,"Street":[1.0],"HouseNumber":1.0,"PostalCode":1.0},"MatchType":"interpolated","Location":{"LocationId":"NT_ktEKCntBKIqMNX0M5Ex-hD_yED","LocationType":"point","DisplayPosition":{"Latitude":52.499,"Longitude":4.95906},"MapView":{"TopLeft":{"Latitude":52.5001242,"Longitude":4.9572134},"BottomRight":{"Latitude":52.4978758,"Longitude":4.9609066}},"Address":{"Label":"Rietsingel 21, 1441 Purmerend, Nederland","Country":"NLD","State":"Noord-Holland","County":"Purmerend","City":"Purmerend","Street":"Rietsingel","HouseNumber":"21","PostalCode":"1441","AdditionalData":[{"value":"Nederland","key":"CountryName"},{"value":"Noord-Holland","key":"StateName"},{"value":"Purmerend","key":"CountyName"}]},"MapReference":{"ReferenceId":"1233841366","Spot":0.71,"SideOfStreet":"right","CountryId":"23055544","StateId":"23055789","CountyId":"23055851","CityId":"20201851","AddressId":"776427555","RoadLinkId":"554113220"}}},{"Relevance":1.0,"Distance":46.2,"MatchLevel":"street","MatchQuality":{"Country":1.0,"State":1.0,"County":1.0,"City":1.0,"Street":[1.0],"PostalCode":1.0},"Location":{"LocationId":"NT_P99nvlmA3xrvq1jlXWXQ.A_l_54193375_R","LocationType":"point","DisplayPosition":{"Latitude":52.49826,"Longitude":4.95904},"MapView":{"TopLeft":{"Latitude":52.49826,"Longitude":4.95904},"BottomRight":{"Latitude":52.49818,"Longitude":4.95926}},"Address":{"Label":"Lisdoddestraat, 1441 Purmerend, Nederland","Country":"NLD","State":"Noord-Holland","County":"Purmerend","City":"Purmerend","Street":"Lisdoddestraat","PostalCode":"1441","AdditionalData":[{"value":"Nederland","key":"CountryName"},{"value":"Noord-Holland","key":"StateName"},{"value":"Purmerend","key":"CountyName"}]},"MapReference":{"ReferenceId":"54193375","Spot":1.0,"SideOfStreet":"right","CountryId":"23055544","StateId":"23055789","CountyId":"23055851","CityId":"20201851"}}},{"Relevance":1.0,"Distance":57.6,"MatchLevel":"houseNumber","MatchQuality":{"Country":1.0,"State":1.0,"County":1.0,"City":1.0,"Street":[1.0],"HouseNumber":1.0,"PostalCode":1.0},"MatchType":"interpolated","Location":{"LocationId":"NT_aZ-DUSumm5tK3HiWvABNhB_zcD","LocationType":"point","DisplayPosition":{"Latitude":52.49815,"Longitude":4.95923},"MapView":{"TopLeft":{"Latitude":52.4992742,"Longitude":4.9573835},"BottomRight":{"Latitude":52.4970258,"Longitude":4.9610765}},"Address":{"Label":"Lisdoddestraat 37, 1441 NN Purmerend, Nederland","Country":"NLD","State":"Noord-Holland","County":"Purmerend","City":"Purmerend","Street":"Lisdoddestraat","HouseNumber":"37","PostalCode":"1441 NN","AdditionalData":[{"value":"Nederland","key":"CountryName"},{"value":"Noord-Holland","key":"StateName"},{"value":"Purmerend","key":"CountyName"}]},"MapReference":{"ReferenceId":"999086483","Spot":0.82,"SideOfStreet":"right","CountryId":"23055544","StateId":"23055789","CountyId":"23055851","CityId":"20201851","AddressId":"616120188","RoadLinkId":"325385211"}}},{"Relevance":1.0,"Distance":68.1,"MatchLevel":"houseNumber","MatchQuality":{"Country":1.0,"State":1.0,"County":1.0,"City":1.0,"Street":[1.0],"HouseNumber":1.0,"PostalCode":1.0},"MatchType":"interpolated","Location":{"LocationId":"NT_aZ-DUSumm5tK3HiWvABNhB_0AD","LocationType":"point","DisplayPosition":{"Latitude":52.49809,"Longitude":4.95884},"MapView":{"TopLeft":{"Latitude":52.4992142,"Longitude":4.9569935},"BottomRight":{"Latitude":52.4969658,"Longitude":4.9606865}},"Address":{"Label":"Lisdoddestraat 40, 1441 NN Purmerend, Nederland","Country":"NLD","State":"Noord-Holland","County":"Purmerend","City":"Purmerend","Street":"Lisdoddestraat","HouseNumber":"40","PostalCode":"1441 NN","AdditionalData":[{"value":"Nederland","key":"CountryName"},{"value":"Noord-Holland","key":"StateName"},{"value":"Purmerend","key":"CountyName"}]},"MapReference":{"ReferenceId":"54193497","Spot":0.47,"SideOfStreet":"left","CountryId":"23055544","StateId":"23055789","CountyId":"23055851","CityId":"20201851","AddressId":"615290568","RoadLinkId":"32345274"}}},{"Relevance":1.0,"Distance":75.6,"MatchLevel":"houseNumber","MatchQuality":{"Country":1.0,"State":1.0,"County":1.0,"City":1.0,"Street":[1.0],"HouseNumber":1.0,"PostalCode":1.0},"MatchType":"interpolated","Location":{"LocationId":"NT_aZ-DUSumm5tK3HiWvABNhB_0UD","LocationType":"point","DisplayPosition":{"Latitude":52.49799,"Longitude":4.95907},"MapView":{"TopLeft":{"Latitude":52.4991142,"Longitude":4.9572235},"BottomRight":{"Latitude":52.4968658,"Longitude":4.9609165}},"Address":{"Label":"Lisdoddestraat 45, 1441 NN Purmerend, Nederland","Country":"NLD","State":"Noord-Holland","County":"Purmerend","City":"Purmerend","Street":"Lisdoddestraat","HouseNumber":"45","PostalCode":"1441 NN","AdditionalData":[{"value":"Nederland","key":"CountryName"},{"value":"Noord-Holland","key":"StateName"},{"value":"Purmerend","key":"CountyName"}]},"MapReference":{"ReferenceId":"1076011791","Spot":0.6,"SideOfStreet":"right","CountryId":"23055544","StateId":"23055789","CountyId":"23055851","CityId":"20201851","AddressId":"624943748","RoadLinkId":"396139696"}}},{"Relevance":1.0,"Distance":81.5,"MatchLevel":"houseNumber","MatchQuality":{"Country":1.0,"State":1.0,"County":1.0,"City":1.0,"Street":[1.0],"HouseNumber":1.0,"PostalCode":1.0},"MatchType":"interpolated","Location":{"LocationId":"NT_aZ-DUSumm5tK3HiWvABNhB_0cD","LocationType":"point","DisplayPosition":{"Latitude":52.49794,"Longitude":4.95902},"MapView":{"TopLeft":{"Latitude":52.4990642,"Longitude":4.9571735},"BottomRight":{"Latitude":52.4968158,"Longitude":4.9608665}},"Address":{"Label":"Lisdoddestraat 47, 1441 NN Purmerend, Nederland","Country":"NLD","State":"Noord-Holland","County":"Purmerend","City":"Purmerend","Street":"Lisdoddestraat","HouseNumber":"47","PostalCode":"1441 NN","AdditionalData":[{"value":"Nederland","key":"CountryName"},{"value":"Noord-Holland","key":"StateName"},{"value":"Purmerend","key":"CountyName"}]},"MapReference":{"ReferenceId":"1076011790","Spot":0.92,"SideOfStreet":"right","CountryId":"23055544","StateId":"23055789","CountyId":"23055851","CityId":"20201851","AddressId":"624925179","RoadLinkId":"396139695"}}},{"Relevance":1.0,"Distance":88.0,"MatchLevel":"street","MatchQuality":{"Country":1.0,"State":1.0,"County":1.0,"City":1.0,"Street":[1.0],"PostalCode":1.0},"Location":{"LocationId":"NT_P99nvlmA3xrvq1jlXWXQ.A_l_60970192_R","LocationType":"point","DisplayPosition":{"Latitude":52.49794,"Longitude":4.95866},"MapView":{"TopLeft":{"Latitude":52.49801,"Longitude":4.95834},"BottomRight":{"Latitude":52.49794,"Longitude":4.95866}},"Address":{"Label":"Lisdoddestraat, 1441 Purmerend, Nederland","Country":"NLD","State":"Noord-Holland","County":"Purmerend","City":"Purmerend","Street":"Lisdoddestraat","PostalCode":"1441","AdditionalData":[{"value":"Nederland","key":"CountryName"},{"value":"Noord-Holland","key":"StateName"},{"value":"Purmerend","key":"CountyName"}]},"MapReference":{"ReferenceId":"60970192","Spot":0.0,"SideOfStreet":"right","CountryId":"23055544","StateId":"23055789","CountyId":"23055851","CityId":"20201851"}}}]}]}}