{"Response":{"MetaInfo":{"Timestamp":"2020-03-28T10:39:45.880+0000","NextPageInformation":"2"},"View":[{"_type":"SearchResultsViewType","ViewId":0,"Result":[{"Relevance":1.0,"Distance":0.0,"Direction":0.0,"MatchLevel":"district","MatchQuality":{"Country":1.0,"State":1.0,"County":1.0,"City":1.0,"District":1.0,"PostalCode":1.0},"Location":{"LocationId":"NT_06IS3tbkTuWQjJYhxKLorD","LocationType":"point","DisplayPosition":{"Latitude":52.4543485,"Longitude":-1.8921896},"MapView":{"TopLeft":{"Latitude":52.47369,"Longitude":-1.92777},"BottomRight":{"Latitude":52.44685,"Longitude":-1.87198}},"Address":{"Label":"Balsall Heath, Birmingham, England, United Kingdom","Country":"GBR","State":"England","County":"West Midlands","City":"Birmingham","District":"Balsall Heath","PostalCode":"B5 7","AdditionalData":[{"value":"United Kingdom","key":"CountryName"},{"value":"England","key":"StateName"},{"value":"West Midlands","key":"CountyName"}]},"MapReference":{"ReferenceId":"760278014","SideOfStreet":"neither","StateId":"20248595","CountyId":"20358328","CityId":"20358334","DistrictId":"20358340"}}},{"Relevance":1.0,"Distance":14.4,"MatchLevel":"houseNumber","MatchQuality":{"Country":1.0,"State":1.0,"County":1.0,"City":1.0,"District":1.0,"Street":[1.0],"HouseNumber":1.0,"PostalCode":1.0},"MatchType":"interpolated","Location":{"LocationId":"NT_zgYMhNydgMv2GJagiqz.kA_l_1149056640_R_4A","LocationType":"point","DisplayPosition":{"Latitude":52.454443,"Longitude":-1.8925829},"MapView":{"TopLeft":{"Latitude":52.4555672,"Longitude":-1.8944276},"BottomRight":{"Latitude":52.4533189,"Longitude":-1.8907382}},"Address":{"Label":"8 Strensham Road, Birmingham, B12 9RR, United Kingdom","Country":"GBR","State":"England","County":"West Midlands","City":"Birmingham","District":"Balsall Heath","Street":"Strensham Road","HouseNumber":"8","PostalCode":"B12 9RR","AdditionalData":[{"value":"United Kingdom","key":"CountryName"},{"value":"England","key":"StateName"},{"value":"West Midlands","key":"CountyName"}]},"MapReference":{"ReferenceId":"1149056640","Spot":0.68,"SideOfStreet":"right","StateId":"20248595","CountyId":"20358328","CityId":"20358334","DistrictId":"20358340"}}},{"Relevance":1.0,"Distance":18.2,"MatchLevel":"houseNumber","MatchQuality":{"Country":1.0,"State":1.0,"County":1.0,"City":1.0,"District":1.0,"Street":[1.0],"HouseNumber":1.0,"PostalCode":1.0},"MatchType":"interpolated","Location":{"LocationId":"NT_BITFy4GKEGI.lqDcbx0jRB_l_766467861_L_ycTM","LocationType":"point","DisplayPosition":{"Latitude":52.4546207,"Longitude":-1.8919957},"MapView":{"TopLeft":{"Latitude":52.4557449,"Longitude":-1.8938404},"BottomRight":{"Latitude":52.4534966,"Longitude":-1.8901509}},"Address":{"Label":"271 Mary Street, Birmingham, B12 9, United Kingdom","Country":"GBR","State":"England","County":"West Midlands","City":"Birmingham","District":"Balsall Heath","Street":"Mary Street","HouseNumber":"271","PostalCode":"B12 9","AdditionalData":[{"value":"United Kingdom","key":"CountryName"},{"value":"England","key":"StateName"},{"value":"West Midlands","key":"CountyName"}]},"MapReference":{"ReferenceId":"766467861","Spot":0.6,"SideOfStreet":"left","StateId":"20248595","CountyId":"20358328","CityId":"20358334","DistrictId":"20358340"}}},{"Relevance":1.0,"Distance":28.5,"MatchLevel":"postalCode","MatchQuality":{"PostalCode":1.0},"MatchType":"interpolated","Location":{"LocationId":"NT_BITFy4GKEGI.lqDcbx0jRB_l_766467861_L_ycTM","LocationType":"point","DisplayPosition":{"Latitude":52.4545,"Longitude":-1.89185},"MapView":{"TopLeft":{"Latitude":52.4634932,"Longitude":-1.9066077},"BottomRight":{"Latitude":52.4455068,"Longitude":-1.8770923}},"Address":{"Label":"B12 9RS, Birmingham, England, United Kingdom","Country":"GBR","State":"England","County":"West Midlands","City":"Birmingham","PostalCode":"B12 9RS","AdditionalData":[{"value":"United Kingdom","key":"CountryName"},{"value":"England","key":"StateName"},{"value":"West Midlands","key":"CountyName"}]},"MapReference":{"ReferenceId":"766467861","Spot":0.6,"SideOfStreet":"neither","StateId":"20248595","CountyId":"20358328","CityId":"20358334"}}},{"Relevance":1.0,"Distance":35.7,"MatchLevel":"houseNumber","MatchQuality":{"Country":1.0,"State":1.0,"County":1.0,"City":1.0,"District":1.0,"Street":[1.0],"HouseNumber":1.0,"PostalCode":1.0},"MatchType":"interpolated","Location":{"LocationId":"NT_bCQ5jBZPBp3fZSGgAJZFLB_l_26346085_L_0ID","LocationType":"point","DisplayPosition":{"Latitude":52.4539396,"Longitude":-1.8918604},"MapView":{"TopLeft":{"Latitude":52.4550638,"Longitude":-1.8937051},"BottomRight":{"Latitude":52.4528155,"Longitude":-1.8900157}},"Address":{"Label":"42 Edgbaston Road, Birmingham, B12 9PB, United Kingdom","Country":"GBR","State":"England","County":"West Midlands","City":"Birmingham","District":"Balsall Heath","Street":"Edgbaston Road","HouseNumber":"42","PostalCode":"B12 9PB","AdditionalData":[{"value":"United Kingdom","key":"CountryName"},{"value":"England","key":"StateName"},{"value":"West Midlands","key":"CountyName"}]},"MapReference":{"ReferenceId":"26346085","Spot":0.71,"SideOfStreet":"left","StateId":"20248595","CountyId":"20358328","CityId":"20358334","DistrictId":"20358340"}}},{"Relevance":1.0,"Distance":41.0,"MatchLevel":"houseNumber","MatchQuality":{"Country":1.0,"State":1.0,"County":1.0,"City":1.0,"District":1.0,"Street":[1.0],"HouseNumber":1.0,"PostalCode":1.0},"MatchType":"interpolated","Location":{"LocationId":"NT_BITFy4GKEGI.lqDcbx0jRB_l_766467860_L_ygTM","LocationType":"point","DisplayPosition":{"Latitude":52.454305,"Longitude":-1.89146},"MapView":{"TopLeft":{"Latitude":52.4554292,"Longitude":-1.8933047},"BottomRight":{"Latitude":52.4531809,"Longitude":-1.8896153}},"Address":{"Label":"281 Mary Street, Birmingham, B12 9RS, United Kingdom","Country":"GBR","State":"England","County":"West Midlands","City":"Birmingham","District":"Balsall Heath","Street":"Mary Street","HouseNumber":"281","PostalCode":"B12 9RS","AdditionalData":[{"value":"United Kingdom","key":"CountryName"},{"value":"England","key":"StateName"},{"value":"West Midlands","key":"CountyName"}]},"MapReference":{"ReferenceId":"766467860","Spot":0.5,"SideOfStreet":"left","StateId":"20248595","CountyId":"20358328","CityId":"20358334","DistrictId":"20358340"}}},{"Relevance":1.0,"Distance":48.0,"MatchLevel":"houseNumber","MatchQuality":{"Country":1.0,"State":1.0,"County":1.0,"City":1.0,"District":1.0,"Street":[1.0],"HouseNumber":1.0,"PostalCode":1.0},"MatchType":"interpolated","Location":{"LocationId":"NT_bqNVFFBZ.C8NYuydYa8ghD_l_956462531_L_0kD","LocationType":"point","DisplayPosition":{"Latitude":52.4544601,"Longitude":-1.89136},"MapView":{"TopLeft":{"Latitude":52.4555843,"Longitude":-1.8932047},"BottomRight":{"Latitude":52.453336,"Longitude":-1.8895152}},"Address":{"Label":"49 George Street, Birmingham, B12 9, United Kingdom","Country":"GBR","State":"England","County":"West Midlands","City":"Birmingham","District":"Balsall Heath","Street":"George Street","HouseNumber":"49","PostalCode":"B12 9","AdditionalData":[{"value":"United Kingdom","key":"CountryName"},{"value":"England","key":"StateName"},{"value":"West Midlands","key":"CountyName"}]},"MapReference":{"ReferenceId":"956462531","Spot":0.21,"SideOfStreet":"left","StateId":"20248595","CountyId":"20358328","CityId":"20358334","DistrictId":"20358340"}}},{"Relevance":1.0,"Distance":49.9,"MatchLevel":"postalCode","MatchQuality":{"PostalCode":1.0},"MatchType":"interpolated","Location":{"LocationId":"NT_zgYMhNydgMv2GJagiqz.kA_l_1149056640_R_4A","LocationType":"point","DisplayPosition":{"Latitude":52.45408,"Longitude":-1.89278},"MapView":{"TopLeft":{"Latitude":52.4630732,"Longitude":-1.9075376},"BottomRight":{"Latitude":52.4450868,"Longitude":-1.8780224}},"Address":{"Label":"B12 9RP, Birmingham, England, United Kingdom","Country":"GBR","State":"England","County":"West Midlands","City":"Birmingham","PostalCode":"B12 9RP","AdditionalData":[{"value":"United Kingdom","key":"CountryName"},{"value":"England","key":"StateName"},{"value":"West Midlands","key":"CountyName"}]},"MapReference":{"ReferenceId":"1149056640","Spot":0.68,"SideOfStreet":"neither","StateId":"20248595","CountyId":"20358328","CityId":"20358334"}}},{"Relevance":1.0,"Distance":55.2,"MatchLevel":"houseNumber","MatchQuality":{"Country":1.0,"State":1.0,"County":1.0,"City":1.0,"District":1.0,"Street":[1.0],"HouseNumber":1.0,"PostalCode":1.0},"MatchType":"interpolated","Location":{"LocationId":"NT_yVSqj3.AmVViHcXGRkc.RB_l_766467865_L_0cD","LocationType":"point","DisplayPosition":{"Latitude":52.454195,"Longitude":-1.8913796},"MapView":{"TopLeft":{"Latitude":52.4553192,"Longitude":-1.8932243},"BottomRight":{"Latitude":52.4530709,"Longitude":-1.8895349}},"Address":{"Label":"47 Park Road, Birmingham, B12 9, United Kingdom","Country":"GBR","State":"England","County":"West Midlands","City":"Birmingham","District":"Moseley","Street":"Park Road","HouseNumber":"47","PostalCode":"B12 9","AdditionalData":[{"value":"United Kingdom","key":"CountryName"},{"value":"England","key":"StateName"},{"value":"West Midlands","key":"CountyName"}]},"MapReference":{"ReferenceId":"766467865","Spot":0.54,"SideOfStreet":"left","StateId":"20248595","CountyId":"20358328","CityId":"20358334","DistrictId":"20358383"}}},{"Relevance":1.0,"Distance":61.0,"MatchLevel":"houseNumber","MatchQuality":{"Country":1.0,"State":1.0,"County":1.0,"City":1.0,"District":1.0,"Street":[1.0],"HouseNumber":1.0,"PostalCode":1.0},"MatchType":"interpolated","Location":{"LocationId":"NT_4tG.NT8ooQhM4LwEJisuiC_l_766467863_R_ycD","LocationType":"point","DisplayPosition":{"Latitude":52.4542422,"Longitude":-1.8912978},"MapView":{"TopLeft":{"Latitude":52.4553664,"Longitude":-1.8931425},"BottomRight":{"Latitude":52.4531181,"Longitude":-1.8894531}},"Address":{"Label":"27 Cromer Road, Birmingham, B12 9QT, United Kingdom","Country":"GBR","State":"England","County":"West Midlands","City":"Birmingham","District":"Balsall Heath","Street":"Cromer Road","HouseNumber":"27","PostalCode":"B12 9QT","AdditionalData":[{"value":"United Kingdom","key":"CountryName"},{"value":"England","key":"StateName"},{"value":"West Midlands","key":"CountyName"}]},"MapReference":{"ReferenceId":"766467863","Spot":0.54,"SideOfStreet":"right","StateId":"20248595","CountyId":"20358328","CityId":"20358334","DistrictId":"20358340"}}}]}]}}