{"Response":{"MetaInfo":{"Timestamp":"2020-03-28T10:39:51.976+0000","NextPageInformation":"2"},"View":[{"_type":"SearchResultsViewType","ViewId":0,"Result":[{"Relevance":1.0,"Distance":0.0,"Direction":0.0,"MatchLevel":"postalCode","MatchQuality":{"Country":1.0,"State":1.0,"County":1.0,"PostalCode":1.0},"Location":{"LocationId":"NT_ovxafx5QMp26Ursf-9JFBB","LocationType":"point","DisplayPosition":{"Latitude":52.4927023,"Longitude":1.2269337},"MapView":{"TopLeft":{"Latitude":52.98973,"Longitude":0.15358},"BottomRight":{"Latitude":52.35534,"Longitude":1.74585}},"Address":{"Label":"NR15 2, England, United Kingdom","Country":"GBR","State":"England","County":"Norfolk","PostalCode":"NR15 2","AdditionalData":[{"value":"United Kingdom","key":"CountryName"},{"value":"England","key":"StateName"},{"value":"Norfolk","key":"CountyName"}]},"MapReference":{"ReferenceId":"26478241","SideOfStreet":"neither","StateId":"20248595","CountyId":"20355986"}}},{"Relevance":1.0,"Distance":65.9,"MatchLevel":"street","MatchQuality":{"Country":1.0,"State":1.0,"County":1.0,"City":1.0,"District":1.0,"Street":[1.0],"PostalCode":1.0},"Location":{"LocationId":"NT_TAGcWcsf6UEmr8lN3jmWQB_l_1158620323_L","LocationType":"point","DisplayPosition":{"Latitude":52.4931399,"Longitude":1.2275901},"MapView":{"TopLeft":{"Latitude":52.49323,"Longitude":1.22753},"BottomRight":{"Latitude":52.4926,"Longitude":1.22805}},"Address":{"Label":"Swan Lane, Norwich, NR15 2, United Kingdom","Country":"GBR","State":"England","County":"Norfolk","City":"Norwich","District":"Long Stratton","Street":"Swan Lane","PostalCode":"NR15 2","AdditionalData":[{"value":"United Kingdom","key":"CountryName"},{"value":"England","key":"StateName"},{"value":"Norfolk","key":"CountyName"}]},"MapReference":{"ReferenceId":"1158620323","Spot":0.87,"SideOfStreet":"left","StateId":"20248595","CountyId":"20355986","CityId":"20356363","DistrictId":"20356505"}}},{"Relevance":1.0,"Distance":71.2,"MatchLevel":"street","MatchQuality":{"Country":1.0,"State":1.0,"County":1.0,"City":1.0,"District":1.0,"Street":[1.0],"PostalCode":1.0},"Location":{"LocationId":"NT_TAGcWcsf6UEmr8lN3jmWQB_l_1152249988_L","LocationType":"point","DisplayPosition":{"Latitude":52.49323,"Longitude":1.22753},"MapView":{"TopLeft":{"Latitude":52.49354,"Longitude":1.2273},"BottomRight":{"Latitude":52.49323,"Longitude":1.22753}},"Address":{"Label":"Swan Lane, Norwich, NR15 2, United Kingdom","Country":"GBR","State":"England","County":"Norfolk","City":"Norwich","District":"Long Stratton","Street":"Swan Lane","PostalCode":"NR15 2","AdditionalData":[{"value":"United Kingdom","key":"CountryName"},{"value":"England","key":"StateName"},{"value":"Norfolk","key":"CountyName"}]},"MapReference":{"ReferenceId":"1152249988","Spot":0.0,"SideOfStreet":"left","StateId":"20248595","CountyId":"20355986","CityId":"20356363","DistrictId":"20356505"}}},{"Relevance":1.0,"Distance":76.4,"MatchLevel":"street","MatchQuality":{"Country":1.0,"State":1.0,"County":1.0,"City":1.0,"District":1.0,"Street":[1.0],"PostalCode":1.0},"Location":{"LocationId":"NT_TAGcWcsf6UEmr8lN3jmWQB_l_1158620322_L","LocationType":"point","DisplayPosition":{"Latitude":52.4926,"Longitude":1.22805},"MapView":{"TopLeft":{"Latitude":52.4926,"Longitude":1.22805},"BottomRight":{"Latitude":52.49138,"Longitude":1.2297}},"Address":{"Label":"Swan Lane, Norwich, NR15 2, United Kingdom","Country":"GBR","State":"England","County":"Norfolk","City":"Norwich","District":"Long Stratton","Street":"Swan Lane","PostalCode":"NR15 2","AdditionalData":[{"value":"United Kingdom","key":"CountryName"},{"value":"England","key":"StateName"},{"value":"Norfolk","key":"CountyName"}]},"MapReference":{"ReferenceId":"1158620322","Spot":1.0,"SideOfStreet":"left","StateId":"20248595","CountyId":"20355986","CityId":"20356363","DistrictId":"20356505"}}},{"Relevance":1.0,"Distance":96.4,"MatchLevel":"street","MatchQuality":{"Country":1.0,"State":1.0,"County":1.0,"City":1.0,"District":1.0,"Street":[1.0],"PostalCode":1.0},"Location":{"LocationId":"NT_TAGcWcsf6UEmr8lN3jmWQB_l_1158620324_L","LocationType":"point","DisplayPosition":{"Latitude":52.49354,"Longitude":1.2273},"MapView":{"TopLeft":{"Latitude":52.4941,"Longitude":1.22172},"BottomRight":{"Latitude":52.49351,"Longitude":1.2273}},"Address":{"Label":"Swan Lane, Norwich, NR15 2, United Kingdom","Country":"GBR","State":"England","County":"Norfolk","City":"Norwich","District":"Long Stratton","Street":"Swan Lane","PostalCode":"NR15 2","AdditionalData":[{"value":"United Kingdom","key":"CountryName"},{"value":"England","key":"StateName"},{"value":"Norfolk","key":"CountyName"}]},"MapReference":{"ReferenceId":"1158620324","Spot":0.0,"SideOfStreet":"left","StateId":"20248595","CountyId":"20355986","CityId":"20356363","DistrictId":"20356505"}}},{"Relevance":1.0,"Distance":177.6,"MatchLevel":"street","MatchQuality":{"Country":1.0,"State":1.0,"County":1.0,"City":1.0,"District":1.0,"PostalCode":1.0},"Location":{"LocationId":"NT_cyB..o3JyLyJa88ptsuRUC_l_1236562479_R","LocationType":"point","DisplayPosition":{"Latitude":52.49156,"Longitude":1.2251},"MapView":{"TopLeft":{"Latitude":52.49169,"Longitude":1.2246},"BottomRight":{"Latitude":52.49156,"Longitude":1.2251}},"Address":{"Label":"Norwich, NR15 2, United Kingdom","Country":"GBR","State":"England","County":"Norfolk","City":"Norwich","District":"Long Stratton","PostalCode":"NR15 2","AdditionalData":[{"value":"United Kingdom","key":"CountryName"},{"value":"England","key":"StateName"},{"value":"Norfolk","key":"CountyName"}]},"MapReference":{"ReferenceId":"1236562479","Spot":0.0,"SideOfStreet":"right","StateId":"20248595","CountyId":"20355986","CityId":"20356363","DistrictId":"20356505"}}},{"Relevance":1.0,"Distance":186.6,"MatchLevel":"street","MatchQuality":{"Country":1.0,"State":1.0,"County":1.0,"City":1.0,"District":1.0,"Street":[1.0],"PostalCode":1.0},"Location":{"LocationId":"NT_YRWGHTSWnouV6jOyzIi55C_l_1236562478_R","LocationType":"point","DisplayPosition":{"Latitude":52.49179,"Longitude":1.22462},"MapView":{"TopLeft":{"Latitude":52.49232,"Longitude":1.22411},"BottomRight":{"Latitude":52.49169,"Longitude":1.22463}},"Address":{"Label":"Saxifrage Close, Norwich, NR15 2, United Kingdom","Country":"GBR","State":"England","County":"Norfolk","City":"Norwich","District":"Long Stratton","Street":"Saxifrage Close","PostalCode":"NR15 2","AdditionalData":[{"value":"United Kingdom","key":"CountryName"},{"value":"England","key":"StateName"},{"value":"Norfolk","key":"CountyName"}]},"MapReference":{"ReferenceId":"1236562478","Spot":0.13,"SideOfStreet":"right","StateId":"20248595","CountyId":"20355986","CityId":"20356363","DistrictId":"20356505"}}},{"Relevance":1.0,"Distance":191.0,"MatchLevel":"postalCode","MatchQuality":{"PostalCode":1.0},"Location":{"LocationId":"NT_YRWGHTSWnouV6jOyzIi55C_l_1236562478_R","LocationType":"point","DisplayPosition":{"Latitude":52.49196,"Longitude":1.22439},"MapView":{"TopLeft":{"Latitude":52.5009532,"Longitude":1.2096197},"BottomRight":{"Latitude":52.4829668,"Longitude":1.2391603}},"Address":{"Label":"NR15 2ZU, Norwich, England, United Kingdom","Country":"GBR","State":"England","County":"Norfolk","City":"Norwich","PostalCode":"NR15 2ZU","AdditionalData":[{"value":"United Kingdom","key":"CountryName"},{"value":"England","key":"StateName"},{"value":"Norfolk","key":"CountyName"}]},"MapReference":{"ReferenceId":"1236562478","Spot":0.13,"SideOfStreet":"neither","StateId":"20248595","CountyId":"20355986","CityId":"20356363"}}},{"Relevance":1.0,"Distance":194.0,"MatchLevel":"street","MatchQuality":{"Country":1.0,"State":1.0,"County":1.0,"City":1.0,"District":1.0,"Street":[1.0],"PostalCode":1.0},"Location":{"LocationId":"NT_YRWGHTSWnouV6jOyzIi55C_l_1236562477_R","LocationType":"point","DisplayPosition":{"Latitude":52.49169,"Longitude":1.2246},"MapView":{"TopLeft":{"Latitude":52.49169,"Longitude":1.22425},"BottomRight":{"Latitude":52.49142,"Longitude":1.2246}},"Address":{"Label":"Saxifrage Close, Norwich, NR15 2, United Kingdom","Country":"GBR","State":"England","County":"Norfolk","City":"Norwich","District":"Long Stratton","Street":"Saxifrage Close","PostalCode":"NR15 2","AdditionalData":[{"value":"United Kingdom","key":"CountryName"},{"value":"England","key":"StateName"},{"value":"Norfolk","key":"CountyName"}]},"MapReference":{"ReferenceId":"1236562477","Spot":1.0,"SideOfStreet":"right","StateId":"20248595","CountyId":"20355986","CityId":"20356363","DistrictId":"20356505"}}},{"Relevance":1.0,"Distance":195.8,"MatchLevel":"street","MatchQuality":{"Country":1.0,"State":1.0,"County":1.0,"City":1.0,"District":1.0,"Street":[1.0],"PostalCode":1.0},"Location":{"LocationId":"NT_YRWGHTSWnouV6jOyzIi55C_l_1236562476_R","LocationType":"point","DisplayPosition":{"Latitude":52.49232,"Longitude":1.22411},"MapView":{"TopLeft":{"Latitude":52.49255,"Longitude":1.22388},"BottomRight":{"Latitude":52.49232,"Longitude":1.22411}},"Address":{"Label":"Saxifrage Close, Norwich, NR15 2, United Kingdom","Country":"GBR","State":"England","County":"Norfolk","City":"Norwich","District":"Long Stratton","Street":"Saxifrage Close","PostalCode":"NR15 2","AdditionalData":[{"value":"United Kingdom","key":"CountryName"},{"value":"England","key":"StateName"},{"value":"Norfolk","key":"CountyName"}]},"MapReference":{"ReferenceId":"1236562476","Spot":0.0,"SideOfStreet":"right","StateId":"20248595","CountyId":"20355986","CityId":"20356363","DistrictId":"20356505"}}}]}]}}