{"Response":{"MetaInfo":{"Timestamp":"2020-03-28T12:01:33.906+0000","NextPageInformation":"2"},"View":[{"_type":"SearchResultsViewType","ViewId":0,"Result":[{"Relevance":1.0,"Distance":0.0,"Direction":0.0,"MatchLevel":"district","MatchQuality":{"Country":1.0,"State":1.0,"County":1.0,"City":1.0,"District":1.0,"PostalCode":1.0},"Location":{"LocationId":"NT_dJegzSCuMwQbOsZGpZe9KC","LocationType":"point","DisplayPosition":{"Latitude":52.4437883,"Longitude":-1.8346419},"MapView":{"TopLeft":{"Latitude":52.45705,"Longitude":-1.84138},"BottomRight":{"Latitude":52.42903,"Longitude":-1.80574}},"Address":{"Label":"Acocks Green, Birmingham, England, United Kingdom","Country":"GBR","State":"England","County":"West Midlands","City":"Birmingham","District":"Acocks Green","PostalCode":"B27 6","AdditionalData":[{"value":"United Kingdom","key":"CountryName"},{"value":"England","key":"StateName"},{"value":"West Midlands","key":"CountyName"}]},"MapReference":{"ReferenceId":"759378389","SideOfStreet":"neither","StateId":"20248595","CountyId":"20358328","CityId":"20358334","DistrictId":"20358336"}}},{"Relevance":1.0,"Distance":7.1,"MatchLevel":"houseNumber","MatchQuality":{"Country":1.0,"State":1.0,"County":1.0,"City":1.0,"District":1.0,"Street":[1.0],"HouseNumber":1.0,"PostalCode":1.0},"MatchType":"interpolated","Location":{"LocationId":"NT_g-cjjmz9KbE.vEl8Bkic0B_l_1186966191_L_1A","LocationType":"point","DisplayPosition":{"Latitude":52.44395,"Longitude":-1.83447},"MapView":{"TopLeft":{"Latitude":52.4450742,"Longitude":-1.8363143},"BottomRight":{"Latitude":52.4428259,"Longitude":-1.8326258}},"Address":{"Label":"5 Olton Boulevard, Birmingham, B27 7RR, United Kingdom","Country":"GBR","State":"England","County":"West Midlands","City":"Birmingham","District":"Acocks Green","Street":"Olton Boulevard","HouseNumber":"5","PostalCode":"B27 7RR","AdditionalData":[{"value":"United Kingdom","key":"CountryName"},{"value":"England","key":"StateName"},{"value":"West Midlands","key":"CountyName"}]},"MapReference":{"ReferenceId":"1186966191","Spot":0.0,"SideOfStreet":"left","StateId":"20248595","CountyId":"20358328","CityId":"20358334","DistrictId":"20358336"}}},{"Relevance":1.0,"Distance":22.8,"MatchLevel":"houseNumber","MatchQuality":{"Country":1.0,"State":1.0,"County":1.0,"City":1.0,"District":1.0,"Street":[1.0],"HouseNumber":1.0,"PostalCode":1.0},"MatchType":"interpolated","Location":{"LocationId":"NT_g-cjjmz9KbE.vEl8Bkic0B_l_1186966190_L_3A","LocationType":"point","DisplayPosition":{"Latitude":52.4438115,"Longitude":-1.8342737},"MapView":{"TopLeft":{"Latitude":52.4449356,"Longitude":-1.8361179},"BottomRight":{"Latitude":52.4426873,"Longitude":-1.8324294}},"Address":{"Label":"7 Olton Boulevard, Birmingham, B27 7RR, United Kingdom","Country":"GBR","State":"England","County":"West Midlands","City":"Birmingham","District":"Acocks Green","Street":"Olton Boulevard","HouseNumber":"7","PostalCode":"B27 7RR","AdditionalData":[{"value":"United Kingdom","key":"CountryName"},{"value":"England","key":"StateName"},{"value":"West Midlands","key":"CountyName"}]},"MapReference":{"ReferenceId":"1186966190","Spot":0.66,"SideOfStreet":"left","StateId":"20248595","CountyId":"20358328","CityId":"20358334","DistrictId":"20358336"}}},{"Relevance":1.0,"Distance":24.8,"MatchLevel":"houseNumber","MatchQuality":{"Country":1.0,"State":1.0,"County":1.0,"City":1.0,"District":1.0,"Street":[1.0],"HouseNumber":1.0,"PostalCode":1.0},"MatchType":"interpolated","Location":{"LocationId":"NT_CYpfzhNl1Yn5WB-Mt204YC_l_838011054_R_xUD","LocationType":"point","DisplayPosition":{"Latitude":52.4439957,"Longitude":-1.8350404},"MapView":{"TopLeft":{"Latitude":52.4451198,"Longitude":-1.8368847},"BottomRight":{"Latitude":52.4428715,"Longitude":-1.8331962}},"Address":{"Label":"15 Shaftmoor Lane, Birmingham, B27 7RT, United Kingdom","Country":"GBR","State":"England","County":"West Midlands","City":"Birmingham","District":"Acocks Green","Street":"Shaftmoor Lane","HouseNumber":"15","PostalCode":"B27 7RT","AdditionalData":[{"value":"United Kingdom","key":"CountryName"},{"value":"England","key":"StateName"},{"value":"West Midlands","key":"CountyName"}]},"MapReference":{"ReferenceId":"838011054","Spot":0.76,"SideOfStreet":"right","StateId":"20248595","CountyId":"20358328","CityId":"20358334","DistrictId":"20358336"}}},{"Relevance":1.0,"Distance":25.4,"MatchLevel":"postalCode","MatchQuality":{"PostalCode":1.0},"MatchType":"interpolated","Location":{"LocationId":"NT_g-cjjmz9KbE.vEl8Bkic0B_l_1186966190_L_3A","LocationType":"point","DisplayPosition":{"Latitude":52.44376,"Longitude":-1.83427},"MapView":{"TopLeft":{"Latitude":52.4527532,"Longitude":-1.8490241},"BottomRight":{"Latitude":52.4347668,"Longitude":-1.8195159}},"Address":{"Label":"B27 7RR, Birmingham, England, United Kingdom","Country":"GBR","State":"England","County":"West Midlands","City":"Birmingham","PostalCode":"B27 7RR","AdditionalData":[{"value":"United Kingdom","key":"CountryName"},{"value":"England","key":"StateName"},{"value":"West Midlands","key":"CountyName"}]},"MapReference":{"ReferenceId":"1186966190","Spot":0.66,"SideOfStreet":"neither","StateId":"20248595","CountyId":"20358328","CityId":"20358334"}}},{"Relevance":1.0,"Distance":34.6,"MatchLevel":"street","MatchQuality":{"Country":1.0,"State":1.0,"County":1.0,"City":1.0,"District":1.0,"Street":[1.0],"PostalCode":1.0},"Location":{"LocationId":"NT_g-cjjmz9KbE.vEl8Bkic0B_l_1186966192_L","LocationType":"point","DisplayPosition":{"Latitude":52.44403,"Longitude":-1.83432},"MapView":{"TopLeft":{"Latitude":52.44403,"Longitude":-1.83432},"BottomRight":{"Latitude":52.44352,"Longitude":-1.83347}},"Address":{"Label":"Olton Boulevard, Birmingham, B27 7, United Kingdom","Country":"GBR","State":"England","County":"West Midlands","City":"Birmingham","District":"Acocks Green","Street":"Olton Boulevard","PostalCode":"B27 7","AdditionalData":[{"value":"United Kingdom","key":"CountryName"},{"value":"England","key":"StateName"},{"value":"West Midlands","key":"CountyName"}]},"MapReference":{"ReferenceId":"1186966192","Spot":1.0,"SideOfStreet":"left","StateId":"20248595","CountyId":"20358328","CityId":"20358334","DistrictId":"20358336"}}},{"Relevance":1.0,"Distance":37.9,"MatchLevel":"street","MatchQuality":{"Country":1.0,"State":1.0,"County":1.0,"City":1.0,"District":1.0,"Street":[1.0],"PostalCode":1.0},"Location":{"LocationId":"NT_g-cjjmz9KbE.vEl8Bkic0B_l_1186966193_L","LocationType":"point","DisplayPosition":{"Latitude":52.4441065,"Longitude":-1.8344415},"MapView":{"TopLeft":{"Latitude":52.4442,"Longitude":-1.83459},"BottomRight":{"Latitude":52.44403,"Longitude":-1.83432}},"Address":{"Label":"Olton Boulevard, Birmingham, B27 7, United Kingdom","Country":"GBR","State":"England","County":"West Midlands","City":"Birmingham","District":"Acocks Green","Street":"Olton Boulevard","PostalCode":"B27 7","AdditionalData":[{"value":"United Kingdom","key":"CountryName"},{"value":"England","key":"StateName"},{"value":"West Midlands","key":"CountyName"}]},"MapReference":{"ReferenceId":"1186966193","Spot":0.45,"SideOfStreet":"left","StateId":"20248595","CountyId":"20358328","CityId":"20358334","DistrictId":"20358336"}}},{"Relevance":1.0,"Distance":39.7,"MatchLevel":"houseNumber","MatchQuality":{"Country":1.0,"State":1.0,"County":1.0,"City":1.0,"District":1.0,"Street":[1.0],"HouseNumber":1.0,"PostalCode":1.0},"MatchType":"interpolated","Location":{"LocationId":"NT_CYpfzhNl1Yn5WB-Mt204YC_l_26320809_L_0A","LocationType":"point","DisplayPosition":{"Latitude":52.44414,"Longitude":-1.83474},"MapView":{"TopLeft":{"Latitude":52.4452642,"Longitude":-1.8365843},"BottomRight":{"Latitude":52.4430159,"Longitude":-1.8328957}},"Address":{"Label":"4 Shaftmoor Lane, Birmingham, B27 7RS, United Kingdom","Country":"GBR","State":"England","County":"West Midlands","City":"Birmingham","District":"Acocks Green","Street":"Shaftmoor Lane","HouseNumber":"4","PostalCode":"B27 7RS","AdditionalData":[{"value":"United Kingdom","key":"CountryName"},{"value":"England","key":"StateName"},{"value":"West Midlands","key":"CountyName"}]},"MapReference":{"ReferenceId":"26320809","Spot":0.0,"SideOfStreet":"left","StateId":"20248595","CountyId":"20358328","CityId":"20358334","DistrictId":"20358336"}}},{"Relevance":1.0,"Distance":44.4,"MatchLevel":"houseNumber","MatchQuality":{"Country":1.0,"State":1.0,"County":1.0,"City":1.0,"District":1.0,"Street":[1.0],"HouseNumber":1.0,"PostalCode":1.0},"MatchType":"interpolated","Location":{"LocationId":"NT_FT6I27iKH4fWfTNh-q0FYA_l_565675261_L_yUzM","LocationType":"point","DisplayPosition":{"Latitude":52.44431,"Longitude":-1.8347},"MapView":{"TopLeft":{"Latitude":52.4454342,"Longitude":-1.8365443},"BottomRight":{"Latitude":52.4431859,"Longitude":-1.8328557}},"Address":{"Label":"253 Spring Road, Birmingham, B11 3, United Kingdom","Country":"GBR","State":"England","County":"West Midlands","City":"Birmingham","District":"Tyseley","Street":"Spring Road","HouseNumber":"253","PostalCode":"B11 3","AdditionalData":[{"value":"United Kingdom","key":"CountryName"},{"value":"England","key":"StateName"},{"value":"West Midlands","key":"CountyName"}]},"MapReference":{"ReferenceId":"565675261","Spot":0.08,"SideOfStreet":"left","StateId":"20248595","CountyId":"20358328","CityId":"20358334","DistrictId":"20358402"}}},{"Relevance":1.0,"Distance":48.2,"MatchLevel":"houseNumber","MatchQuality":{"Country":1.0,"State":1.0,"County":1.0,"City":1.0,"District":1.0,"Street":[1.0],"HouseNumber":1.0,"PostalCode":1.0},"MatchType":"interpolated","Location":{"LocationId":"NT_EhtoL54InKk9FmpStgodLC_l_26320790_L_zYD","LocationType":"point","DisplayPosition":{"Latitude":52.4442186,"Longitude":-1.8345528},"MapView":{"TopLeft":{"Latitude":52.4453427,"Longitude":-1.8363971},"BottomRight":{"Latitude":52.4430944,"Longitude":-1.8327085}},"Address":{"Label":"36 Summer Road, Birmingham, B27 7UT, United Kingdom","Country":"GBR","State":"England","County":"West Midlands","City":"Birmingham","District":"Acocks Green","Street":"Summer Road","HouseNumber":"36","PostalCode":"B27 7UT","AdditionalData":[{"value":"United Kingdom","key":"CountryName"},{"value":"England","key":"StateName"},{"value":"West Midlands","key":"CountyName"}]},"MapReference":{"ReferenceId":"26320790","Spot":0.62,"SideOfStreet":"left","StateId":"20248595","CountyId":"20358328","CityId":"20358334","DistrictId":"20358336"}}}]}]}}