{"Response":{"MetaInfo":{"Timestamp":"2020-03-28T10:35:50.919+0000","NextPageInformation":"2"},"View":[{"_type":"SearchResultsViewType","ViewId":0,"Result":[{"Relevance":1.0,"Distance":0.0,"Direction":0.0,"MatchLevel":"district","MatchQuality":{"Country":1.0,"State":1.0,"County":1.0,"City":1.0,"District":1.0,"PostalCode":1.0},"Location":{"LocationId":"NT_g9wdlYr1H2KhDIJDhDDqVD","LocationType":"point","DisplayPosition":{"Latitude":52.4742187,"Longitude":-1.9306187},"MapView":{"TopLeft":{"Latitude":52.48745,"Longitude":-1.96816},"BottomRight":{"Latitude":52.44238,"Longitude":-1.89986}},"Address":{"Label":"Edgbaston, Birmingham, England, United Kingdom","Country":"GBR","State":"England","County":"West Midlands","City":"Birmingham","District":"Edgbaston","PostalCode":"B15 3","AdditionalData":[{"value":"United Kingdom","key":"CountryName"},{"value":"England","key":"StateName"},{"value":"West Midlands","key":"CountyName"}]},"MapReference":{"ReferenceId":"1167143504","SideOfStreet":"neither","StateId":"20248595","CountyId":"20358328","CityId":"20358334","DistrictId":"20358358"}}},{"Relevance":1.0,"Distance":18.7,"MatchLevel":"houseNumber","MatchQuality":{"Country":1.0,"State":1.0,"County":1.0,"City":1.0,"District":1.0,"Street":[1.0],"HouseNumber":1.0,"PostalCode":1.0},"MatchType":"interpolated","Location":{"LocationId":"NT_EKg06frmfhg1Sx93m72suD_l_832877233_L_yUzN","LocationType":"point","DisplayPosition":{"Latitude":52.4740012,"Longitude":-1.9302741},"MapView":{"TopLeft":{"Latitude":52.4751254,"Longitude":-1.9321196},"BottomRight":{"Latitude":52.4728771,"Longitude":-1.9284286}},"Address":{"Label":"257 Monument Road, Birmingham, B16 8UZ, United Kingdom","Country":"GBR","State":"England","County":"West Midlands","City":"Birmingham","District":"Ladywood","Street":"Monument Road","HouseNumber":"257","PostalCode":"B16 8UZ","AdditionalData":[{"value":"United Kingdom","key":"CountryName"},{"value":"England","key":"StateName"},{"value":"West Midlands","key":"CountyName"}]},"MapReference":{"ReferenceId":"832877233","Spot":0.5,"SideOfStreet":"left","StateId":"20248595","CountyId":"20358328","CityId":"20358334","DistrictId":"20358377"}}},{"Relevance":1.0,"Distance":22.4,"MatchLevel":"street","MatchQuality":{"Country":1.0,"State":1.0,"County":1.0,"City":1.0,"District":1.0,"PostalCode":1.0},"Location":{"LocationId":"NT_-r-SZ3YP89O2aX9RTpEWwD_l_832924085_L","LocationType":"point","DisplayPosition":{"Latitude":52.47437,"Longitude":-1.9304},"MapView":{"TopLeft":{"Latitude":52.47502,"Longitude":-1.9304},"BottomRight":{"Latitude":52.47427,"Longitude":-1.92988}},"Address":{"Label":"Birmingham, B16 8, United Kingdom","Country":"GBR","State":"England","County":"West Midlands","City":"Birmingham","District":"Edgbaston","PostalCode":"B16 8","AdditionalData":[{"value":"United Kingdom","key":"CountryName"},{"value":"England","key":"StateName"},{"value":"West Midlands","key":"CountyName"}]},"MapReference":{"ReferenceId":"832924085","Spot":0.29,"SideOfStreet":"left","StateId":"20248595","CountyId":"20358328","CityId":"20358334","DistrictId":"20358358"}}},{"Relevance":1.0,"Distance":38.2,"MatchLevel":"street","MatchQuality":{"Country":1.0,"State":1.0,"County":1.0,"City":1.0,"District":1.0,"Street":[1.0],"PostalCode":1.0},"Location":{"LocationId":"NT_18zrWHH8T.L8qcf.pqY5RA_l_26343463_R","LocationType":"point","DisplayPosition":{"Latitude":52.47405,"Longitude":-1.93111},"MapView":{"TopLeft":{"Latitude":52.47405,"Longitude":-1.93135},"BottomRight":{"Latitude":52.47382,"Longitude":-1.93111}},"Address":{"Label":"Bellis Street, Birmingham, B16 8, United Kingdom","Country":"GBR","State":"England","County":"West Midlands","City":"Birmingham","District":"Edgbaston","Street":"Bellis Street","PostalCode":"B16 8","AdditionalData":[{"value":"United Kingdom","key":"CountryName"},{"value":"England","key":"StateName"},{"value":"West Midlands","key":"CountyName"}]},"MapReference":{"ReferenceId":"26343463","Spot":1.0,"SideOfStreet":"right","StateId":"20248595","CountyId":"20358328","CityId":"20358334","DistrictId":"20358358"}}},{"Relevance":1.0,"Distance":38.5,"MatchLevel":"street","MatchQuality":{"Country":1.0,"State":1.0,"County":1.0,"City":1.0,"District":1.0,"Street":[1.0],"PostalCode":1.0},"Location":{"LocationId":"NT_We-DQcbQi5bsYtMbk98EcA_l_1167237355_R","LocationType":"point","DisplayPosition":{"Latitude":52.4738872,"Longitude":-1.9307844},"MapView":{"TopLeft":{"Latitude":52.47405,"Longitude":-1.93111},"BottomRight":{"Latitude":52.47383,"Longitude":-1.93067}},"Address":{"Label":"Waterworks Road, Birmingham, B16 8, United Kingdom","Country":"GBR","State":"England","County":"West Midlands","City":"Birmingham","District":"Edgbaston","Street":"Waterworks Road","PostalCode":"B16 8","AdditionalData":[{"value":"United Kingdom","key":"CountryName"},{"value":"England","key":"StateName"},{"value":"West Midlands","key":"CountyName"}]},"MapReference":{"ReferenceId":"1167237355","Spot":0.26,"SideOfStreet":"right","StateId":"20248595","CountyId":"20358328","CityId":"20358334","DistrictId":"20358358"}}},{"Relevance":1.0,"Distance":42.2,"MatchLevel":"postalCode","MatchQuality":{"PostalCode":1.0},"MatchType":"interpolated","Location":{"LocationId":"NT_sI-ImiyFnZRVQTWWp2jyLB_l_26343500_L_yQDN","LocationType":"point","DisplayPosition":{"Latitude":52.47386,"Longitude":-1.93082},"MapView":{"TopLeft":{"Latitude":52.4828532,"Longitude":-1.9455842},"BottomRight":{"Latitude":52.4648668,"Longitude":-1.9160558}},"Address":{"Label":"B16 8UZ, Birmingham, England, United Kingdom","Country":"GBR","State":"England","County":"West Midlands","City":"Birmingham","PostalCode":"B16 8UZ","AdditionalData":[{"value":"United Kingdom","key":"CountryName"},{"value":"England","key":"StateName"},{"value":"West Midlands","key":"CountyName"}]},"MapReference":{"ReferenceId":"26343500","Spot":0.67,"SideOfStreet":"neither","StateId":"20248595","CountyId":"20358328","CityId":"20358334"}}},{"Relevance":1.0,"Distance":43.4,"MatchLevel":"street","MatchQuality":{"Country":1.0,"State":1.0,"County":1.0,"City":1.0,"District":1.0,"Street":[1.0],"PostalCode":1.0},"Location":{"LocationId":"NT_We-DQcbQi5bsYtMbk98EcA_l_1167237354_R","LocationType":"point","DisplayPosition":{"Latitude":52.47383,"Longitude":-1.93067},"MapView":{"TopLeft":{"Latitude":52.47383,"Longitude":-1.93067},"BottomRight":{"Latitude":52.47374,"Longitude":-1.93049}},"Address":{"Label":"Waterworks Road, Birmingham, B16 8, United Kingdom","Country":"GBR","State":"England","County":"West Midlands","City":"Birmingham","District":"Edgbaston","Street":"Waterworks Road","PostalCode":"B16 8","AdditionalData":[{"value":"United Kingdom","key":"CountryName"},{"value":"England","key":"StateName"},{"value":"West Midlands","key":"CountyName"}]},"MapReference":{"ReferenceId":"1167237354","Spot":1.0,"SideOfStreet":"right","StateId":"20248595","CountyId":"20358328","CityId":"20358334","DistrictId":"20358358"}}},{"Relevance":1.0,"Distance":43.4,"MatchLevel":"street","MatchQuality":{"Country":1.0,"State":1.0,"County":1.0,"City":1.0,"District":1.0,"PostalCode":1.0},"Location":{"LocationId":"NT_-r-SZ3YP89O2aX9RTpEWwD_l_1167237356_L","LocationType":"point","DisplayPosition":{"Latitude":52.47383,"Longitude":-1.93067},"MapView":{"TopLeft":{"Latitude":52.47383,"Longitude":-1.93098},"BottomRight":{"Latitude":52.47348,"Longitude":-1.93067}},"Address":{"Label":"Birmingham, B16 8, United Kingdom","Country":"GBR","State":"England","County":"West Midlands","City":"Birmingham","District":"Edgbaston","PostalCode":"B16 8","AdditionalData":[{"value":"United Kingdom","key":"CountryName"},{"value":"England","key":"StateName"},{"value":"West Midlands","key":"CountyName"}]},"MapReference":{"ReferenceId":"1167237356","Spot":1.0,"SideOfStreet":"left","StateId":"20248595","CountyId":"20358328","CityId":"20358334","DistrictId":"20358358"}}},{"Relevance":1.0,"Distance":45.0,"MatchLevel":"houseNumber","MatchQuality":{"Country":1.0,"State":1.0,"County":1.0,"City":1.0,"District":1.0,"Street":[1.0],"HouseNumber":1.0,"PostalCode":1.0},"MatchType":"interpolated","Location":{"LocationId":"NT_9oF.hCw0LtgwsqBkBXlbLA_l_1147555868_L_3UD","LocationType":"point","DisplayPosition":{"Latitude":52.47414,"Longitude":-1.9312701},"MapView":{"TopLeft":{"Latitude":52.4752642,"Longitude":-1.9331156},"BottomRight":{"Latitude":52.4730159,"Longitude":-1.9294245}},"Address":{"Label":"75 Waterworks Road, Birmingham, B16 9AL, United Kingdom","Country":"GBR","State":"England","County":"West Midlands","City":"Birmingham","District":"Edgbaston","Street":"Waterworks Road","HouseNumber":"75","PostalCode":"B16 9AL","AdditionalData":[{"value":"United Kingdom","key":"CountryName"},{"value":"England","key":"StateName"},{"value":"West Midlands","key":"CountyName"}]},"MapReference":{"ReferenceId":"1147555868","Spot":0.3,"SideOfStreet":"left","StateId":"20248595","CountyId":"20358328","CityId":"20358334","DistrictId":"20358358"}}},{"Relevance":1.0,"Distance":49.1,"MatchLevel":"houseNumber","MatchQuality":{"Country":1.0,"State":1.0,"County":1.0,"City":1.0,"District":1.0,"Street":[1.0],"HouseNumber":1.0,"PostalCode":1.0},"MatchType":"interpolated","Location":{"LocationId":"NT_sI-ImiyFnZRVQTWWp2jyLB_l_26343500_L_yQDN","LocationType":"point","DisplayPosition":{"Latitude":52.4736702,"Longitude":-1.9305471},"MapView":{"TopLeft":{"Latitude":52.4747943,"Longitude":-1.9323927},"BottomRight":{"Latitude":52.472546,"Longitude":-1.9287016}},"Address":{"Label":"244 Monument Road, Birmingham, B16 8UZ, United Kingdom","Country":"GBR","State":"England","County":"West Midlands","City":"Birmingham","District":"Edgbaston","Street":"Monument Road","HouseNumber":"244","PostalCode":"B16 8UZ","AdditionalData":[{"value":"United Kingdom","key":"CountryName"},{"value":"England","key":"StateName"},{"value":"West Midlands","key":"CountyName"}]},"MapReference":{"ReferenceId":"26343500","Spot":0.67,"SideOfStreet":"left","StateId":"20248595","CountyId":"20358328","CityId":"20358334","DistrictId":"20358358"}}}]}]}}