{"Response":{"MetaInfo":{"Timestamp":"2020-03-28T10:08:28.233+0000","NextPageInformation":"2"},"View":[{"_type":"SearchResultsViewType","ViewId":0,"Result":[{"Relevance":1.0,"Distance":0.0,"Direction":0.0,"MatchLevel":"district","MatchQuality":{"Country":1.0,"State":1.0,"County":1.0,"City":1.0,"District":1.0,"PostalCode":1.0},"Location":{"LocationId":"NT_K3JENrH5BVtVinwtoX2DVA","LocationType":"point","DisplayPosition":{"Latitude":52.4735286,"Longitude":-1.7626357},"MapView":{"TopLeft":{"Latitude":52.49529,"Longitude":-1.78874},"BottomRight":{"Latitude":52.46291,"Longitude":-1.75347}},"Address":{"Label":"Kitts Green, Birmingham, England, United Kingdom","Country":"GBR","State":"England","County":"West Midlands","City":"Birmingham","District":"Kitts Green","PostalCode":"B33 0","AdditionalData":[{"value":"United Kingdom","key":"CountryName"},{"value":"England","key":"StateName"},{"value":"West Midlands","key":"CountyName"}]},"MapReference":{"ReferenceId":"1218172583","SideOfStreet":"neither","StateId":"20248595","CountyId":"20358328","CityId":"20358334","DistrictId":"20358376"}}},{"Relevance":1.0,"Distance":9.6,"MatchLevel":"houseNumber","MatchQuality":{"Country":1.0,"State":1.0,"County":1.0,"City":1.0,"District":1.0,"Street":[1.0],"HouseNumber":1.0,"PostalCode":1.0},"MatchType":"interpolated","Location":{"LocationId":"NT_M86HIuCvn9brgaiKmF.pnC_l_26318048_L_yED","LocationType":"point","DisplayPosition":{"Latitude":52.4737401,"Longitude":-1.7625301},"MapView":{"TopLeft":{"Latitude":52.4748642,"Longitude":-1.7643757},"BottomRight":{"Latitude":52.4726159,"Longitude":-1.7606846}},"Address":{"Label":"21 Bell Lane, Birmingham, B33 0, United Kingdom","Country":"GBR","State":"England","County":"West Midlands","City":"Birmingham","District":"Kitts Green","Street":"Bell Lane","HouseNumber":"21","PostalCode":"B33 0","AdditionalData":[{"value":"United Kingdom","key":"CountryName"},{"value":"England","key":"StateName"},{"value":"West Midlands","key":"CountyName"}]},"MapReference":{"ReferenceId":"26318048","Spot":0.22,"SideOfStreet":"left","StateId":"20248595","CountyId":"20358328","CityId":"20358334","DistrictId":"20358376"}}},{"Relevance":1.0,"Distance":16.1,"MatchLevel":"street","MatchQuality":{"Country":1.0,"State":1.0,"County":1.0,"City":1.0,"District":1.0,"Street":[1.0],"PostalCode":1.0},"Location":{"LocationId":"NT_M86HIuCvn9brgaiKmF.pnC_l_26318051_L","LocationType":"point","DisplayPosition":{"Latitude":52.4736729,"Longitude":-1.7626108},"MapView":{"TopLeft":{"Latitude":52.47395,"Longitude":-1.76377},"BottomRight":{"Latitude":52.47364,"Longitude":-1.76234}},"Address":{"Label":"Bell Lane, Birmingham, B33 0, United Kingdom","Country":"GBR","State":"England","County":"West Midlands","City":"Birmingham","District":"Kitts Green","Street":"Bell Lane","PostalCode":"B33 0","AdditionalData":[{"value":"United Kingdom","key":"CountryName"},{"value":"England","key":"StateName"},{"value":"West Midlands","key":"CountyName"}]},"MapReference":{"ReferenceId":"26318051","Spot":0.19,"SideOfStreet":"left","StateId":"20248595","CountyId":"20358328","CityId":"20358334","DistrictId":"20358376"}}},{"Relevance":1.0,"Distance":23.5,"MatchLevel":"houseNumber","MatchQuality":{"Country":1.0,"State":1.0,"County":1.0,"City":1.0,"District":1.0,"Street":[1.0],"HouseNumber":1.0,"PostalCode":1.0},"MatchType":"interpolated","Location":{"LocationId":"NT_M86HIuCvn9brgaiKmF.pnC_l_26318064_L_yMD","LocationType":"point","DisplayPosition":{"Latitude":52.4736425,"Longitude":-1.76224},"MapView":{"TopLeft":{"Latitude":52.4747667,"Longitude":-1.7640855},"BottomRight":{"Latitude":52.4725184,"Longitude":-1.7603945}},"Address":{"Label":"23 Bell Lane, Birmingham, B33 0HS, United Kingdom","Country":"GBR","State":"England","County":"West Midlands","City":"Birmingham","District":"Kitts Green","Street":"Bell Lane","HouseNumber":"23","PostalCode":"B33 0HS","AdditionalData":[{"value":"United Kingdom","key":"CountryName"},{"value":"England","key":"StateName"},{"value":"West Midlands","key":"CountyName"}]},"MapReference":{"ReferenceId":"26318064","Spot":0.75,"SideOfStreet":"left","StateId":"20248595","CountyId":"20358328","CityId":"20358334","DistrictId":"20358376"}}},{"Relevance":1.0,"Distance":43.2,"MatchLevel":"houseNumber","MatchQuality":{"Country":1.0,"State":1.0,"County":1.0,"City":1.0,"District":1.0,"Street":[1.0],"HouseNumber":1.0,"PostalCode":1.0},"MatchType":"interpolated","Location":{"LocationId":"NT_IM8.ImZbxjmSDVptCk957D_l_1167421090_R_zQD","LocationType":"point","DisplayPosition":{"Latitude":52.4730772,"Longitude":-1.7630484},"MapView":{"TopLeft":{"Latitude":52.4742013,"Longitude":-1.7648939},"BottomRight":{"Latitude":52.471953,"Longitude":-1.7612029}},"Address":{"Label":"34 Fastmoor Oval, Birmingham, B33 0NR, United Kingdom","Country":"GBR","State":"England","County":"West Midlands","City":"Birmingham","District":"Kitts Green","Street":"Fastmoor Oval","HouseNumber":"34","PostalCode":"B33 0NR","AdditionalData":[{"value":"United Kingdom","key":"CountryName"},{"value":"England","key":"StateName"},{"value":"West Midlands","key":"CountyName"}]},"MapReference":{"ReferenceId":"1167421090","Spot":0.31,"SideOfStreet":"right","StateId":"20248595","CountyId":"20358328","CityId":"20358334","DistrictId":"20358376"}}},{"Relevance":1.0,"Distance":52.5,"MatchLevel":"houseNumber","MatchQuality":{"Country":1.0,"State":1.0,"County":1.0,"City":1.0,"District":1.0,"Street":[1.0],"HouseNumber":1.0,"PostalCode":1.0},"MatchType":"interpolated","Location":{"LocationId":"NT_E01aosq9Gh9xxB2ba1W8GD_l_26318063_L_yA","LocationType":"point","DisplayPosition":{"Latitude":52.4736401,"Longitude":-1.7618299},"MapView":{"TopLeft":{"Latitude":52.4747643,"Longitude":-1.7636754},"BottomRight":{"Latitude":52.472516,"Longitude":-1.7599844}},"Address":{"Label":"2 Chimes Close, Birmingham, B33 0HJ, United Kingdom","Country":"GBR","State":"England","County":"West Midlands","City":"Birmingham","District":"Kitts Green","Street":"Chimes Close","HouseNumber":"2","PostalCode":"B33 0HJ","AdditionalData":[{"value":"United Kingdom","key":"CountryName"},{"value":"England","key":"StateName"},{"value":"West Midlands","key":"CountyName"}]},"MapReference":{"ReferenceId":"26318063","Spot":0.11,"SideOfStreet":"left","StateId":"20248595","CountyId":"20358328","CityId":"20358334","DistrictId":"20358376"}}},{"Relevance":1.0,"Distance":58.5,"MatchLevel":"houseNumber","MatchQuality":{"Country":1.0,"State":1.0,"County":1.0,"City":1.0,"District":1.0,"Street":[1.0],"HouseNumber":1.0,"PostalCode":1.0},"MatchType":"interpolated","Location":{"LocationId":"NT_vm1uXKHyAlZKfcIIkPqFLA_l_26318007_R_5ED","LocationType":"point","DisplayPosition":{"Latitude":52.4741182,"Longitude":-1.7630871},"MapView":{"TopLeft":{"Latitude":52.4752423,"Longitude":-1.7649326},"BottomRight":{"Latitude":52.472994,"Longitude":-1.7612416}},"Address":{"Label":"91 Tile Cross Road, Birmingham, B33 0, United Kingdom","Country":"GBR","State":"England","County":"West Midlands","City":"Birmingham","District":"Kitts Green","Street":"Tile Cross Road","HouseNumber":"91","PostalCode":"B33 0","AdditionalData":[{"value":"United Kingdom","key":"CountryName"},{"value":"England","key":"StateName"},{"value":"West Midlands","key":"CountyName"}]},"MapReference":{"ReferenceId":"26318007","Spot":0.59,"SideOfStreet":"right","StateId":"20248595","CountyId":"20358328","CityId":"20358334","DistrictId":"20358376"}}},{"Relevance":1.0,"Distance":67.4,"MatchLevel":"houseNumber","MatchQuality":{"Country":1.0,"State":1.0,"County":1.0,"City":1.0,"District":1.0,"Street":[1.0],"HouseNumber":1.0,"PostalCode":1.0},"MatchType":"interpolated","Location":{"LocationId":"NT_vm1uXKHyAlZKfcIIkPqFLA_l_788152167_R_5MD","LocationType":"point","DisplayPosition":{"Latitude":52.4742501,"Longitude":-1.7629097},"MapView":{"TopLeft":{"Latitude":52.4753743,"Longitude":-1.7647553},"BottomRight":{"Latitude":52.473126,"Longitude":-1.7610642}},"Address":{"Label":"93 Tile Cross Road, Birmingham, B33 0LS, United Kingdom","Country":"GBR","State":"England","County":"West Midlands","City":"Birmingham","District":"Kitts Green","Street":"Tile Cross Road","HouseNumber":"93","PostalCode":"B33 0LS","AdditionalData":[{"value":"United Kingdom","key":"CountryName"},{"value":"England","key":"StateName"},{"value":"West Midlands","key":"CountyName"}]},"MapReference":{"ReferenceId":"788152167","Spot":0.07,"SideOfStreet":"right","StateId":"20248595","CountyId":"20358328","CityId":"20358334","DistrictId":"20358376"}}},{"Relevance":1.0,"Distance":67.6,"MatchLevel":"street","MatchQuality":{"Country":1.0,"State":1.0,"County":1.0,"City":1.0,"District":1.0,"Street":[1.0],"PostalCode":1.0},"Location":{"LocationId":"NT_vm1uXKHyAlZKfcIIkPqFLA_l_26318010_L","LocationType":"point","DisplayPosition":{"Latitude":52.47405,"Longitude":-1.76315},"MapView":{"TopLeft":{"Latitude":52.47406,"Longitude":-1.76339},"BottomRight":{"Latitude":52.47402,"Longitude":-1.76315}},"Address":{"Label":"Tile Cross Road, Birmingham, B33 0, United Kingdom","Country":"GBR","State":"England","County":"West Midlands","City":"Birmingham","District":"Kitts Green","Street":"Tile Cross Road","PostalCode":"B33 0","AdditionalData":[{"value":"United Kingdom","key":"CountryName"},{"value":"England","key":"StateName"},{"value":"West Midlands","key":"CountyName"}]},"MapReference":{"ReferenceId":"26318010","Spot":0.0,"SideOfStreet":"left","StateId":"20248595","CountyId":"20358328","CityId":"20358334","DistrictId":"20358376"}}},{"Relevance":1.0,"Distance":68.1,"MatchLevel":"houseNumber","MatchQuality":{"Country":1.0,"State":1.0,"County":1.0,"City":1.0,"District":1.0,"Street":[1.0],"HouseNumber":1.0,"PostalCode":1.0},"MatchType":"interpolated","Location":{"LocationId":"NT_M86HIuCvn9brgaiKmF.pnC_l_26318143_L_zED","LocationType":"point","DisplayPosition":{"Latitude":52.4734107,"Longitude":-1.7616493},"MapView":{"TopLeft":{"Latitude":52.4745349,"Longitude":-1.7634948},"BottomRight":{"Latitude":52.4722866,"Longitude":-1.7598038}},"Address":{"Label":"31 Bell Lane, Birmingham, B33 0HS, United Kingdom","Country":"GBR","State":"England","County":"West Midlands","City":"Birmingham","District":"Kitts Green","Street":"Bell Lane","HouseNumber":"31","PostalCode":"B33 0HS","AdditionalData":[{"value":"United Kingdom","key":"CountryName"},{"value":"England","key":"StateName"},{"value":"West Midlands","key":"CountyName"}]},"MapReference":{"ReferenceId":"26318143","Spot":0.85,"SideOfStreet":"left","StateId":"20248595","CountyId":"20358328","CityId":"20358334","DistrictId":"20358376"}}}]}]}}