{"Response":{"MetaInfo":{"Timestamp":"2020-03-28T11:02:40.821+0000","NextPageInformation":"2"},"View":[{"_type":"SearchResultsViewType","ViewId":0,"Result":[{"Relevance":1.0,"Distance":-20.1,"MatchLevel":"landmark","MatchQuality":{"Country":1.0,"State":1.0,"County":1.0,"City":1.0,"District":1.0,"Street":[1.0],"HouseNumber":1.0,"PostalCode":1.0,"Name":1.0},"Location":{"LocationId":"NT_nDExkOqHUoZtyYz-wVGlHA_p_Rv-gNSGyFmNtd0.XsYJ.MB","LocationType":"hospital","Name":"Ernst von Bergmann Klinikum","DisplayPosition":{"Latitude":52.40021,"Longitude":13.06426},"MapView":{"TopLeft":{"Latitude":52.4013342,"Longitude":13.0624176},"BottomRight":{"Latitude":52.3990858,"Longitude":13.0661024}},"Address":{"Label":"Charlottenstraße 72, 14467 Potsdam, Deutschland","Country":"DEU","State":"Brandenburg","County":"Potsdam","City":"Potsdam","District":"Innenstadt","Street":"Charlottenstraße","HouseNumber":"72","PostalCode":"14467","AdditionalData":[{"value":"Deutschland","key":"CountryName"},{"value":"Brandenburg","key":"StateName"},{"value":"Potsdam","key":"CountyName"}]},"MapReference":{"CountryId":"20147700","StateId":"20187428","CountyId":"20187477","CityId":"20187478","DistrictId":"20462657","PlaceId":"50668529"}}},{"Relevance":1.0,"Distance":0.0,"Direction":0.0,"MatchLevel":"district","MatchQuality":{"Country":1.0,"State":1.0,"County":1.0,"City":1.0,"District":1.0,"PostalCode":1.0},"Location":{"LocationId":"NT_JrKKbp7356QqPQgs6zy0pC","LocationType":"point","DisplayPosition":{"Latitude":52.4002051,"Longitude":13.0673067},"MapView":{"TopLeft":{"Latitude":52.4073,"Longitude":13.04124},"BottomRight":{"Latitude":52.38322,"Longitude":13.08572}},"Address":{"Label":"Innenstadt, Potsdam, Brandenburg, Deutschland","Country":"DEU","State":"Brandenburg","County":"Potsdam","City":"Potsdam","District":"Innenstadt","PostalCode":"14467","AdditionalData":[{"value":"Deutschland","key":"CountryName"},{"value":"Brandenburg","key":"StateName"},{"value":"Potsdam","key":"CountyName"}]},"MapReference":{"ReferenceId":"572710889","SideOfStreet":"neither","CountryId":"20147700","StateId":"20187428","CountyId":"20187477","CityId":"20187478","DistrictId":"20462657"}}},{"Relevance":1.0,"Distance":16.7,"MatchLevel":"houseNumber","MatchQuality":{"Country":1.0,"State":1.0,"County":1.0,"City":1.0,"District":1.0,"Street":[1.0],"HouseNumber":1.0,"PostalCode":1.0},"MatchType":"interpolated","Location":{"LocationId":"NT_7QqfAdUJHW2ixiDGcIF.7A_xUjM","LocationType":"point","DisplayPosition":{"Latitude":52.39999,"Longitude":13.0674},"MapView":{"TopLeft":{"Latitude":52.4011142,"Longitude":13.0655576},"BottomRight":{"Latitude":52.3988658,"Longitude":13.0692424}},"Address":{"Label":"Berliner Straße 152, 14467 Potsdam, Deutschland","Country":"DEU","State":"Brandenburg","County":"Potsdam","City":"Potsdam","District":"Innenstadt","Street":"Berliner Straße","HouseNumber":"152","PostalCode":"14467","AdditionalData":[{"value":"Deutschland","key":"CountryName"},{"value":"Brandenburg","key":"StateName"},{"value":"Potsdam","key":"CountyName"}]},"MapReference":{"ReferenceId":"572710863","Spot":0.05,"SideOfStreet":"left","CountryId":"20147700","StateId":"20187428","CountyId":"20187477","CityId":"20187478","DistrictId":"20462657","AddressId":"181809808","RoadLinkId":"37848468"}}},{"Relevance":1.0,"Distance":29.6,"MatchLevel":"street","MatchQuality":{"Country":1.0,"State":1.0,"County":1.0,"City":1.0,"District":1.0,"Street":[1.0],"PostalCode":1.0},"Location":{"LocationId":"NT_7QqfAdUJHW2ixiDGcIF.7A_l_572710862_L","LocationType":"point","DisplayPosition":{"Latitude":52.39994,"Longitude":13.06735},"MapView":{"TopLeft":{"Latitude":52.39994,"Longitude":13.067},"BottomRight":{"Latitude":52.3996,"Longitude":13.06735}},"Address":{"Label":"Berliner Straße, 14467 Potsdam, Deutschland","Country":"DEU","State":"Brandenburg","County":"Potsdam","City":"Potsdam","District":"Innenstadt","Street":"Berliner Straße","PostalCode":"14467","AdditionalData":[{"value":"Deutschland","key":"CountryName"},{"value":"Brandenburg","key":"StateName"},{"value":"Potsdam","key":"CountyName"}]},"MapReference":{"ReferenceId":"572710862","Spot":1.0,"SideOfStreet":"left","CountryId":"20147700","StateId":"20187428","CountyId":"20187477","CityId":"20187478","DistrictId":"20462657"}}},{"Relevance":1.0,"Distance":29.6,"MatchLevel":"street","MatchQuality":{"Country":1.0,"State":1.0,"County":1.0,"City":1.0,"District":1.0,"Street":[1.0],"PostalCode":1.0},"Location":{"LocationId":"NT_CwGVysykAHG0UJWBCor-9D_l_572710864_R","LocationType":"point","DisplayPosition":{"Latitude":52.39994,"Longitude":13.06735},"MapView":{"TopLeft":{"Latitude":52.39994,"Longitude":13.06735},"BottomRight":{"Latitude":52.3999,"Longitude":13.06746}},"Address":{"Label":"Türkstraße, 14467 Potsdam, Deutschland","Country":"DEU","State":"Brandenburg","County":"Potsdam","City":"Potsdam","District":"Innenstadt","Street":"Türkstraße","PostalCode":"14467","AdditionalData":[{"value":"Deutschland","key":"CountryName"},{"value":"Brandenburg","key":"StateName"},{"value":"Potsdam","key":"CountyName"}]},"MapReference":{"ReferenceId":"572710864","Spot":1.0,"SideOfStreet":"right","CountryId":"20147700","StateId":"20187428","CountyId":"20187477","CityId":"20187478","DistrictId":"20462657"}}},{"Relevance":1.0,"Distance":30.1,"MatchLevel":"street","MatchQuality":{"Country":1.0,"State":1.0,"County":1.0,"City":1.0,"District":1.0,"Street":[1.0],"PostalCode":1.0},"Location":{"LocationId":"NT_7QqfAdUJHW2ixiDGcIF.7A_l_887977871_L","LocationType":"point","DisplayPosition":{"Latitude":52.3999722,"Longitude":13.067534},"MapView":{"TopLeft":{"Latitude":52.40071,"Longitude":13.06746},"BottomRight":{"Latitude":52.3999,"Longitude":13.06829}},"Address":{"Label":"Berliner Straße, 14467 Potsdam, Deutschland","Country":"DEU","State":"Brandenburg","County":"Potsdam","City":"Potsdam","District":"Innenstadt","Street":"Berliner Straße","PostalCode":"14467","AdditionalData":[{"value":"Deutschland","key":"CountryName"},{"value":"Brandenburg","key":"StateName"},{"value":"Potsdam","key":"CountyName"}]},"MapReference":{"ReferenceId":"887977871","Spot":0.09,"SideOfStreet":"left","CountryId":"20147700","StateId":"20187428","CountyId":"20187477","CityId":"20187478","DistrictId":"20462657"}}},{"Relevance":1.0,"Distance":47.8,"MatchLevel":"houseNumber","MatchQuality":{"Country":1.0,"State":1.0,"County":1.0,"City":1.0,"District":1.0,"Street":[1.0],"HouseNumber":1.0,"PostalCode":1.0},"MatchType":"interpolated","Location":{"LocationId":"NT_CwGVysykAHG0UJWBCor-9D_l_53512945_R_yED","LocationType":"point","DisplayPosition":{"Latitude":52.39976,"Longitude":13.067715},"MapView":{"TopLeft":{"Latitude":52.4008842,"Longitude":13.0658726},"BottomRight":{"Latitude":52.3986359,"Longitude":13.0695574}},"Address":{"Label":"Türkstraße 21, 14467 Potsdam, Deutschland","Country":"DEU","State":"Brandenburg","County":"Potsdam","City":"Potsdam","District":"Innenstadt","Street":"Türkstraße","HouseNumber":"21","PostalCode":"14467","AdditionalData":[{"value":"Deutschland","key":"CountryName"},{"value":"Brandenburg","key":"StateName"},{"value":"Potsdam","key":"CountyName"}]},"MapReference":{"ReferenceId":"53512945","Spot":0.5,"SideOfStreet":"right","CountryId":"20147700","StateId":"20187428","CountyId":"20187477","CityId":"20187478","DistrictId":"20462657"}}},{"Relevance":1.0,"Distance":48.4,"MatchLevel":"houseNumber","MatchQuality":{"Country":1.0,"State":1.0,"County":1.0,"City":1.0,"District":1.0,"Street":[1.0],"HouseNumber":1.0,"PostalCode":1.0},"MatchType":"interpolated","Location":{"LocationId":"NT_7QqfAdUJHW2ixiDGcIF.7A_xQD","LocationType":"point","DisplayPosition":{"Latitude":52.39977,"Longitude":13.06733},"MapView":{"TopLeft":{"Latitude":52.4008942,"Longitude":13.0654876},"BottomRight":{"Latitude":52.3986458,"Longitude":13.0691724}},"Address":{"Label":"Berliner Straße 14, 14467 Potsdam, Deutschland","Country":"DEU","State":"Brandenburg","County":"Potsdam","City":"Potsdam","District":"Innenstadt","Street":"Berliner Straße","HouseNumber":"14","PostalCode":"14467","AdditionalData":[{"value":"Deutschland","key":"CountryName"},{"value":"Brandenburg","key":"StateName"},{"value":"Potsdam","key":"CountyName"}]},"MapReference":{"ReferenceId":"53512948","Spot":0.63,"SideOfStreet":"right","CountryId":"20147700","StateId":"20187428","CountyId":"20187477","CityId":"20187478","DistrictId":"20462657","AddressId":"182699855","RoadLinkId":"37729393"}}},{"Relevance":1.0,"Distance":70.4,"MatchLevel":"street","MatchQuality":{"Country":1.0,"State":1.0,"County":1.0,"City":1.0,"District":1.0,"Street":[1.0],"PostalCode":1.0},"Location":{"LocationId":"NT_CwGVysykAHG0UJWBCor-9D_l_565028906_R","LocationType":"point","DisplayPosition":{"Latitude":52.3996,"Longitude":13.067},"MapView":{"TopLeft":{"Latitude":52.39985,"Longitude":13.06638},"BottomRight":{"Latitude":52.3996,"Longitude":13.067}},"Address":{"Label":"Türkstraße, 14467 Potsdam, Deutschland","Country":"DEU","State":"Brandenburg","County":"Potsdam","City":"Potsdam","District":"Innenstadt","Street":"Türkstraße","PostalCode":"14467","AdditionalData":[{"value":"Deutschland","key":"CountryName"},{"value":"Brandenburg","key":"StateName"},{"value":"Potsdam","key":"CountyName"}]},"MapReference":{"ReferenceId":"565028906","Spot":0.0,"SideOfStreet":"right","CountryId":"20147700","StateId":"20187428","CountyId":"20187477","CityId":"20187478","DistrictId":"20462657"}}},{"Relevance":1.0,"Distance":70.4,"MatchLevel":"street","MatchQuality":{"Country":1.0,"State":1.0,"County":1.0,"City":1.0,"District":1.0,"Street":[1.0],"PostalCode":1.0},"Location":{"LocationId":"NT_7QqfAdUJHW2ixiDGcIF.7A_l_565028924_L","LocationType":"point","DisplayPosition":{"Latitude":52.3996,"Longitude":13.067},"MapView":{"TopLeft":{"Latitude":52.3996,"Longitude":13.06637},"BottomRight":{"Latitude":52.399,"Longitude":13.067}},"Address":{"Label":"Berliner Straße, 14467 Potsdam, Deutschland","Country":"DEU","State":"Brandenburg","County":"Potsdam","City":"Potsdam","District":"Innenstadt","Street":"Berliner Straße","PostalCode":"14467","AdditionalData":[{"value":"Deutschland","key":"CountryName"},{"value":"Brandenburg","key":"StateName"},{"value":"Potsdam","key":"CountyName"}]},"MapReference":{"ReferenceId":"565028924","Spot":1.0,"SideOfStreet":"left","CountryId":"20147700","StateId":"20187428","CountyId":"20187477","CityId":"20187478","DistrictId":"20462657"}}}]}]}}