{"Response":{"MetaInfo":{"Timestamp":"2020-03-28T11:20:27.803+0000","NextPageInformation":"2"},"View":[{"_type":"SearchResultsViewType","ViewId":0,"Result":[{"Relevance":1.0,"Distance":0.0,"Direction":0.0,"MatchLevel":"district","MatchQuality":{"Country":1.0,"State":1.0,"County":1.0,"City":1.0,"District":1.0,"PostalCode":1.0},"Location":{"LocationId":"NT_g9wdlYr1H2KhDIJDhDDqVD","LocationType":"point","DisplayPosition":{"Latitude":52.472337,"Longitude":-1.9551991},"MapView":{"TopLeft":{"Latitude":52.48745,"Longitude":-1.96816},"BottomRight":{"Latitude":52.44238,"Longitude":-1.89986}},"Address":{"Label":"Edgbaston, Birmingham, England, United Kingdom","Country":"GBR","State":"England","County":"West Midlands","City":"Birmingham","District":"Edgbaston","PostalCode":"B15 3","AdditionalData":[{"value":"United Kingdom","key":"CountryName"},{"value":"England","key":"StateName"},{"value":"West Midlands","key":"CountyName"}]},"MapReference":{"ReferenceId":"1167143504","SideOfStreet":"neither","StateId":"20248595","CountyId":"20358328","CityId":"20358334","DistrictId":"20358358"}}},{"Relevance":1.0,"Distance":53.3,"MatchLevel":"houseNumber","MatchQuality":{"Country":1.0,"State":1.0,"County":1.0,"City":1.0,"District":1.0,"Street":[1.0],"HouseNumber":1.0,"PostalCode":1.0},"MatchType":"interpolated","Location":{"LocationId":"NT_pXIYyyXKQb-gAhGIpw4EaC_l_26343758_L_ykD","LocationType":"point","DisplayPosition":{"Latitude":52.4722901,"Longitude":-1.9542399},"MapView":{"TopLeft":{"Latitude":52.4734143,"Longitude":-1.9560854},"BottomRight":{"Latitude":52.471166,"Longitude":-1.9523945}},"Address":{"Label":"29 Marsland Close, Birmingham, B17 8NG, United Kingdom","Country":"GBR","State":"England","County":"West Midlands","City":"Birmingham","District":"Edgbaston","Street":"Marsland Close","HouseNumber":"29","PostalCode":"B17 8NG","AdditionalData":[{"value":"United Kingdom","key":"CountryName"},{"value":"England","key":"StateName"},{"value":"West Midlands","key":"CountyName"}]},"MapReference":{"ReferenceId":"26343758","Spot":0.18,"SideOfStreet":"left","StateId":"20248595","CountyId":"20358328","CityId":"20358334","DistrictId":"20358358"}}},{"Relevance":1.0,"Distance":64.5,"MatchLevel":"houseNumber","MatchQuality":{"Country":1.0,"State":1.0,"County":1.0,"City":1.0,"District":1.0,"Street":[1.0],"HouseNumber":1.0,"PostalCode":1.0},"MatchType":"interpolated","Location":{"LocationId":"NT_j0UDnHD3I769F8OvyeF8AD_l_811990917_L_ycjM","LocationType":"point","DisplayPosition":{"Latitude":52.4730233,"Longitude":-1.9548867},"MapView":{"TopLeft":{"Latitude":52.4741475,"Longitude":-1.9567322},"BottomRight":{"Latitude":52.4718992,"Longitude":-1.9530412}},"Address":{"Label":"272 Hagley Road, Birmingham, B17 8, United Kingdom","Country":"GBR","State":"England","County":"West Midlands","City":"Birmingham","District":"Edgbaston","Street":"Hagley Road","HouseNumber":"272","PostalCode":"B17 8","AdditionalData":[{"value":"United Kingdom","key":"CountryName"},{"value":"England","key":"StateName"},{"value":"West Midlands","key":"CountyName"}]},"MapReference":{"ReferenceId":"811990917","Spot":0.53,"SideOfStreet":"left","StateId":"20248595","CountyId":"20358328","CityId":"20358334","DistrictId":"20358358"}}},{"Relevance":1.0,"Distance":70.4,"MatchLevel":"postalCode","MatchQuality":{"PostalCode":1.0},"MatchType":"interpolated","Location":{"LocationId":"NT_pXIYyyXKQb-gAhGIpw4EaC_l_26343758_L_ykD","LocationType":"point","DisplayPosition":{"Latitude":52.47233,"Longitude":-1.95416},"MapView":{"TopLeft":{"Latitude":52.4813232,"Longitude":-1.9689237},"BottomRight":{"Latitude":52.4633368,"Longitude":-1.9393963}},"Address":{"Label":"B17 8NG, Birmingham, England, United Kingdom","Country":"GBR","State":"England","County":"West Midlands","City":"Birmingham","PostalCode":"B17 8NG","AdditionalData":[{"value":"United Kingdom","key":"CountryName"},{"value":"England","key":"StateName"},{"value":"West Midlands","key":"CountyName"}]},"MapReference":{"ReferenceId":"26343758","Spot":0.18,"SideOfStreet":"neither","StateId":"20248595","CountyId":"20358328","CityId":"20358334"}}},{"Relevance":1.0,"Distance":71.0,"MatchLevel":"houseNumber","MatchQuality":{"Country":1.0,"State":1.0,"County":1.0,"City":1.0,"District":1.0,"Street":[1.0],"HouseNumber":1.0,"PostalCode":1.0},"MatchType":"interpolated","Location":{"LocationId":"NT_j0UDnHD3I769F8OvyeF8AD_l_811990918_L_ycDN","LocationType":"point","DisplayPosition":{"Latitude":52.4731,"Longitude":-1.9553601},"MapView":{"TopLeft":{"Latitude":52.4742242,"Longitude":-1.9572055},"BottomRight":{"Latitude":52.4719759,"Longitude":-1.9535146}},"Address":{"Label":"274 Hagley Road, Birmingham, B17 8, United Kingdom","Country":"GBR","State":"England","County":"West Midlands","City":"Birmingham","District":"Edgbaston","Street":"Hagley Road","HouseNumber":"274","PostalCode":"B17 8","AdditionalData":[{"value":"United Kingdom","key":"CountryName"},{"value":"England","key":"StateName"},{"value":"West Midlands","key":"CountyName"}]},"MapReference":{"ReferenceId":"811990918","Spot":0.19,"SideOfStreet":"left","StateId":"20248595","CountyId":"20358328","CityId":"20358334","DistrictId":"20358358"}}},{"Relevance":1.0,"Distance":82.5,"MatchLevel":"street","MatchQuality":{"Country":1.0,"State":1.0,"County":1.0,"City":1.0,"District":1.0,"Street":[1.0],"PostalCode":1.0},"Location":{"LocationId":"NT_e4vkmPeaTphqefWq.pp3mB_l_26343618_L","LocationType":"point","DisplayPosition":{"Latitude":52.47298,"Longitude":-1.95459},"MapView":{"TopLeft":{"Latitude":52.47306,"Longitude":-1.95465},"BottomRight":{"Latitude":52.47298,"Longitude":-1.95459}},"Address":{"Label":"Fountain Road, Birmingham, B17 8, United Kingdom","Country":"GBR","State":"England","County":"West Midlands","City":"Birmingham","District":"Edgbaston","Street":"Fountain Road","PostalCode":"B17 8","AdditionalData":[{"value":"United Kingdom","key":"CountryName"},{"value":"England","key":"StateName"},{"value":"West Midlands","key":"CountyName"}]},"MapReference":{"ReferenceId":"26343618","Spot":0.0,"SideOfStreet":"left","StateId":"20248595","CountyId":"20358328","CityId":"20358334","DistrictId":"20358358"}}},{"Relevance":1.0,"Distance":85.1,"MatchLevel":"houseNumber","MatchQuality":{"Country":1.0,"State":1.0,"County":1.0,"City":1.0,"District":1.0,"Street":[1.0],"HouseNumber":1.0,"PostalCode":1.0},"MatchType":"interpolated","Location":{"LocationId":"NT_e4vkmPeaTphqefWq.pp3mB_l_26343607_L_yA","LocationType":"point","DisplayPosition":{"Latitude":52.4731801,"Longitude":-1.9547401},"MapView":{"TopLeft":{"Latitude":52.4743042,"Longitude":-1.9565856},"BottomRight":{"Latitude":52.4720559,"Longitude":-1.9528946}},"Address":{"Label":"2 Fountain Road, Birmingham, B17 8, United Kingdom","Country":"GBR","State":"England","County":"West Midlands","City":"Birmingham","District":"Edgbaston","Street":"Fountain Road","HouseNumber":"2","PostalCode":"B17 8","AdditionalData":[{"value":"United Kingdom","key":"CountryName"},{"value":"England","key":"StateName"},{"value":"West Midlands","key":"CountyName"}]},"MapReference":{"ReferenceId":"26343607","Spot":0.08,"SideOfStreet":"left","StateId":"20248595","CountyId":"20358328","CityId":"20358334","DistrictId":"20358358"}}},{"Relevance":1.0,"Distance":89.0,"MatchLevel":"houseNumber","MatchQuality":{"Country":1.0,"State":1.0,"County":1.0,"City":1.0,"District":1.0,"Street":[1.0],"HouseNumber":1.0,"PostalCode":1.0},"MatchType":"interpolated","Location":{"LocationId":"NT_XLyTlII1fTqROuiJdK12YB_l_26343628_R_zMTO","LocationType":"point","DisplayPosition":{"Latitude":52.4729267,"Longitude":-1.95431},"MapView":{"TopLeft":{"Latitude":52.4740508,"Longitude":-1.9561555},"BottomRight":{"Latitude":52.4718025,"Longitude":-1.9524645}},"Address":{"Label":"339 Hagley Road, Birmingham, B17 8NH, United Kingdom","Country":"GBR","State":"England","County":"West Midlands","City":"Birmingham","District":"Edgbaston","Street":"Hagley Road","HouseNumber":"339","PostalCode":"B17 8NH","AdditionalData":[{"value":"United Kingdom","key":"CountryName"},{"value":"England","key":"StateName"},{"value":"West Midlands","key":"CountyName"}]},"MapReference":{"ReferenceId":"26343628","Spot":0.54,"SideOfStreet":"right","StateId":"20248595","CountyId":"20358328","CityId":"20358334","DistrictId":"20358358"}}},{"Relevance":1.0,"Distance":95.3,"MatchLevel":"houseNumber","MatchQuality":{"Country":1.0,"State":1.0,"County":1.0,"City":1.0,"District":1.0,"Street":[1.0],"HouseNumber":1.0,"PostalCode":1.0},"MatchType":"interpolated","Location":{"LocationId":"NT_ujx3SUwAwKc6U5DjAhzXNA_l_26343606_R_zA","LocationType":"point","DisplayPosition":{"Latitude":52.47311,"Longitude":-1.95446},"MapView":{"TopLeft":{"Latitude":52.4742342,"Longitude":-1.9563055},"BottomRight":{"Latitude":52.4719859,"Longitude":-1.9526145}},"Address":{"Label":"3 Stanmore Road, Birmingham, B16 9, United Kingdom","Country":"GBR","State":"England","County":"West Midlands","City":"Birmingham","District":"Edgbaston","Street":"Stanmore Road","HouseNumber":"3","PostalCode":"B16 9","AdditionalData":[{"value":"United Kingdom","key":"CountryName"},{"value":"England","key":"StateName"},{"value":"West Midlands","key":"CountyName"}]},"MapReference":{"ReferenceId":"26343606","Spot":0.14,"SideOfStreet":"right","StateId":"20248595","CountyId":"20358328","CityId":"20358334","DistrictId":"20358358"}}},{"Relevance":1.0,"Distance":99.4,"MatchLevel":"postalCode","MatchQuality":{"PostalCode":1.0},"MatchType":"interpolated","Location":{"LocationId":"NT_XLyTlII1fTqROuiJdK12YB_l_26343628_R_zMTO","LocationType":"point","DisplayPosition":{"Latitude":52.47295,"Longitude":-1.95413},"MapView":{"TopLeft":{"Latitude":52.4819432,"Longitude":-1.9688939},"BottomRight":{"Latitude":52.4639568,"Longitude":-1.9393661}},"Address":{"Label":"B17 8NH, Birmingham, England, United Kingdom","Country":"GBR","State":"England","County":"West Midlands","City":"Birmingham","PostalCode":"B17 8NH","AdditionalData":[{"value":"United Kingdom","key":"CountryName"},{"value":"England","key":"StateName"},{"value":"West Midlands","key":"CountyName"}]},"MapReference":{"ReferenceId":"26343628","Spot":0.54,"SideOfStreet":"neither","StateId":"20248595","CountyId":"20358328","CityId":"20358334"}}}]}]}}