{"Response":{"MetaInfo":{"Timestamp":"2020-03-28T11:42:21.921+0000","NextPageInformation":"2"},"View":[{"_type":"SearchResultsViewType","ViewId":0,"Result":[{"Relevance":1.0,"Distance":0.0,"Direction":0.0,"MatchLevel":"district","MatchQuality":{"Country":1.0,"State":1.0,"County":1.0,"City":1.0,"District":1.0,"PostalCode":1.0},"Location":{"LocationId":"NT_G59s66ybMlIZn5E3emBRFA","LocationType":"point","DisplayPosition":{"Latitude":52.4094222,"Longitude":7.9794748},"MapView":{"TopLeft":{"Latitude":52.42196,"Longitude":7.95264},"BottomRight":{"Latitude":52.39843,"Longitude":8.02118}},"Address":{"Label":"Bramsche, Niedersachsen, Deutschland","Country":"DEU","State":"Niedersachsen","County":"Osnabrück (Landkreis)","City":"Bramsche","District":"Bramsche","PostalCode":"49565","AdditionalData":[{"value":"Deutschland","key":"CountryName"},{"value":"Niedersachsen","key":"StateName"},{"value":"Osnabrück (Landkreis)","key":"CountyName"}]},"MapReference":{"ReferenceId":"539281902","SideOfStreet":"neither","CountryId":"20147700","StateId":"20151542","CountyId":"20156909","CityId":"20156980","DistrictId":"20156985"}}},{"Relevance":1.0,"Distance":5.6,"MatchLevel":"houseNumber","MatchQuality":{"Country":1.0,"State":1.0,"County":1.0,"City":1.0,"District":1.0,"Street":[1.0],"HouseNumber":1.0,"PostalCode":1.0},"MatchType":"interpolated","Location":{"LocationId":"NT_eMv6mTJE.3nmoEzYErBzcC_ygD","LocationType":"point","DisplayPosition":{"Latitude":52.40946,"Longitude":7.97953},"MapView":{"TopLeft":{"Latitude":52.4105842,"Longitude":7.9776872},"BottomRight":{"Latitude":52.4083358,"Longitude":7.9813728}},"Address":{"Label":"Münsterstraße 28, 49565 Bramsche, Deutschland","Country":"DEU","State":"Niedersachsen","County":"Osnabrück (Landkreis)","City":"Bramsche","District":"Bramsche","Street":"Münsterstraße","HouseNumber":"28","PostalCode":"49565","AdditionalData":[{"value":"Deutschland","key":"CountryName"},{"value":"Niedersachsen","key":"StateName"},{"value":"Osnabrück (Landkreis)","key":"CountyName"}]},"MapReference":{"ReferenceId":"1253962911","Spot":0.67,"SideOfStreet":"left","CountryId":"20147700","StateId":"20151542","CountyId":"20156909","CityId":"20156980","DistrictId":"20156985","AddressId":"181190577","RoadLinkId":"577153994"}}},{"Relevance":1.0,"Distance":28.0,"MatchLevel":"houseNumber","MatchQuality":{"Country":1.0,"State":1.0,"County":1.0,"City":1.0,"District":1.0,"Street":[1.0],"HouseNumber":1.0,"PostalCode":1.0},"MatchType":"interpolated","Location":{"LocationId":"NT_G8kc35kxTYwOwV2fHLIdBB_yEjQ","LocationType":"point","DisplayPosition":{"Latitude":52.40925,"Longitude":7.97996},"MapView":{"TopLeft":{"Latitude":52.4103742,"Longitude":7.9781172},"BottomRight":{"Latitude":52.4081258,"Longitude":7.9818028}},"Address":{"Label":"Große Straße 21B, 49565 Bramsche, Deutschland","Country":"DEU","State":"Niedersachsen","County":"Osnabrück (Landkreis)","City":"Bramsche","District":"Bramsche","Street":"Große Straße","HouseNumber":"21B","PostalCode":"49565","AdditionalData":[{"value":"Deutschland","key":"CountryName"},{"value":"Niedersachsen","key":"StateName"},{"value":"Osnabrück (Landkreis)","key":"CountyName"}]},"MapReference":{"ReferenceId":"1253962888","Spot":0.62,"SideOfStreet":"left","CountryId":"20147700","StateId":"20151542","CountyId":"20156909","CityId":"20156980","DistrictId":"20156985","AddressId":"180968954","RoadLinkId":"577153971"}}},{"Relevance":1.0,"Distance":31.9,"MatchLevel":"street","MatchQuality":{"Country":1.0,"State":1.0,"County":1.0,"City":1.0,"District":1.0,"Street":[1.0],"PostalCode":1.0},"Location":{"LocationId":"NT_iwHov.DVoevxFhgSrT0HtD_l_1253962910_R","LocationType":"point","DisplayPosition":{"Latitude":52.4097,"Longitude":7.97959},"MapView":{"TopLeft":{"Latitude":52.40971,"Longitude":7.97959},"BottomRight":{"Latitude":52.4097,"Longitude":7.97967}},"Address":{"Label":"Biskupiec-Weg, 49565 Bramsche, Deutschland","Country":"DEU","State":"Niedersachsen","County":"Osnabrück (Landkreis)","City":"Bramsche","District":"Bramsche","Street":"Biskupiec-Weg","PostalCode":"49565","AdditionalData":[{"value":"Deutschland","key":"CountryName"},{"value":"Niedersachsen","key":"StateName"},{"value":"Osnabrück (Landkreis)","key":"CountyName"}]},"MapReference":{"ReferenceId":"1253962910","Spot":0.0,"SideOfStreet":"right","CountryId":"20147700","StateId":"20151542","CountyId":"20156909","CityId":"20156980","DistrictId":"20156985"}}},{"Relevance":1.0,"Distance":34.6,"MatchLevel":"street","MatchQuality":{"Country":1.0,"State":1.0,"County":1.0,"City":1.0,"District":1.0,"Street":[1.0],"PostalCode":1.0},"Location":{"LocationId":"NT_G8kc35kxTYwOwV2fHLIdBB_l_1253962889_L","LocationType":"point","DisplayPosition":{"Latitude":52.40971,"Longitude":7.97967},"MapView":{"TopLeft":{"Latitude":52.40978,"Longitude":7.97961},"BottomRight":{"Latitude":52.40971,"Longitude":7.97967}},"Address":{"Label":"Große Straße, 49565 Bramsche, Deutschland","Country":"DEU","State":"Niedersachsen","County":"Osnabrück (Landkreis)","City":"Bramsche","District":"Bramsche","Street":"Große Straße","PostalCode":"49565","AdditionalData":[{"value":"Deutschland","key":"CountryName"},{"value":"Niedersachsen","key":"StateName"},{"value":"Osnabrück (Landkreis)","key":"CountyName"}]},"MapReference":{"ReferenceId":"1253962889","Spot":0.0,"SideOfStreet":"left","CountryId":"20147700","StateId":"20151542","CountyId":"20156909","CityId":"20156980","DistrictId":"20156985"}}},{"Relevance":1.0,"Distance":34.6,"MatchLevel":"street","MatchQuality":{"Country":1.0,"State":1.0,"County":1.0,"City":1.0,"District":1.0,"Street":[1.0],"PostalCode":1.0},"Location":{"LocationId":"NT_iwHov.DVoevxFhgSrT0HtD_l_1253962887_R","LocationType":"point","DisplayPosition":{"Latitude":52.40971,"Longitude":7.97967},"MapView":{"TopLeft":{"Latitude":52.41003,"Longitude":7.97967},"BottomRight":{"Latitude":52.40971,"Longitude":7.98148}},"Address":{"Label":"Biskupiec-Weg, 49565 Bramsche, Deutschland","Country":"DEU","State":"Niedersachsen","County":"Osnabrück (Landkreis)","City":"Bramsche","District":"Bramsche","Street":"Biskupiec-Weg","PostalCode":"49565","AdditionalData":[{"value":"Deutschland","key":"CountryName"},{"value":"Niedersachsen","key":"StateName"},{"value":"Osnabrück (Landkreis)","key":"CountyName"}]},"MapReference":{"ReferenceId":"1253962887","Spot":0.0,"SideOfStreet":"right","CountryId":"20147700","StateId":"20151542","CountyId":"20156909","CityId":"20156980","DistrictId":"20156985"}}},{"Relevance":1.0,"Distance":35.3,"MatchLevel":"houseNumber","MatchQuality":{"Country":1.0,"State":1.0,"County":1.0,"City":1.0,"District":1.0,"Street":[1.0],"HouseNumber":1.0,"PostalCode":1.0},"MatchType":"interpolated","Location":{"LocationId":"NT_eMv6mTJE.3nmoEzYErBzcC_zAD","LocationType":"point","DisplayPosition":{"Latitude":52.40973,"Longitude":7.9796},"MapView":{"TopLeft":{"Latitude":52.4108542,"Longitude":7.9777572},"BottomRight":{"Latitude":52.4086058,"Longitude":7.9814428}},"Address":{"Label":"Münsterstraße 30, 49565 Bramsche, Deutschland","Country":"DEU","State":"Niedersachsen","County":"Osnabrück (Landkreis)","City":"Bramsche","District":"Bramsche","Street":"Münsterstraße","HouseNumber":"30","PostalCode":"49565","AdditionalData":[{"value":"Deutschland","key":"CountryName"},{"value":"Niedersachsen","key":"StateName"},{"value":"Osnabrück (Landkreis)","key":"CountyName"}]},"MapReference":{"ReferenceId":"1253962912","Spot":0.38,"SideOfStreet":"left","CountryId":"20147700","StateId":"20151542","CountyId":"20156909","CityId":"20156980","DistrictId":"20156985","AddressId":"249852586","RoadLinkId":"577153995"}}},{"Relevance":1.0,"Distance":51.5,"MatchLevel":"street","MatchQuality":{"Country":1.0,"State":1.0,"County":1.0,"City":1.0,"District":1.0,"Street":[1.0],"PostalCode":1.0},"Location":{"LocationId":"NT_5TWbs7ICFdtjIhxhX20hEA_l_1149539874_L","LocationType":"point","DisplayPosition":{"Latitude":52.40896,"Longitude":7.97943},"MapView":{"TopLeft":{"Latitude":52.40896,"Longitude":7.97893},"BottomRight":{"Latitude":52.40889,"Longitude":7.97943}},"Address":{"Label":"Johann-Friedrich-Sostmann-Straße, 49565 Bramsche, Deutschland","Country":"DEU","State":"Niedersachsen","County":"Osnabrück (Landkreis)","City":"Bramsche","District":"Bramsche","Street":"Johann-Friedrich-Sostmann-Straße","PostalCode":"49565","AdditionalData":[{"value":"Deutschland","key":"CountryName"},{"value":"Niedersachsen","key":"StateName"},{"value":"Osnabrück (Landkreis)","key":"CountyName"}]},"MapReference":{"ReferenceId":"1149539874","Spot":1.0,"SideOfStreet":"left","CountryId":"20147700","StateId":"20151542","CountyId":"20156909","CityId":"20156980","DistrictId":"20156985"}}},{"Relevance":1.0,"Distance":56.5,"MatchLevel":"houseNumber","MatchQuality":{"Country":1.0,"State":1.0,"County":1.0,"City":1.0,"District":1.0,"Street":[1.0],"HouseNumber":1.0,"PostalCode":1.0},"MatchType":"interpolated","Location":{"LocationId":"NT_G8kc35kxTYwOwV2fHLIdBB_yMD","LocationType":"point","DisplayPosition":{"Latitude":52.40994,"Longitude":7.97956},"MapView":{"TopLeft":{"Latitude":52.4110642,"Longitude":7.9777172},"BottomRight":{"Latitude":52.4088158,"Longitude":7.9814028}},"Address":{"Label":"Große Straße 23, 49565 Bramsche, Deutschland","Country":"DEU","State":"Niedersachsen","County":"Osnabrück (Landkreis)","City":"Bramsche","District":"Bramsche","Street":"Große Straße","HouseNumber":"23","PostalCode":"49565","AdditionalData":[{"value":"Deutschland","key":"CountryName"},{"value":"Niedersachsen","key":"StateName"},{"value":"Osnabrück (Landkreis)","key":"CountyName"}]},"MapReference":{"ReferenceId":"1254151554","Spot":0.7,"SideOfStreet":"left","CountryId":"20147700","StateId":"20151542","CountyId":"20156909","CityId":"20156980","DistrictId":"20156985","AddressId":"179298274","RoadLinkId":"577376579"}}},{"Relevance":1.0,"Distance":63.5,"MatchLevel":"street","MatchQuality":{"Country":1.0,"State":1.0,"County":1.0,"City":1.0,"District":1.0,"PostalCode":1.0},"Location":{"LocationId":"NT_k71i8-jt4ffKchju4CWWhA_l_1254151556_R","LocationType":"point","DisplayPosition":{"Latitude":52.4099917,"Longitude":7.9794036},"MapView":{"TopLeft":{"Latitude":52.41001,"Longitude":7.97747},"BottomRight":{"Latitude":52.40975,"Longitude":7.97955}},"Address":{"Label":"49565 Bramsche, Deutschland","Country":"DEU","State":"Niedersachsen","County":"Osnabrück (Landkreis)","City":"Bramsche","District":"Bramsche","PostalCode":"49565","AdditionalData":[{"value":"Deutschland","key":"CountryName"},{"value":"Niedersachsen","key":"StateName"},{"value":"Osnabrück (Landkreis)","key":"CountyName"}]},"MapReference":{"ReferenceId":"1254151556","Spot":0.93,"SideOfStreet":"right","CountryId":"20147700","StateId":"20151542","CountyId":"20156909","CityId":"20156980","DistrictId":"20156985"}}}]}]}}