{"Response":{"MetaInfo":{"Timestamp":"2020-03-28T10:55:00.069+0000","NextPageInformation":"2"},"View":[{"_type":"SearchResultsViewType","ViewId":0,"Result":[{"Relevance":1.0,"Distance":-18.1,"MatchLevel":"landmark","MatchQuality":{"Country":1.0,"State":1.0,"County":1.0,"City":1.0,"District":1.0,"Street":[1.0],"HouseNumber":1.0,"PostalCode":1.0,"Name":1.0},"Location":{"LocationId":"NT_nu7vb6IXrFNhOjs2hT44pA_p_WwbcyBdCuCr5ISNrzE5NAA","LocationType":"hospital","Name":"Vivantes Auguste-Viktoria-Klinikum","DisplayPosition":{"Latitude":52.46322,"Longitude":13.34496},"MapView":{"TopLeft":{"Latitude":52.4643442,"Longitude":13.3431149},"BottomRight":{"Latitude":52.4620958,"Longitude":13.3468051}},"Address":{"Label":"Rubensstraße 125, 12157 Berlin, Deutschland","Country":"DEU","State":"Berlin","County":"Berlin","City":"Berlin","District":"Schöneberg","Street":"Rubensstraße","HouseNumber":"125","PostalCode":"12157","AdditionalData":[{"value":"Deutschland","key":"CountryName"},{"value":"Berlin","key":"StateName"},{"value":"Berlin","key":"CountyName"}]},"MapReference":{"CountryId":"20147700","StateId":"20187401","CountyId":"20187402","CityId":"20187403","DistrictId":"20187410","PlaceId":"56123374"}}},{"Relevance":1.0,"Distance":0.0,"Direction":0.0,"MatchLevel":"district","MatchQuality":{"Country":1.0,"State":1.0,"County":1.0,"City":1.0,"District":1.0,"PostalCode":1.0},"Location":{"LocationId":"NT_0LQGuBWpf.3xwp0UxPfjsA","LocationType":"point","DisplayPosition":{"Latitude":52.459274,"Longitude":13.348324},"MapView":{"TopLeft":{"Latitude":52.50504,"Longitude":13.33629},"BottomRight":{"Latitude":52.45558,"Longitude":13.37634}},"Address":{"Label":"Schöneberg, Berlin, Deutschland","Country":"DEU","State":"Berlin","County":"Berlin","City":"Berlin","District":"Schöneberg","PostalCode":"10825","AdditionalData":[{"value":"Deutschland","key":"CountryName"},{"value":"Berlin","key":"StateName"},{"value":"Berlin","key":"CountyName"}]},"MapReference":{"ReferenceId":"53476179","SideOfStreet":"neither","CountryId":"20147700","StateId":"20187401","CountyId":"20187402","CityId":"20187403","DistrictId":"20187410"}}},{"Relevance":1.0,"Distance":5.0,"MatchLevel":"street","MatchQuality":{"Country":1.0,"State":1.0,"County":1.0,"City":1.0,"District":1.0,"PostalCode":1.0},"Location":{"LocationId":"NT_m0H7v2X.pqqF5996uE-YDA_l_924421572_L","LocationType":"point","DisplayPosition":{"Latitude":52.4593193,"Longitude":13.3483206},"MapView":{"TopLeft":{"Latitude":52.45964,"Longitude":13.34745},"BottomRight":{"Latitude":52.4593,"Longitude":13.34833}},"Address":{"Label":"12157 Berlin, Deutschland","Country":"DEU","State":"Berlin","County":"Berlin","City":"Berlin","District":"Schöneberg","PostalCode":"12157","AdditionalData":[{"value":"Deutschland","key":"CountryName"},{"value":"Berlin","key":"StateName"},{"value":"Berlin","key":"CountyName"}]},"MapReference":{"ReferenceId":"924421572","Spot":0.01,"SideOfStreet":"left","CountryId":"20147700","StateId":"20187401","CountyId":"20187402","CityId":"20187403","DistrictId":"20187410"}}},{"Relevance":1.0,"Distance":10.7,"MatchLevel":"houseNumber","MatchQuality":{"Country":1.0,"State":1.0,"County":1.0,"City":1.0,"District":1.0,"Street":[1.0],"HouseNumber":1.0,"PostalCode":1.0},"MatchType":"interpolated","Location":{"LocationId":"NT_W0uaEF-H4w7QxctooQkHpC_yMjN","LocationType":"point","DisplayPosition":{"Latitude":52.45937,"Longitude":13.34831},"MapView":{"TopLeft":{"Latitude":52.4604942,"Longitude":13.3464651},"BottomRight":{"Latitude":52.4582458,"Longitude":13.3501549}},"Address":{"Label":"Grazer Damm 236, 12157 Berlin, Deutschland","Country":"DEU","State":"Berlin","County":"Berlin","City":"Berlin","District":"Schöneberg","Street":"Grazer Damm","HouseNumber":"236","PostalCode":"12157","AdditionalData":[{"value":"Deutschland","key":"CountryName"},{"value":"Berlin","key":"StateName"},{"value":"Berlin","key":"CountyName"}]},"MapReference":{"ReferenceId":"924421573","Spot":0.14,"SideOfStreet":"left","CountryId":"20147700","StateId":"20187401","CountyId":"20187402","CityId":"20187403","DistrictId":"20187410","AddressId":"169510133","RoadLinkId":"531698018"}}},{"Relevance":1.0,"Distance":16.2,"MatchLevel":"street","MatchQuality":{"Country":1.0,"State":1.0,"County":1.0,"City":1.0,"District":1.0,"Street":[1.0],"PostalCode":1.0},"Location":{"LocationId":"NT_W0uaEF-H4w7QxctooQkHpC_l_53482248_L","LocationType":"point","DisplayPosition":{"Latitude":52.4592836,"Longitude":13.3485631},"MapView":{"TopLeft":{"Latitude":52.45936,"Longitude":13.34856},"BottomRight":{"Latitude":52.45911,"Longitude":13.34857}},"Address":{"Label":"Grazer Damm, 12157 Berlin, Deutschland","Country":"DEU","State":"Berlin","County":"Berlin","City":"Berlin","District":"Schöneberg","Street":"Grazer Damm","PostalCode":"12157","AdditionalData":[{"value":"Deutschland","key":"CountryName"},{"value":"Berlin","key":"StateName"},{"value":"Berlin","key":"CountyName"}]},"MapReference":{"ReferenceId":"53482248","Spot":0.69,"SideOfStreet":"left","CountryId":"20147700","StateId":"20187401","CountyId":"20187402","CityId":"20187403","DistrictId":"20187410"}}},{"Relevance":1.0,"Distance":18.2,"MatchLevel":"street","MatchQuality":{"Country":1.0,"State":1.0,"County":1.0,"City":1.0,"District":1.0,"Street":[1.0],"PostalCode":1.0},"Location":{"LocationId":"NT_Ye9UTM2UV25PQZ7A3jw36C_l_53482252_L","LocationType":"point","DisplayPosition":{"Latitude":52.45911,"Longitude":13.348324},"MapView":{"TopLeft":{"Latitude":52.45911,"Longitude":13.34805},"BottomRight":{"Latitude":52.45911,"Longitude":13.34857}},"Address":{"Label":"Prellerweg, 12157 Berlin, Deutschland","Country":"DEU","State":"Berlin","County":"Berlin","City":"Berlin","District":"Steglitz","Street":"Prellerweg","PostalCode":"12157","AdditionalData":[{"value":"Deutschland","key":"CountryName"},{"value":"Berlin","key":"StateName"},{"value":"Berlin","key":"CountyName"}]},"MapReference":{"ReferenceId":"53482252","Spot":0.53,"SideOfStreet":"left","CountryId":"20147700","StateId":"20187401","CountyId":"20187402","CityId":"20187403","DistrictId":"20187412"}}},{"Relevance":1.0,"Distance":18.6,"MatchLevel":"street","MatchQuality":{"Country":1.0,"State":1.0,"County":1.0,"City":1.0,"District":1.0,"Street":[1.0],"PostalCode":1.0},"Location":{"LocationId":"NT_W0uaEF-H4w7QxctooQkHpC_l_1200031229_L","LocationType":"point","DisplayPosition":{"Latitude":52.45936,"Longitude":13.34856},"MapView":{"TopLeft":{"Latitude":52.45954,"Longitude":13.34854},"BottomRight":{"Latitude":52.45936,"Longitude":13.34856}},"Address":{"Label":"Grazer Damm, 12157 Berlin, Deutschland","Country":"DEU","State":"Berlin","County":"Berlin","City":"Berlin","District":"Schöneberg","Street":"Grazer Damm","PostalCode":"12157","AdditionalData":[{"value":"Deutschland","key":"CountryName"},{"value":"Berlin","key":"StateName"},{"value":"Berlin","key":"CountyName"}]},"MapReference":{"ReferenceId":"1200031229","Spot":0.0,"SideOfStreet":"left","CountryId":"20147700","StateId":"20187401","CountyId":"20187402","CityId":"20187403","DistrictId":"20187410"}}},{"Relevance":1.0,"Distance":18.6,"MatchLevel":"street","MatchQuality":{"Country":1.0,"State":1.0,"County":1.0,"City":1.0,"District":1.0,"PostalCode":1.0},"Location":{"LocationId":"NT_m0H7v2X.pqqF5996uE-YDA_l_53482209_R","LocationType":"point","DisplayPosition":{"Latitude":52.45936,"Longitude":13.34856},"MapView":{"TopLeft":{"Latitude":52.45937,"Longitude":13.34856},"BottomRight":{"Latitude":52.45936,"Longitude":13.34874}},"Address":{"Label":"12157 Berlin, Deutschland","Country":"DEU","State":"Berlin","County":"Berlin","City":"Berlin","District":"Schöneberg","PostalCode":"12157","AdditionalData":[{"value":"Deutschland","key":"CountryName"},{"value":"Berlin","key":"StateName"},{"value":"Berlin","key":"CountyName"}]},"MapReference":{"ReferenceId":"53482209","Spot":0.0,"SideOfStreet":"right","CountryId":"20147700","StateId":"20187401","CountyId":"20187402","CityId":"20187403","DistrictId":"20187410"}}},{"Relevance":1.0,"Distance":24.7,"MatchLevel":"street","MatchQuality":{"Country":1.0,"State":1.0,"County":1.0,"City":1.0,"District":1.0,"Street":[1.0],"PostalCode":1.0},"Location":{"LocationId":"NT_FAcxPlSSKsVPkeESMU-CGA_l_53482247_L","LocationType":"point","DisplayPosition":{"Latitude":52.45911,"Longitude":13.34857},"MapView":{"TopLeft":{"Latitude":52.45912,"Longitude":13.34857},"BottomRight":{"Latitude":52.45911,"Longitude":13.34881}},"Address":{"Label":"Prellerweg, 12157 Berlin, Deutschland","Country":"DEU","State":"Berlin","County":"Berlin","City":"Berlin","District":"Schöneberg","Street":"Prellerweg","PostalCode":"12157","AdditionalData":[{"value":"Deutschland","key":"CountryName"},{"value":"Berlin","key":"StateName"},{"value":"Berlin","key":"CountyName"}]},"MapReference":{"ReferenceId":"53482247","Spot":0.0,"SideOfStreet":"left","CountryId":"20147700","StateId":"20187401","CountyId":"20187402","CityId":"20187403","DistrictId":"20187410"}}},{"Relevance":1.0,"Distance":24.7,"MatchLevel":"street","MatchQuality":{"Country":1.0,"State":1.0,"County":1.0,"City":1.0,"District":1.0,"PostalCode":1.0},"Location":{"LocationId":"NT_e8U1Ndx8vXD7pelxsJT7XB_l_53482302_L","LocationType":"point","DisplayPosition":{"Latitude":52.45911,"Longitude":13.34857},"MapView":{"TopLeft":{"Latitude":52.45911,"Longitude":13.34857},"BottomRight":{"Latitude":52.45892,"Longitude":13.34857}},"Address":{"Label":"12157 Berlin, Deutschland","Country":"DEU","State":"Berlin","County":"Berlin","City":"Berlin","District":"Schöneberg","PostalCode":"12157","AdditionalData":[{"value":"Deutschland","key":"CountryName"},{"value":"Berlin","key":"StateName"},{"value":"Berlin","key":"CountyName"}]},"MapReference":{"ReferenceId":"53482302","Spot":1.0,"SideOfStreet":"left","CountryId":"20147700","StateId":"20187401","CountyId":"20187402","CityId":"20187403","DistrictId":"20187410"}}}]}]}}