{"Response":{"MetaInfo":{"Timestamp":"2020-03-28T10:16:53.298+0000","NextPageInformation":"2"},"View":[{"_type":"SearchResultsViewType","ViewId":0,"Result":[{"Relevance":1.0,"Distance":0.0,"Direction":0.0,"MatchLevel":"district","MatchQuality":{"Country":1.0,"State":1.0,"County":1.0,"City":1.0,"District":1.0,"PostalCode":1.0},"Location":{"LocationId":"NT_i6wugot219CGZXUxt9GKXC","LocationType":"point","DisplayPosition":{"Latitude":52.4849377,"Longitude":10.5313833},"MapView":{"TopLeft":{"Latitude":52.49574,"Longitude":10.50319},"BottomRight":{"Latitude":52.44947,"Longitude":10.57642}},"Address":{"Label":"Gifhorn, Niedersachsen, Deutschland","Country":"DEU","State":"Niedersachsen","County":"Gifhorn","City":"Gifhorn","District":"Gifhorn","PostalCode":"38518","AdditionalData":[{"value":"Deutschland","key":"CountryName"},{"value":"Niedersachsen","key":"StateName"},{"value":"Gifhorn","key":"CountyName"}]},"MapReference":{"ReferenceId":"1204302739","SideOfStreet":"neither","CountryId":"20147700","StateId":"20151542","CountyId":"20151630","CityId":"20151670","DistrictId":"20151676"}}},{"Relevance":1.0,"Distance":13.9,"MatchLevel":"houseNumber","MatchQuality":{"Country":1.0,"State":1.0,"County":1.0,"City":1.0,"District":1.0,"Street":[1.0],"HouseNumber":1.0,"PostalCode":1.0},"MatchType":"interpolated","Location":{"LocationId":"NT_oIwJ.khPUrU8qUO0ceFocC_1ETQ","LocationType":"point","DisplayPosition":{"Latitude":52.48515,"Longitude":10.53151},"MapView":{"TopLeft":{"Latitude":52.4862742,"Longitude":10.529664},"BottomRight":{"Latitude":52.4840258,"Longitude":10.533356}},"Address":{"Label":"Celler Straße 51A, 38518 Gifhorn, Deutschland","Country":"DEU","State":"Niedersachsen","County":"Gifhorn","City":"Gifhorn","District":"Gifhorn","Street":"Celler Straße","HouseNumber":"51A","PostalCode":"38518","AdditionalData":[{"value":"Deutschland","key":"CountryName"},{"value":"Niedersachsen","key":"StateName"},{"value":"Gifhorn","key":"CountyName"}]},"MapReference":{"ReferenceId":"67968164","Spot":0.87,"SideOfStreet":"left","CountryId":"20147700","StateId":"20151542","CountyId":"20151630","CityId":"20151670","DistrictId":"20151676","AddressId":"181604348","RoadLinkId":"36306751"}}},{"Relevance":1.0,"Distance":32.0,"MatchLevel":"houseNumber","MatchQuality":{"Country":1.0,"State":1.0,"County":1.0,"City":1.0,"District":1.0,"Street":[1.0],"HouseNumber":1.0,"PostalCode":1.0},"MatchType":"interpolated","Location":{"LocationId":"NT_mHFvB0XfqPEOMxFN41fU2D_yA","LocationType":"point","DisplayPosition":{"Latitude":52.48464,"Longitude":10.53121},"MapView":{"TopLeft":{"Latitude":52.4857642,"Longitude":10.529364},"BottomRight":{"Latitude":52.4835158,"Longitude":10.533056}},"Address":{"Label":"Querweg 2, 38518 Gifhorn, Deutschland","Country":"DEU","State":"Niedersachsen","County":"Gifhorn","City":"Gifhorn","District":"Gifhorn","Street":"Querweg","HouseNumber":"2","PostalCode":"38518","AdditionalData":[{"value":"Deutschland","key":"CountryName"},{"value":"Niedersachsen","key":"StateName"},{"value":"Gifhorn","key":"CountyName"}]},"MapReference":{"ReferenceId":"67968151","Spot":0.43,"SideOfStreet":"right","CountryId":"20147700","StateId":"20151542","CountyId":"20151630","CityId":"20151670","DistrictId":"20151676","AddressId":"832849886","RoadLinkId":"36897491"}}},{"Relevance":1.0,"Distance":32.1,"MatchLevel":"houseNumber","MatchQuality":{"Country":1.0,"State":1.0,"County":1.0,"City":1.0,"District":1.0,"Street":[1.0],"HouseNumber":1.0,"PostalCode":1.0},"MatchType":"interpolated","Location":{"LocationId":"NT_oIwJ.khPUrU8qUO0ceFocC_1MD","LocationType":"point","DisplayPosition":{"Latitude":52.48517,"Longitude":10.53093},"MapView":{"TopLeft":{"Latitude":52.4862942,"Longitude":10.529084},"BottomRight":{"Latitude":52.4840458,"Longitude":10.532776}},"Address":{"Label":"Celler Straße 53, 38518 Gifhorn, Deutschland","Country":"DEU","State":"Niedersachsen","County":"Gifhorn","City":"Gifhorn","District":"Gifhorn","Street":"Celler Straße","HouseNumber":"53","PostalCode":"38518","AdditionalData":[{"value":"Deutschland","key":"CountryName"},{"value":"Niedersachsen","key":"StateName"},{"value":"Gifhorn","key":"CountyName"}]},"MapReference":{"ReferenceId":"67968156","Spot":0.32,"SideOfStreet":"left","CountryId":"20147700","StateId":"20151542","CountyId":"20151630","CityId":"20151670","DistrictId":"20151676","AddressId":"177098178","RoadLinkId":"36459301"}}},{"Relevance":1.0,"Distance":61.3,"MatchLevel":"houseNumber","MatchQuality":{"Country":1.0,"State":1.0,"County":1.0,"City":1.0,"District":1.0,"Street":[1.0],"HouseNumber":1.0,"PostalCode":1.0},"MatchType":"interpolated","Location":{"LocationId":"NT_JXz8R6ChYuCiiFaZB6dAyB_xID","LocationType":"point","DisplayPosition":{"Latitude":52.48424,"Longitude":10.53103},"MapView":{"TopLeft":{"Latitude":52.4853642,"Longitude":10.529184},"BottomRight":{"Latitude":52.4831158,"Longitude":10.532876}},"Address":{"Label":"Fischerweg 12, 38518 Gifhorn, Deutschland","Country":"DEU","State":"Niedersachsen","County":"Gifhorn","City":"Gifhorn","District":"Gifhorn","Street":"Fischerweg","HouseNumber":"12","PostalCode":"38518","AdditionalData":[{"value":"Deutschland","key":"CountryName"},{"value":"Niedersachsen","key":"StateName"},{"value":"Gifhorn","key":"CountyName"}]},"MapReference":{"ReferenceId":"67968154","Spot":0.07,"SideOfStreet":"right","CountryId":"20147700","StateId":"20151542","CountyId":"20151630","CityId":"20151670","DistrictId":"20151676","AddressId":"177152563","RoadLinkId":"36501570"}}},{"Relevance":1.0,"Distance":62.0,"MatchLevel":"houseNumber","MatchQuality":{"Country":1.0,"State":1.0,"County":1.0,"City":1.0,"District":1.0,"Street":[1.0],"HouseNumber":1.0,"PostalCode":1.0},"MatchType":"interpolated","Location":{"LocationId":"NT_JXz8R6ChYuCiiFaZB6dAyB_xAD","LocationType":"point","DisplayPosition":{"Latitude":52.48424,"Longitude":10.5314},"MapView":{"TopLeft":{"Latitude":52.4853642,"Longitude":10.529554},"BottomRight":{"Latitude":52.4831158,"Longitude":10.533246}},"Address":{"Label":"Fischerweg 10, 38518 Gifhorn, Deutschland","Country":"DEU","State":"Niedersachsen","County":"Gifhorn","City":"Gifhorn","District":"Gifhorn","Street":"Fischerweg","HouseNumber":"10","PostalCode":"38518","AdditionalData":[{"value":"Deutschland","key":"CountryName"},{"value":"Niedersachsen","key":"StateName"},{"value":"Gifhorn","key":"CountyName"}]},"MapReference":{"ReferenceId":"67968158","Spot":0.24,"SideOfStreet":"left","CountryId":"20147700","StateId":"20151542","CountyId":"20151630","CityId":"20151670","DistrictId":"20151676","AddressId":"177555810","RoadLinkId":"37205555"}}},{"Relevance":1.0,"Distance":63.2,"MatchLevel":"houseNumber","MatchQuality":{"Country":1.0,"State":1.0,"County":1.0,"City":1.0,"District":1.0,"Street":[1.0],"HouseNumber":1.0,"PostalCode":1.0},"MatchType":"interpolated","Location":{"LocationId":"NT_oIwJ.khPUrU8qUO0ceFocC_1cD","LocationType":"point","DisplayPosition":{"Latitude":52.48518,"Longitude":10.53045},"MapView":{"TopLeft":{"Latitude":52.4863042,"Longitude":10.528604},"BottomRight":{"Latitude":52.4840558,"Longitude":10.532296}},"Address":{"Label":"Celler Straße 57, 38518 Gifhorn, Deutschland","Country":"DEU","State":"Niedersachsen","County":"Gifhorn","City":"Gifhorn","District":"Gifhorn","Street":"Celler Straße","HouseNumber":"57","PostalCode":"38518","AdditionalData":[{"value":"Deutschland","key":"CountryName"},{"value":"Niedersachsen","key":"StateName"},{"value":"Gifhorn","key":"CountyName"}]},"MapReference":{"ReferenceId":"1208292411","Spot":0.18,"SideOfStreet":"right","CountryId":"20147700","StateId":"20151542","CountyId":"20151630","CityId":"20151670","DistrictId":"20151676","AddressId":"181102405","RoadLinkId":"522640314"}}},{"Relevance":1.0,"Distance":63.7,"MatchLevel":"street","MatchQuality":{"Country":1.0,"State":1.0,"County":1.0,"City":1.0,"District":1.0,"Street":[1.0],"PostalCode":1.0},"Location":{"LocationId":"NT_0HU3CokU0MCkzqcashXi-D_l_67968167_R","LocationType":"point","DisplayPosition":{"Latitude":52.4851993,"Longitude":10.530546},"MapView":{"TopLeft":{"Latitude":52.48584,"Longitude":10.53054},"BottomRight":{"Latitude":52.48518,"Longitude":10.53063}},"Address":{"Label":"Fritz-Reuter-Straße, 38518 Gifhorn, Deutschland","Country":"DEU","State":"Niedersachsen","County":"Gifhorn","City":"Gifhorn","District":"Gifhorn","Street":"Fritz-Reuter-Straße","PostalCode":"38518","AdditionalData":[{"value":"Deutschland","key":"CountryName"},{"value":"Niedersachsen","key":"StateName"},{"value":"Gifhorn","key":"CountyName"}]},"MapReference":{"ReferenceId":"67968167","Spot":0.03,"SideOfStreet":"right","CountryId":"20147700","StateId":"20151542","CountyId":"20151630","CityId":"20151670","DistrictId":"20151676"}}},{"Relevance":1.0,"Distance":69.9,"MatchLevel":"street","MatchQuality":{"Country":1.0,"State":1.0,"County":1.0,"City":1.0,"District":1.0,"Street":[1.0],"PostalCode":1.0},"Location":{"LocationId":"NT_oIwJ.khPUrU8qUO0ceFocC_l_1208292413_R","LocationType":"point","DisplayPosition":{"Latitude":52.48518,"Longitude":10.53043},"MapView":{"TopLeft":{"Latitude":52.48518,"Longitude":10.53038},"BottomRight":{"Latitude":52.48518,"Longitude":10.53043}},"Address":{"Label":"Celler Straße, 38518 Gifhorn, Deutschland","Country":"DEU","State":"Niedersachsen","County":"Gifhorn","City":"Gifhorn","District":"Gifhorn","Street":"Celler Straße","PostalCode":"38518","AdditionalData":[{"value":"Deutschland","key":"CountryName"},{"value":"Niedersachsen","key":"StateName"},{"value":"Gifhorn","key":"CountyName"}]},"MapReference":{"ReferenceId":"1208292413","Spot":1.0,"SideOfStreet":"right","CountryId":"20147700","StateId":"20151542","CountyId":"20151630","CityId":"20151670","DistrictId":"20151676"}}},{"Relevance":1.0,"Distance":79.6,"MatchLevel":"houseNumber","MatchQuality":{"Country":1.0,"State":1.0,"County":1.0,"City":1.0,"District":1.0,"Street":[1.0],"HouseNumber":1.0,"PostalCode":1.0},"MatchType":"interpolated","Location":{"LocationId":"NT_oIwJ.khPUrU8qUO0ceFocC_1YD","LocationType":"point","DisplayPosition":{"Latitude":52.48518,"Longitude":10.53035},"MapView":{"TopLeft":{"Latitude":52.4863042,"Longitude":10.528504},"BottomRight":{"Latitude":52.4840558,"Longitude":10.532196}},"Address":{"Label":"Celler Straße 56, 38518 Gifhorn, Deutschland","Country":"DEU","State":"Niedersachsen","County":"Gifhorn","City":"Gifhorn","District":"Gifhorn","Street":"Celler Straße","HouseNumber":"56","PostalCode":"38518","AdditionalData":[{"value":"Deutschland","key":"CountryName"},{"value":"Niedersachsen","key":"StateName"},{"value":"Gifhorn","key":"CountyName"}]},"MapReference":{"ReferenceId":"1208292414","Spot":0.33,"SideOfStreet":"right","CountryId":"20147700","StateId":"20151542","CountyId":"20151630","CityId":"20151670","DistrictId":"20151676","AddressId":"181477119","RoadLinkId":"522640317"}}}]}]}}