{"Response":{"MetaInfo":{"Timestamp":"2020-03-28T10:34:30.113+0000","NextPageInformation":"2"},"View":[{"_type":"SearchResultsViewType","ViewId":0,"Result":[{"Relevance":1.0,"Distance":0.0,"Direction":0.0,"MatchLevel":"district","MatchQuality":{"Country":1.0,"State":1.0,"County":1.0,"City":1.0,"District":1.0,"PostalCode":1.0},"Location":{"LocationId":"NT_SgzY0PocXlkdAmmYWTht6D","LocationType":"point","DisplayPosition":{"Latitude":52.5727984,"Longitude":1.7012626},"MapView":{"TopLeft":{"Latitude":52.59054,"Longitude":1.68103},"BottomRight":{"Latitude":52.56343,"Longitude":1.71239}},"Address":{"Label":"Bradwell, Great Yarmouth, England, United Kingdom","Country":"GBR","State":"England","County":"Norfolk","City":"Great Yarmouth","District":"Bradwell","PostalCode":"NR31 8","AdditionalData":[{"value":"United Kingdom","key":"CountryName"},{"value":"England","key":"StateName"},{"value":"Norfolk","key":"CountyName"}]},"MapReference":{"ReferenceId":"811719282","SideOfStreet":"neither","StateId":"20248595","CountyId":"20355986","CityId":"20356146","DistrictId":"20356150"}}},{"Relevance":1.0,"Distance":9.3,"MatchLevel":"houseNumber","MatchQuality":{"Country":1.0,"State":1.0,"County":1.0,"City":1.0,"District":1.0,"Street":[1.0],"HouseNumber":1.0,"PostalCode":1.0},"MatchType":"interpolated","Location":{"LocationId":"NT_PlUVHQsfBvn5OEzXMTXm4C_l_1023060297_L_2A","LocationType":"point","DisplayPosition":{"Latitude":52.57274,"Longitude":1.701165},"MapView":{"TopLeft":{"Latitude":52.5738642,"Longitude":1.6993153},"BottomRight":{"Latitude":52.5716159,"Longitude":1.7030147}},"Address":{"Label":"6 Primrose Way, Great Yarmouth, NR31 8RN, United Kingdom","Country":"GBR","State":"England","County":"Norfolk","City":"Great Yarmouth","District":"Bradwell","Street":"Primrose Way","HouseNumber":"6","PostalCode":"NR31 8RN","AdditionalData":[{"value":"United Kingdom","key":"CountryName"},{"value":"England","key":"StateName"},{"value":"Norfolk","key":"CountyName"}]},"MapReference":{"ReferenceId":"1023060297","Spot":0.55,"SideOfStreet":"left","StateId":"20248595","CountyId":"20355986","CityId":"20356146","DistrictId":"20356150"}}},{"Relevance":1.0,"Distance":12.9,"MatchLevel":"street","MatchQuality":{"Country":1.0,"State":1.0,"County":1.0,"City":1.0,"District":1.0,"Street":[1.0],"PostalCode":1.0},"Location":{"LocationId":"NT_6JMnRQ3jRw5-ZkcR6OW-LC_l_26482819_R","LocationType":"point","DisplayPosition":{"Latitude":52.572914,"Longitude":1.701249},"MapView":{"TopLeft":{"Latitude":52.57306,"Longitude":1.70113},"BottomRight":{"Latitude":52.5729,"Longitude":1.70201}},"Address":{"Label":"Falkland Way, Great Yarmouth, NR31 8, United Kingdom","Country":"GBR","State":"England","County":"Norfolk","City":"Great Yarmouth","District":"Bradwell","Street":"Falkland Way","PostalCode":"NR31 8","AdditionalData":[{"value":"United Kingdom","key":"CountryName"},{"value":"England","key":"StateName"},{"value":"Norfolk","key":"CountyName"}]},"MapReference":{"ReferenceId":"26482819","Spot":0.13,"SideOfStreet":"right","StateId":"20248595","CountyId":"20355986","CityId":"20356146","DistrictId":"20356150"}}},{"Relevance":1.0,"Distance":27.4,"MatchLevel":"street","MatchQuality":{"Country":1.0,"State":1.0,"County":1.0,"City":1.0,"District":1.0,"PostalCode":1.0},"Location":{"LocationId":"NT_q.gZ2inf4yTo2.YfzIuCUB_l_1158463036_R","LocationType":"point","DisplayPosition":{"Latitude":52.572552,"Longitude":1.7012722},"MapView":{"TopLeft":{"Latitude":52.57259,"Longitude":1.70122},"BottomRight":{"Latitude":52.57009,"Longitude":1.70326}},"Address":{"Label":"Great Yarmouth, NR31 8, United Kingdom","Country":"GBR","State":"England","County":"Norfolk","City":"Great Yarmouth","District":"Bradwell","PostalCode":"NR31 8","AdditionalData":[{"value":"United Kingdom","key":"CountryName"},{"value":"England","key":"StateName"},{"value":"Norfolk","key":"CountyName"}]},"MapReference":{"ReferenceId":"1158463036","Spot":0.99,"SideOfStreet":"right","StateId":"20248595","CountyId":"20355986","CityId":"20356146","DistrictId":"20356150"}}},{"Relevance":1.0,"Distance":27.8,"MatchLevel":"street","MatchQuality":{"Country":1.0,"State":1.0,"County":1.0,"City":1.0,"District":1.0,"PostalCode":1.0},"Location":{"LocationId":"NT_q.gZ2inf4yTo2.YfzIuCUB_l_1023060301_L","LocationType":"point","DisplayPosition":{"Latitude":52.57255,"Longitude":1.70122},"MapView":{"TopLeft":{"Latitude":52.57255,"Longitude":1.69908},"BottomRight":{"Latitude":52.57244,"Longitude":1.70122}},"Address":{"Label":"Great Yarmouth, NR31 8, United Kingdom","Country":"GBR","State":"England","County":"Norfolk","City":"Great Yarmouth","District":"Bradwell","PostalCode":"NR31 8","AdditionalData":[{"value":"United Kingdom","key":"CountryName"},{"value":"England","key":"StateName"},{"value":"Norfolk","key":"CountyName"}]},"MapReference":{"ReferenceId":"1023060301","Spot":1.0,"SideOfStreet":"left","StateId":"20248595","CountyId":"20355986","CityId":"20356146","DistrictId":"20356150"}}},{"Relevance":1.0,"Distance":28.9,"MatchLevel":"houseNumber","MatchQuality":{"Country":1.0,"State":1.0,"County":1.0,"City":1.0,"District":1.0,"Street":[1.0],"HouseNumber":1.0,"PostalCode":1.0},"MatchType":"interpolated","Location":{"LocationId":"NT_PlUVHQsfBvn5OEzXMTXm4C_l_26482820_R_xcD","LocationType":"point","DisplayPosition":{"Latitude":52.57302,"Longitude":1.70104},"MapView":{"TopLeft":{"Latitude":52.5741442,"Longitude":1.6991903},"BottomRight":{"Latitude":52.5718959,"Longitude":1.7028897}},"Address":{"Label":"17 Primrose Way, Great Yarmouth, NR31 8RN, United Kingdom","Country":"GBR","State":"England","County":"Norfolk","City":"Great Yarmouth","District":"Bradwell","Street":"Primrose Way","HouseNumber":"17","PostalCode":"NR31 8RN","AdditionalData":[{"value":"United Kingdom","key":"CountryName"},{"value":"England","key":"StateName"},{"value":"Norfolk","key":"CountyName"}]},"MapReference":{"ReferenceId":"26482820","Spot":0.31,"SideOfStreet":"right","StateId":"20248595","CountyId":"20355986","CityId":"20356146","DistrictId":"20356150"}}},{"Relevance":1.0,"Distance":46.4,"MatchLevel":"houseNumber","MatchQuality":{"Country":1.0,"State":1.0,"County":1.0,"City":1.0,"District":1.0,"Street":[1.0],"HouseNumber":1.0,"PostalCode":1.0},"MatchType":"interpolated","Location":{"LocationId":"NT_6JMnRQ3jRw5-ZkcR6OW-LC_l_26482797_L_xA","LocationType":"point","DisplayPosition":{"Latitude":52.5731801,"Longitude":1.70192},"MapView":{"TopLeft":{"Latitude":52.5743042,"Longitude":1.7000702},"BottomRight":{"Latitude":52.5720559,"Longitude":1.7037697}},"Address":{"Label":"1 Falkland Way, Great Yarmouth, NR31 8RW, United Kingdom","Country":"GBR","State":"England","County":"Norfolk","City":"Great Yarmouth","District":"Bradwell","Street":"Falkland Way","HouseNumber":"1","PostalCode":"NR31 8RW","AdditionalData":[{"value":"United Kingdom","key":"CountryName"},{"value":"England","key":"StateName"},{"value":"Norfolk","key":"CountyName"}]},"MapReference":{"ReferenceId":"26482797","Spot":0.17,"SideOfStreet":"left","StateId":"20248595","CountyId":"20355986","CityId":"20356146","DistrictId":"20356150"}}},{"Relevance":1.0,"Distance":64.4,"MatchLevel":"houseNumber","MatchQuality":{"Country":1.0,"State":1.0,"County":1.0,"City":1.0,"District":1.0,"Street":[1.0],"HouseNumber":1.0,"PostalCode":1.0},"MatchType":"interpolated","Location":{"LocationId":"NT_AZjx9OsgsXClVFgoLiTS8B_l_26482794_R_xA","LocationType":"point","DisplayPosition":{"Latitude":52.5732045,"Longitude":1.7004074},"MapView":{"TopLeft":{"Latitude":52.5743287,"Longitude":1.6985577},"BottomRight":{"Latitude":52.5720804,"Longitude":1.7022571}},"Address":{"Label":"1 Marguerite Close, Great Yarmouth, NR31 8RL, United Kingdom","Country":"GBR","State":"England","County":"Norfolk","City":"Great Yarmouth","District":"Bradwell","Street":"Marguerite Close","HouseNumber":"1","PostalCode":"NR31 8RL","AdditionalData":[{"value":"United Kingdom","key":"CountryName"},{"value":"England","key":"StateName"},{"value":"Norfolk","key":"CountyName"}]},"MapReference":{"ReferenceId":"26482794","Spot":0.5,"SideOfStreet":"right","StateId":"20248595","CountyId":"20355986","CityId":"20356146","DistrictId":"20356150"}}},{"Relevance":1.0,"Distance":67.9,"MatchLevel":"houseNumber","MatchQuality":{"Country":1.0,"State":1.0,"County":1.0,"City":1.0,"District":1.0,"Street":[1.0],"HouseNumber":1.0,"PostalCode":1.0},"MatchType":"interpolated","Location":{"LocationId":"NT_PlUVHQsfBvn5OEzXMTXm4C_l_1023060296_R_xkD","LocationType":"point","DisplayPosition":{"Latitude":52.5721883,"Longitude":1.7013107},"MapView":{"TopLeft":{"Latitude":52.5733125,"Longitude":1.6994611},"BottomRight":{"Latitude":52.5710642,"Longitude":1.7031604}},"Address":{"Label":"19 Primrose Way, Great Yarmouth, NR31 8RN, United Kingdom","Country":"GBR","State":"England","County":"Norfolk","City":"Great Yarmouth","District":"Bradwell","Street":"Primrose Way","HouseNumber":"19","PostalCode":"NR31 8RN","AdditionalData":[{"value":"United Kingdom","key":"CountryName"},{"value":"England","key":"StateName"},{"value":"Norfolk","key":"CountyName"}]},"MapReference":{"ReferenceId":"1023060296","Spot":0.5,"SideOfStreet":"right","StateId":"20248595","CountyId":"20355986","CityId":"20356146","DistrictId":"20356150"}}},{"Relevance":1.0,"Distance":72.8,"MatchLevel":"houseNumber","MatchQuality":{"Country":1.0,"State":1.0,"County":1.0,"City":1.0,"District":1.0,"Street":[1.0],"HouseNumber":1.0,"PostalCode":1.0},"MatchType":"interpolated","Location":{"LocationId":"NT_6JMnRQ3jRw5-ZkcR6OW-LC_l_26482796_L_yUD","LocationType":"point","DisplayPosition":{"Latitude":52.5731201,"Longitude":1.7022002},"MapView":{"TopLeft":{"Latitude":52.5742442,"Longitude":1.7003505},"BottomRight":{"Latitude":52.5719959,"Longitude":1.7040499}},"Address":{"Label":"25 Falkland Way, Great Yarmouth, NR31 8RW, United Kingdom","Country":"GBR","State":"England","County":"Norfolk","City":"Great Yarmouth","District":"Bradwell","Street":"Falkland Way","HouseNumber":"25","PostalCode":"NR31 8RW","AdditionalData":[{"value":"United Kingdom","key":"CountryName"},{"value":"England","key":"StateName"},{"value":"Norfolk","key":"CountyName"}]},"MapReference":{"ReferenceId":"26482796","Spot":0.32,"SideOfStreet":"left","StateId":"20248595","CountyId":"20355986","CityId":"20356146","DistrictId":"20356150"}}}]}]}}