{"Response":{"MetaInfo":{"Timestamp":"2020-03-28T10:25:32.901+0000","NextPageInformation":"2"},"View":[{"_type":"SearchResultsViewType","ViewId":0,"Result":[{"Relevance":1.0,"Distance":0.0,"Direction":0.0,"MatchLevel":"district","MatchQuality":{"Country":1.0,"State":1.0,"County":1.0,"City":1.0,"District":1.0,"PostalCode":1.0},"Location":{"LocationId":"NT_5xcPpsNhoRHH8tQU03dFcC","LocationType":"point","DisplayPosition":{"Latitude":52.5238848,"Longitude":13.4399119},"MapView":{"TopLeft":{"Latitude":52.53119,"Longitude":13.42022},"BottomRight":{"Latitude":52.48857,"Longitude":13.48887}},"Address":{"Label":"Friedrichshain, Berlin, Deutschland","Country":"DEU","State":"Berlin","County":"Berlin","City":"Berlin","District":"Friedrichshain","PostalCode":"10245","AdditionalData":[{"value":"Deutschland","key":"CountryName"},{"value":"Berlin","key":"StateName"},{"value":"Berlin","key":"CountyName"}]},"MapReference":{"ReferenceId":"901806614","SideOfStreet":"neither","CountryId":"20147700","StateId":"20187401","CountyId":"20187402","CityId":"20187403","DistrictId":"20187418"}}},{"Relevance":1.0,"Distance":4.3,"MatchLevel":"houseNumber","MatchQuality":{"Country":1.0,"State":1.0,"County":1.0,"City":1.0,"District":1.0,"Street":[1.0],"HouseNumber":1.0,"PostalCode":1.0},"MatchType":"interpolated","Location":{"LocationId":"NT_sELMu.wHkflj8Xq1ZCscWA_0QD","LocationType":"point","DisplayPosition":{"Latitude":52.52398,"Longitude":13.43986},"MapView":{"TopLeft":{"Latitude":52.5251042,"Longitude":13.4380124},"BottomRight":{"Latitude":52.5228558,"Longitude":13.4417076}},"Address":{"Label":"Landsberger Allee 44, 10249 Berlin, Deutschland","Country":"DEU","State":"Berlin","County":"Berlin","City":"Berlin","District":"Friedrichshain","Street":"Landsberger Allee","HouseNumber":"44","PostalCode":"10249","AdditionalData":[{"value":"Deutschland","key":"CountryName"},{"value":"Berlin","key":"StateName"},{"value":"Berlin","key":"CountyName"}]},"MapReference":{"ReferenceId":"53504025","Spot":0.72,"SideOfStreet":"right","CountryId":"20147700","StateId":"20187401","CountyId":"20187402","CityId":"20187403","DistrictId":"20187418","AddressId":"169722373","RoadLinkId":"37453301"}}},{"Relevance":1.0,"Distance":11.5,"MatchLevel":"landmark","MatchQuality":{"Country":1.0,"State":1.0,"County":1.0,"City":1.0,"District":1.0,"Street":[1.0],"HouseNumber":1.0,"PostalCode":1.0,"Name":1.0},"Location":{"LocationId":"NT_YjUomF8DmHgcPKsyAXuPoD_p_Y-nGvtBqLNul8b5ioS-f.A","LocationType":"cemetery","Name":"Georgen-Parochial-Friedhof II","DisplayPosition":{"Latitude":52.5243,"Longitude":13.44097},"MapView":{"TopLeft":{"Latitude":52.5254242,"Longitude":13.4391224},"BottomRight":{"Latitude":52.5231758,"Longitude":13.4428176}},"Address":{"Label":"Landsberger Allee 48, 10249 Berlin, Deutschland","Country":"DEU","State":"Berlin","County":"Berlin","City":"Berlin","District":"Friedrichshain","Street":"Landsberger Allee","HouseNumber":"48","PostalCode":"10249","AdditionalData":[{"value":"Deutschland","key":"CountryName"},{"value":"Berlin","key":"StateName"},{"value":"Berlin","key":"CountyName"}]},"MapReference":{"CountryId":"20147700","StateId":"20187401","CountyId":"20187402","CityId":"20187403","DistrictId":"20187418","PlaceId":"801756870"}}},{"Relevance":1.0,"Distance":20.5,"MatchLevel":"street","MatchQuality":{"Country":1.0,"State":1.0,"County":1.0,"City":1.0,"District":1.0,"Street":[1.0],"PostalCode":1.0},"Location":{"LocationId":"NT_aClOXvlqwf8WTtOFR4WFXA_l_541369456_R","LocationType":"point","DisplayPosition":{"Latitude":52.5239,"Longitude":13.43961},"MapView":{"TopLeft":{"Latitude":52.52406,"Longitude":13.43947},"BottomRight":{"Latitude":52.5239,"Longitude":13.43961}},"Address":{"Label":"Matthiasstraße, 10249 Berlin, Deutschland","Country":"DEU","State":"Berlin","County":"Berlin","City":"Berlin","District":"Friedrichshain","Street":"Matthiasstraße","PostalCode":"10249","AdditionalData":[{"value":"Deutschland","key":"CountryName"},{"value":"Berlin","key":"StateName"},{"value":"Berlin","key":"CountyName"}]},"MapReference":{"ReferenceId":"541369456","Spot":0.0,"SideOfStreet":"right","CountryId":"20147700","StateId":"20187401","CountyId":"20187402","CityId":"20187403","DistrictId":"20187418"}}},{"Relevance":1.0,"Distance":26.9,"MatchLevel":"houseNumber","MatchQuality":{"Country":1.0,"State":1.0,"County":1.0,"City":1.0,"District":1.0,"Street":[1.0],"HouseNumber":1.0,"PostalCode":1.0},"MatchType":"interpolated","Location":{"LocationId":"NT_aClOXvlqwf8WTtOFR4WFXA_xID","LocationType":"point","DisplayPosition":{"Latitude":52.5236,"Longitude":13.43983},"MapView":{"TopLeft":{"Latitude":52.5247242,"Longitude":13.4379824},"BottomRight":{"Latitude":52.5224758,"Longitude":13.4416776}},"Address":{"Label":"Matthiasstraße 12, 10249 Berlin, Deutschland","Country":"DEU","State":"Berlin","County":"Berlin","City":"Berlin","District":"Friedrichshain","Street":"Matthiasstraße","HouseNumber":"12","PostalCode":"10249","AdditionalData":[{"value":"Deutschland","key":"CountryName"},{"value":"Berlin","key":"StateName"},{"value":"Berlin","key":"CountyName"}]},"MapReference":{"ReferenceId":"53504041","Spot":0.69,"SideOfStreet":"right","CountryId":"20147700","StateId":"20187401","CountyId":"20187402","CityId":"20187403","DistrictId":"20187418","AddressId":"167981025","RoadLinkId":"37643733"}}},{"Relevance":1.0,"Distance":31.1,"MatchLevel":"houseNumber","MatchQuality":{"Country":1.0,"State":1.0,"County":1.0,"City":1.0,"District":1.0,"Street":[1.0],"HouseNumber":1.0,"PostalCode":1.0},"MatchType":"interpolated","Location":{"LocationId":"NT_sELMu.wHkflj8Xq1ZCscWA_0ID","LocationType":"point","DisplayPosition":{"Latitude":52.52384,"Longitude":13.43943},"MapView":{"TopLeft":{"Latitude":52.5249642,"Longitude":13.4375824},"BottomRight":{"Latitude":52.5227158,"Longitude":13.4412776}},"Address":{"Label":"Landsberger Allee 42, 10249 Berlin, Deutschland","Country":"DEU","State":"Berlin","County":"Berlin","City":"Berlin","District":"Friedrichshain","Street":"Landsberger Allee","HouseNumber":"42","PostalCode":"10249","AdditionalData":[{"value":"Deutschland","key":"CountryName"},{"value":"Berlin","key":"StateName"},{"value":"Berlin","key":"CountyName"}]},"MapReference":{"ReferenceId":"572659278","Spot":0.35,"SideOfStreet":"right","CountryId":"20147700","StateId":"20187401","CountyId":"20187402","CityId":"20187403","DistrictId":"20187418","AddressId":"168608352","RoadLinkId":"37594168"}}},{"Relevance":1.0,"Distance":31.3,"MatchLevel":"landmark","MatchQuality":{"Country":1.0,"State":1.0,"County":1.0,"City":1.0,"District":1.0,"Street":[1.0],"HouseNumber":1.0,"PostalCode":1.0,"Name":1.0},"Location":{"LocationId":"NT_nxkEmjmBkWQrUZ-TZHldUD_p_c9A8u4koLPfW6NT6KmHz5B","LocationType":"hospital","Name":"Vivantes Klinikum im Friedrichshain","DisplayPosition":{"Latitude":52.52445,"Longitude":13.44088},"MapView":{"TopLeft":{"Latitude":52.5255742,"Longitude":13.4390324},"BottomRight":{"Latitude":52.5233258,"Longitude":13.4427276}},"Address":{"Label":"Landsberger Allee 49, 10249 Berlin, Deutschland","Country":"DEU","State":"Berlin","County":"Berlin","City":"Berlin","District":"Friedrichshain","Street":"Landsberger Allee","HouseNumber":"49","PostalCode":"10249","AdditionalData":[{"value":"Deutschland","key":"CountryName"},{"value":"Berlin","key":"StateName"},{"value":"Berlin","key":"CountyName"}]},"MapReference":{"CountryId":"20147700","StateId":"20187401","CountyId":"20187402","CityId":"20187403","DistrictId":"20187418","PlaceId":"50668537"}}},{"Relevance":1.0,"Distance":31.3,"MatchLevel":"street","MatchQuality":{"Country":1.0,"State":1.0,"County":1.0,"City":1.0,"District":1.0,"Street":[1.0],"PostalCode":1.0},"Location":{"LocationId":"NT_sELMu.wHkflj8Xq1ZCscWA_l_1198509229_R","LocationType":"point","DisplayPosition":{"Latitude":52.5241623,"Longitude":13.4398338},"MapView":{"TopLeft":{"Latitude":52.52424,"Longitude":13.43947},"BottomRight":{"Latitude":52.52406,"Longitude":13.44011}},"Address":{"Label":"Landsberger Allee, 10249 Berlin, Deutschland","Country":"DEU","State":"Berlin","County":"Berlin","City":"Berlin","District":"Friedrichshain","Street":"Landsberger Allee","PostalCode":"10249","AdditionalData":[{"value":"Deutschland","key":"CountryName"},{"value":"Berlin","key":"StateName"},{"value":"Berlin","key":"CountyName"}]},"MapReference":{"ReferenceId":"1198509229","Spot":0.57,"SideOfStreet":"right","CountryId":"20147700","StateId":"20187401","CountyId":"20187402","CityId":"20187403","DistrictId":"20187418"}}},{"Relevance":1.0,"Distance":35.7,"MatchLevel":"street","MatchQuality":{"Country":1.0,"State":1.0,"County":1.0,"City":1.0,"District":1.0,"Street":[1.0],"PostalCode":1.0},"Location":{"LocationId":"NT_sELMu.wHkflj8Xq1ZCscWA_l_572659280_R","LocationType":"point","DisplayPosition":{"Latitude":52.52406,"Longitude":13.43947},"MapView":{"TopLeft":{"Latitude":52.52406,"Longitude":13.4392},"BottomRight":{"Latitude":52.52398,"Longitude":13.43947}},"Address":{"Label":"Landsberger Allee, 10249 Berlin, Deutschland","Country":"DEU","State":"Berlin","County":"Berlin","City":"Berlin","District":"Friedrichshain","Street":"Landsberger Allee","PostalCode":"10249","AdditionalData":[{"value":"Deutschland","key":"CountryName"},{"value":"Berlin","key":"StateName"},{"value":"Berlin","key":"CountyName"}]},"MapReference":{"ReferenceId":"572659280","Spot":1.0,"SideOfStreet":"right","CountryId":"20147700","StateId":"20187401","CountyId":"20187402","CityId":"20187403","DistrictId":"20187418"}}},{"Relevance":1.0,"Distance":40.2,"MatchLevel":"street","MatchQuality":{"Country":1.0,"State":1.0,"County":1.0,"City":1.0,"District":1.0,"PostalCode":1.0},"Location":{"LocationId":"NT_dWtbP1JvgG2XzI1Slc8rxD_l_572659281_R","LocationType":"point","DisplayPosition":{"Latitude":52.52381,"Longitude":13.43933},"MapView":{"TopLeft":{"Latitude":52.52398,"Longitude":13.4392},"BottomRight":{"Latitude":52.52381,"Longitude":13.43933}},"Address":{"Label":"10249 Berlin, Deutschland","Country":"DEU","State":"Berlin","County":"Berlin","City":"Berlin","District":"Friedrichshain","PostalCode":"10249","AdditionalData":[{"value":"Deutschland","key":"CountryName"},{"value":"Berlin","key":"StateName"},{"value":"Berlin","key":"CountyName"}]},"MapReference":{"ReferenceId":"572659281","Spot":0.0,"SideOfStreet":"right","CountryId":"20147700","StateId":"20187401","CountyId":"20187402","CityId":"20187403","DistrictId":"20187418"}}}]}]}}