{"Response":{"MetaInfo":{"Timestamp":"2020-03-28T10:34:50.258+0000","NextPageInformation":"2"},"View":[{"_type":"SearchResultsViewType","ViewId":0,"Result":[{"Relevance":1.0,"Distance":0.0,"Direction":0.0,"MatchLevel":"district","MatchQuality":{"Country":1.0,"State":1.0,"County":1.0,"City":1.0,"District":1.0,"PostalCode":1.0},"Location":{"LocationId":"NT_dY84x41dQQT4xC3AH8FWpC","LocationType":"point","DisplayPosition":{"Latitude":52.540709,"Longitude":-2.0532052},"MapView":{"TopLeft":{"Latitude":52.55094,"Longitude":-2.08624},"BottomRight":{"Latitude":52.51319,"Longitude":-2.0262}},"Address":{"Label":"Tipton, England, United Kingdom","Country":"GBR","State":"England","County":"West Midlands","City":"Tipton","District":"Tipton","PostalCode":"DY4 8","AdditionalData":[{"value":"United Kingdom","key":"CountryName"},{"value":"England","key":"StateName"},{"value":"West Midlands","key":"CountyName"}]},"MapReference":{"ReferenceId":"1231061175","SideOfStreet":"neither","StateId":"20248595","CountyId":"20358328","CityId":"20358546","DistrictId":"20358547"}}},{"Relevance":1.0,"Distance":15.0,"MatchLevel":"houseNumber","MatchQuality":{"Country":1.0,"State":1.0,"County":1.0,"City":1.0,"District":1.0,"Street":[1.0],"HouseNumber":1.0,"PostalCode":1.0},"MatchType":"interpolated","Location":{"LocationId":"NT_whFJ.DY5eTxShHAhAmMqZC_l_26373650_L_xgzN","LocationType":"point","DisplayPosition":{"Latitude":52.5408417,"Longitude":-2.0532461},"MapView":{"TopLeft":{"Latitude":52.5419658,"Longitude":-2.0550944},"BottomRight":{"Latitude":52.5397175,"Longitude":-2.0513978}},"Address":{"Label":"187 St Mark's Road, Tipton, DY4 0SY, United Kingdom","Country":"GBR","State":"England","County":"West Midlands","City":"Tipton","District":"Tipton","Street":"St Mark's Road","HouseNumber":"187","PostalCode":"DY4 0SY","AdditionalData":[{"value":"United Kingdom","key":"CountryName"},{"value":"England","key":"StateName"},{"value":"West Midlands","key":"CountyName"}]},"MapReference":{"ReferenceId":"26373650","Spot":0.43,"SideOfStreet":"left","StateId":"20248595","CountyId":"20358328","CityId":"20358546","DistrictId":"20358547"}}},{"Relevance":1.0,"Distance":35.3,"MatchLevel":"street","MatchQuality":{"Country":1.0,"State":1.0,"County":1.0,"City":1.0,"District":1.0,"Street":[1.0],"PostalCode":1.0},"Location":{"LocationId":"NT_WWWO9BJaPlR.5HX8P2pVNB_l_26373734_R","LocationType":"point","DisplayPosition":{"Latitude":52.54081,"Longitude":-2.0537},"MapView":{"TopLeft":{"Latitude":52.54081,"Longitude":-2.05422},"BottomRight":{"Latitude":52.54036,"Longitude":-2.0537}},"Address":{"Label":"Kipling Close, Tipton, DY4 0, United Kingdom","Country":"GBR","State":"England","County":"West Midlands","City":"Tipton","District":"Tipton","Street":"Kipling Close","PostalCode":"DY4 0","AdditionalData":[{"value":"United Kingdom","key":"CountryName"},{"value":"England","key":"StateName"},{"value":"West Midlands","key":"CountyName"}]},"MapReference":{"ReferenceId":"26373734","Spot":1.0,"SideOfStreet":"right","StateId":"20248595","CountyId":"20358328","CityId":"20358546","DistrictId":"20358547"}}},{"Relevance":1.0,"Distance":35.4,"MatchLevel":"houseNumber","MatchQuality":{"Country":1.0,"State":1.0,"County":1.0,"City":1.0,"District":1.0,"Street":[1.0],"HouseNumber":1.0,"PostalCode":1.0},"MatchType":"interpolated","Location":{"LocationId":"NT_w8vTAXRtRwaiikxMLM3YGD_l_26373643_L_xA","LocationType":"point","DisplayPosition":{"Latitude":52.54101,"Longitude":-2.05268},"MapView":{"TopLeft":{"Latitude":52.5421342,"Longitude":-2.0545284},"BottomRight":{"Latitude":52.5398859,"Longitude":-2.0508317}},"Address":{"Label":"1 Sandgate Road, Tipton, DY4 0, United Kingdom","Country":"GBR","State":"England","County":"West Midlands","City":"Tipton","District":"Tipton","Street":"Sandgate Road","HouseNumber":"1","PostalCode":"DY4 0","AdditionalData":[{"value":"United Kingdom","key":"CountryName"},{"value":"England","key":"StateName"},{"value":"West Midlands","key":"CountyName"}]},"MapReference":{"ReferenceId":"26373643","Spot":0.07,"SideOfStreet":"left","StateId":"20248595","CountyId":"20358328","CityId":"20358546","DistrictId":"20358547"}}},{"Relevance":1.0,"Distance":38.8,"MatchLevel":"postalCode","MatchQuality":{"PostalCode":1.0},"MatchType":"interpolated","Location":{"LocationId":"NT_mkBAEyOTsKs.DC12KtKh5C_l_26373742_R_5A","LocationType":"point","DisplayPosition":{"Latitude":52.54044,"Longitude":-2.05284},"MapView":{"TopLeft":{"Latitude":52.5494332,"Longitude":-2.0676266},"BottomRight":{"Latitude":52.5314468,"Longitude":-2.0380534}},"Address":{"Label":"DY4 0SN, Tipton, England, United Kingdom","Country":"GBR","State":"England","County":"West Midlands","City":"Tipton","PostalCode":"DY4 0SN","AdditionalData":[{"value":"United Kingdom","key":"CountryName"},{"value":"England","key":"StateName"},{"value":"West Midlands","key":"CountyName"}]},"MapReference":{"ReferenceId":"26373742","Spot":0.27,"SideOfStreet":"neither","StateId":"20248595","CountyId":"20358328","CityId":"20358546"}}},{"Relevance":1.0,"Distance":41.1,"MatchLevel":"houseNumber","MatchQuality":{"Country":1.0,"State":1.0,"County":1.0,"City":1.0,"District":1.0,"Street":[1.0],"HouseNumber":1.0,"PostalCode":1.0},"MatchType":"interpolated","Location":{"LocationId":"NT_mkBAEyOTsKs.DC12KtKh5C_l_26373742_R_5A","LocationType":"point","DisplayPosition":{"Latitude":52.5403537,"Longitude":-2.0530405},"MapView":{"TopLeft":{"Latitude":52.5414778,"Longitude":-2.0548888},"BottomRight":{"Latitude":52.5392295,"Longitude":-2.0511921}},"Address":{"Label":"9 Shelley Avenue, Tipton, DY4 0SP, United Kingdom","Country":"GBR","State":"England","County":"West Midlands","City":"Tipton","District":"Tipton","Street":"Shelley Avenue","HouseNumber":"9","PostalCode":"DY4 0SP","AdditionalData":[{"value":"United Kingdom","key":"CountryName"},{"value":"England","key":"StateName"},{"value":"West Midlands","key":"CountyName"}]},"MapReference":{"ReferenceId":"26373742","Spot":0.27,"SideOfStreet":"right","StateId":"20248595","CountyId":"20358328","CityId":"20358546","DistrictId":"20358547"}}},{"Relevance":1.0,"Distance":47.9,"MatchLevel":"postalCode","MatchQuality":{"PostalCode":1.0},"MatchType":"interpolated","Location":{"LocationId":"NT_whFJ.DY5eTxShHAhAmMqZC_l_26373688_R_zcDO","LocationType":"point","DisplayPosition":{"Latitude":52.54084,"Longitude":-2.05388},"MapView":{"TopLeft":{"Latitude":52.5498332,"Longitude":-2.0686667},"BottomRight":{"Latitude":52.5318468,"Longitude":-2.0390933}},"Address":{"Label":"DY4 0SY, Tipton, England, United Kingdom","Country":"GBR","State":"England","County":"West Midlands","City":"Tipton","PostalCode":"DY4 0SY","AdditionalData":[{"value":"United Kingdom","key":"CountryName"},{"value":"England","key":"StateName"},{"value":"West Midlands","key":"CountyName"}]},"MapReference":{"ReferenceId":"26373688","Spot":0.71,"SideOfStreet":"neither","StateId":"20248595","CountyId":"20358328","CityId":"20358546"}}},{"Relevance":1.0,"Distance":56.4,"MatchLevel":"houseNumber","MatchQuality":{"Country":1.0,"State":1.0,"County":1.0,"City":1.0,"District":1.0,"Street":[1.0],"HouseNumber":1.0,"PostalCode":1.0},"MatchType":"interpolated","Location":{"LocationId":"NT_whFJ.DY5eTxShHAhAmMqZC_l_26373642_L_xYzM","LocationType":"point","DisplayPosition":{"Latitude":52.54088,"Longitude":-2.0524199},"MapView":{"TopLeft":{"Latitude":52.5420042,"Longitude":-2.0542682},"BottomRight":{"Latitude":52.5397559,"Longitude":-2.0505715}},"Address":{"Label":"163 St Mark's Road, Tipton, DY4 0SU, United Kingdom","Country":"GBR","State":"England","County":"West Midlands","City":"Tipton","District":"Tipton","Street":"St Mark's Road","HouseNumber":"163","PostalCode":"DY4 0SU","AdditionalData":[{"value":"United Kingdom","key":"CountryName"},{"value":"England","key":"StateName"},{"value":"West Midlands","key":"CountyName"}]},"MapReference":{"ReferenceId":"26373642","Spot":0.35,"SideOfStreet":"left","StateId":"20248595","CountyId":"20358328","CityId":"20358546","DistrictId":"20358547"}}},{"Relevance":1.0,"Distance":67.3,"MatchLevel":"houseNumber","MatchQuality":{"Country":1.0,"State":1.0,"County":1.0,"City":1.0,"District":1.0,"Street":[1.0],"HouseNumber":1.0,"PostalCode":1.0},"MatchType":"interpolated","Location":{"LocationId":"NT_GhXIyrOhkkoV6O-qyGrZNC_l_26373783_R_xA","LocationType":"point","DisplayPosition":{"Latitude":52.540188,"Longitude":-2.054064},"MapView":{"TopLeft":{"Latitude":52.5413122,"Longitude":-2.0559123},"BottomRight":{"Latitude":52.5390639,"Longitude":-2.0522157}},"Address":{"Label":"1 Kingsway Avenue, Tipton, DY4 0RS, United Kingdom","Country":"GBR","State":"England","County":"West Midlands","City":"Tipton","District":"Tipton","Street":"Kingsway Avenue","HouseNumber":"1","PostalCode":"DY4 0RS","AdditionalData":[{"value":"United Kingdom","key":"CountryName"},{"value":"England","key":"StateName"},{"value":"West Midlands","key":"CountyName"}]},"MapReference":{"ReferenceId":"26373783","Spot":0.65,"SideOfStreet":"right","StateId":"20248595","CountyId":"20358328","CityId":"20358546","DistrictId":"20358547"}}},{"Relevance":1.0,"Distance":70.9,"MatchLevel":"postalCode","MatchQuality":{"PostalCode":1.0},"MatchType":"interpolated","Location":{"LocationId":"NT_w8vTAXRtRwaiikxMLM3YGD_l_26373643_L_xA","LocationType":"point","DisplayPosition":{"Latitude":52.5413,"Longitude":-2.0536},"MapView":{"TopLeft":{"Latitude":52.5502932,"Longitude":-2.0683869},"BottomRight":{"Latitude":52.5323068,"Longitude":-2.0388131}},"Address":{"Label":"DY4 0SX, Tipton, England, United Kingdom","Country":"GBR","State":"England","County":"West Midlands","City":"Tipton","PostalCode":"DY4 0SX","AdditionalData":[{"value":"United Kingdom","key":"CountryName"},{"value":"England","key":"StateName"},{"value":"West Midlands","key":"CountyName"}]},"MapReference":{"ReferenceId":"26373643","Spot":0.07,"SideOfStreet":"neither","StateId":"20248595","CountyId":"20358328","CityId":"20358546"}}}]}]}}