{"Response":{"MetaInfo":{"Timestamp":"2020-03-28T11:18:18.575+0000","NextPageInformation":"2"},"View":[{"_type":"SearchResultsViewType","ViewId":0,"Result":[{"Relevance":1.0,"Distance":0.0,"Direction":0.0,"MatchLevel":"district","MatchQuality":{"Country":1.0,"State":1.0,"County":1.0,"City":1.0,"District":1.0,"PostalCode":1.0},"Location":{"LocationId":"NT_BtwFDkZLea1LUYoRZLXoAA","LocationType":"point","DisplayPosition":{"Latitude":52.5592712,"Longitude":-2.1602407},"MapView":{"TopLeft":{"Latitude":52.56956,"Longitude":-2.17058},"BottomRight":{"Latitude":52.55778,"Longitude":-2.15018}},"Address":{"Label":"Penn, Wolverhampton, England, United Kingdom","Country":"GBR","State":"England","County":"West Midlands","City":"Wolverhampton","District":"Penn","PostalCode":"WV4 4","AdditionalData":[{"value":"United Kingdom","key":"CountryName"},{"value":"England","key":"StateName"},{"value":"West Midlands","key":"CountyName"}]},"MapReference":{"ReferenceId":"26370832","SideOfStreet":"neither","StateId":"20248595","CountyId":"20358328","CityId":"20358584","DistrictId":"20358624"}}},{"Relevance":1.0,"Distance":7.3,"MatchLevel":"street","MatchQuality":{"Country":1.0,"State":1.0,"County":1.0,"City":1.0,"District":1.0,"Street":[1.0],"PostalCode":1.0},"Location":{"LocationId":"NT_mVZrp4lm4Ek657OsFuxd4C_l_1149225872_R","LocationType":"point","DisplayPosition":{"Latitude":52.5593363,"Longitude":-2.1602486},"MapView":{"TopLeft":{"Latitude":52.55938,"Longitude":-2.1603},"BottomRight":{"Latitude":52.55933,"Longitude":-2.15989}},"Address":{"Label":"Penn Road, Wolverhampton, WV4 4, United Kingdom","Country":"GBR","State":"England","County":"West Midlands","City":"Wolverhampton","District":"Penn","Street":"Penn Road","PostalCode":"WV4 4","AdditionalData":[{"value":"United Kingdom","key":"CountryName"},{"value":"England","key":"StateName"},{"value":"West Midlands","key":"CountyName"}]},"MapReference":{"ReferenceId":"1149225872","Spot":0.13,"SideOfStreet":"right","StateId":"20248595","CountyId":"20358328","CityId":"20358584","DistrictId":"20358624"}}},{"Relevance":1.0,"Distance":7.7,"MatchLevel":"street","MatchQuality":{"Country":1.0,"State":1.0,"County":1.0,"City":1.0,"District":1.0,"Street":[1.0],"PostalCode":1.0},"Location":{"LocationId":"NT_8FDY8NwPiuV2vXBDTgCRcB_l_26371107_R","LocationType":"point","DisplayPosition":{"Latitude":52.55933,"Longitude":-2.1603},"MapView":{"TopLeft":{"Latitude":52.55942,"Longitude":-2.16032},"BottomRight":{"Latitude":52.55933,"Longitude":-2.1603}},"Address":{"Label":"The Avenue, Wolverhampton, WV4 4, United Kingdom","Country":"GBR","State":"England","County":"West Midlands","City":"Wolverhampton","District":"Wolverhampton","Street":"The Avenue","PostalCode":"WV4 4","AdditionalData":[{"value":"United Kingdom","key":"CountryName"},{"value":"England","key":"StateName"},{"value":"West Midlands","key":"CountyName"}]},"MapReference":{"ReferenceId":"26371107","Spot":0.0,"SideOfStreet":"right","StateId":"20248595","CountyId":"20358328","CityId":"20358584","DistrictId":"20358585"}}},{"Relevance":1.0,"Distance":21.0,"MatchLevel":"houseNumber","MatchQuality":{"Country":1.0,"State":1.0,"County":1.0,"City":1.0,"District":1.0,"Street":[1.0],"HouseNumber":1.0,"PostalCode":1.0},"MatchType":"interpolated","Location":{"LocationId":"NT_EkFN.fuJG8hj8piBsi18PC_l_26371087_L_0UDN","LocationType":"point","DisplayPosition":{"Latitude":52.55944,"Longitude":-2.1600999},"MapView":{"TopLeft":{"Latitude":52.5605642,"Longitude":-2.1619491},"BottomRight":{"Latitude":52.5583159,"Longitude":-2.1582508}},"Address":{"Label":"454 Penn Road, Wolverhampton, WV4 4HP, United Kingdom","Country":"GBR","State":"England","County":"West Midlands","City":"Wolverhampton","District":"Penn","Street":"Penn Road","HouseNumber":"454","PostalCode":"WV4 4HP","AdditionalData":[{"value":"United Kingdom","key":"CountryName"},{"value":"England","key":"StateName"},{"value":"West Midlands","key":"CountyName"}]},"MapReference":{"ReferenceId":"26371087","Spot":0.24,"SideOfStreet":"left","StateId":"20248595","CountyId":"20358328","CityId":"20358584","DistrictId":"20358624"}}},{"Relevance":1.0,"Distance":25.9,"MatchLevel":"houseNumber","MatchQuality":{"Country":1.0,"State":1.0,"County":1.0,"City":1.0,"District":1.0,"Street":[1.0],"HouseNumber":1.0,"PostalCode":1.0},"MatchType":"interpolated","Location":{"LocationId":"NT_EkFN.fuJG8hj8piBsi18PC_l_1149229534_L_0UjN","LocationType":"point","DisplayPosition":{"Latitude":52.559385,"Longitude":-2.160575},"MapView":{"TopLeft":{"Latitude":52.5605092,"Longitude":-2.1624241},"BottomRight":{"Latitude":52.5582608,"Longitude":-2.1587259}},"Address":{"Label":"456 Penn Road, Wolverhampton, WV4 4HP, United Kingdom","Country":"GBR","State":"England","County":"West Midlands","City":"Wolverhampton","District":"Penn","Street":"Penn Road","HouseNumber":"456","PostalCode":"WV4 4HP","AdditionalData":[{"value":"United Kingdom","key":"CountryName"},{"value":"England","key":"StateName"},{"value":"West Midlands","key":"CountyName"}]},"MapReference":{"ReferenceId":"1149229534","Spot":0.51,"SideOfStreet":"left","StateId":"20248595","CountyId":"20358328","CityId":"20358584","DistrictId":"20358624"}}},{"Relevance":1.0,"Distance":26.6,"MatchLevel":"street","MatchQuality":{"Country":1.0,"State":1.0,"County":1.0,"City":1.0,"District":1.0,"Street":[1.0],"PostalCode":1.0},"Location":{"LocationId":"NT_mVZrp4lm4Ek657OsFuxd4C_l_1149225873_R","LocationType":"point","DisplayPosition":{"Latitude":52.55938,"Longitude":-2.15989},"MapView":{"TopLeft":{"Latitude":52.55941,"Longitude":-2.15989},"BottomRight":{"Latitude":52.55938,"Longitude":-2.15962}},"Address":{"Label":"Penn Road, Wolverhampton, WV4 4, United Kingdom","Country":"GBR","State":"England","County":"West Midlands","City":"Wolverhampton","District":"Penn","Street":"Penn Road","PostalCode":"WV4 4","AdditionalData":[{"value":"United Kingdom","key":"CountryName"},{"value":"England","key":"StateName"},{"value":"West Midlands","key":"CountyName"}]},"MapReference":{"ReferenceId":"1149225873","Spot":0.0,"SideOfStreet":"right","StateId":"20248595","CountyId":"20358328","CityId":"20358584","DistrictId":"20358624"}}},{"Relevance":1.0,"Distance":37.5,"MatchLevel":"houseNumber","MatchQuality":{"Country":1.0,"State":1.0,"County":1.0,"City":1.0,"District":1.0,"Street":[1.0],"HouseNumber":1.0,"PostalCode":1.0},"MatchType":"interpolated","Location":{"LocationId":"NT_EkFN.fuJG8hj8piBsi18PC_l_1149223587_R_zUzM","LocationType":"point","DisplayPosition":{"Latitude":52.5592763,"Longitude":-2.1607948},"MapView":{"TopLeft":{"Latitude":52.5604004,"Longitude":-2.1626439},"BottomRight":{"Latitude":52.5581521,"Longitude":-2.1589457}},"Address":{"Label":"353 Penn Road, Wolverhampton, WV4 5QQ, United Kingdom","Country":"GBR","State":"England","County":"West Midlands","City":"Wolverhampton","District":"Penn","Street":"Penn Road","HouseNumber":"353","PostalCode":"WV4 5QQ","AdditionalData":[{"value":"United Kingdom","key":"CountryName"},{"value":"England","key":"StateName"},{"value":"West Midlands","key":"CountyName"}]},"MapReference":{"ReferenceId":"1149223587","Spot":0.88,"SideOfStreet":"right","StateId":"20248595","CountyId":"20358328","CityId":"20358584","DistrictId":"20358624"}}},{"Relevance":1.0,"Distance":44.7,"MatchLevel":"street","MatchQuality":{"Country":1.0,"State":1.0,"County":1.0,"City":1.0,"District":1.0,"Street":[1.0],"PostalCode":1.0},"Location":{"LocationId":"NT_EkFN.fuJG8hj8piBsi18PC_l_946202712_R","LocationType":"point","DisplayPosition":{"Latitude":52.55941,"Longitude":-2.15962},"MapView":{"TopLeft":{"Latitude":52.55944,"Longitude":-2.15962},"BottomRight":{"Latitude":52.55941,"Longitude":-2.15935}},"Address":{"Label":"Penn Road, Wolverhampton, WV4 4, United Kingdom","Country":"GBR","State":"England","County":"West Midlands","City":"Wolverhampton","District":"Penn","Street":"Penn Road","PostalCode":"WV4 4","AdditionalData":[{"value":"United Kingdom","key":"CountryName"},{"value":"England","key":"StateName"},{"value":"West Midlands","key":"CountyName"}]},"MapReference":{"ReferenceId":"946202712","Spot":0.0,"SideOfStreet":"right","StateId":"20248595","CountyId":"20358328","CityId":"20358584","DistrictId":"20358624"}}},{"Relevance":1.0,"Distance":57.4,"MatchLevel":"postalCode","MatchQuality":{"PostalCode":1.0},"Location":{"LocationId":"NT_EkFN.fuJG8hj8piBsi18PC_l_946202712_R","LocationType":"point","DisplayPosition":{"Latitude":52.55938,"Longitude":-2.15941},"MapView":{"TopLeft":{"Latitude":52.5683732,"Longitude":-2.174203},"BottomRight":{"Latitude":52.5503868,"Longitude":-2.144617}},"Address":{"Label":"WV4 5HN, Wolverhampton, England, United Kingdom","Country":"GBR","State":"England","County":"West Midlands","City":"Wolverhampton","PostalCode":"WV4 5HN","AdditionalData":[{"value":"United Kingdom","key":"CountryName"},{"value":"England","key":"StateName"},{"value":"West Midlands","key":"CountyName"}]},"MapReference":{"ReferenceId":"946202712","Spot":0.0,"SideOfStreet":"neither","StateId":"20248595","CountyId":"20358328","CityId":"20358584"}}},{"Relevance":1.0,"Distance":59.0,"MatchLevel":"houseNumber","MatchQuality":{"Country":1.0,"State":1.0,"County":1.0,"City":1.0,"District":1.0,"Street":[1.0],"HouseNumber":1.0,"PostalCode":1.0},"MatchType":"interpolated","Location":{"LocationId":"NT_6M2OWUw74b26vnFSSm0UaA_l_26371066_L_xA","LocationType":"point","DisplayPosition":{"Latitude":52.5596701,"Longitude":-2.15939},"MapView":{"TopLeft":{"Latitude":52.5607942,"Longitude":-2.1612391},"BottomRight":{"Latitude":52.5585459,"Longitude":-2.1575409}},"Address":{"Label":"1 Pinfold Lane, Wolverhampton, WV4 4ED, United Kingdom","Country":"GBR","State":"England","County":"West Midlands","City":"Wolverhampton","District":"Penn","Street":"Pinfold Lane","HouseNumber":"1","PostalCode":"WV4 4ED","AdditionalData":[{"value":"United Kingdom","key":"CountryName"},{"value":"England","key":"StateName"},{"value":"West Midlands","key":"CountyName"}]},"MapReference":{"ReferenceId":"26371066","Spot":0.13,"SideOfStreet":"left","StateId":"20248595","CountyId":"20358328","CityId":"20358584","DistrictId":"20358624"}}}]}]}}