{"Response":{"MetaInfo":{"Timestamp":"2020-03-28T10:55:23.002+0000","NextPageInformation":"2"},"View":[{"_type":"SearchResultsViewType","ViewId":0,"Result":[{"Relevance":1.0,"Distance":-84.5,"MatchLevel":"landmark","MatchQuality":{"Country":1.0,"State":1.0,"County":1.0,"City":1.0,"District":1.0,"Street":[1.0],"HouseNumber":1.0,"PostalCode":1.0,"Name":1.0},"Location":{"LocationId":"NT_qn5G7Qiq2wsmIX6fXn6XMC_p_e81PF1p1kyf4JzQj9xBGZB","LocationType":"hospital","Name":"Charite Campus Virchow-Klinikum","DisplayPosition":{"Latitude":52.54276,"Longitude":13.34843},"MapView":{"TopLeft":{"Latitude":52.5438842,"Longitude":13.3465816},"BottomRight":{"Latitude":52.5416358,"Longitude":13.3502784}},"Address":{"Label":"Augustenburger Platz 1, 13353 Berlin, Deutschland","Country":"DEU","State":"Berlin","County":"Berlin","City":"Berlin","District":"Wedding","Street":"Augustenburger Platz","HouseNumber":"1","PostalCode":"13353","AdditionalData":[{"value":"Deutschland","key":"CountryName"},{"value":"Berlin","key":"StateName"},{"value":"Berlin","key":"CountyName"}]},"MapReference":{"CountryId":"20147700","StateId":"20187401","CountyId":"20187402","CityId":"20187403","DistrictId":"20187406","PlaceId":"50674160"}}},{"Relevance":1.0,"Distance":0.0,"Direction":0.0,"MatchLevel":"district","MatchQuality":{"Country":1.0,"State":1.0,"County":1.0,"City":1.0,"District":1.0,"PostalCode":1.0},"Location":{"LocationId":"NT_tbH6NwSK5AT.-7sZrw04SD","LocationType":"point","DisplayPosition":{"Latitude":52.5424688,"Longitude":13.3403456},"MapView":{"TopLeft":{"Latitude":52.56495,"Longitude":13.30122},"BottomRight":{"Latitude":52.53588,"Longitude":13.37326}},"Address":{"Label":"Wedding, Berlin, Deutschland","Country":"DEU","State":"Berlin","County":"Berlin","City":"Berlin","District":"Wedding","PostalCode":"13353","AdditionalData":[{"value":"Deutschland","key":"CountryName"},{"value":"Berlin","key":"StateName"},{"value":"Berlin","key":"CountyName"}]},"MapReference":{"ReferenceId":"53502597","SideOfStreet":"neither","CountryId":"20147700","StateId":"20187401","CountyId":"20187402","CityId":"20187403","DistrictId":"20187406"}}},{"Relevance":1.0,"Distance":8.2,"MatchLevel":"street","MatchQuality":{"Country":1.0,"State":1.0,"County":1.0,"City":1.0,"District":1.0,"Street":[1.0],"PostalCode":1.0},"Location":{"LocationId":"NT_4gZIISvL56xd42mrcWz.kA_l_592186523_L","LocationType":"point","DisplayPosition":{"Latitude":52.5423991,"Longitude":13.3403856},"MapView":{"TopLeft":{"Latitude":52.54282,"Longitude":13.3403},"BottomRight":{"Latitude":52.54235,"Longitude":13.34112}},"Address":{"Label":"Ost-West-Straße, 13353 Berlin, Deutschland","Country":"DEU","State":"Berlin","County":"Berlin","City":"Berlin","District":"Wedding","Street":"Ost-West-Straße","PostalCode":"13353","AdditionalData":[{"value":"Deutschland","key":"CountryName"},{"value":"Berlin","key":"StateName"},{"value":"Berlin","key":"CountyName"}]},"MapReference":{"ReferenceId":"592186523","Spot":0.1,"SideOfStreet":"left","CountryId":"20147700","StateId":"20187401","CountyId":"20187402","CityId":"20187403","DistrictId":"20187406"}}},{"Relevance":1.0,"Distance":12.4,"MatchLevel":"street","MatchQuality":{"Country":1.0,"State":1.0,"County":1.0,"City":1.0,"District":1.0,"Street":[1.0],"PostalCode":1.0},"Location":{"LocationId":"NT_fFUUe-160BAIro9j6BWOCB_l_592186522_R","LocationType":"point","DisplayPosition":{"Latitude":52.5423658,"Longitude":13.3402765},"MapView":{"TopLeft":{"Latitude":52.54292,"Longitude":13.33945},"BottomRight":{"Latitude":52.54235,"Longitude":13.3403}},"Address":{"Label":"Seestraße, 13353 Berlin, Deutschland","Country":"DEU","State":"Berlin","County":"Berlin","City":"Berlin","District":"Wedding","Street":"Seestraße","PostalCode":"13353","AdditionalData":[{"value":"Deutschland","key":"CountryName"},{"value":"Berlin","key":"StateName"},{"value":"Berlin","key":"CountyName"}]},"MapReference":{"ReferenceId":"592186522","Spot":0.03,"SideOfStreet":"right","CountryId":"20147700","StateId":"20187401","CountyId":"20187402","CityId":"20187403","DistrictId":"20187406"}}},{"Relevance":1.0,"Distance":13.6,"MatchLevel":"street","MatchQuality":{"Country":1.0,"State":1.0,"County":1.0,"City":1.0,"District":1.0,"Street":[1.0],"PostalCode":1.0},"Location":{"LocationId":"NT_TfWa5sHLFew6OpNb29doEA_l_592186540_L","LocationType":"point","DisplayPosition":{"Latitude":52.54235,"Longitude":13.3403},"MapView":{"TopLeft":{"Latitude":52.54235,"Longitude":13.33982},"BottomRight":{"Latitude":52.54211,"Longitude":13.3403}},"Address":{"Label":"Forum, 13353 Berlin, Deutschland","Country":"DEU","State":"Berlin","County":"Berlin","City":"Berlin","District":"Wedding","Street":"Forum","PostalCode":"13353","AdditionalData":[{"value":"Deutschland","key":"CountryName"},{"value":"Berlin","key":"StateName"},{"value":"Berlin","key":"CountyName"}]},"MapReference":{"ReferenceId":"592186540","Spot":1.0,"SideOfStreet":"left","CountryId":"20147700","StateId":"20187401","CountyId":"20187402","CityId":"20187403","DistrictId":"20187406"}}},{"Relevance":1.0,"Distance":39.9,"MatchLevel":"houseNumber","MatchQuality":{"Country":1.0,"State":1.0,"County":1.0,"City":1.0,"District":1.0,"Street":[1.0],"HouseNumber":1.0,"PostalCode":1.0},"MatchType":"interpolated","Location":{"LocationId":"NT_Z06Jk9IdP.PUmZnPCePuJC_0A","LocationType":"point","DisplayPosition":{"Latitude":52.54211,"Longitude":13.34035},"MapView":{"TopLeft":{"Latitude":52.5432342,"Longitude":13.3385016},"BottomRight":{"Latitude":52.5409858,"Longitude":13.3421984}},"Address":{"Label":"Weststraße 4, 13353 Berlin, Deutschland","Country":"DEU","State":"Berlin","County":"Berlin","City":"Berlin","District":"Wedding","Street":"Weststraße","HouseNumber":"4","PostalCode":"13353","AdditionalData":[{"value":"Deutschland","key":"CountryName"},{"value":"Berlin","key":"StateName"},{"value":"Berlin","key":"CountyName"}]},"MapReference":{"ReferenceId":"592186529","Spot":0.52,"SideOfStreet":"left","CountryId":"20147700","StateId":"20187401","CountyId":"20187402","CityId":"20187403","DistrictId":"20187406","AddressId":"767372599","RoadLinkId":"37502198"}}},{"Relevance":1.0,"Distance":52.4,"MatchLevel":"houseNumber","MatchQuality":{"Country":1.0,"State":1.0,"County":1.0,"City":1.0,"District":1.0,"Street":[1.0],"HouseNumber":1.0,"PostalCode":1.0},"MatchType":"interpolated","Location":{"LocationId":"NT_bO7OvO6IA-.yzEkPFseD8C_3EE","LocationType":"point","DisplayPosition":{"Latitude":52.5419,"Longitude":13.34111},"MapView":{"TopLeft":{"Latitude":52.5430242,"Longitude":13.3392616},"BottomRight":{"Latitude":52.5407758,"Longitude":13.3429584}},"Address":{"Label":"Mittelallee 7A, 13353 Berlin, Deutschland","Country":"DEU","State":"Berlin","County":"Berlin","City":"Berlin","District":"Wedding","Street":"Mittelallee","HouseNumber":"7A","PostalCode":"13353","AdditionalData":[{"value":"Deutschland","key":"CountryName"},{"value":"Berlin","key":"StateName"},{"value":"Berlin","key":"CountyName"}]},"MapReference":{"ReferenceId":"592186531","Spot":0.12,"SideOfStreet":"left","CountryId":"20147700","StateId":"20187401","CountyId":"20187402","CityId":"20187403","DistrictId":"20187406","AddressId":"767371865","RoadLinkId":"37923858"}}},{"Relevance":1.0,"Distance":53.4,"MatchLevel":"street","MatchQuality":{"Country":1.0,"State":1.0,"County":1.0,"City":1.0,"District":1.0,"Street":[1.0],"PostalCode":1.0},"Location":{"LocationId":"NT_TfWa5sHLFew6OpNb29doEA_l_592186546_L","LocationType":"point","DisplayPosition":{"Latitude":52.54211,"Longitude":13.33982},"MapView":{"TopLeft":{"Latitude":52.54211,"Longitude":13.33941},"BottomRight":{"Latitude":52.54147,"Longitude":13.34047}},"Address":{"Label":"Forum, 13353 Berlin, Deutschland","Country":"DEU","State":"Berlin","County":"Berlin","City":"Berlin","District":"Wedding","Street":"Forum","PostalCode":"13353","AdditionalData":[{"value":"Deutschland","key":"CountryName"},{"value":"Berlin","key":"StateName"},{"value":"Berlin","key":"CountyName"}]},"MapReference":{"ReferenceId":"592186546","Spot":1.0,"SideOfStreet":"left","CountryId":"20147700","StateId":"20187401","CountyId":"20187402","CityId":"20187403","DistrictId":"20187406"}}},{"Relevance":1.0,"Distance":65.3,"MatchLevel":"street","MatchQuality":{"Country":1.0,"State":1.0,"County":1.0,"City":1.0,"District":1.0,"Street":[1.0],"PostalCode":1.0},"Location":{"LocationId":"NT_4gZIISvL56xd42mrcWz.kA_l_592186541_L","LocationType":"point","DisplayPosition":{"Latitude":52.54282,"Longitude":13.34112},"MapView":{"TopLeft":{"Latitude":52.54327,"Longitude":13.34112},"BottomRight":{"Latitude":52.54282,"Longitude":13.34201}},"Address":{"Label":"Ost-West-Straße, 13353 Berlin, Deutschland","Country":"DEU","State":"Berlin","County":"Berlin","City":"Berlin","District":"Wedding","Street":"Ost-West-Straße","PostalCode":"13353","AdditionalData":[{"value":"Deutschland","key":"CountryName"},{"value":"Berlin","key":"StateName"},{"value":"Berlin","key":"CountyName"}]},"MapReference":{"ReferenceId":"592186541","Spot":0.0,"SideOfStreet":"left","CountryId":"20147700","StateId":"20187401","CountyId":"20187402","CityId":"20187403","DistrictId":"20187406"}}},{"Relevance":1.0,"Distance":82.2,"MatchLevel":"houseNumber","MatchQuality":{"Country":1.0,"State":1.0,"County":1.0,"City":1.0,"District":1.0,"Street":[1.0],"HouseNumber":1.0,"PostalCode":1.0},"MatchType":"interpolated","Location":{"LocationId":"NT_sJWafyYmDM2bx.hUlQWu8C_2A","LocationType":"point","DisplayPosition":{"Latitude":52.54285,"Longitude":13.34147},"MapView":{"TopLeft":{"Latitude":52.5439742,"Longitude":13.3396216},"BottomRight":{"Latitude":52.5417258,"Longitude":13.3433184}},"Address":{"Label":"Nordstraße 6, 13353 Berlin, Deutschland","Country":"DEU","State":"Berlin","County":"Berlin","City":"Berlin","District":"Wedding","Street":"Nordstraße","HouseNumber":"6","PostalCode":"13353","AdditionalData":[{"value":"Deutschland","key":"CountryName"},{"value":"Berlin","key":"StateName"},{"value":"Berlin","key":"CountyName"}]},"MapReference":{"ReferenceId":"592186543","Spot":0.31,"SideOfStreet":"right","CountryId":"20147700","StateId":"20187401","CountyId":"20187402","CityId":"20187403","DistrictId":"20187406","AddressId":"767372039","RoadLinkId":"37925122"}}}]}]}}