{"Response":{"MetaInfo":{"Timestamp":"2020-03-28T10:33:49.665+0000","NextPageInformation":"2"},"View":[{"_type":"SearchResultsViewType","ViewId":0,"Result":[{"Relevance":1.0,"Distance":0.0,"Direction":0.0,"MatchLevel":"district","MatchQuality":{"Country":1.0,"State":1.0,"County":1.0,"City":1.0,"District":1.0,"PostalCode":1.0},"Location":{"LocationId":"NT_UXsnkObhn5aCQWmlGGDZTA","LocationType":"point","DisplayPosition":{"Latitude":52.5333979,"Longitude":-2.1946375},"MapView":{"TopLeft":{"Latitude":52.55686,"Longitude":-2.22032},"BottomRight":{"Latitude":52.51795,"Longitude":-2.17576}},"Address":{"Label":"Wombourne, Wolverhampton, England, United Kingdom","Country":"GBR","State":"England","County":"West Midlands","City":"Wolverhampton","District":"Wombourne","PostalCode":"WV5 9","AdditionalData":[{"value":"United Kingdom","key":"CountryName"},{"value":"England","key":"StateName"},{"value":"West Midlands","key":"CountyName"}]},"MapReference":{"ReferenceId":"26381120","SideOfStreet":"neither","StateId":"20248595","CountyId":"20358328","CityId":"20358584","DistrictId":"20358639"}}},{"Relevance":1.0,"Distance":17.7,"MatchLevel":"street","MatchQuality":{"Country":1.0,"State":1.0,"County":1.0,"City":1.0,"District":1.0,"Street":[1.0],"PostalCode":1.0},"Location":{"LocationId":"NT_Y-A1TEXK-HgUUnFc1P392A_l_26381520_L","LocationType":"point","DisplayPosition":{"Latitude":52.5333481,"Longitude":-2.1943884},"MapView":{"TopLeft":{"Latitude":52.53365,"Longitude":-2.19441},"BottomRight":{"Latitude":52.53329,"Longitude":-2.19437}},"Address":{"Label":"Windsor Road, Wolverhampton, WV5 8, United Kingdom","Country":"GBR","State":"England","County":"West Midlands","City":"Wolverhampton","District":"Wombourne","Street":"Windsor Road","PostalCode":"WV5 8","AdditionalData":[{"value":"United Kingdom","key":"CountryName"},{"value":"England","key":"StateName"},{"value":"West Midlands","key":"CountyName"}]},"MapReference":{"ReferenceId":"26381520","Spot":0.16,"SideOfStreet":"left","StateId":"20248595","CountyId":"20358328","CityId":"20358584","DistrictId":"20358639"}}},{"Relevance":1.0,"Distance":19.5,"MatchLevel":"houseNumber","MatchQuality":{"Country":1.0,"State":1.0,"County":1.0,"City":1.0,"District":1.0,"Street":[1.0],"HouseNumber":1.0,"PostalCode":1.0},"MatchType":"interpolated","Location":{"LocationId":"NT_P5huxv.GUs05w.nIHSheUC_l_26381496_L_3AD","LocationType":"point","DisplayPosition":{"Latitude":52.53355,"Longitude":-2.1947799},"MapView":{"TopLeft":{"Latitude":52.5346742,"Longitude":-2.196628},"BottomRight":{"Latitude":52.5324259,"Longitude":-2.1929319}},"Address":{"Label":"70 Planks Lane, Wolverhampton, WV5 8DU, United Kingdom","Country":"GBR","State":"England","County":"West Midlands","City":"Wolverhampton","District":"Wombourne","Street":"Planks Lane","HouseNumber":"70","PostalCode":"WV5 8DU","AdditionalData":[{"value":"United Kingdom","key":"CountryName"},{"value":"England","key":"StateName"},{"value":"West Midlands","key":"CountyName"}]},"MapReference":{"ReferenceId":"26381496","Spot":0.36,"SideOfStreet":"left","StateId":"20248595","CountyId":"20358328","CityId":"20358584","DistrictId":"20358639"}}},{"Relevance":1.0,"Distance":30.0,"MatchLevel":"houseNumber","MatchQuality":{"Country":1.0,"State":1.0,"County":1.0,"City":1.0,"District":1.0,"Street":[1.0],"HouseNumber":1.0,"PostalCode":1.0},"MatchType":"interpolated","Location":{"LocationId":"NT_TGFSImWXGLqIA9YZFRBtaC_l_26381522_L_xA","LocationType":"point","DisplayPosition":{"Latitude":52.53328,"Longitude":-2.1941699},"MapView":{"TopLeft":{"Latitude":52.5344042,"Longitude":-2.1960179},"BottomRight":{"Latitude":52.5321559,"Longitude":-2.1923219}},"Address":{"Label":"1 Bramber Drive, Wolverhampton, WV5 8EQ, United Kingdom","Country":"GBR","State":"England","County":"West Midlands","City":"Wolverhampton","District":"Wombourne","Street":"Bramber Drive","HouseNumber":"1","PostalCode":"WV5 8EQ","AdditionalData":[{"value":"United Kingdom","key":"CountryName"},{"value":"England","key":"StateName"},{"value":"West Midlands","key":"CountyName"}]},"MapReference":{"ReferenceId":"26381522","Spot":0.19,"SideOfStreet":"left","StateId":"20248595","CountyId":"20358328","CityId":"20358584","DistrictId":"20358639"}}},{"Relevance":1.0,"Distance":36.0,"MatchLevel":"houseNumber","MatchQuality":{"Country":1.0,"State":1.0,"County":1.0,"City":1.0,"District":1.0,"Street":[1.0],"HouseNumber":1.0,"PostalCode":1.0},"MatchType":"interpolated","Location":{"LocationId":"NT_P5huxv.GUs05w.nIHSheUC_l_26796667_R_0UD","LocationType":"point","DisplayPosition":{"Latitude":52.5333808,"Longitude":-2.1951685},"MapView":{"TopLeft":{"Latitude":52.534505,"Longitude":-2.1970165},"BottomRight":{"Latitude":52.5322567,"Longitude":-2.1933205}},"Address":{"Label":"45 Planks Lane, Wolverhampton, WV5 8DX, United Kingdom","Country":"GBR","State":"England","County":"West Midlands","City":"Wolverhampton","District":"Wombourne","Street":"Planks Lane","HouseNumber":"45","PostalCode":"WV5 8DX","AdditionalData":[{"value":"United Kingdom","key":"CountryName"},{"value":"England","key":"StateName"},{"value":"West Midlands","key":"CountyName"}]},"MapReference":{"ReferenceId":"26796667","Spot":0.64,"SideOfStreet":"right","StateId":"20248595","CountyId":"20358328","CityId":"20358584","DistrictId":"20358639"}}},{"Relevance":1.0,"Distance":40.4,"MatchLevel":"postalCode","MatchQuality":{"PostalCode":1.0},"MatchType":"interpolated","Location":{"LocationId":"NT_Y-A1TEXK-HgUUnFc1P392A_l_26381593_R_xA","LocationType":"point","DisplayPosition":{"Latitude":52.53306,"Longitude":-2.19442},"MapView":{"TopLeft":{"Latitude":52.5420532,"Longitude":-2.2092041},"BottomRight":{"Latitude":52.5240668,"Longitude":-2.1796359}},"Address":{"Label":"WV5 8EG, Wolverhampton, England, United Kingdom","Country":"GBR","State":"England","County":"West Midlands","City":"Wolverhampton","PostalCode":"WV5 8EG","AdditionalData":[{"value":"United Kingdom","key":"CountryName"},{"value":"England","key":"StateName"},{"value":"West Midlands","key":"CountyName"}]},"MapReference":{"ReferenceId":"26381593","Spot":0.5,"SideOfStreet":"neither","StateId":"20248595","CountyId":"20358328","CityId":"20358584"}}},{"Relevance":1.0,"Distance":42.5,"MatchLevel":"houseNumber","MatchQuality":{"Country":1.0,"State":1.0,"County":1.0,"City":1.0,"District":1.0,"Street":[1.0],"HouseNumber":1.0,"PostalCode":1.0},"MatchType":"interpolated","Location":{"LocationId":"NT_Y-A1TEXK-HgUUnFc1P392A_l_26381593_R_xA","LocationType":"point","DisplayPosition":{"Latitude":52.533025,"Longitude":-2.1945},"MapView":{"TopLeft":{"Latitude":52.5341492,"Longitude":-2.196348},"BottomRight":{"Latitude":52.5319009,"Longitude":-2.192652}},"Address":{"Label":"1 Windsor Road, Wolverhampton, WV5 8EG, United Kingdom","Country":"GBR","State":"England","County":"West Midlands","City":"Wolverhampton","District":"Wombourne","Street":"Windsor Road","HouseNumber":"1","PostalCode":"WV5 8EG","AdditionalData":[{"value":"United Kingdom","key":"CountryName"},{"value":"England","key":"StateName"},{"value":"West Midlands","key":"CountyName"}]},"MapReference":{"ReferenceId":"26381593","Spot":0.5,"SideOfStreet":"right","StateId":"20248595","CountyId":"20358328","CityId":"20358584","DistrictId":"20358639"}}},{"Relevance":1.0,"Distance":42.8,"MatchLevel":"houseNumber","MatchQuality":{"Country":1.0,"State":1.0,"County":1.0,"City":1.0,"District":1.0,"Street":[1.0],"HouseNumber":1.0,"PostalCode":1.0},"MatchType":"interpolated","Location":{"LocationId":"NT_P5huxv.GUs05w.nIHSheUC_l_26381517_L_3ID","LocationType":"point","DisplayPosition":{"Latitude":52.5334325,"Longitude":-2.1952675},"MapView":{"TopLeft":{"Latitude":52.5345567,"Longitude":-2.1971155},"BottomRight":{"Latitude":52.5323084,"Longitude":-2.1934195}},"Address":{"Label":"72 Planks Lane, Wolverhampton, WV5 8, United Kingdom","Country":"GBR","State":"England","County":"West Midlands","City":"Wolverhampton","District":"Wombourne","Street":"Planks Lane","HouseNumber":"72","PostalCode":"WV5 8","AdditionalData":[{"value":"United Kingdom","key":"CountryName"},{"value":"England","key":"StateName"},{"value":"West Midlands","key":"CountyName"}]},"MapReference":{"ReferenceId":"26381517","Spot":0.61,"SideOfStreet":"left","StateId":"20248595","CountyId":"20358328","CityId":"20358584","DistrictId":"20358639"}}},{"Relevance":1.0,"Distance":51.5,"MatchLevel":"houseNumber","MatchQuality":{"Country":1.0,"State":1.0,"County":1.0,"City":1.0,"District":1.0,"Street":[1.0],"HouseNumber":1.0,"PostalCode":1.0},"MatchType":"interpolated","Location":{"LocationId":"NT_P5huxv.GUs05w.nIHSheUC_l_565673561_L_2ID","LocationType":"point","DisplayPosition":{"Latitude":52.5337256,"Longitude":-2.1940992},"MapView":{"TopLeft":{"Latitude":52.5348498,"Longitude":-2.1959472},"BottomRight":{"Latitude":52.5326015,"Longitude":-2.1922511}},"Address":{"Label":"62 Planks Lane, Wolverhampton, WV5 8DU, United Kingdom","Country":"GBR","State":"England","County":"West Midlands","City":"Wolverhampton","District":"Wombourne","Street":"Planks Lane","HouseNumber":"62","PostalCode":"WV5 8DU","AdditionalData":[{"value":"United Kingdom","key":"CountryName"},{"value":"England","key":"StateName"},{"value":"West Midlands","key":"CountyName"}]},"MapReference":{"ReferenceId":"565673561","Spot":0.53,"SideOfStreet":"left","StateId":"20248595","CountyId":"20358328","CityId":"20358584","DistrictId":"20358639"}}},{"Relevance":1.0,"Distance":67.2,"MatchLevel":"houseNumber","MatchQuality":{"Country":1.0,"State":1.0,"County":1.0,"City":1.0,"District":1.0,"Street":[1.0],"HouseNumber":1.0,"PostalCode":1.0},"MatchType":"interpolated","Location":{"LocationId":"NT_mvdUeUMVxGLk8iwp5c9VXC_l_26381653_L_1UD","LocationType":"point","DisplayPosition":{"Latitude":52.5326927,"Longitude":-2.1949326},"MapView":{"TopLeft":{"Latitude":52.5338168,"Longitude":-2.1967806},"BottomRight":{"Latitude":52.5315685,"Longitude":-2.1930846}},"Address":{"Label":"55 Sandringham Road, Wolverhampton, WV5 8EF, United Kingdom","Country":"GBR","State":"England","County":"West Midlands","City":"Wolverhampton","District":"Wombourne","Street":"Sandringham Road","HouseNumber":"55","PostalCode":"WV5 8EF","AdditionalData":[{"value":"United Kingdom","key":"CountryName"},{"value":"England","key":"StateName"},{"value":"West Midlands","key":"CountyName"}]},"MapReference":{"ReferenceId":"26381653","Spot":0.91,"SideOfStreet":"left","StateId":"20248595","CountyId":"20358328","CityId":"20358584","DistrictId":"20358639"}}}]}]}}