{"Response":{"MetaInfo":{"Timestamp":"2020-03-28T11:15:34.207+0000","NextPageInformation":"2"},"View":[{"_type":"SearchResultsViewType","ViewId":0,"Result":[{"Relevance":1.0,"Distance":0.0,"Direction":0.0,"MatchLevel":"postalCode","MatchQuality":{"Country":1.0,"State":1.0,"County":1.0,"PostalCode":1.0},"Location":{"LocationId":"NT_9PDEEpbiURmpFWb9vPQpeD","LocationType":"point","DisplayPosition":{"Latitude":52.5011366,"Longitude":-1.4081492},"MapView":{"TopLeft":{"Latitude":52.68725,"Longitude":-1.96208},"BottomRight":{"Latitude":51.95548,"Longitude":-1.17212}},"Address":{"Label":"CV11 6, England, United Kingdom","Country":"GBR","State":"England","County":"Warwickshire","PostalCode":"CV11 6","AdditionalData":[{"value":"United Kingdom","key":"CountryName"},{"value":"England","key":"StateName"},{"value":"Warwickshire","key":"CountyName"}]},"MapReference":{"ReferenceId":"813310836","SideOfStreet":"neither","StateId":"20248595","CountyId":"20338667"}}},{"Relevance":1.0,"Distance":23.4,"MatchLevel":"landmark","MatchQuality":{"Country":1.0,"State":1.0,"Name":1.0},"Location":{"LocationId":"NT_y4hPE4BQy0sCaee26CxCCD","LocationType":"canalWaterChannel","Name":"Ashby de la Zouch Canal","DisplayPosition":{"Latitude":52.57446,"Longitude":-1.42124},"MapView":{"TopLeft":{"Latitude":52.6861,"Longitude":-1.49451},"BottomRight":{"Latitude":52.49011,"Longitude":-1.39066}},"Address":{"Label":"United Kingdom","Country":"GBR","State":"England","AdditionalData":[{"value":"United Kingdom","key":"CountryName"},{"value":"England","key":"StateName"}]},"MapReference":{"StateId":"20248595","PlaceId":"718789136"}}},{"Relevance":1.0,"Distance":79.4,"MatchLevel":"street","MatchQuality":{"Country":1.0,"State":1.0,"County":1.0,"City":1.0,"District":1.0,"PostalCode":1.0},"Location":{"LocationId":"NT_.H7UpRnh3YXn5x04mDqHID_l_1197269550_L","LocationType":"point","DisplayPosition":{"Latitude":52.50047,"Longitude":-1.40773},"MapView":{"TopLeft":{"Latitude":52.50047,"Longitude":-1.40783},"BottomRight":{"Latitude":52.50004,"Longitude":-1.40766}},"Address":{"Label":"Nuneaton, CV11 6, United Kingdom","Country":"GBR","State":"England","County":"Warwickshire","City":"Nuneaton","District":"Bramcote","PostalCode":"CV11 6","AdditionalData":[{"value":"United Kingdom","key":"CountryName"},{"value":"England","key":"StateName"},{"value":"Warwickshire","key":"CountyName"}]},"MapReference":{"ReferenceId":"1197269550","Spot":1.0,"SideOfStreet":"left","StateId":"20248595","CountyId":"20338667","CityId":"20351580","DistrictId":"20351594"}}},{"Relevance":1.0,"Distance":126.4,"MatchLevel":"street","MatchQuality":{"Country":1.0,"State":1.0,"County":1.0,"City":1.0,"District":1.0,"Street":[1.0],"PostalCode":1.0},"Location":{"LocationId":"NT_fdg9Dv9t3JB8fGQk1s5WMC_l_1197269548_L","LocationType":"point","DisplayPosition":{"Latitude":52.50004,"Longitude":-1.40766},"MapView":{"TopLeft":{"Latitude":52.50004,"Longitude":-1.4078},"BottomRight":{"Latitude":52.49957,"Longitude":-1.40749}},"Address":{"Label":"Quincy Close, Nuneaton, CV11 6, United Kingdom","Country":"GBR","State":"England","County":"Warwickshire","City":"Nuneaton","District":"Bramcote","Street":"Quincy Close","PostalCode":"CV11 6","AdditionalData":[{"value":"United Kingdom","key":"CountryName"},{"value":"England","key":"StateName"},{"value":"Warwickshire","key":"CountyName"}]},"MapReference":{"ReferenceId":"1197269548","Spot":1.0,"SideOfStreet":"left","StateId":"20248595","CountyId":"20338667","CityId":"20351580","DistrictId":"20351594"}}},{"Relevance":1.0,"Distance":126.4,"MatchLevel":"street","MatchQuality":{"Country":1.0,"State":1.0,"County":1.0,"City":1.0,"District":1.0,"PostalCode":1.0},"Location":{"LocationId":"NT_.H7UpRnh3YXn5x04mDqHID_l_1197269549_R","LocationType":"point","DisplayPosition":{"Latitude":52.50004,"Longitude":-1.40766},"MapView":{"TopLeft":{"Latitude":52.50004,"Longitude":-1.40766},"BottomRight":{"Latitude":52.49995,"Longitude":-1.40693}},"Address":{"Label":"Nuneaton, CV11 6, United Kingdom","Country":"GBR","State":"England","County":"Warwickshire","City":"Nuneaton","District":"Bramcote","PostalCode":"CV11 6","AdditionalData":[{"value":"United Kingdom","key":"CountryName"},{"value":"England","key":"StateName"},{"value":"Warwickshire","key":"CountyName"}]},"MapReference":{"ReferenceId":"1197269549","Spot":1.0,"SideOfStreet":"right","StateId":"20248595","CountyId":"20338667","CityId":"20351580","DistrictId":"20351594"}}},{"Relevance":1.0,"Distance":136.0,"MatchLevel":"postalCode","MatchQuality":{"PostalCode":1.0},"Location":{"LocationId":"NT_yuIDF9OMMafWsdxfuEZZ9C_l_757222770_R","LocationType":"point","DisplayPosition":{"Latitude":52.50004,"Longitude":-1.40726},"MapView":{"TopLeft":{"Latitude":52.5090332,"Longitude":-1.422033},"BottomRight":{"Latitude":52.4910468,"Longitude":-1.392487}},"Address":{"Label":"CV11 6AY, Nuneaton, England, United Kingdom","Country":"GBR","State":"England","County":"Warwickshire","City":"Nuneaton","PostalCode":"CV11 6AY","AdditionalData":[{"value":"United Kingdom","key":"CountryName"},{"value":"England","key":"StateName"},{"value":"Warwickshire","key":"CountyName"}]},"MapReference":{"ReferenceId":"757222770","Spot":1.0,"SideOfStreet":"neither","StateId":"20248595","CountyId":"20338667","CityId":"20351580"}}},{"Relevance":1.0,"Distance":179.8,"MatchLevel":"street","MatchQuality":{"Country":1.0,"State":1.0,"County":1.0,"City":1.0,"District":1.0,"Street":[1.0],"PostalCode":1.0},"Location":{"LocationId":"NT_fdg9Dv9t3JB8fGQk1s5WMC_l_1197269546_L","LocationType":"point","DisplayPosition":{"Latitude":52.49957,"Longitude":-1.40749},"MapView":{"TopLeft":{"Latitude":52.49957,"Longitude":-1.40756},"BottomRight":{"Latitude":52.49841,"Longitude":-1.40739}},"Address":{"Label":"Quincy Close, Nuneaton, CV11 6, United Kingdom","Country":"GBR","State":"England","County":"Warwickshire","City":"Nuneaton","District":"Bramcote","Street":"Quincy Close","PostalCode":"CV11 6","AdditionalData":[{"value":"United Kingdom","key":"CountryName"},{"value":"England","key":"StateName"},{"value":"Warwickshire","key":"CountyName"}]},"MapReference":{"ReferenceId":"1197269546","Spot":1.0,"SideOfStreet":"left","StateId":"20248595","CountyId":"20338667","CityId":"20351580","DistrictId":"20351594"}}},{"Relevance":1.0,"Distance":240.1,"MatchLevel":"street","MatchQuality":{"Country":1.0,"State":1.0,"County":1.0,"City":1.0,"District":1.0,"PostalCode":1.0},"Location":{"LocationId":"NT_.H7UpRnh3YXn5x04mDqHID_l_1197269547_L","LocationType":"point","DisplayPosition":{"Latitude":52.49909,"Longitude":-1.40702},"MapView":{"TopLeft":{"Latitude":52.49909,"Longitude":-1.40739},"BottomRight":{"Latitude":52.49841,"Longitude":-1.40702}},"Address":{"Label":"Nuneaton, CV11 6, United Kingdom","Country":"GBR","State":"England","County":"Warwickshire","City":"Nuneaton","District":"Bramcote","PostalCode":"CV11 6","AdditionalData":[{"value":"United Kingdom","key":"CountryName"},{"value":"England","key":"StateName"},{"value":"Warwickshire","key":"CountyName"}]},"MapReference":{"ReferenceId":"1197269547","Spot":1.0,"SideOfStreet":"left","StateId":"20248595","CountyId":"20338667","CityId":"20351580","DistrictId":"20351594"}}},{"Relevance":1.0,"Distance":307.5,"MatchLevel":"street","MatchQuality":{"Country":1.0,"State":1.0,"County":1.0,"City":1.0,"District":1.0,"Street":[1.0],"PostalCode":1.0},"Location":{"LocationId":"NT_fdg9Dv9t3JB8fGQk1s5WMC_l_1197269545_L","LocationType":"point","DisplayPosition":{"Latitude":52.49841,"Longitude":-1.40739},"MapView":{"TopLeft":{"Latitude":52.49841,"Longitude":-1.40773},"BottomRight":{"Latitude":52.49781,"Longitude":-1.40739}},"Address":{"Label":"Quincy Close, Nuneaton, CV11 6, United Kingdom","Country":"GBR","State":"England","County":"Warwickshire","City":"Nuneaton","District":"Bramcote","Street":"Quincy Close","PostalCode":"CV11 6","AdditionalData":[{"value":"United Kingdom","key":"CountryName"},{"value":"England","key":"StateName"},{"value":"Warwickshire","key":"CountyName"}]},"MapReference":{"ReferenceId":"1197269545","Spot":1.0,"SideOfStreet":"left","StateId":"20248595","CountyId":"20338667","CityId":"20351580","DistrictId":"20351594"}}},{"Relevance":1.0,"Distance":324.7,"MatchLevel":"postalCode","MatchQuality":{"PostalCode":1.0},"Location":{"LocationId":"NT_fdg9Dv9t3JB8fGQk1s5WMC_l_1197269545_L","LocationType":"point","DisplayPosition":{"Latitude":52.49825,"Longitude":-1.40742},"MapView":{"TopLeft":{"Latitude":52.5072432,"Longitude":-1.4221924},"BottomRight":{"Latitude":52.4892568,"Longitude":-1.3926476}},"Address":{"Label":"CV11 6RW, Nuneaton, England, United Kingdom","Country":"GBR","State":"England","County":"Warwickshire","City":"Nuneaton","PostalCode":"CV11 6RW","AdditionalData":[{"value":"United Kingdom","key":"CountryName"},{"value":"England","key":"StateName"},{"value":"Warwickshire","key":"CountyName"}]},"MapReference":{"ReferenceId":"1197269545","Spot":1.0,"SideOfStreet":"neither","StateId":"20248595","CountyId":"20338667","CityId":"20351580"}}}]}]}}