{"Response":{"MetaInfo":{"Timestamp":"2020-03-28T11:16:48.757+0000","NextPageInformation":"2"},"View":[{"_type":"SearchResultsViewType","ViewId":0,"Result":[{"Relevance":1.0,"Distance":0.0,"Direction":0.0,"MatchLevel":"district","MatchQuality":{"Country":1.0,"State":1.0,"County":1.0,"City":1.0,"District":1.0,"PostalCode":1.0},"Location":{"LocationId":"NT_--RFl8SX2naTlIfx27PwfB","LocationType":"point","DisplayPosition":{"Latitude":52.5195048,"Longitude":-2.0738948},"MapView":{"TopLeft":{"Latitude":52.55723,"Longitude":-2.16062},"BottomRight":{"Latitude":52.47412,"Longitude":-2.05721}},"Address":{"Label":"Dudley, England, United Kingdom","Country":"GBR","State":"England","County":"West Midlands","City":"Dudley","District":"Dudley","PostalCode":"DY2 8","AdditionalData":[{"value":"United Kingdom","key":"CountryName"},{"value":"England","key":"StateName"},{"value":"West Midlands","key":"CountyName"}]},"MapReference":{"ReferenceId":"26385197","SideOfStreet":"neither","StateId":"20248595","CountyId":"20358328","CityId":"20358464","DistrictId":"20358465"}}},{"Relevance":1.0,"Distance":5.1,"MatchLevel":"street","MatchQuality":{"Country":1.0,"State":1.0,"County":1.0,"City":1.0,"District":1.0,"Street":[1.0],"PostalCode":1.0},"Location":{"LocationId":"NT_K3BAgT2nIYVxWi3A66I5sC_l_26375857_R","LocationType":"point","DisplayPosition":{"Latitude":52.5195048,"Longitude":-2.07397},"MapView":{"TopLeft":{"Latitude":52.5196,"Longitude":-2.07397},"BottomRight":{"Latitude":52.51905,"Longitude":-2.07397}},"Address":{"Label":"Tipton Road, Dudley, DY1 4, United Kingdom","Country":"GBR","State":"England","County":"West Midlands","City":"Dudley","District":"Dudley","Street":"Tipton Road","PostalCode":"DY1 4","AdditionalData":[{"value":"United Kingdom","key":"CountryName"},{"value":"England","key":"StateName"},{"value":"West Midlands","key":"CountyName"}]},"MapReference":{"ReferenceId":"26375857","Spot":0.83,"SideOfStreet":"right","StateId":"20248595","CountyId":"20358328","CityId":"20358464","DistrictId":"20358465"}}},{"Relevance":1.0,"Distance":11.7,"MatchLevel":"street","MatchQuality":{"Country":1.0,"State":1.0,"County":1.0,"City":1.0,"District":1.0,"Street":[1.0],"PostalCode":1.0},"Location":{"LocationId":"NT_K3BAgT2nIYVxWi3A66I5sC_l_26375797_R","LocationType":"point","DisplayPosition":{"Latitude":52.5196,"Longitude":-2.07397},"MapView":{"TopLeft":{"Latitude":52.52007,"Longitude":-2.07397},"BottomRight":{"Latitude":52.5196,"Longitude":-2.07397}},"Address":{"Label":"Tipton Road, Dudley, DY1 4, United Kingdom","Country":"GBR","State":"England","County":"West Midlands","City":"Dudley","District":"Dudley","Street":"Tipton Road","PostalCode":"DY1 4","AdditionalData":[{"value":"United Kingdom","key":"CountryName"},{"value":"England","key":"StateName"},{"value":"West Midlands","key":"CountyName"}]},"MapReference":{"ReferenceId":"26375797","Spot":0.0,"SideOfStreet":"right","StateId":"20248595","CountyId":"20358328","CityId":"20358464","DistrictId":"20358465"}}},{"Relevance":1.0,"Distance":11.7,"MatchLevel":"street","MatchQuality":{"Country":1.0,"State":1.0,"County":1.0,"City":1.0,"District":1.0,"PostalCode":1.0},"Location":{"LocationId":"NT_keu9xPmFOQefDpVVYMhykD_l_26375798_R","LocationType":"point","DisplayPosition":{"Latitude":52.5196,"Longitude":-2.07397},"MapView":{"TopLeft":{"Latitude":52.5196,"Longitude":-2.07406},"BottomRight":{"Latitude":52.5196,"Longitude":-2.07397}},"Address":{"Label":"Dudley, DY1 4, United Kingdom","Country":"GBR","State":"England","County":"West Midlands","City":"Dudley","District":"Dudley","PostalCode":"DY1 4","AdditionalData":[{"value":"United Kingdom","key":"CountryName"},{"value":"England","key":"StateName"},{"value":"West Midlands","key":"CountyName"}]},"MapReference":{"ReferenceId":"26375798","Spot":1.0,"SideOfStreet":"right","StateId":"20248595","CountyId":"20358328","CityId":"20358464","DistrictId":"20358465"}}},{"Relevance":1.0,"Distance":15.4,"MatchLevel":"street","MatchQuality":{"Country":1.0,"State":1.0,"County":1.0,"City":1.0,"District":1.0,"Street":[1.0],"PostalCode":1.0},"Location":{"LocationId":"NT_b99J.5La5d6cNYB8mh3dJA_l_26375796_R","LocationType":"point","DisplayPosition":{"Latitude":52.5196,"Longitude":-2.07406},"MapView":{"TopLeft":{"Latitude":52.52007,"Longitude":-2.07406},"BottomRight":{"Latitude":52.5196,"Longitude":-2.07406}},"Address":{"Label":"Tipton Road, Dudley, DY1 4, United Kingdom","Country":"GBR","State":"England","County":"West Midlands","City":"Dudley","District":"Dudley","Street":"Tipton Road","PostalCode":"DY1 4","AdditionalData":[{"value":"United Kingdom","key":"CountryName"},{"value":"England","key":"StateName"},{"value":"West Midlands","key":"CountyName"}]},"MapReference":{"ReferenceId":"26375796","Spot":0.0,"SideOfStreet":"right","StateId":"20248595","CountyId":"20358328","CityId":"20358464","DistrictId":"20358465"}}},{"Relevance":1.0,"Distance":15.4,"MatchLevel":"street","MatchQuality":{"Country":1.0,"State":1.0,"County":1.0,"City":1.0,"District":1.0,"PostalCode":1.0},"Location":{"LocationId":"NT_keu9xPmFOQefDpVVYMhykD_l_1247921814_L","LocationType":"point","DisplayPosition":{"Latitude":52.5196,"Longitude":-2.07406},"MapView":{"TopLeft":{"Latitude":52.51961,"Longitude":-2.0746},"BottomRight":{"Latitude":52.5196,"Longitude":-2.07406}},"Address":{"Label":"Dudley, DY1 4, United Kingdom","Country":"GBR","State":"England","County":"West Midlands","City":"Dudley","District":"Dudley","PostalCode":"DY1 4","AdditionalData":[{"value":"United Kingdom","key":"CountryName"},{"value":"England","key":"StateName"},{"value":"West Midlands","key":"CountyName"}]},"MapReference":{"ReferenceId":"1247921814","Spot":0.0,"SideOfStreet":"left","StateId":"20248595","CountyId":"20358328","CityId":"20358464","DistrictId":"20358465"}}},{"Relevance":1.0,"Distance":22.9,"MatchLevel":"houseNumber","MatchQuality":{"Country":1.0,"State":1.0,"County":1.0,"City":1.0,"District":1.0,"Street":[1.0],"HouseNumber":1.0,"PostalCode":1.0},"MatchType":"interpolated","Location":{"LocationId":"NT_b99J.5La5d6cNYB8mh3dJA_l_26375859_L_xA","LocationType":"point","DisplayPosition":{"Latitude":52.5193251,"Longitude":-2.07406},"MapView":{"TopLeft":{"Latitude":52.5204493,"Longitude":-2.0759074},"BottomRight":{"Latitude":52.5182009,"Longitude":-2.0722126}},"Address":{"Label":"1 Tipton Road, Dudley, DY1 4, United Kingdom","Country":"GBR","State":"England","County":"West Midlands","City":"Dudley","District":"Dudley","Street":"Tipton Road","HouseNumber":"1","PostalCode":"DY1 4","AdditionalData":[{"value":"United Kingdom","key":"CountryName"},{"value":"England","key":"StateName"},{"value":"West Midlands","key":"CountyName"}]},"MapReference":{"ReferenceId":"26375859","Spot":0.5,"SideOfStreet":"left","StateId":"20248595","CountyId":"20358328","CityId":"20358464","DistrictId":"20358465"}}},{"Relevance":1.0,"Distance":27.9,"MatchLevel":"street","MatchQuality":{"Country":1.0,"State":1.0,"County":1.0,"City":1.0,"District":1.0,"Street":[1.0],"PostalCode":1.0},"Location":{"LocationId":"NT_XlhZWV6m1dd-C-IIQZxEjC_l_1204478453_L","LocationType":"point","DisplayPosition":{"Latitude":52.51968,"Longitude":-2.0736},"MapView":{"TopLeft":{"Latitude":52.51977,"Longitude":-2.0736},"BottomRight":{"Latitude":52.51968,"Longitude":-2.0736}},"Address":{"Label":"Sankey Drive, Dudley, DY1 4, United Kingdom","Country":"GBR","State":"England","County":"West Midlands","City":"Dudley","District":"Dudley","Street":"Sankey Drive","PostalCode":"DY1 4","AdditionalData":[{"value":"United Kingdom","key":"CountryName"},{"value":"England","key":"StateName"},{"value":"West Midlands","key":"CountyName"}]},"MapReference":{"ReferenceId":"1204478453","Spot":0.0,"SideOfStreet":"left","StateId":"20248595","CountyId":"20358328","CityId":"20358464","DistrictId":"20358465"}}},{"Relevance":1.0,"Distance":35.6,"MatchLevel":"street","MatchQuality":{"Country":1.0,"State":1.0,"County":1.0,"City":1.0,"District":1.0,"Street":[1.0],"PostalCode":1.0},"Location":{"LocationId":"NT_XlhZWV6m1dd-C-IIQZxEjC_l_1204478454_L","LocationType":"point","DisplayPosition":{"Latitude":52.51977,"Longitude":-2.0736},"MapView":{"TopLeft":{"Latitude":52.51984,"Longitude":-2.0736},"BottomRight":{"Latitude":52.51977,"Longitude":-2.0736}},"Address":{"Label":"Sankey Drive, Dudley, DY1 4, United Kingdom","Country":"GBR","State":"England","County":"West Midlands","City":"Dudley","District":"Dudley","Street":"Sankey Drive","PostalCode":"DY1 4","AdditionalData":[{"value":"United Kingdom","key":"CountryName"},{"value":"England","key":"StateName"},{"value":"West Midlands","key":"CountyName"}]},"MapReference":{"ReferenceId":"1204478454","Spot":0.0,"SideOfStreet":"left","StateId":"20248595","CountyId":"20358328","CityId":"20358464","DistrictId":"20358465"}}},{"Relevance":1.0,"Distance":35.6,"MatchLevel":"street","MatchQuality":{"Country":1.0,"State":1.0,"County":1.0,"City":1.0,"District":1.0,"Street":[1.0],"PostalCode":1.0},"Location":{"LocationId":"NT_XlhZWV6m1dd-C-IIQZxEjC_l_1204478455_R","LocationType":"point","DisplayPosition":{"Latitude":52.51977,"Longitude":-2.0736},"MapView":{"TopLeft":{"Latitude":52.51977,"Longitude":-2.0736},"BottomRight":{"Latitude":52.51977,"Longitude":-2.07305}},"Address":{"Label":"Sankey Drive, Dudley, DY1 4, United Kingdom","Country":"GBR","State":"England","County":"West Midlands","City":"Dudley","District":"Dudley","Street":"Sankey Drive","PostalCode":"DY1 4","AdditionalData":[{"value":"United Kingdom","key":"CountryName"},{"value":"England","key":"StateName"},{"value":"West Midlands","key":"CountyName"}]},"MapReference":{"ReferenceId":"1204478455","Spot":0.0,"SideOfStreet":"right","StateId":"20248595","CountyId":"20358328","CityId":"20358464","DistrictId":"20358465"}}}]}]}}