{"Response":{"MetaInfo":{"Timestamp":"2020-03-28T10:11:41.894+0000","NextPageInformation":"2"},"View":[{"_type":"SearchResultsViewType","ViewId":0,"Result":[{"Relevance":1.0,"Distance":0.0,"Direction":0.0,"MatchLevel":"district","MatchQuality":{"Country":1.0,"State":1.0,"County":1.0,"City":1.0,"District":1.0,"PostalCode":1.0},"Location":{"LocationId":"NT_umWXmv.oR8rpeMDCvoQEiA","LocationType":"point","DisplayPosition":{"Latitude":52.581937,"Longitude":-2.195742},"MapView":{"TopLeft":{"Latitude":52.67497,"Longitude":-2.26391},"BottomRight":{"Latitude":52.54489,"Longitude":-2.01363}},"Address":{"Label":"Wolverhampton, England, United Kingdom","Country":"GBR","State":"England","County":"West Midlands","City":"Wolverhampton","District":"Wolverhampton","PostalCode":"WV1 1","AdditionalData":[{"value":"United Kingdom","key":"CountryName"},{"value":"England","key":"StateName"},{"value":"West Midlands","key":"CountyName"}]},"MapReference":{"ReferenceId":"26364650","SideOfStreet":"neither","StateId":"20248595","CountyId":"20358328","CityId":"20358584","DistrictId":"20358585"}}},{"Relevance":1.0,"Distance":21.0,"MatchLevel":"landmark","MatchQuality":{"Country":1.0,"State":1.0,"County":1.0,"City":1.0,"District":1.0,"PostalCode":1.0,"Name":1.0},"Location":{"LocationId":"NT_gV2BmnMbOJlY6SMtV0E.bA","LocationType":"park","Name":"Wightwick Manor","DisplayPosition":{"Latitude":52.5836,"Longitude":-2.19503},"MapView":{"TopLeft":{"Latitude":52.58509,"Longitude":-2.19994},"BottomRight":{"Latitude":52.58211,"Longitude":-2.19237}},"Address":{"Label":"Wolverhampton, WV1 1, United Kingdom","Country":"GBR","State":"England","County":"West Midlands","City":"Wolverhampton","District":"Wolverhampton","PostalCode":"WV1 1","AdditionalData":[{"value":"United Kingdom","key":"CountryName"},{"value":"England","key":"StateName"},{"value":"West Midlands","key":"CountyName"}]},"MapReference":{"StateId":"20248595","CountyId":"20358328","CityId":"20358584","DistrictId":"20358585","PlaceId":"1511184407"}}},{"Relevance":1.0,"Distance":21.0,"MatchLevel":"street","MatchQuality":{"Country":1.0,"State":1.0,"County":1.0,"City":1.0,"District":1.0,"Street":[1.0],"PostalCode":1.0},"Location":{"LocationId":"NT_DRgI6Sd5GyKBMyGfyy9gnD_l_946210300_R","LocationType":"point","DisplayPosition":{"Latitude":52.5821262,"Longitude":-2.1957315},"MapView":{"TopLeft":{"Latitude":52.5823,"Longitude":-2.1958},"BottomRight":{"Latitude":52.58211,"Longitude":-2.19359}},"Address":{"Label":"Bridgnorth Road, Wolverhampton, WV6 8, United Kingdom","Country":"GBR","State":"England","County":"West Midlands","City":"Wolverhampton","District":"Wolverhampton","Street":"Bridgnorth Road","PostalCode":"WV6 8","AdditionalData":[{"value":"United Kingdom","key":"CountryName"},{"value":"England","key":"StateName"},{"value":"West Midlands","key":"CountyName"}]},"MapReference":{"ReferenceId":"946210300","Spot":0.03,"SideOfStreet":"right","StateId":"20248595","CountyId":"20358328","CityId":"20358584","DistrictId":"20358585"}}},{"Relevance":1.0,"Distance":21.8,"MatchLevel":"street","MatchQuality":{"Country":1.0,"State":1.0,"County":1.0,"City":1.0,"District":1.0,"Street":[1.0],"PostalCode":1.0},"Location":{"LocationId":"NT_DRgI6Sd5GyKBMyGfyy9gnD_l_946217348_R","LocationType":"point","DisplayPosition":{"Latitude":52.58213,"Longitude":-2.1958},"MapView":{"TopLeft":{"Latitude":52.58219,"Longitude":-2.19817},"BottomRight":{"Latitude":52.58213,"Longitude":-2.1958}},"Address":{"Label":"Bridgnorth Road, Wolverhampton, WV6 8, United Kingdom","Country":"GBR","State":"England","County":"West Midlands","City":"Wolverhampton","District":"Wolverhampton","Street":"Bridgnorth Road","PostalCode":"WV6 8","AdditionalData":[{"value":"United Kingdom","key":"CountryName"},{"value":"England","key":"StateName"},{"value":"West Midlands","key":"CountyName"}]},"MapReference":{"ReferenceId":"946217348","Spot":1.0,"SideOfStreet":"right","StateId":"20248595","CountyId":"20358328","CityId":"20358584","DistrictId":"20358585"}}},{"Relevance":1.0,"Distance":56.1,"MatchLevel":"postalCode","MatchQuality":{"PostalCode":1.0},"Location":{"LocationId":"NT_DRgI6Sd5GyKBMyGfyy9gnD_l_946217348_R","LocationType":"point","DisplayPosition":{"Latitude":52.58221,"Longitude":-2.19644},"MapView":{"TopLeft":{"Latitude":52.5912032,"Longitude":-2.2112407},"BottomRight":{"Latitude":52.5732168,"Longitude":-2.1816393}},"Address":{"Label":"WV6 8BN, Wolverhampton, England, United Kingdom","Country":"GBR","State":"England","County":"West Midlands","City":"Wolverhampton","PostalCode":"WV6 8BN","AdditionalData":[{"value":"United Kingdom","key":"CountryName"},{"value":"England","key":"StateName"},{"value":"West Midlands","key":"CountyName"}]},"MapReference":{"ReferenceId":"946217348","Spot":1.0,"SideOfStreet":"neither","StateId":"20248595","CountyId":"20358328","CityId":"20358584"}}},{"Relevance":1.0,"Distance":61.0,"MatchLevel":"landmark","MatchQuality":{"Country":1.0,"State":1.0,"Name":1.0},"Location":{"LocationId":"NT_5nCPCewnk1CEWsGY.OdwkC","LocationType":"canalWaterChannel","Name":"Staffordshire and Worcs Canal","DisplayPosition":{"Latitude":52.60345,"Longitude":-2.1513},"MapView":{"TopLeft":{"Latitude":52.80468,"Longitude":-2.28026},"BottomRight":{"Latitude":52.33701,"Longitude":-2.0088}},"Address":{"Label":"United Kingdom","Country":"GBR","State":"England","AdditionalData":[{"value":"United Kingdom","key":"CountryName"},{"value":"England","key":"StateName"}]},"MapReference":{"StateId":"20248595","PlaceId":"718805027"}}},{"Relevance":1.0,"Distance":140.1,"MatchLevel":"houseNumber","MatchQuality":{"Country":1.0,"State":1.0,"County":1.0,"City":1.0,"District":1.0,"Street":[1.0],"HouseNumber":1.0,"PostalCode":1.0},"MatchType":"interpolated","Location":{"LocationId":"NT_a9o7dcVXP.4hLLjQZdXEcB_l_872091287_L_yAD","LocationType":"point","DisplayPosition":{"Latitude":52.581094,"Longitude":-2.1940108},"MapView":{"TopLeft":{"Latitude":52.5822181,"Longitude":-2.1958608},"BottomRight":{"Latitude":52.5799698,"Longitude":-2.1921608}},"Address":{"Label":"20 Castlecroft Lane, Wolverhampton, WV3 8, United Kingdom","Country":"GBR","State":"England","County":"West Midlands","City":"Wolverhampton","District":"Castlecroft","Street":"Castlecroft Lane","HouseNumber":"20","PostalCode":"WV3 8","AdditionalData":[{"value":"United Kingdom","key":"CountryName"},{"value":"England","key":"StateName"},{"value":"West Midlands","key":"CountyName"}]},"MapReference":{"ReferenceId":"872091287","Spot":0.46,"SideOfStreet":"left","StateId":"20248595","CountyId":"20358328","CityId":"20358584","DistrictId":"20358594"}}},{"Relevance":1.0,"Distance":150.9,"MatchLevel":"street","MatchQuality":{"Country":1.0,"State":1.0,"County":1.0,"City":1.0,"District":1.0,"Street":[1.0],"PostalCode":1.0},"Location":{"LocationId":"NT_QCBWMqDbAl7vd27Qeq66EB_l_946210301_L","LocationType":"point","DisplayPosition":{"Latitude":52.5823,"Longitude":-2.19359},"MapView":{"TopLeft":{"Latitude":52.58241,"Longitude":-2.19359},"BottomRight":{"Latitude":52.5823,"Longitude":-2.19317}},"Address":{"Label":"Bridgnorth Road, Wolverhampton, WV6 8, United Kingdom","Country":"GBR","State":"England","County":"West Midlands","City":"Wolverhampton","District":"Wolverhampton","Street":"Bridgnorth Road","PostalCode":"WV6 8","AdditionalData":[{"value":"United Kingdom","key":"CountryName"},{"value":"England","key":"StateName"},{"value":"West Midlands","key":"CountyName"}]},"MapReference":{"ReferenceId":"946210301","Spot":0.0,"SideOfStreet":"left","StateId":"20248595","CountyId":"20358328","CityId":"20358584","DistrictId":"20358585"}}},{"Relevance":1.0,"Distance":154.3,"MatchLevel":"postalCode","MatchQuality":{"PostalCode":1.0},"MatchType":"interpolated","Location":{"LocationId":"NT_a9o7dcVXP.4hLLjQZdXEcB_l_872091287_L_yAD","LocationType":"point","DisplayPosition":{"Latitude":52.58104,"Longitude":-2.194},"MapView":{"TopLeft":{"Latitude":52.5900332,"Longitude":-2.2088003},"BottomRight":{"Latitude":52.5720468,"Longitude":-2.1791997}},"Address":{"Label":"WV3 8JX, Wolverhampton, England, United Kingdom","Country":"GBR","State":"England","County":"West Midlands","City":"Wolverhampton","PostalCode":"WV3 8JX","AdditionalData":[{"value":"United Kingdom","key":"CountryName"},{"value":"England","key":"StateName"},{"value":"West Midlands","key":"CountyName"}]},"MapReference":{"ReferenceId":"872091287","Spot":0.46,"SideOfStreet":"neither","StateId":"20248595","CountyId":"20358328","CityId":"20358584"}}},{"Relevance":1.0,"Distance":165.4,"MatchLevel":"street","MatchQuality":{"Country":1.0,"State":1.0,"County":1.0,"City":1.0,"District":1.0,"Street":[1.0],"PostalCode":1.0},"Location":{"LocationId":"NT_QCBWMqDbAl7vd27Qeq66EB_l_946217347_R","LocationType":"point","DisplayPosition":{"Latitude":52.58213,"Longitude":-2.19817},"MapView":{"TopLeft":{"Latitude":52.58213,"Longitude":-2.19879},"BottomRight":{"Latitude":52.58208,"Longitude":-2.19817}},"Address":{"Label":"Bridgnorth Road, Wolverhampton, WV6 8, United Kingdom","Country":"GBR","State":"England","County":"West Midlands","City":"Wolverhampton","District":"Wolverhampton","Street":"Bridgnorth Road","PostalCode":"WV6 8","AdditionalData":[{"value":"United Kingdom","key":"CountryName"},{"value":"England","key":"StateName"},{"value":"West Midlands","key":"CountyName"}]},"MapReference":{"ReferenceId":"946217347","Spot":1.0,"SideOfStreet":"right","StateId":"20248595","CountyId":"20358328","CityId":"20358584","DistrictId":"20358585"}}}]}]}}