{"Response":{"MetaInfo":{"Timestamp":"2020-03-28T12:01:12.602+0000","NextPageInformation":"2"},"View":[{"_type":"SearchResultsViewType","ViewId":0,"Result":[{"Relevance":1.0,"Distance":0.0,"Direction":0.0,"MatchLevel":"district","MatchQuality":{"Country":1.0,"State":1.0,"County":1.0,"City":1.0,"District":1.0,"PostalCode":1.0},"Location":{"LocationId":"NT_XW9da1Co.U.k90X19Pxw8D","LocationType":"point","DisplayPosition":{"Latitude":52.5981681,"Longitude":-2.1687223},"MapView":{"TopLeft":{"Latitude":52.60409,"Longitude":-2.18447},"BottomRight":{"Latitude":52.59259,"Longitude":-2.16015}},"Address":{"Label":"Tettenhall, Wolverhampton, England, United Kingdom","Country":"GBR","State":"England","County":"West Midlands","City":"Wolverhampton","District":"Tettenhall","PostalCode":"WV6 8","AdditionalData":[{"value":"United Kingdom","key":"CountryName"},{"value":"England","key":"StateName"},{"value":"West Midlands","key":"CountyName"}]},"MapReference":{"ReferenceId":"946227886","SideOfStreet":"neither","StateId":"20248595","CountyId":"20358328","CityId":"20358584","DistrictId":"20358632"}}},{"Relevance":1.0,"Distance":5.7,"MatchLevel":"houseNumber","MatchQuality":{"Country":1.0,"State":1.0,"County":1.0,"City":1.0,"District":1.0,"Street":[1.0],"HouseNumber":1.0,"PostalCode":1.0},"MatchType":"interpolated","Location":{"LocationId":"NT_GMYxqtxbR7l7-SDxxnBtcC_l_26362816_R_1A","LocationType":"point","DisplayPosition":{"Latitude":52.5982622,"Longitude":-2.1686943},"MapView":{"TopLeft":{"Latitude":52.5993864,"Longitude":-2.170545},"BottomRight":{"Latitude":52.5971381,"Longitude":-2.1668435}},"Address":{"Label":"5 Upper Green, Wolverhampton, WV6 8QQ, United Kingdom","Country":"GBR","State":"England","County":"West Midlands","City":"Wolverhampton","District":"Tettenhall","Street":"Upper Green","HouseNumber":"5","PostalCode":"WV6 8QQ","AdditionalData":[{"value":"United Kingdom","key":"CountryName"},{"value":"England","key":"StateName"},{"value":"West Midlands","key":"CountyName"}]},"MapReference":{"ReferenceId":"26362816","Spot":0.46,"SideOfStreet":"right","StateId":"20248595","CountyId":"20358328","CityId":"20358584","DistrictId":"20358632"}}},{"Relevance":1.0,"Distance":14.7,"MatchLevel":"postalCode","MatchQuality":{"PostalCode":1.0},"MatchType":"interpolated","Location":{"LocationId":"NT_GMYxqtxbR7l7-SDxxnBtcC_l_26362816_R_1A","LocationType":"point","DisplayPosition":{"Latitude":52.59816,"Longitude":-2.16894},"MapView":{"TopLeft":{"Latitude":52.6071532,"Longitude":-2.1837461},"BottomRight":{"Latitude":52.5891668,"Longitude":-2.1541339}},"Address":{"Label":"WV6 8QQ, Wolverhampton, England, United Kingdom","Country":"GBR","State":"England","County":"West Midlands","City":"Wolverhampton","PostalCode":"WV6 8QQ","AdditionalData":[{"value":"United Kingdom","key":"CountryName"},{"value":"England","key":"StateName"},{"value":"West Midlands","key":"CountyName"}]},"MapReference":{"ReferenceId":"26362816","Spot":0.46,"SideOfStreet":"neither","StateId":"20248595","CountyId":"20358328","CityId":"20358584"}}},{"Relevance":1.0,"Distance":20.4,"MatchLevel":"street","MatchQuality":{"Country":1.0,"State":1.0,"County":1.0,"City":1.0,"District":1.0,"Street":[1.0],"PostalCode":1.0},"Location":{"LocationId":"NT_hO0jpW2qvPycyNTIKwCFyB_l_26362817_R","LocationType":"point","DisplayPosition":{"Latitude":52.5983436,"Longitude":-2.168812},"MapView":{"TopLeft":{"Latitude":52.59859,"Longitude":-2.16923},"BottomRight":{"Latitude":52.59813,"Longitude":-2.16833}},"Address":{"Label":"Limes Road, Wolverhampton, WV6 8, United Kingdom","Country":"GBR","State":"England","County":"West Midlands","City":"Wolverhampton","District":"Tettenhall","Street":"Limes Road","PostalCode":"WV6 8","AdditionalData":[{"value":"United Kingdom","key":"CountryName"},{"value":"England","key":"StateName"},{"value":"West Midlands","key":"CountyName"}]},"MapReference":{"ReferenceId":"26362817","Spot":0.46,"SideOfStreet":"right","StateId":"20248595","CountyId":"20358328","CityId":"20358584","DistrictId":"20358632"}}},{"Relevance":1.0,"Distance":33.4,"MatchLevel":"houseNumber","MatchQuality":{"Country":1.0,"State":1.0,"County":1.0,"City":1.0,"District":1.0,"Street":[1.0],"HouseNumber":1.0,"PostalCode":1.0},"MatchType":"interpolated","Location":{"LocationId":"NT_mZii64CpjeEgHFa9v4AfPC_l_577364488_L_xAD","LocationType":"point","DisplayPosition":{"Latitude":52.5980456,"Longitude":-2.1680407},"MapView":{"TopLeft":{"Latitude":52.5991698,"Longitude":-2.1698914},"BottomRight":{"Latitude":52.5969215,"Longitude":-2.1661899}},"Address":{"Label":"10 High Street, Wolverhampton, WV6 8QT, United Kingdom","Country":"GBR","State":"England","County":"West Midlands","City":"Wolverhampton","District":"Tettenhall","Street":"High Street","HouseNumber":"10","PostalCode":"WV6 8QT","AdditionalData":[{"value":"United Kingdom","key":"CountryName"},{"value":"England","key":"StateName"},{"value":"West Midlands","key":"CountyName"}]},"MapReference":{"ReferenceId":"577364488","Spot":0.71,"SideOfStreet":"left","StateId":"20248595","CountyId":"20358328","CityId":"20358584","DistrictId":"20358632"}}},{"Relevance":1.0,"Distance":33.5,"MatchLevel":"houseNumber","MatchQuality":{"Country":1.0,"State":1.0,"County":1.0,"City":1.0,"District":1.0,"Street":[1.0],"HouseNumber":1.0,"PostalCode":1.0},"MatchType":"interpolated","Location":{"LocationId":"NT_mZii64CpjeEgHFa9v4AfPC_l_577364489_L_4A","LocationType":"point","DisplayPosition":{"Latitude":52.59822,"Longitude":-2.16801},"MapView":{"TopLeft":{"Latitude":52.5993442,"Longitude":-2.1698608},"BottomRight":{"Latitude":52.5970959,"Longitude":-2.1661592}},"Address":{"Label":"8 High Street, Wolverhampton, WV6 8QT, United Kingdom","Country":"GBR","State":"England","County":"West Midlands","City":"Wolverhampton","District":"Tettenhall","Street":"High Street","HouseNumber":"8","PostalCode":"WV6 8QT","AdditionalData":[{"value":"United Kingdom","key":"CountryName"},{"value":"England","key":"StateName"},{"value":"West Midlands","key":"CountyName"}]},"MapReference":{"ReferenceId":"577364489","Spot":0.0,"SideOfStreet":"left","StateId":"20248595","CountyId":"20358328","CityId":"20358584","DistrictId":"20358632"}}},{"Relevance":1.0,"Distance":35.2,"MatchLevel":"street","MatchQuality":{"Country":1.0,"State":1.0,"County":1.0,"City":1.0,"District":1.0,"Street":[1.0],"PostalCode":1.0},"Location":{"LocationId":"NT_RF2jaMbRSxGH9KzuNHToSD_l_577364485_R","LocationType":"point","DisplayPosition":{"Latitude":52.5979,"Longitude":-2.169},"MapView":{"TopLeft":{"Latitude":52.59813,"Longitude":-2.16923},"BottomRight":{"Latitude":52.5979,"Longitude":-2.169}},"Address":{"Label":"Limes Court, Wolverhampton, WV6 8, United Kingdom","Country":"GBR","State":"England","County":"West Midlands","City":"Wolverhampton","District":"Tettenhall","Street":"Limes Court","PostalCode":"WV6 8","AdditionalData":[{"value":"United Kingdom","key":"CountryName"},{"value":"England","key":"StateName"},{"value":"West Midlands","key":"CountyName"}]},"MapReference":{"ReferenceId":"577364485","Spot":0.0,"SideOfStreet":"right","StateId":"20248595","CountyId":"20358328","CityId":"20358584","DistrictId":"20358632"}}},{"Relevance":1.0,"Distance":40.0,"MatchLevel":"postalCode","MatchQuality":{"PostalCode":1.0},"Location":{"LocationId":"NT_RF2jaMbRSxGH9KzuNHToSD_l_577364485_R","LocationType":"point","DisplayPosition":{"Latitude":52.59785,"Longitude":-2.169},"MapView":{"TopLeft":{"Latitude":52.6068432,"Longitude":-2.1838059},"BottomRight":{"Latitude":52.5888568,"Longitude":-2.1541941}},"Address":{"Label":"WV6 8RZ, Wolverhampton, England, United Kingdom","Country":"GBR","State":"England","County":"West Midlands","City":"Wolverhampton","PostalCode":"WV6 8RZ","AdditionalData":[{"value":"United Kingdom","key":"CountryName"},{"value":"England","key":"StateName"},{"value":"West Midlands","key":"CountyName"}]},"MapReference":{"ReferenceId":"577364485","Spot":0.0,"SideOfStreet":"neither","StateId":"20248595","CountyId":"20358328","CityId":"20358584"}}},{"Relevance":1.0,"Distance":48.5,"MatchLevel":"street","MatchQuality":{"Country":1.0,"State":1.0,"County":1.0,"City":1.0,"District":1.0,"Street":[1.0],"PostalCode":1.0},"Location":{"LocationId":"NT_bmrLcINdadEei1G0vNk5-C_l_577364490_L","LocationType":"point","DisplayPosition":{"Latitude":52.59822,"Longitude":-2.16801},"MapView":{"TopLeft":{"Latitude":52.59822,"Longitude":-2.16801},"BottomRight":{"Latitude":52.59818,"Longitude":-2.16745}},"Address":{"Label":"Tettenhall Arcade, Wolverhampton, WV6 8, United Kingdom","Country":"GBR","State":"England","County":"West Midlands","City":"Wolverhampton","District":"Tettenhall","Street":"Tettenhall Arcade","PostalCode":"WV6 8","AdditionalData":[{"value":"United Kingdom","key":"CountryName"},{"value":"England","key":"StateName"},{"value":"West Midlands","key":"CountyName"}]},"MapReference":{"ReferenceId":"577364490","Spot":1.0,"SideOfStreet":"left","StateId":"20248595","CountyId":"20358328","CityId":"20358584","DistrictId":"20358632"}}},{"Relevance":1.0,"Distance":52.9,"MatchLevel":"postalCode","MatchQuality":{"PostalCode":1.0},"MatchType":"interpolated","Location":{"LocationId":"NT_mZii64CpjeEgHFa9v4AfPC_l_577364488_L_xAD","LocationType":"point","DisplayPosition":{"Latitude":52.59797,"Longitude":-2.16801},"MapView":{"TopLeft":{"Latitude":52.6069632,"Longitude":-2.182816},"BottomRight":{"Latitude":52.5889768,"Longitude":-2.153204}},"Address":{"Label":"WV6 8QS, Wolverhampton, England, United Kingdom","Country":"GBR","State":"England","County":"West Midlands","City":"Wolverhampton","PostalCode":"WV6 8QS","AdditionalData":[{"value":"United Kingdom","key":"CountryName"},{"value":"England","key":"StateName"},{"value":"West Midlands","key":"CountyName"}]},"MapReference":{"ReferenceId":"577364488","Spot":0.71,"SideOfStreet":"neither","StateId":"20248595","CountyId":"20358328","CityId":"20358584"}}}]}]}}