{"Response":{"MetaInfo":{"Timestamp":"2020-03-28T11:58:35.592+0000","NextPageInformation":"2"},"View":[{"_type":"SearchResultsViewType","ViewId":0,"Result":[{"Relevance":1.0,"Distance":0.0,"Direction":0.0,"MatchLevel":"district","MatchQuality":{"Country":1.0,"State":1.0,"County":1.0,"City":1.0,"District":1.0,"PostalCode":1.0},"Location":{"LocationId":"NT_A4q-UYJnbny.BqkJZxdt2B","LocationType":"point","DisplayPosition":{"Latitude":52.5267161,"Longitude":-1.8366951},"MapView":{"TopLeft":{"Latitude":52.53051,"Longitude":-1.86318},"BottomRight":{"Latitude":52.49949,"Longitude":-1.81235}},"Address":{"Label":"Erdington, Birmingham, England, United Kingdom","Country":"GBR","State":"England","County":"West Midlands","City":"Birmingham","District":"Erdington","PostalCode":"B23 6","AdditionalData":[{"value":"United Kingdom","key":"CountryName"},{"value":"England","key":"StateName"},{"value":"West Midlands","key":"CountyName"}]},"MapReference":{"ReferenceId":"26337240","SideOfStreet":"neither","StateId":"20248595","CountyId":"20358328","CityId":"20358334","DistrictId":"20358360"}}},{"Relevance":1.0,"Distance":10.4,"MatchLevel":"street","MatchQuality":{"Country":1.0,"State":1.0,"County":1.0,"City":1.0,"District":1.0,"Street":[1.0],"PostalCode":1.0},"Location":{"LocationId":"NT_PANG5lV--6c92PcOoNd56D_l_26336540_R","LocationType":"point","DisplayPosition":{"Latitude":52.5267892,"Longitude":-1.8367906},"MapView":{"TopLeft":{"Latitude":52.52679,"Longitude":-1.83705},"BottomRight":{"Latitude":52.52648,"Longitude":-1.83679}},"Address":{"Label":"Sutton New Road, Birmingham, B23 6, United Kingdom","Country":"GBR","State":"England","County":"West Midlands","City":"Birmingham","District":"Erdington","Street":"Sutton New Road","PostalCode":"B23 6","AdditionalData":[{"value":"United Kingdom","key":"CountryName"},{"value":"England","key":"StateName"},{"value":"West Midlands","key":"CountyName"}]},"MapReference":{"ReferenceId":"26336540","Spot":1.0,"SideOfStreet":"right","StateId":"20248595","CountyId":"20358328","CityId":"20358334","DistrictId":"20358360"}}},{"Relevance":1.0,"Distance":13.7,"MatchLevel":"houseNumber","MatchQuality":{"Country":1.0,"State":1.0,"County":1.0,"City":1.0,"District":1.0,"Street":[1.0],"HouseNumber":1.0,"PostalCode":1.0},"MatchType":"interpolated","Location":{"LocationId":"NT_58J8x-lMdeP900-DEpnOZA_l_26336581_R_zID","LocationType":"point","DisplayPosition":{"Latitude":52.5266211,"Longitude":-1.8368243},"MapView":{"TopLeft":{"Latitude":52.5277452,"Longitude":-1.8386721},"BottomRight":{"Latitude":52.5254969,"Longitude":-1.8349766}},"Address":{"Label":"32 High Street, Birmingham, B23 6, United Kingdom","Country":"GBR","State":"England","County":"West Midlands","City":"Birmingham","District":"Erdington","Street":"High Street","HouseNumber":"32","PostalCode":"B23 6","AdditionalData":[{"value":"United Kingdom","key":"CountryName"},{"value":"England","key":"StateName"},{"value":"West Midlands","key":"CountyName"}]},"MapReference":{"ReferenceId":"26336581","Spot":0.76,"SideOfStreet":"right","StateId":"20248595","CountyId":"20358328","CityId":"20358334","DistrictId":"20358360"}}},{"Relevance":1.0,"Distance":16.2,"MatchLevel":"postalCode","MatchQuality":{"PostalCode":1.0},"MatchType":"interpolated","Location":{"LocationId":"NT_58J8x-lMdeP900-DEpnOZA_l_26336581_R_zID","LocationType":"point","DisplayPosition":{"Latitude":52.52658,"Longitude":-1.83678},"MapView":{"TopLeft":{"Latitude":52.5355732,"Longitude":-1.8515619},"BottomRight":{"Latitude":52.5175868,"Longitude":-1.8219981}},"Address":{"Label":"B23 6RH, Birmingham, England, United Kingdom","Country":"GBR","State":"England","County":"West Midlands","City":"Birmingham","PostalCode":"B23 6RH","AdditionalData":[{"value":"United Kingdom","key":"CountryName"},{"value":"England","key":"StateName"},{"value":"West Midlands","key":"CountyName"}]},"MapReference":{"ReferenceId":"26336581","Spot":0.76,"SideOfStreet":"neither","StateId":"20248595","CountyId":"20358328","CityId":"20358334"}}},{"Relevance":1.0,"Distance":18.3,"MatchLevel":"postalCode","MatchQuality":{"PostalCode":1.0},"MatchType":"interpolated","Location":{"LocationId":"NT_58J8x-lMdeP900-DEpnOZA_l_26336516_R_yYD","LocationType":"point","DisplayPosition":{"Latitude":52.52688,"Longitude":-1.83668},"MapView":{"TopLeft":{"Latitude":52.5358732,"Longitude":-1.851462},"BottomRight":{"Latitude":52.5178868,"Longitude":-1.821898}},"Address":{"Label":"B23 6RN, Birmingham, England, United Kingdom","Country":"GBR","State":"England","County":"West Midlands","City":"Birmingham","PostalCode":"B23 6RN","AdditionalData":[{"value":"United Kingdom","key":"CountryName"},{"value":"England","key":"StateName"},{"value":"West Midlands","key":"CountyName"}]},"MapReference":{"ReferenceId":"26336516","Spot":0.48,"SideOfStreet":"neither","StateId":"20248595","CountyId":"20358328","CityId":"20358334"}}},{"Relevance":1.0,"Distance":19.3,"MatchLevel":"houseNumber","MatchQuality":{"Country":1.0,"State":1.0,"County":1.0,"City":1.0,"District":1.0,"Street":[1.0],"HouseNumber":1.0,"PostalCode":1.0},"MatchType":"interpolated","Location":{"LocationId":"NT_58J8x-lMdeP900-DEpnOZA_l_26336516_R_yYD","LocationType":"point","DisplayPosition":{"Latitude":52.5269772,"Longitude":-1.8366758},"MapView":{"TopLeft":{"Latitude":52.5281014,"Longitude":-1.8385236},"BottomRight":{"Latitude":52.5258531,"Longitude":-1.834828}},"Address":{"Label":"26 High Street, Birmingham, B23 6RN, United Kingdom","Country":"GBR","State":"England","County":"West Midlands","City":"Birmingham","District":"Erdington","Street":"High Street","HouseNumber":"26","PostalCode":"B23 6RN","AdditionalData":[{"value":"United Kingdom","key":"CountryName"},{"value":"England","key":"StateName"},{"value":"West Midlands","key":"CountyName"}]},"MapReference":{"ReferenceId":"26336516","Spot":0.48,"SideOfStreet":"right","StateId":"20248595","CountyId":"20358328","CityId":"20358334","DistrictId":"20358360"}}},{"Relevance":1.0,"Distance":35.6,"MatchLevel":"street","MatchQuality":{"Country":1.0,"State":1.0,"County":1.0,"City":1.0,"District":1.0,"Street":[1.0],"PostalCode":1.0},"Location":{"LocationId":"NT_twRzC1FK830PNCDw0L0R6A_l_26336570_R","LocationType":"point","DisplayPosition":{"Latitude":52.52648,"Longitude":-1.83705},"MapView":{"TopLeft":{"Latitude":52.52648,"Longitude":-1.83733},"BottomRight":{"Latitude":52.52621,"Longitude":-1.83705}},"Address":{"Label":"Sutton New Road, Birmingham, B23 6, United Kingdom","Country":"GBR","State":"England","County":"West Midlands","City":"Birmingham","District":"Erdington","Street":"Sutton New Road","PostalCode":"B23 6","AdditionalData":[{"value":"United Kingdom","key":"CountryName"},{"value":"England","key":"StateName"},{"value":"West Midlands","key":"CountyName"}]},"MapReference":{"ReferenceId":"26336570","Spot":1.0,"SideOfStreet":"right","StateId":"20248595","CountyId":"20358328","CityId":"20358334","DistrictId":"20358360"}}},{"Relevance":1.0,"Distance":41.5,"MatchLevel":"houseNumber","MatchQuality":{"Country":1.0,"State":1.0,"County":1.0,"City":1.0,"District":1.0,"Street":[1.0],"HouseNumber":1.0,"PostalCode":1.0},"MatchType":"interpolated","Location":{"LocationId":"NT_MOrpfyuK-H1RZxe--QKIiB_l_759665269_L_xQD","LocationType":"point","DisplayPosition":{"Latitude":52.52722,"Longitude":-1.83674},"MapView":{"TopLeft":{"Latitude":52.5283442,"Longitude":-1.8385878},"BottomRight":{"Latitude":52.5260959,"Longitude":-1.8348923}},"Address":{"Label":"14 Station Road, Birmingham, B23 6UB, United Kingdom","Country":"GBR","State":"England","County":"West Midlands","City":"Birmingham","District":"Erdington","Street":"Station Road","HouseNumber":"14","PostalCode":"B23 6UB","AdditionalData":[{"value":"United Kingdom","key":"CountryName"},{"value":"England","key":"StateName"},{"value":"West Midlands","key":"CountyName"}]},"MapReference":{"ReferenceId":"759665269","Spot":0.37,"SideOfStreet":"left","StateId":"20248595","CountyId":"20358328","CityId":"20358334","DistrictId":"20358360"}}},{"Relevance":1.0,"Distance":42.2,"MatchLevel":"houseNumber","MatchQuality":{"Country":1.0,"State":1.0,"County":1.0,"City":1.0,"District":1.0,"Street":[1.0],"HouseNumber":1.0,"PostalCode":1.0},"MatchType":"interpolated","Location":{"LocationId":"NT_PANG5lV--6c92PcOoNd56D_l_26336559_L_yAjM","LocationType":"point","DisplayPosition":{"Latitude":52.52641,"Longitude":-1.8372519},"MapView":{"TopLeft":{"Latitude":52.5275342,"Longitude":-1.8390996},"BottomRight":{"Latitude":52.5252858,"Longitude":-1.8354042}},"Address":{"Label":"202 Sutton New Road, Birmingham, B23 6QU, United Kingdom","Country":"GBR","State":"England","County":"West Midlands","City":"Birmingham","District":"Erdington","Street":"Sutton New Road","HouseNumber":"202","PostalCode":"B23 6QU","AdditionalData":[{"value":"United Kingdom","key":"CountryName"},{"value":"England","key":"StateName"},{"value":"West Midlands","key":"CountyName"}]},"MapReference":{"ReferenceId":"26336559","Spot":0.53,"SideOfStreet":"left","StateId":"20248595","CountyId":"20358328","CityId":"20358334","DistrictId":"20358360"}}},{"Relevance":1.0,"Distance":49.3,"MatchLevel":"houseNumber","MatchQuality":{"Country":1.0,"State":1.0,"County":1.0,"City":1.0,"District":1.0,"Street":[1.0],"HouseNumber":1.0,"PostalCode":1.0},"MatchType":"interpolated","Location":{"LocationId":"NT_OpP7xCFw8rHE0.JOI1TDLD_l_26336593_L_xAD","LocationType":"point","DisplayPosition":{"Latitude":52.5262099,"Longitude":-1.8362501},"MapView":{"TopLeft":{"Latitude":52.5273341,"Longitude":-1.8380979},"BottomRight":{"Latitude":52.5250858,"Longitude":-1.8344024}},"Address":{"Label":"10 Orphanage Road, Birmingham, B24 9, United Kingdom","Country":"GBR","State":"England","County":"West Midlands","City":"Birmingham","District":"Erdington","Street":"Orphanage Road","HouseNumber":"10","PostalCode":"B24 9","AdditionalData":[{"value":"United Kingdom","key":"CountryName"},{"value":"England","key":"StateName"},{"value":"West Midlands","key":"CountyName"}]},"MapReference":{"ReferenceId":"26336593","Spot":0.35,"SideOfStreet":"left","StateId":"20248595","CountyId":"20358328","CityId":"20358334","DistrictId":"20358360"}}}]}]}}