{"Response":{"MetaInfo":{"Timestamp":"2020-03-28T10:40:37.185+0000","NextPageInformation":"2"},"View":[{"_type":"SearchResultsViewType","ViewId":0,"Result":[{"Relevance":1.0,"Distance":0.0,"Direction":0.0,"MatchLevel":"district","MatchQuality":{"Country":1.0,"State":1.0,"County":1.0,"City":1.0,"District":1.0,"PostalCode":1.0},"Location":{"LocationId":"NT_vMF3fSn8Y5k5Ykmnrovn5D","LocationType":"point","DisplayPosition":{"Latitude":52.550722,"Longitude":-2.023838},"MapView":{"TopLeft":{"Latitude":52.57263,"Longitude":-2.04815},"BottomRight":{"Latitude":52.54301,"Longitude":-1.98888}},"Address":{"Label":"Wednesbury, England, United Kingdom","Country":"GBR","State":"England","County":"West Midlands","City":"Wednesbury","District":"Wednesbury","PostalCode":"WS10 7","AdditionalData":[{"value":"United Kingdom","key":"CountryName"},{"value":"England","key":"StateName"},{"value":"West Midlands","key":"CountyName"}]},"MapReference":{"ReferenceId":"26378063","SideOfStreet":"neither","StateId":"20248595","CountyId":"20358328","CityId":"20358570","DistrictId":"20358571"}}},{"Relevance":1.0,"Distance":16.0,"MatchLevel":"street","MatchQuality":{"Country":1.0,"State":1.0,"County":1.0,"City":1.0,"District":1.0,"Street":[1.0],"PostalCode":1.0},"Location":{"LocationId":"NT_R4vh4v8pLzFzoQ2WChRHHC_l_26372678_L","LocationType":"point","DisplayPosition":{"Latitude":52.5508607,"Longitude":-2.0237777},"MapView":{"TopLeft":{"Latitude":52.55094,"Longitude":-2.02396},"BottomRight":{"Latitude":52.54947,"Longitude":-2.02058}},"Address":{"Label":"Albert Street, Wednesbury, WS10 7, United Kingdom","Country":"GBR","State":"England","County":"West Midlands","City":"Wednesbury","District":"Wednesbury","Street":"Albert Street","PostalCode":"WS10 7","AdditionalData":[{"value":"United Kingdom","key":"CountryName"},{"value":"England","key":"StateName"},{"value":"West Midlands","key":"CountyName"}]},"MapReference":{"ReferenceId":"26372678","Spot":0.95,"SideOfStreet":"left","StateId":"20248595","CountyId":"20358328","CityId":"20358570","DistrictId":"20358571"}}},{"Relevance":1.0,"Distance":23.9,"MatchLevel":"street","MatchQuality":{"Country":1.0,"State":1.0,"County":1.0,"City":1.0,"District":1.0,"Street":[1.0],"PostalCode":1.0},"Location":{"LocationId":"NT_EdiaDm8Ak5AZpwtUVpEVCB_l_26372576_R","LocationType":"point","DisplayPosition":{"Latitude":52.5509155,"Longitude":-2.023991},"MapView":{"TopLeft":{"Latitude":52.55094,"Longitude":-2.02458},"BottomRight":{"Latitude":52.55045,"Longitude":-2.02396}},"Address":{"Label":"Victoria Street, Wednesbury, WS10 7, United Kingdom","Country":"GBR","State":"England","County":"West Midlands","City":"Wednesbury","District":"Wednesbury","Street":"Victoria Street","PostalCode":"WS10 7","AdditionalData":[{"value":"United Kingdom","key":"CountryName"},{"value":"England","key":"StateName"},{"value":"West Midlands","key":"CountyName"}]},"MapReference":{"ReferenceId":"26372576","Spot":0.95,"SideOfStreet":"right","StateId":"20248595","CountyId":"20358328","CityId":"20358570","DistrictId":"20358571"}}},{"Relevance":1.0,"Distance":24.9,"MatchLevel":"postalCode","MatchQuality":{"PostalCode":1.0},"Location":{"LocationId":"NT_EdiaDm8Ak5AZpwtUVpEVCB_l_26372576_R","LocationType":"point","DisplayPosition":{"Latitude":52.55068,"Longitude":-2.0242},"MapView":{"TopLeft":{"Latitude":52.5596732,"Longitude":-2.03899},"BottomRight":{"Latitude":52.5416868,"Longitude":-2.00941}},"Address":{"Label":"WS10 7EH, Wednesbury, England, United Kingdom","Country":"GBR","State":"England","County":"West Midlands","City":"Wednesbury","PostalCode":"WS10 7EH","AdditionalData":[{"value":"United Kingdom","key":"CountryName"},{"value":"England","key":"StateName"},{"value":"West Midlands","key":"CountyName"}]},"MapReference":{"ReferenceId":"26372576","Spot":0.95,"SideOfStreet":"neither","StateId":"20248595","CountyId":"20358328","CityId":"20358570"}}},{"Relevance":1.0,"Distance":25.6,"MatchLevel":"street","MatchQuality":{"Country":1.0,"State":1.0,"County":1.0,"City":1.0,"District":1.0,"Street":[1.0],"PostalCode":1.0},"Location":{"LocationId":"NT_EdiaDm8Ak5AZpwtUVpEVCB_l_26372524_R","LocationType":"point","DisplayPosition":{"Latitude":52.55094,"Longitude":-2.02396},"MapView":{"TopLeft":{"Latitude":52.55136,"Longitude":-2.02396},"BottomRight":{"Latitude":52.55094,"Longitude":-2.02345}},"Address":{"Label":"Victoria Street, Wednesbury, WS10 7, United Kingdom","Country":"GBR","State":"England","County":"West Midlands","City":"Wednesbury","District":"Wednesbury","Street":"Victoria Street","PostalCode":"WS10 7","AdditionalData":[{"value":"United Kingdom","key":"CountryName"},{"value":"England","key":"StateName"},{"value":"West Midlands","key":"CountyName"}]},"MapReference":{"ReferenceId":"26372524","Spot":0.0,"SideOfStreet":"right","StateId":"20248595","CountyId":"20358328","CityId":"20358570","DistrictId":"20358571"}}},{"Relevance":1.0,"Distance":25.6,"MatchLevel":"street","MatchQuality":{"Country":1.0,"State":1.0,"County":1.0,"City":1.0,"District":1.0,"Street":[1.0],"PostalCode":1.0},"Location":{"LocationId":"NT_R4vh4v8pLzFzoQ2WChRHHC_l_26372525_L","LocationType":"point","DisplayPosition":{"Latitude":52.55094,"Longitude":-2.02396},"MapView":{"TopLeft":{"Latitude":52.5514,"Longitude":-2.02489},"BottomRight":{"Latitude":52.55094,"Longitude":-2.02396}},"Address":{"Label":"Albert Street, Wednesbury, WS10 7, United Kingdom","Country":"GBR","State":"England","County":"West Midlands","City":"Wednesbury","District":"Wednesbury","Street":"Albert Street","PostalCode":"WS10 7","AdditionalData":[{"value":"United Kingdom","key":"CountryName"},{"value":"England","key":"StateName"},{"value":"West Midlands","key":"CountyName"}]},"MapReference":{"ReferenceId":"26372525","Spot":0.0,"SideOfStreet":"left","StateId":"20248595","CountyId":"20358328","CityId":"20358570","DistrictId":"20358571"}}},{"Relevance":1.0,"Distance":58.4,"MatchLevel":"houseNumber","MatchQuality":{"Country":1.0,"State":1.0,"County":1.0,"City":1.0,"District":1.0,"Street":[1.0],"HouseNumber":1.0,"PostalCode":1.0},"MatchType":"interpolated","Location":{"LocationId":"NT_qcdLKmvOkOiD9qA49oGymD_l_26372574_L_1MD","LocationType":"point","DisplayPosition":{"Latitude":52.5512349,"Longitude":-2.0231901},"MapView":{"TopLeft":{"Latitude":52.5523591,"Longitude":-2.0250389},"BottomRight":{"Latitude":52.5501108,"Longitude":-2.0213413}},"Address":{"Label":"53 Holyhead Road, Wednesbury, WS10 7, United Kingdom","Country":"GBR","State":"England","County":"West Midlands","City":"Wednesbury","District":"Wednesbury","Street":"Holyhead Road","HouseNumber":"53","PostalCode":"WS10 7","AdditionalData":[{"value":"United Kingdom","key":"CountryName"},{"value":"England","key":"StateName"},{"value":"West Midlands","key":"CountyName"}]},"MapReference":{"ReferenceId":"26372574","Spot":0.85,"SideOfStreet":"left","StateId":"20248595","CountyId":"20358328","CityId":"20358570","DistrictId":"20358571"}}},{"Relevance":1.0,"Distance":58.6,"MatchLevel":"street","MatchQuality":{"Country":1.0,"State":1.0,"County":1.0,"City":1.0,"District":1.0,"Street":[1.0],"PostalCode":1.0},"Location":{"LocationId":"NT_DHJ1.Fcx8Ip7MiYe.dEDSD_l_26372577_R","LocationType":"point","DisplayPosition":{"Latitude":52.55045,"Longitude":-2.02458},"MapView":{"TopLeft":{"Latitude":52.55114,"Longitude":-2.02618},"BottomRight":{"Latitude":52.55045,"Longitude":-2.02458}},"Address":{"Label":"Stafford Street, Wednesbury, WS10 7, United Kingdom","Country":"GBR","State":"England","County":"West Midlands","City":"Wednesbury","District":"Wednesbury","Street":"Stafford Street","PostalCode":"WS10 7","AdditionalData":[{"value":"United Kingdom","key":"CountryName"},{"value":"England","key":"StateName"},{"value":"West Midlands","key":"CountyName"}]},"MapReference":{"ReferenceId":"26372577","Spot":0.0,"SideOfStreet":"right","StateId":"20248595","CountyId":"20358328","CityId":"20358570","DistrictId":"20358571"}}},{"Relevance":1.0,"Distance":58.6,"MatchLevel":"street","MatchQuality":{"Country":1.0,"State":1.0,"County":1.0,"City":1.0,"District":1.0,"Street":[1.0],"PostalCode":1.0},"Location":{"LocationId":"NT_EdiaDm8Ak5AZpwtUVpEVCB_l_26372643_R","LocationType":"point","DisplayPosition":{"Latitude":52.55045,"Longitude":-2.02458},"MapView":{"TopLeft":{"Latitude":52.55045,"Longitude":-2.02536},"BottomRight":{"Latitude":52.54984,"Longitude":-2.02458}},"Address":{"Label":"Victoria Street, Wednesbury, WS10 7, United Kingdom","Country":"GBR","State":"England","County":"West Midlands","City":"Wednesbury","District":"Wednesbury","Street":"Victoria Street","PostalCode":"WS10 7","AdditionalData":[{"value":"United Kingdom","key":"CountryName"},{"value":"England","key":"StateName"},{"value":"West Midlands","key":"CountyName"}]},"MapReference":{"ReferenceId":"26372643","Spot":1.0,"SideOfStreet":"right","StateId":"20248595","CountyId":"20358328","CityId":"20358570","DistrictId":"20358571"}}},{"Relevance":1.0,"Distance":65.7,"MatchLevel":"houseNumber","MatchQuality":{"Country":1.0,"State":1.0,"County":1.0,"City":1.0,"District":1.0,"Street":[1.0],"HouseNumber":1.0,"PostalCode":1.0},"MatchType":"interpolated","Location":{"LocationId":"NT_XD0KajNTDTUpa-KYwBAPwD_l_26372492_L_1cD","LocationType":"point","DisplayPosition":{"Latitude":52.5514315,"Longitude":-2.0235929},"MapView":{"TopLeft":{"Latitude":52.5525556,"Longitude":-2.0254417},"BottomRight":{"Latitude":52.5503073,"Longitude":-2.0217441}},"Address":{"Label":"57 Holyhead Road, Wednesbury, WS10 7DF, United Kingdom","Country":"GBR","State":"England","County":"West Midlands","City":"Wednesbury","District":"Wednesbury","Street":"Holyhead Road","HouseNumber":"57","PostalCode":"WS10 7DF","AdditionalData":[{"value":"United Kingdom","key":"CountryName"},{"value":"England","key":"StateName"},{"value":"West Midlands","key":"CountyName"}]},"MapReference":{"ReferenceId":"26372492","Spot":0.51,"SideOfStreet":"left","StateId":"20248595","CountyId":"20358328","CityId":"20358570","DistrictId":"20358571"}}}]}]}}