{"Response":{"MetaInfo":{"Timestamp":"2020-03-28T10:31:50.489+0000","NextPageInformation":"2"},"View":[{"_type":"SearchResultsViewType","ViewId":0,"Result":[{"Relevance":1.0,"Distance":0.0,"Direction":0.0,"MatchLevel":"district","MatchQuality":{"Country":1.0,"State":1.0,"County":1.0,"City":1.0,"District":1.0,"PostalCode":1.0},"Location":{"LocationId":"NT_-EcUBExykyQcf8W22JKY2D","LocationType":"point","DisplayPosition":{"Latitude":52.5781255,"Longitude":-1.8053265},"MapView":{"TopLeft":{"Latitude":52.62371,"Longitude":-1.90611},"BottomRight":{"Latitude":52.52669,"Longitude":-1.74582}},"Address":{"Label":"Sutton Coldfield, England, United Kingdom","Country":"GBR","State":"England","County":"West Midlands","City":"Sutton Coldfield","District":"Sutton Coldfield","PostalCode":"B76 1","AdditionalData":[{"value":"United Kingdom","key":"CountryName"},{"value":"England","key":"StateName"},{"value":"West Midlands","key":"CountyName"}]},"MapReference":{"ReferenceId":"26333780","SideOfStreet":"neither","StateId":"20248595","CountyId":"20358328","CityId":"20358533","DistrictId":"20358534"}}},{"Relevance":1.0,"Distance":21.2,"MatchLevel":"houseNumber","MatchQuality":{"Country":1.0,"State":1.0,"County":1.0,"City":1.0,"District":1.0,"Street":[1.0],"HouseNumber":1.0,"PostalCode":1.0},"MatchType":"interpolated","Location":{"LocationId":"NT_8Q-Bd42-5HBoiwSPheWwEC_l_1219354300_R_yIzN","LocationType":"point","DisplayPosition":{"Latitude":52.57837,"Longitude":-1.8051199},"MapView":{"TopLeft":{"Latitude":52.5794942,"Longitude":-1.8069699},"BottomRight":{"Latitude":52.5772459,"Longitude":-1.80327}},"Address":{"Label":"227 Tamworth Road, Sutton Coldfield, B75 6DX, United Kingdom","Country":"GBR","State":"England","County":"West Midlands","City":"Sutton Coldfield","District":"Sutton Coldfield","Street":"Tamworth Road","HouseNumber":"227","PostalCode":"B75 6DX","AdditionalData":[{"value":"United Kingdom","key":"CountryName"},{"value":"England","key":"StateName"},{"value":"West Midlands","key":"CountyName"}]},"MapReference":{"ReferenceId":"1219354300","Spot":0.29,"SideOfStreet":"right","StateId":"20248595","CountyId":"20358328","CityId":"20358533","DistrictId":"20358534"}}},{"Relevance":1.0,"Distance":23.2,"MatchLevel":"houseNumber","MatchQuality":{"Country":1.0,"State":1.0,"County":1.0,"City":1.0,"District":1.0,"Street":[1.0],"HouseNumber":1.0,"PostalCode":1.0},"MatchType":"interpolated","Location":{"LocationId":"NT_8Q-Bd42-5HBoiwSPheWwEC_l_1219354299_R_yITN","LocationType":"point","DisplayPosition":{"Latitude":52.5781565,"Longitude":-1.8056909},"MapView":{"TopLeft":{"Latitude":52.5792807,"Longitude":-1.8075408},"BottomRight":{"Latitude":52.5770324,"Longitude":-1.8038409}},"Address":{"Label":"225 Tamworth Road, Sutton Coldfield, B75 6DX, United Kingdom","Country":"GBR","State":"England","County":"West Midlands","City":"Sutton Coldfield","District":"Sutton Coldfield","Street":"Tamworth Road","HouseNumber":"225","PostalCode":"B75 6DX","AdditionalData":[{"value":"United Kingdom","key":"CountryName"},{"value":"England","key":"StateName"},{"value":"West Midlands","key":"CountyName"}]},"MapReference":{"ReferenceId":"1219354299","Spot":0.9,"SideOfStreet":"right","StateId":"20248595","CountyId":"20358328","CityId":"20358533","DistrictId":"20358534"}}},{"Relevance":1.0,"Distance":51.2,"MatchLevel":"street","MatchQuality":{"Country":1.0,"State":1.0,"County":1.0,"City":1.0,"District":1.0,"Street":[1.0],"PostalCode":1.0},"Location":{"LocationId":"NT_zFm27Ur-HYxfUvreU8-2sA_l_26440121_L","LocationType":"point","DisplayPosition":{"Latitude":52.5785837,"Longitude":-1.8052488},"MapView":{"TopLeft":{"Latitude":52.58127,"Longitude":-1.80704},"BottomRight":{"Latitude":52.5785,"Longitude":-1.80495}},"Address":{"Label":"Moor Hall Drive, Sutton Coldfield, B75 6, United Kingdom","Country":"GBR","State":"England","County":"West Midlands","City":"Sutton Coldfield","District":"Sutton Coldfield","Street":"Moor Hall Drive","PostalCode":"B75 6","AdditionalData":[{"value":"United Kingdom","key":"CountryName"},{"value":"England","key":"StateName"},{"value":"West Midlands","key":"CountyName"}]},"MapReference":{"ReferenceId":"26440121","Spot":0.07,"SideOfStreet":"left","StateId":"20248595","CountyId":"20358328","CityId":"20358533","DistrictId":"20358534"}}},{"Relevance":1.0,"Distance":64.1,"MatchLevel":"houseNumber","MatchQuality":{"Country":1.0,"State":1.0,"County":1.0,"City":1.0,"District":1.0,"Street":[1.0],"HouseNumber":1.0,"PostalCode":1.0},"MatchType":"interpolated","Location":{"LocationId":"NT_ooqhOVW7TtQp3UWJp2KanD_l_26332644_L_2A","LocationType":"point","DisplayPosition":{"Latitude":52.5774971,"Longitude":-1.8047964},"MapView":{"TopLeft":{"Latitude":52.5786212,"Longitude":-1.8066462},"BottomRight":{"Latitude":52.5763729,"Longitude":-1.8029465}},"Address":{"Label":"6 Ashfurlong Crescent, Sutton Coldfield, B75 6EP, United Kingdom","Country":"GBR","State":"England","County":"West Midlands","City":"Sutton Coldfield","District":"Sutton Coldfield","Street":"Ashfurlong Crescent","HouseNumber":"6","PostalCode":"B75 6EP","AdditionalData":[{"value":"United Kingdom","key":"CountryName"},{"value":"England","key":"StateName"},{"value":"West Midlands","key":"CountyName"}]},"MapReference":{"ReferenceId":"26332644","Spot":0.71,"SideOfStreet":"left","StateId":"20248595","CountyId":"20358328","CityId":"20358533","DistrictId":"20358534"}}},{"Relevance":1.0,"Distance":64.3,"MatchLevel":"street","MatchQuality":{"Country":1.0,"State":1.0,"County":1.0,"City":1.0,"District":1.0,"Street":[1.0],"PostalCode":1.0},"Location":{"LocationId":"NT_kLtfupjWvx.R9q7mtzjIBB_l_1187020950_L","LocationType":"point","DisplayPosition":{"Latitude":52.57852,"Longitude":-1.80463},"MapView":{"TopLeft":{"Latitude":52.57852,"Longitude":-1.80463},"BottomRight":{"Latitude":52.5781,"Longitude":-1.80431}},"Address":{"Label":"Whitehouse Common Road, Sutton Coldfield, B75 6, United Kingdom","Country":"GBR","State":"England","County":"West Midlands","City":"Sutton Coldfield","District":"Sutton Coldfield","Street":"Whitehouse Common Road","PostalCode":"B75 6","AdditionalData":[{"value":"United Kingdom","key":"CountryName"},{"value":"England","key":"StateName"},{"value":"West Midlands","key":"CountyName"}]},"MapReference":{"ReferenceId":"1187020950","Spot":1.0,"SideOfStreet":"left","StateId":"20248595","CountyId":"20358328","CityId":"20358533","DistrictId":"20358534"}}},{"Relevance":1.0,"Distance":64.3,"MatchLevel":"street","MatchQuality":{"Country":1.0,"State":1.0,"County":1.0,"City":1.0,"District":1.0,"Street":[1.0],"PostalCode":1.0},"Location":{"LocationId":"NT_5hxR.yHz1UvAhUfN6k7iHC_l_1219355046_R","LocationType":"point","DisplayPosition":{"Latitude":52.57852,"Longitude":-1.80463},"MapView":{"TopLeft":{"Latitude":52.57881,"Longitude":-1.80463},"BottomRight":{"Latitude":52.57852,"Longitude":-1.80375}},"Address":{"Label":"Tamworth Road, Sutton Coldfield, B75 6, United Kingdom","Country":"GBR","State":"England","County":"West Midlands","City":"Sutton Coldfield","District":"Sutton Coldfield","Street":"Tamworth Road","PostalCode":"B75 6","AdditionalData":[{"value":"United Kingdom","key":"CountryName"},{"value":"England","key":"StateName"},{"value":"West Midlands","key":"CountyName"}]},"MapReference":{"ReferenceId":"1219355046","Spot":0.0,"SideOfStreet":"right","StateId":"20248595","CountyId":"20358328","CityId":"20358533","DistrictId":"20358534"}}},{"Relevance":1.0,"Distance":67.0,"MatchLevel":"postalCode","MatchQuality":{"PostalCode":1.0},"Location":{"LocationId":"NT_kLtfupjWvx.R9q7mtzjIBB_l_1187020950_L","LocationType":"point","DisplayPosition":{"Latitude":52.57826,"Longitude":-1.80436},"MapView":{"TopLeft":{"Latitude":52.5872532,"Longitude":-1.8191593},"BottomRight":{"Latitude":52.5692668,"Longitude":-1.7895607}},"Address":{"Label":"B75 6EH, Sutton Coldfield, England, United Kingdom","Country":"GBR","State":"England","County":"West Midlands","City":"Sutton Coldfield","PostalCode":"B75 6EH","AdditionalData":[{"value":"United Kingdom","key":"CountryName"},{"value":"England","key":"StateName"},{"value":"West Midlands","key":"CountyName"}]},"MapReference":{"ReferenceId":"1187020950","Spot":1.0,"SideOfStreet":"neither","StateId":"20248595","CountyId":"20358328","CityId":"20358533"}}},{"Relevance":1.0,"Distance":68.6,"MatchLevel":"postalCode","MatchQuality":{"PostalCode":1.0},"MatchType":"interpolated","Location":{"LocationId":"NT_kLtfupjWvx.R9q7mtzjIBB_l_26332608_L_yATO","LocationType":"point","DisplayPosition":{"Latitude":52.57792,"Longitude":-1.80437},"MapView":{"TopLeft":{"Latitude":52.5869132,"Longitude":-1.8191692},"BottomRight":{"Latitude":52.5689268,"Longitude":-1.7895708}},"Address":{"Label":"B75 6EL, Sutton Coldfield, England, United Kingdom","Country":"GBR","State":"England","County":"West Midlands","City":"Sutton Coldfield","PostalCode":"B75 6EL","AdditionalData":[{"value":"United Kingdom","key":"CountryName"},{"value":"England","key":"StateName"},{"value":"West Midlands","key":"CountyName"}]},"MapReference":{"ReferenceId":"26332608","Spot":0.48,"SideOfStreet":"neither","StateId":"20248595","CountyId":"20358328","CityId":"20358533"}}},{"Relevance":1.0,"Distance":68.7,"MatchLevel":"street","MatchQuality":{"Country":1.0,"State":1.0,"County":1.0,"City":1.0,"District":1.0,"Street":[1.0],"PostalCode":1.0},"Location":{"LocationId":"NT_kLtfupjWvx.R9q7mtzjIBB_l_1187020949_L","LocationType":"point","DisplayPosition":{"Latitude":52.5781,"Longitude":-1.80431},"MapView":{"TopLeft":{"Latitude":52.5781,"Longitude":-1.80431},"BottomRight":{"Latitude":52.57765,"Longitude":-1.80403}},"Address":{"Label":"Whitehouse Common Road, Sutton Coldfield, B75 6, United Kingdom","Country":"GBR","State":"England","County":"West Midlands","City":"Sutton Coldfield","District":"Sutton Coldfield","Street":"Whitehouse Common Road","PostalCode":"B75 6","AdditionalData":[{"value":"United Kingdom","key":"CountryName"},{"value":"England","key":"StateName"},{"value":"West Midlands","key":"CountyName"}]},"MapReference":{"ReferenceId":"1187020949","Spot":1.0,"SideOfStreet":"left","StateId":"20248595","CountyId":"20358328","CityId":"20358533","DistrictId":"20358534"}}}]}]}}