{"Response":{"MetaInfo":{"Timestamp":"2020-03-28T10:23:13.086+0000","NextPageInformation":"2"},"View":[{"_type":"SearchResultsViewType","ViewId":0,"Result":[{"Relevance":1.0,"Distance":0.0,"Direction":0.0,"MatchLevel":"district","MatchQuality":{"Country":1.0,"State":1.0,"County":1.0,"City":1.0,"District":1.0,"PostalCode":1.0},"Location":{"LocationId":"NT_HWmzvypBrGdKlROlR-gl5D","LocationType":"point","DisplayPosition":{"Latitude":52.5280144,"Longitude":13.4672373},"MapView":{"TopLeft":{"Latitude":52.54053,"Longitude":13.45584},"BottomRight":{"Latitude":52.52056,"Longitude":13.48556}},"Address":{"Label":"Fennpfuhl, Berlin, Deutschland","Country":"DEU","State":"Berlin","County":"Berlin","City":"Berlin","District":"Fennpfuhl","PostalCode":"10369","AdditionalData":[{"value":"Deutschland","key":"CountryName"},{"value":"Berlin","key":"StateName"},{"value":"Berlin","key":"CountyName"}]},"MapReference":{"ReferenceId":"53505147","SideOfStreet":"neither","CountryId":"20147700","StateId":"20187401","CountyId":"20187402","CityId":"20187403","DistrictId":"20487137"}}},{"Relevance":1.0,"Distance":6.9,"MatchLevel":"houseNumber","MatchQuality":{"Country":1.0,"State":1.0,"County":1.0,"City":1.0,"District":1.0,"Street":[1.0],"HouseNumber":1.0,"PostalCode":1.0},"MatchType":"interpolated","Location":{"LocationId":"NT_ZqvYbLRdgHIH0590y5e3wD_xAD","LocationType":"point","DisplayPosition":{"Latitude":52.52815,"Longitude":13.46675},"MapView":{"TopLeft":{"Latitude":52.5292742,"Longitude":13.4649022},"BottomRight":{"Latitude":52.5270258,"Longitude":13.4685978}},"Address":{"Label":"Franz-Jacob-Straße 10, 10369 Berlin, Deutschland","Country":"DEU","State":"Berlin","County":"Berlin","City":"Berlin","District":"Fennpfuhl","Street":"Franz-Jacob-Straße","HouseNumber":"10","PostalCode":"10369","AdditionalData":[{"value":"Deutschland","key":"CountryName"},{"value":"Berlin","key":"StateName"},{"value":"Berlin","key":"CountyName"}]},"MapReference":{"ReferenceId":"53505147","Spot":0.77,"SideOfStreet":"right","CountryId":"20147700","StateId":"20187401","CountyId":"20187402","CityId":"20187403","DistrictId":"20487137","AddressId":"169353032","RoadLinkId":"37923035"}}},{"Relevance":1.0,"Distance":39.5,"MatchLevel":"houseNumber","MatchQuality":{"Country":1.0,"State":1.0,"County":1.0,"City":1.0,"District":1.0,"Street":[1.0],"HouseNumber":1.0,"PostalCode":1.0},"MatchType":"interpolated","Location":{"LocationId":"NT_m2D8fT0BZ6cfdL-Hsh9KWD_2AD","LocationType":"point","DisplayPosition":{"Latitude":52.52835,"Longitude":13.46789},"MapView":{"TopLeft":{"Latitude":52.5294742,"Longitude":13.4660422},"BottomRight":{"Latitude":52.5272258,"Longitude":13.4697378}},"Address":{"Label":"Karl-Lade-Straße 60, 10369 Berlin, Deutschland","Country":"DEU","State":"Berlin","County":"Berlin","City":"Berlin","District":"Fennpfuhl","Street":"Karl-Lade-Straße","HouseNumber":"60","PostalCode":"10369","AdditionalData":[{"value":"Deutschland","key":"CountryName"},{"value":"Berlin","key":"StateName"},{"value":"Berlin","key":"CountyName"}]},"MapReference":{"ReferenceId":"925154639","Spot":0.43,"SideOfStreet":"left","CountryId":"20147700","StateId":"20187401","CountyId":"20187402","CityId":"20187403","DistrictId":"20487137","AddressId":"769568135","RoadLinkId":"280565290"}}},{"Relevance":1.0,"Distance":58.1,"MatchLevel":"street","MatchQuality":{"Country":1.0,"State":1.0,"County":1.0,"City":1.0,"District":1.0,"Street":[1.0],"PostalCode":1.0},"Location":{"LocationId":"NT_ZqvYbLRdgHIH0590y5e3wD_l_1085737183_R","LocationType":"point","DisplayPosition":{"Latitude":52.5285,"Longitude":13.46692},"MapView":{"TopLeft":{"Latitude":52.52858,"Longitude":13.46692},"BottomRight":{"Latitude":52.5285,"Longitude":13.46696}},"Address":{"Label":"Franz-Jacob-Straße, 10369 Berlin, Deutschland","Country":"DEU","State":"Berlin","County":"Berlin","City":"Berlin","District":"Fennpfuhl","Street":"Franz-Jacob-Straße","PostalCode":"10369","AdditionalData":[{"value":"Deutschland","key":"CountryName"},{"value":"Berlin","key":"StateName"},{"value":"Berlin","key":"CountyName"}]},"MapReference":{"ReferenceId":"1085737183","Spot":0.0,"SideOfStreet":"right","CountryId":"20147700","StateId":"20187401","CountyId":"20187402","CityId":"20187403","DistrictId":"20487137"}}},{"Relevance":1.0,"Distance":86.0,"MatchLevel":"street","MatchQuality":{"Country":1.0,"State":1.0,"County":1.0,"City":1.0,"District":1.0,"Street":[1.0],"PostalCode":1.0},"Location":{"LocationId":"NT_26YBcOc3lxNtqR5mkzNq4D_l_925154642_L","LocationType":"point","DisplayPosition":{"Latitude":52.5276481,"Longitude":13.4683565},"MapView":{"TopLeft":{"Latitude":52.52825,"Longitude":13.4682},"BottomRight":{"Latitude":52.52707,"Longitude":13.46863}},"Address":{"Label":"Rudolf-Seiffert-Straße, 10369 Berlin, Deutschland","Country":"DEU","State":"Berlin","County":"Berlin","City":"Berlin","District":"Fennpfuhl","Street":"Rudolf-Seiffert-Straße","PostalCode":"10369","AdditionalData":[{"value":"Deutschland","key":"CountryName"},{"value":"Berlin","key":"StateName"},{"value":"Berlin","key":"CountyName"}]},"MapReference":{"ReferenceId":"925154642","Spot":0.48,"SideOfStreet":"left","CountryId":"20147700","StateId":"20187401","CountyId":"20187402","CityId":"20187403","DistrictId":"20487137"}}},{"Relevance":1.0,"Distance":97.6,"MatchLevel":"houseNumber","MatchQuality":{"Country":1.0,"State":1.0,"County":1.0,"City":1.0,"District":1.0,"Street":[1.0],"HouseNumber":1.0,"PostalCode":1.0},"MatchType":"interpolated","Location":{"LocationId":"NT_ZqvYbLRdgHIH0590y5e3wD_xID","LocationType":"point","DisplayPosition":{"Latitude":52.52915,"Longitude":13.46783},"MapView":{"TopLeft":{"Latitude":52.5302742,"Longitude":13.4659822},"BottomRight":{"Latitude":52.5280258,"Longitude":13.4696778}},"Address":{"Label":"Franz-Jacob-Straße 12, 10369 Berlin, Deutschland","Country":"DEU","State":"Berlin","County":"Berlin","City":"Berlin","District":"Fennpfuhl","Street":"Franz-Jacob-Straße","HouseNumber":"12","PostalCode":"10369","AdditionalData":[{"value":"Deutschland","key":"CountryName"},{"value":"Berlin","key":"StateName"},{"value":"Berlin","key":"CountyName"}]},"MapReference":{"ReferenceId":"1085737188","Spot":0.35,"SideOfStreet":"right","CountryId":"20147700","StateId":"20187401","CountyId":"20187402","CityId":"20187403","DistrictId":"20487137","AddressId":"168793063","RoadLinkId":"401781508"}}},{"Relevance":1.0,"Distance":97.8,"MatchLevel":"street","MatchQuality":{"Country":1.0,"State":1.0,"County":1.0,"City":1.0,"District":1.0,"Street":[1.0],"PostalCode":1.0},"Location":{"LocationId":"NT_m2D8fT0BZ6cfdL-Hsh9KWD_l_925154638_L","LocationType":"point","DisplayPosition":{"Latitude":52.52825,"Longitude":13.46863},"MapView":{"TopLeft":{"Latitude":52.52825,"Longitude":13.46863},"BottomRight":{"Latitude":52.52806,"Longitude":13.46953}},"Address":{"Label":"Karl-Lade-Straße, 10369 Berlin, Deutschland","Country":"DEU","State":"Berlin","County":"Berlin","City":"Berlin","District":"Fennpfuhl","Street":"Karl-Lade-Straße","PostalCode":"10369","AdditionalData":[{"value":"Deutschland","key":"CountryName"},{"value":"Berlin","key":"StateName"},{"value":"Berlin","key":"CountyName"}]},"MapReference":{"ReferenceId":"925154638","Spot":1.0,"SideOfStreet":"left","CountryId":"20147700","StateId":"20187401","CountyId":"20187402","CityId":"20187403","DistrictId":"20487137"}}},{"Relevance":1.0,"Distance":98.5,"MatchLevel":"street","MatchQuality":{"Country":1.0,"State":1.0,"County":1.0,"City":1.0,"District":1.0,"PostalCode":1.0},"Location":{"LocationId":"NT_Va8-fmtosLqLJVYHTqK7RB_l_1252205521_R","LocationType":"point","DisplayPosition":{"Latitude":52.52787,"Longitude":13.4658},"MapView":{"TopLeft":{"Latitude":52.5281,"Longitude":13.46426},"BottomRight":{"Latitude":52.52755,"Longitude":13.4658}},"Address":{"Label":"10369 Berlin, Deutschland","Country":"DEU","State":"Berlin","County":"Berlin","City":"Berlin","District":"Fennpfuhl","PostalCode":"10369","AdditionalData":[{"value":"Deutschland","key":"CountryName"},{"value":"Berlin","key":"StateName"},{"value":"Berlin","key":"CountyName"}]},"MapReference":{"ReferenceId":"1252205521","Spot":0.59,"SideOfStreet":"right","CountryId":"20147700","StateId":"20187401","CountyId":"20187402","CityId":"20187403","DistrictId":"20487137"}}},{"Relevance":1.0,"Distance":108.5,"MatchLevel":"houseNumber","MatchQuality":{"Country":1.0,"State":1.0,"County":1.0,"City":1.0,"District":1.0,"Street":[1.0],"HouseNumber":1.0,"PostalCode":1.0},"MatchType":"interpolated","Location":{"LocationId":"NT_m2D8fT0BZ6cfdL-Hsh9KWD_0ID","LocationType":"point","DisplayPosition":{"Latitude":52.52865,"Longitude":13.46602},"MapView":{"TopLeft":{"Latitude":52.5297742,"Longitude":13.4641722},"BottomRight":{"Latitude":52.5275258,"Longitude":13.4678678}},"Address":{"Label":"Karl-Lade-Straße 42, 10369 Berlin, Deutschland","Country":"DEU","State":"Berlin","County":"Berlin","City":"Berlin","District":"Fennpfuhl","Street":"Karl-Lade-Straße","HouseNumber":"42","PostalCode":"10369","AdditionalData":[{"value":"Deutschland","key":"CountryName"},{"value":"Berlin","key":"StateName"},{"value":"Berlin","key":"CountyName"}]},"MapReference":{"ReferenceId":"53505085","Spot":0.3,"SideOfStreet":"left","CountryId":"20147700","StateId":"20187401","CountyId":"20187402","CityId":"20187403","DistrictId":"20487137","AddressId":"170109404","RoadLinkId":"38012417"}}},{"Relevance":1.0,"Distance":113.9,"MatchLevel":"houseNumber","MatchQuality":{"Country":1.0,"State":1.0,"County":1.0,"City":1.0,"District":1.0,"Street":[1.0],"HouseNumber":1.0,"PostalCode":1.0},"MatchType":"interpolated","Location":{"LocationId":"NT_26YBcOc3lxNtqR5mkzNq4D_3A","LocationType":"point","DisplayPosition":{"Latitude":52.52683,"Longitude":13.46811},"MapView":{"TopLeft":{"Latitude":52.5279542,"Longitude":13.4662623},"BottomRight":{"Latitude":52.5257058,"Longitude":13.4699577}},"Address":{"Label":"Rudolf-Seiffert-Straße 7, 10369 Berlin, Deutschland","Country":"DEU","State":"Berlin","County":"Berlin","City":"Berlin","District":"Fennpfuhl","Street":"Rudolf-Seiffert-Straße","HouseNumber":"7","PostalCode":"10369","AdditionalData":[{"value":"Deutschland","key":"CountryName"},{"value":"Berlin","key":"StateName"},{"value":"Berlin","key":"CountyName"}]},"MapReference":{"ReferenceId":"925157151","Spot":0.87,"SideOfStreet":"left","CountryId":"20147700","StateId":"20187401","CountyId":"20187402","CityId":"20187403","DistrictId":"20487137","AddressId":"208133569","RoadLinkId":"280567743"}}}]}]}}