{"Response":{"MetaInfo":{"Timestamp":"2020-03-28T10:21:20.403+0000","NextPageInformation":"2"},"View":[{"_type":"SearchResultsViewType","ViewId":0,"Result":[{"Relevance":1.0,"Distance":0.0,"Direction":0.0,"MatchLevel":"district","MatchQuality":{"Country":1.0,"State":1.0,"County":1.0,"City":1.0,"District":1.0,"PostalCode":1.0},"Location":{"LocationId":"NT_nkEFeYYceb2wxKN4lRYSVC","LocationType":"point","DisplayPosition":{"Latitude":52.5452156,"Longitude":13.5943014},"MapView":{"TopLeft":{"Latitude":52.54953,"Longitude":13.57408},"BottomRight":{"Latitude":52.5132,"Longitude":13.63681}},"Address":{"Label":"Hellersdorf, Berlin, Deutschland","Country":"DEU","State":"Berlin","County":"Berlin","City":"Berlin","District":"Hellersdorf","PostalCode":"12619","AdditionalData":[{"value":"Deutschland","key":"CountryName"},{"value":"Berlin","key":"StateName"},{"value":"Berlin","key":"CountyName"}]},"MapReference":{"ReferenceId":"1103596566","SideOfStreet":"neither","CountryId":"20147700","StateId":"20187401","CountyId":"20187402","CityId":"20187403","DistrictId":"20428240"}}},{"Relevance":1.0,"Distance":8.0,"MatchLevel":"houseNumber","MatchQuality":{"Country":1.0,"State":1.0,"County":1.0,"City":1.0,"District":1.0,"Street":[1.0],"HouseNumber":1.0,"PostalCode":1.0},"MatchType":"interpolated","Location":{"LocationId":"NT_zJfmyOTfbMiqZH95S-PUbD_yA","LocationType":"point","DisplayPosition":{"Latitude":52.5453,"Longitude":13.5939},"MapView":{"TopLeft":{"Latitude":52.5464242,"Longitude":13.5920515},"BottomRight":{"Latitude":52.5441758,"Longitude":13.5957485}},"Address":{"Label":"Klausdorfer Straße 2, 12629 Berlin, Deutschland","Country":"DEU","State":"Berlin","County":"Berlin","City":"Berlin","District":"Hellersdorf","Street":"Klausdorfer Straße","HouseNumber":"2","PostalCode":"12629","AdditionalData":[{"value":"Deutschland","key":"CountryName"},{"value":"Berlin","key":"StateName"},{"value":"Berlin","key":"CountyName"}]},"MapReference":{"ReferenceId":"1240047036","Spot":0.48,"SideOfStreet":"right","CountryId":"20147700","StateId":"20187401","CountyId":"20187402","CityId":"20187403","DistrictId":"20428240","AddressId":"169807046","RoadLinkId":"561100616"}}},{"Relevance":1.0,"Distance":30.7,"MatchLevel":"houseNumber","MatchQuality":{"Country":1.0,"State":1.0,"County":1.0,"City":1.0,"District":1.0,"Street":[1.0],"HouseNumber":1.0,"PostalCode":1.0},"MatchType":"interpolated","Location":{"LocationId":"NT_RR.HCpEODtqM564IFGD11B_xQTM","LocationType":"point","DisplayPosition":{"Latitude":52.54481,"Longitude":13.59428},"MapView":{"TopLeft":{"Latitude":52.5459342,"Longitude":13.5924315},"BottomRight":{"Latitude":52.5436858,"Longitude":13.5961285}},"Address":{"Label":"Zossener Straße 141, 12629 Berlin, Deutschland","Country":"DEU","State":"Berlin","County":"Berlin","City":"Berlin","District":"Hellersdorf","Street":"Zossener Straße","HouseNumber":"141","PostalCode":"12629","AdditionalData":[{"value":"Deutschland","key":"CountryName"},{"value":"Berlin","key":"StateName"},{"value":"Berlin","key":"CountyName"}]},"MapReference":{"ReferenceId":"53510428","Spot":0.81,"SideOfStreet":"right","CountryId":"20147700","StateId":"20187401","CountyId":"20187402","CityId":"20187403","DistrictId":"20428240","AddressId":"169021791","RoadLinkId":"37740812"}}},{"Relevance":1.0,"Distance":40.3,"MatchLevel":"street","MatchQuality":{"Country":1.0,"State":1.0,"County":1.0,"City":1.0,"District":1.0,"Street":[1.0],"PostalCode":1.0},"Location":{"LocationId":"NT_zJfmyOTfbMiqZH95S-PUbD_l_1240047035_R","LocationType":"point","DisplayPosition":{"Latitude":52.54503,"Longitude":13.59379},"MapView":{"TopLeft":{"Latitude":52.54503,"Longitude":13.59373},"BottomRight":{"Latitude":52.54489,"Longitude":13.59379}},"Address":{"Label":"Klausdorfer Straße, 12629 Berlin, Deutschland","Country":"DEU","State":"Berlin","County":"Berlin","City":"Berlin","District":"Hellersdorf","Street":"Klausdorfer Straße","PostalCode":"12629","AdditionalData":[{"value":"Deutschland","key":"CountryName"},{"value":"Berlin","key":"StateName"},{"value":"Berlin","key":"CountyName"}]},"MapReference":{"ReferenceId":"1240047035","Spot":1.0,"SideOfStreet":"right","CountryId":"20147700","StateId":"20187401","CountyId":"20187402","CityId":"20187403","DistrictId":"20428240"}}},{"Relevance":1.0,"Distance":45.5,"MatchLevel":"street","MatchQuality":{"Country":1.0,"State":1.0,"County":1.0,"City":1.0,"District":1.0,"Street":[1.0],"PostalCode":1.0},"Location":{"LocationId":"NT_zJfmyOTfbMiqZH95S-PUbD_l_53604520_R","LocationType":"point","DisplayPosition":{"Latitude":52.54559,"Longitude":13.59403},"MapView":{"TopLeft":{"Latitude":52.54596,"Longitude":13.59403},"BottomRight":{"Latitude":52.54559,"Longitude":13.59417}},"Address":{"Label":"Klausdorfer Straße, 12629 Berlin, Deutschland","Country":"DEU","State":"Berlin","County":"Berlin","City":"Berlin","District":"Hellersdorf","Street":"Klausdorfer Straße","PostalCode":"12629","AdditionalData":[{"value":"Deutschland","key":"CountryName"},{"value":"Berlin","key":"StateName"},{"value":"Berlin","key":"CountyName"}]},"MapReference":{"ReferenceId":"53604520","Spot":0.0,"SideOfStreet":"right","CountryId":"20147700","StateId":"20187401","CountyId":"20187402","CityId":"20187403","DistrictId":"20428240"}}},{"Relevance":1.0,"Distance":52.6,"MatchLevel":"street","MatchQuality":{"Country":1.0,"State":1.0,"County":1.0,"City":1.0,"District":1.0,"PostalCode":1.0},"Location":{"LocationId":"NT_.5Z51f8RwupRL2BqcTwB-A_l_1255039944_R","LocationType":"point","DisplayPosition":{"Latitude":52.5447444,"Longitude":13.5942348},"MapView":{"TopLeft":{"Latitude":52.54482,"Longitude":13.5937},"BottomRight":{"Latitude":52.54442,"Longitude":13.59653}},"Address":{"Label":"12629 Berlin, Deutschland","Country":"DEU","State":"Berlin","County":"Berlin","City":"Berlin","District":"Hellersdorf","PostalCode":"12629","AdditionalData":[{"value":"Deutschland","key":"CountryName"},{"value":"Berlin","key":"StateName"},{"value":"Berlin","key":"CountyName"}]},"MapReference":{"ReferenceId":"1255039944","Spot":0.81,"SideOfStreet":"right","CountryId":"20147700","StateId":"20187401","CountyId":"20187402","CityId":"20187403","DistrictId":"20428240"}}},{"Relevance":1.0,"Distance":53.0,"MatchLevel":"street","MatchQuality":{"Country":1.0,"State":1.0,"County":1.0,"City":1.0,"District":1.0,"Street":[1.0],"PostalCode":1.0},"Location":{"LocationId":"NT_zJfmyOTfbMiqZH95S-PUbD_l_1255039943_R","LocationType":"point","DisplayPosition":{"Latitude":52.54489,"Longitude":13.59373},"MapView":{"TopLeft":{"Latitude":52.54489,"Longitude":13.5937},"BottomRight":{"Latitude":52.54482,"Longitude":13.59373}},"Address":{"Label":"Klausdorfer Straße, 12629 Berlin, Deutschland","Country":"DEU","State":"Berlin","County":"Berlin","City":"Berlin","District":"Hellersdorf","Street":"Klausdorfer Straße","PostalCode":"12629","AdditionalData":[{"value":"Deutschland","key":"CountryName"},{"value":"Berlin","key":"StateName"},{"value":"Berlin","key":"CountyName"}]},"MapReference":{"ReferenceId":"1255039943","Spot":1.0,"SideOfStreet":"right","CountryId":"20147700","StateId":"20187401","CountyId":"20187402","CityId":"20187403","DistrictId":"20428240"}}},{"Relevance":1.0,"Distance":59.9,"MatchLevel":"street","MatchQuality":{"Country":1.0,"State":1.0,"County":1.0,"City":1.0,"District":1.0,"Street":[1.0],"PostalCode":1.0},"Location":{"LocationId":"NT_zJfmyOTfbMiqZH95S-PUbD_l_1255039942_R","LocationType":"point","DisplayPosition":{"Latitude":52.54482,"Longitude":13.5937},"MapView":{"TopLeft":{"Latitude":52.54482,"Longitude":13.59366},"BottomRight":{"Latitude":52.54471,"Longitude":13.5937}},"Address":{"Label":"Klausdorfer Straße, 12629 Berlin, Deutschland","Country":"DEU","State":"Berlin","County":"Berlin","City":"Berlin","District":"Hellersdorf","Street":"Klausdorfer Straße","PostalCode":"12629","AdditionalData":[{"value":"Deutschland","key":"CountryName"},{"value":"Berlin","key":"StateName"},{"value":"Berlin","key":"CountyName"}]},"MapReference":{"ReferenceId":"1255039942","Spot":1.0,"SideOfStreet":"right","CountryId":"20147700","StateId":"20187401","CountyId":"20187402","CityId":"20187403","DistrictId":"20428240"}}},{"Relevance":1.0,"Distance":63.9,"MatchLevel":"houseNumber","MatchQuality":{"Country":1.0,"State":1.0,"County":1.0,"City":1.0,"District":1.0,"Street":[1.0],"HouseNumber":1.0,"PostalCode":1.0},"MatchType":"interpolated","Location":{"LocationId":"NT_3BxXwzHS5TtdpuFADF-UxB_zIE","LocationType":"point","DisplayPosition":{"Latitude":52.54541,"Longitude":13.59534},"MapView":{"TopLeft":{"Latitude":52.5465342,"Longitude":13.5934915},"BottomRight":{"Latitude":52.5442858,"Longitude":13.5971885}},"Address":{"Label":"Mittenwalder Straße 3B, 12629 Berlin, Deutschland","Country":"DEU","State":"Berlin","County":"Berlin","City":"Berlin","District":"Hellersdorf","Street":"Mittenwalder Straße","HouseNumber":"3B","PostalCode":"12629","AdditionalData":[{"value":"Deutschland","key":"CountryName"},{"value":"Berlin","key":"StateName"},{"value":"Berlin","key":"CountyName"}]},"MapReference":{"ReferenceId":"53604521","Spot":0.53,"SideOfStreet":"left","CountryId":"20147700","StateId":"20187401","CountyId":"20187402","CityId":"20187403","DistrictId":"20428240","AddressId":"769569327","RoadLinkId":"531869272"}}},{"Relevance":1.0,"Distance":64.9,"MatchLevel":"street","MatchQuality":{"Country":1.0,"State":1.0,"County":1.0,"City":1.0,"District":1.0,"Street":[1.0],"PostalCode":1.0},"Location":{"LocationId":"NT_RR.HCpEODtqM564IFGD11B_l_77274386_R","LocationType":"point","DisplayPosition":{"Latitude":52.54464,"Longitude":13.59414},"MapView":{"TopLeft":{"Latitude":52.54471,"Longitude":13.59366},"BottomRight":{"Latitude":52.54464,"Longitude":13.59414}},"Address":{"Label":"Zossener Straße, 12629 Berlin, Deutschland","Country":"DEU","State":"Berlin","County":"Berlin","City":"Berlin","District":"Hellersdorf","Street":"Zossener Straße","PostalCode":"12629","AdditionalData":[{"value":"Deutschland","key":"CountryName"},{"value":"Berlin","key":"StateName"},{"value":"Berlin","key":"CountyName"}]},"MapReference":{"ReferenceId":"77274386","Spot":0.0,"SideOfStreet":"right","CountryId":"20147700","StateId":"20187401","CountyId":"20187402","CityId":"20187403","DistrictId":"20428240"}}}]}]}}