{"Response":{"MetaInfo":{"Timestamp":"2020-03-28T10:02:57.074+0000","NextPageInformation":"2"},"View":[{"_type":"SearchResultsViewType","ViewId":0,"Result":[{"Relevance":1.0,"Distance":0.0,"Direction":0.0,"MatchLevel":"district","MatchQuality":{"Country":1.0,"State":1.0,"County":1.0,"City":1.0,"District":1.0,"PostalCode":1.0},"Location":{"LocationId":"NT_mGoRf8b6yzAydhxZB9iEoC","LocationType":"point","DisplayPosition":{"Latitude":52.5953888,"Longitude":8.8347433},"MapView":{"TopLeft":{"Latitude":52.60456,"Longitude":8.8177},"BottomRight":{"Latitude":52.58972,"Longitude":8.84858}},"Address":{"Label":"Kirchdorf, Niedersachsen, Deutschland","Country":"DEU","State":"Niedersachsen","County":"Diepholz","City":"Kirchdorf","District":"Kirchdorf","PostalCode":"27245","AdditionalData":[{"value":"Deutschland","key":"CountryName"},{"value":"Niedersachsen","key":"StateName"},{"value":"Diepholz","key":"CountyName"}]},"MapReference":{"ReferenceId":"79890924","SideOfStreet":"neither","CountryId":"20147700","StateId":"20151542","CountyId":"20152696","CityId":"20152789","DistrictId":"20152793"}}},{"Relevance":1.0,"Distance":13.4,"MatchLevel":"houseNumber","MatchQuality":{"Country":1.0,"State":1.0,"County":1.0,"City":1.0,"District":1.0,"Street":[1.0],"HouseNumber":1.0,"PostalCode":1.0},"MatchType":"interpolated","Location":{"LocationId":"NT_8w6HfigXCs1pftJ-.hSPsA_xcD","LocationType":"point","DisplayPosition":{"Latitude":52.5952,"Longitude":8.8347},"MapView":{"TopLeft":{"Latitude":52.5963242,"Longitude":8.8328494},"BottomRight":{"Latitude":52.5940758,"Longitude":8.8365506}},"Address":{"Label":"Lange Straße 17, 27245 Kirchdorf, Deutschland","Country":"DEU","State":"Niedersachsen","County":"Diepholz","City":"Kirchdorf","District":"Kirchdorf","Street":"Lange Straße","HouseNumber":"17","PostalCode":"27245","AdditionalData":[{"value":"Deutschland","key":"CountryName"},{"value":"Niedersachsen","key":"StateName"},{"value":"Diepholz","key":"CountyName"}]},"MapReference":{"ReferenceId":"79891228","Spot":0.78,"SideOfStreet":"right","CountryId":"20147700","StateId":"20151542","CountyId":"20152696","CityId":"20152789","DistrictId":"20152793","AddressId":"180968989","RoadLinkId":"36744730"}}},{"Relevance":1.0,"Distance":21.6,"MatchLevel":"houseNumber","MatchQuality":{"Country":1.0,"State":1.0,"County":1.0,"City":1.0,"District":1.0,"Street":[1.0],"HouseNumber":1.0,"PostalCode":1.0},"MatchType":"interpolated","Location":{"LocationId":"NT_cQ4Ud5-eH7Bv9QXEIeUS2C_xA","LocationType":"point","DisplayPosition":{"Latitude":52.59558,"Longitude":8.8348},"MapView":{"TopLeft":{"Latitude":52.5967042,"Longitude":8.8329494},"BottomRight":{"Latitude":52.5944558,"Longitude":8.8366506}},"Address":{"Label":"Querweg 1, 27245 Kirchdorf, Deutschland","Country":"DEU","State":"Niedersachsen","County":"Diepholz","City":"Kirchdorf","District":"Kirchdorf","Street":"Querweg","HouseNumber":"1","PostalCode":"27245","AdditionalData":[{"value":"Deutschland","key":"CountryName"},{"value":"Niedersachsen","key":"StateName"},{"value":"Diepholz","key":"CountyName"}]},"MapReference":{"ReferenceId":"79890915","Spot":0.47,"SideOfStreet":"left","CountryId":"20147700","StateId":"20151542","CountyId":"20152696","CityId":"20152789","DistrictId":"20152793","AddressId":"790164858","RoadLinkId":"37302455"}}},{"Relevance":1.0,"Distance":26.9,"MatchLevel":"street","MatchQuality":{"Country":1.0,"State":1.0,"County":1.0,"City":1.0,"District":1.0,"Street":[1.0],"PostalCode":1.0},"Location":{"LocationId":"NT_8w6HfigXCs1pftJ-.hSPsA_l_79891230_R","LocationType":"point","DisplayPosition":{"Latitude":52.59535,"Longitude":8.83435},"MapView":{"TopLeft":{"Latitude":52.59553,"Longitude":8.83389},"BottomRight":{"Latitude":52.59535,"Longitude":8.83435}},"Address":{"Label":"Lange Straße, 27245 Kirchdorf, Deutschland","Country":"DEU","State":"Niedersachsen","County":"Diepholz","City":"Kirchdorf","District":"Kirchdorf","Street":"Lange Straße","PostalCode":"27245","AdditionalData":[{"value":"Deutschland","key":"CountryName"},{"value":"Niedersachsen","key":"StateName"},{"value":"Diepholz","key":"CountyName"}]},"MapReference":{"ReferenceId":"79891230","Spot":0.0,"SideOfStreet":"right","CountryId":"20147700","StateId":"20151542","CountyId":"20152696","CityId":"20152789","DistrictId":"20152793"}}},{"Relevance":1.0,"Distance":43.2,"MatchLevel":"houseNumber","MatchQuality":{"Country":1.0,"State":1.0,"County":1.0,"City":1.0,"District":1.0,"Street":[1.0],"HouseNumber":1.0,"PostalCode":1.0},"MatchType":"interpolated","Location":{"LocationId":"NT_ixvsR2CMLPPam9tff9VybC_yA","LocationType":"point","DisplayPosition":{"Latitude":52.59565,"Longitude":8.83391},"MapView":{"TopLeft":{"Latitude":52.5967742,"Longitude":8.8320593},"BottomRight":{"Latitude":52.5945258,"Longitude":8.8357607}},"Address":{"Label":"Rathausstraße 2, 27245 Kirchdorf, Deutschland","Country":"DEU","State":"Niedersachsen","County":"Diepholz","City":"Kirchdorf","District":"Kirchdorf","Street":"Rathausstraße","HouseNumber":"2","PostalCode":"27245","AdditionalData":[{"value":"Deutschland","key":"CountryName"},{"value":"Niedersachsen","key":"StateName"},{"value":"Diepholz","key":"CountyName"}]},"MapReference":{"ReferenceId":"79890872","Spot":0.22,"SideOfStreet":"right","CountryId":"20147700","StateId":"20151542","CountyId":"20152696","CityId":"20152789","DistrictId":"20152793","AddressId":"177160391","RoadLinkId":"36969051"}}},{"Relevance":1.0,"Distance":51.3,"MatchLevel":"houseNumber","MatchQuality":{"Country":1.0,"State":1.0,"County":1.0,"City":1.0,"District":1.0,"Street":[1.0],"HouseNumber":1.0,"PostalCode":1.0},"MatchType":"interpolated","Location":{"LocationId":"NT_euWK5v9qmPwe3L3p5gCDcD_zA","LocationType":"point","DisplayPosition":{"Latitude":52.59568,"Longitude":8.83554},"MapView":{"TopLeft":{"Latitude":52.5968042,"Longitude":8.8336893},"BottomRight":{"Latitude":52.5945558,"Longitude":8.8373907}},"Address":{"Label":"Kirchweg 3, 27245 Kirchdorf, Deutschland","Country":"DEU","State":"Niedersachsen","County":"Diepholz","City":"Kirchdorf","District":"Kirchdorf","Street":"Kirchweg","HouseNumber":"3","PostalCode":"27245","AdditionalData":[{"value":"Deutschland","key":"CountryName"},{"value":"Niedersachsen","key":"StateName"},{"value":"Diepholz","key":"CountyName"}]},"MapReference":{"ReferenceId":"79890839","Spot":0.45,"SideOfStreet":"left","CountryId":"20147700","StateId":"20151542","CountyId":"20152696","CityId":"20152789","DistrictId":"20152793","AddressId":"181010452","RoadLinkId":"37304996"}}},{"Relevance":1.0,"Distance":64.1,"MatchLevel":"houseNumber","MatchQuality":{"Country":1.0,"State":1.0,"County":1.0,"City":1.0,"District":1.0,"Street":[1.0],"HouseNumber":1.0,"PostalCode":1.0},"MatchType":"interpolated","Location":{"LocationId":"NT_euWK5v9qmPwe3L3p5gCDcD_1EE","LocationType":"point","DisplayPosition":{"Latitude":52.59598,"Longitude":8.8351},"MapView":{"TopLeft":{"Latitude":52.5971042,"Longitude":8.8332493},"BottomRight":{"Latitude":52.5948558,"Longitude":8.8369507}},"Address":{"Label":"Kirchweg 5A, 27245 Kirchdorf, Deutschland","Country":"DEU","State":"Niedersachsen","County":"Diepholz","City":"Kirchdorf","District":"Kirchdorf","Street":"Kirchweg","HouseNumber":"5A","PostalCode":"27245","AdditionalData":[{"value":"Deutschland","key":"CountryName"},{"value":"Niedersachsen","key":"StateName"},{"value":"Diepholz","key":"CountyName"}]},"MapReference":{"ReferenceId":"554751349","Spot":0.34,"SideOfStreet":"left","CountryId":"20147700","StateId":"20151542","CountyId":"20152696","CityId":"20152789","DistrictId":"20152793","AddressId":"177171623","RoadLinkId":"37275597"}}},{"Relevance":1.0,"Distance":72.3,"MatchLevel":"houseNumber","MatchQuality":{"Country":1.0,"State":1.0,"County":1.0,"City":1.0,"District":1.0,"Street":[1.0],"HouseNumber":1.0,"PostalCode":1.0},"MatchType":"interpolated","Location":{"LocationId":"NT_8w6HfigXCs1pftJ-.hSPsA_yQD","LocationType":"point","DisplayPosition":{"Latitude":52.59558,"Longitude":8.83372},"MapView":{"TopLeft":{"Latitude":52.5967042,"Longitude":8.8318694},"BottomRight":{"Latitude":52.5944558,"Longitude":8.8355706}},"Address":{"Label":"Lange Straße 24, 27245 Kirchdorf, Deutschland","Country":"DEU","State":"Niedersachsen","County":"Diepholz","City":"Kirchdorf","District":"Kirchdorf","Street":"Lange Straße","HouseNumber":"24","PostalCode":"27245","AdditionalData":[{"value":"Deutschland","key":"CountryName"},{"value":"Niedersachsen","key":"StateName"},{"value":"Diepholz","key":"CountyName"}]},"MapReference":{"ReferenceId":"79891229","Spot":0.52,"SideOfStreet":"left","CountryId":"20147700","StateId":"20151542","CountyId":"20152696","CityId":"20152789","DistrictId":"20152793","AddressId":"177736678","RoadLinkId":"36289964"}}},{"Relevance":1.0,"Distance":86.0,"MatchLevel":"houseNumber","MatchQuality":{"Country":1.0,"State":1.0,"County":1.0,"City":1.0,"District":1.0,"Street":[1.0],"HouseNumber":1.0,"PostalCode":1.0},"MatchType":"interpolated","Location":{"LocationId":"NT_euWK5v9qmPwe3L3p5gCDcD_xA","LocationType":"point","DisplayPosition":{"Latitude":52.59525,"Longitude":8.8361},"MapView":{"TopLeft":{"Latitude":52.5963742,"Longitude":8.8342494},"BottomRight":{"Latitude":52.5941258,"Longitude":8.8379506}},"Address":{"Label":"Kirchweg 1, 27245 Kirchdorf, Deutschland","Country":"DEU","State":"Niedersachsen","County":"Diepholz","City":"Kirchdorf","District":"Kirchdorf","Street":"Kirchweg","HouseNumber":"1","PostalCode":"27245","AdditionalData":[{"value":"Deutschland","key":"CountryName"},{"value":"Niedersachsen","key":"StateName"},{"value":"Diepholz","key":"CountyName"}]},"MapReference":{"ReferenceId":"79890917","Spot":0.48,"SideOfStreet":"left","CountryId":"20147700","StateId":"20151542","CountyId":"20152696","CityId":"20152789","DistrictId":"20152793","AddressId":"181102276","RoadLinkId":"37096774"}}},{"Relevance":1.0,"Distance":86.5,"MatchLevel":"houseNumber","MatchQuality":{"Country":1.0,"State":1.0,"County":1.0,"City":1.0,"District":1.0,"Street":[1.0],"HouseNumber":1.0,"PostalCode":1.0},"MatchType":"interpolated","Location":{"LocationId":"NT_jsJFcCMXR3vDvgJys85PhA_xAD","LocationType":"point","DisplayPosition":{"Latitude":52.59568,"Longitude":8.83598},"MapView":{"TopLeft":{"Latitude":52.5968042,"Longitude":8.8341293},"BottomRight":{"Latitude":52.5945558,"Longitude":8.8378307}},"Address":{"Label":"Kampstraße 10, 27245 Kirchdorf, Deutschland","Country":"DEU","State":"Niedersachsen","County":"Diepholz","City":"Kirchdorf","District":"Kirchdorf","Street":"Kampstraße","HouseNumber":"10","PostalCode":"27245","AdditionalData":[{"value":"Deutschland","key":"CountryName"},{"value":"Niedersachsen","key":"StateName"},{"value":"Diepholz","key":"CountyName"}]},"MapReference":{"ReferenceId":"79890838","Spot":0.16,"SideOfStreet":"left","CountryId":"20147700","StateId":"20151542","CountyId":"20152696","CityId":"20152789","DistrictId":"20152793","AddressId":"180787528","RoadLinkId":"37046749"}}}]}]}}