{"Response":{"MetaInfo":{"Timestamp":"2020-03-28T09:36:01.284+0000","NextPageInformation":"2"},"View":[{"_type":"SearchResultsViewType","ViewId":0,"Result":[{"Relevance":1.0,"Distance":0.0,"Direction":0.0,"MatchLevel":"district","MatchQuality":{"Country":1.0,"State":1.0,"County":1.0,"City":1.0,"District":1.0,"PostalCode":1.0},"Location":{"LocationId":"NT_tUmO.sHe4LOc6GkG9ewp1D","LocationType":"point","DisplayPosition":{"Latitude":52.5925726,"Longitude":13.2789956},"MapView":{"TopLeft":{"Latitude":52.62673,"Longitude":13.22088},"BottomRight":{"Latitude":52.54851,"Longitude":13.32177}},"Address":{"Label":"Tegel, Berlin, Deutschland","Country":"DEU","State":"Berlin","County":"Berlin","City":"Berlin","District":"Tegel","PostalCode":"13507","AdditionalData":[{"value":"Deutschland","key":"CountryName"},{"value":"Berlin","key":"StateName"},{"value":"Berlin","key":"CountyName"}]},"MapReference":{"ReferenceId":"53464168","SideOfStreet":"neither","CountryId":"20147700","StateId":"20187401","CountyId":"20187402","CityId":"20187403","DistrictId":"20328197"}}},{"Relevance":1.0,"Distance":3.6,"MatchLevel":"landmark","MatchQuality":{"Country":1.0,"State":1.0,"County":1.0,"City":1.0,"District":1.0,"PostalCode":1.0,"Name":1.0},"Location":{"LocationId":"NT_eBpJZGVMWfCs6b7NcEkNLD","LocationType":"canalWaterChannel","Name":"Tegeler Flie√ü","DisplayPosition":{"Latitude":52.59177,"Longitude":13.27632},"MapView":{"TopLeft":{"Latitude":52.59364,"Longitude":13.27066},"BottomRight":{"Latitude":52.5899,"Longitude":13.27973}},"Address":{"Label":"13507 Berlin, Deutschland","Country":"DEU","State":"Berlin","County":"Berlin","City":"Berlin","District":"Tegel","PostalCode":"13507","AdditionalData":[{"value":"Deutschland","key":"CountryName"},{"value":"Berlin","key":"StateName"},{"value":"Berlin","key":"CountyName"}]},"MapReference":{"CountryId":"20147700","StateId":"20187401","CountyId":"20187402","CityId":"20187403","DistrictId":"20328197","PlaceId":"50674613"}}},{"Relevance":1.0,"Distance":7.5,"MatchLevel":"landmark","MatchQuality":{"Country":1.0,"State":1.0,"County":1.0,"City":1.0,"District":1.0,"PostalCode":1.0,"Name":1.0},"Location":{"LocationId":"NT_i8Rnpuyfps1Zr3i8FHID6C","LocationType":"canalWaterChannel","Name":"Tegeler Hafen","DisplayPosition":{"Latitude":52.59102,"Longitude":13.27603},"MapView":{"TopLeft":{"Latitude":52.59259,"Longitude":13.27093},"BottomRight":{"Latitude":52.58945,"Longitude":13.2811}},"Address":{"Label":"13507 Berlin, Deutschland","Country":"DEU","State":"Berlin","County":"Berlin","City":"Berlin","District":"Tegel","PostalCode":"13507","AdditionalData":[{"value":"Deutschland","key":"CountryName"},{"value":"Berlin","key":"StateName"},{"value":"Berlin","key":"CountyName"}]},"MapReference":{"CountryId":"20147700","StateId":"20187401","CountyId":"20187402","CityId":"20187403","DistrictId":"20328197","PlaceId":"50670224"}}},{"Relevance":1.0,"Distance":15.6,"MatchLevel":"street","MatchQuality":{"Country":1.0,"State":1.0,"County":1.0,"City":1.0,"District":1.0,"PostalCode":1.0},"Location":{"LocationId":"NT_EQunUAzBxn7fcn06DRQo7C_l_1208265144_R","LocationType":"point","DisplayPosition":{"Latitude":52.5924358,"Longitude":13.2789477},"MapView":{"TopLeft":{"Latitude":52.59269,"Longitude":13.27867},"BottomRight":{"Latitude":52.5924,"Longitude":13.27905}},"Address":{"Label":"13507 Berlin, Deutschland","Country":"DEU","State":"Berlin","County":"Berlin","City":"Berlin","District":"Tegel","PostalCode":"13507","AdditionalData":[{"value":"Deutschland","key":"CountryName"},{"value":"Berlin","key":"StateName"},{"value":"Berlin","key":"CountyName"}]},"MapReference":{"ReferenceId":"1208265144","Spot":0.2,"SideOfStreet":"right","CountryId":"20147700","StateId":"20187401","CountyId":"20187402","CityId":"20187403","DistrictId":"20328197"}}},{"Relevance":1.0,"Distance":19.5,"MatchLevel":"street","MatchQuality":{"Country":1.0,"State":1.0,"County":1.0,"City":1.0,"District":1.0,"PostalCode":1.0},"Location":{"LocationId":"NT_EQunUAzBxn7fcn06DRQo7C_l_1090044658_L","LocationType":"point","DisplayPosition":{"Latitude":52.5924009,"Longitude":13.2790528},"MapView":{"TopLeft":{"Latitude":52.59352,"Longitude":13.27905},"BottomRight":{"Latitude":52.5924,"Longitude":13.28101}},"Address":{"Label":"13507 Berlin, Deutschland","Country":"DEU","State":"Berlin","County":"Berlin","City":"Berlin","District":"Tegel","PostalCode":"13507","AdditionalData":[{"value":"Deutschland","key":"CountryName"},{"value":"Berlin","key":"StateName"},{"value":"Berlin","key":"CountyName"}]},"MapReference":{"ReferenceId":"1090044658","Spot":0.0,"SideOfStreet":"left","CountryId":"20147700","StateId":"20187401","CountyId":"20187402","CityId":"20187403","DistrictId":"20328197"}}},{"Relevance":1.0,"Distance":19.5,"MatchLevel":"street","MatchQuality":{"Country":1.0,"State":1.0,"County":1.0,"City":1.0,"District":1.0,"PostalCode":1.0},"Location":{"LocationId":"NT_EQunUAzBxn7fcn06DRQo7C_l_1090044655_L","LocationType":"point","DisplayPosition":{"Latitude":52.5924,"Longitude":13.27905},"MapView":{"TopLeft":{"Latitude":52.5924,"Longitude":13.27866},"BottomRight":{"Latitude":52.592,"Longitude":13.27905}},"Address":{"Label":"13507 Berlin, Deutschland","Country":"DEU","State":"Berlin","County":"Berlin","City":"Berlin","District":"Tegel","PostalCode":"13507","AdditionalData":[{"value":"Deutschland","key":"CountryName"},{"value":"Berlin","key":"StateName"},{"value":"Berlin","key":"CountyName"}]},"MapReference":{"ReferenceId":"1090044655","Spot":1.0,"SideOfStreet":"left","CountryId":"20147700","StateId":"20187401","CountyId":"20187402","CityId":"20187403","DistrictId":"20328197"}}},{"Relevance":1.0,"Distance":19.5,"MatchLevel":"street","MatchQuality":{"Country":1.0,"State":1.0,"County":1.0,"City":1.0,"District":1.0,"PostalCode":1.0},"Location":{"LocationId":"NT_EQunUAzBxn7fcn06DRQo7C_l_1090044652_R","LocationType":"point","DisplayPosition":{"Latitude":52.5924,"Longitude":13.27905},"MapView":{"TopLeft":{"Latitude":52.5924,"Longitude":13.27905},"BottomRight":{"Latitude":52.59209,"Longitude":13.27935}},"Address":{"Label":"13507 Berlin, Deutschland","Country":"DEU","State":"Berlin","County":"Berlin","City":"Berlin","District":"Tegel","PostalCode":"13507","AdditionalData":[{"value":"Deutschland","key":"CountryName"},{"value":"Berlin","key":"StateName"},{"value":"Berlin","key":"CountyName"}]},"MapReference":{"ReferenceId":"1090044652","Spot":1.0,"SideOfStreet":"right","CountryId":"20147700","StateId":"20187401","CountyId":"20187402","CityId":"20187403","DistrictId":"20328197"}}},{"Relevance":1.0,"Distance":25.6,"MatchLevel":"street","MatchQuality":{"Country":1.0,"State":1.0,"County":1.0,"City":1.0,"District":1.0,"Street":[1.0],"PostalCode":1.0},"Location":{"LocationId":"NT_iEKmeXcJLXodYhByW4-tYC_l_1208265146_R","LocationType":"point","DisplayPosition":{"Latitude":52.59269,"Longitude":13.27867},"MapView":{"TopLeft":{"Latitude":52.59293,"Longitude":13.27846},"BottomRight":{"Latitude":52.59269,"Longitude":13.27867}},"Address":{"Label":"Humboldtinsel, 13507 Berlin, Deutschland","Country":"DEU","State":"Berlin","County":"Berlin","City":"Berlin","District":"Tegel","Street":"Humboldtinsel","PostalCode":"13507","AdditionalData":[{"value":"Deutschland","key":"CountryName"},{"value":"Berlin","key":"StateName"},{"value":"Berlin","key":"CountyName"}]},"MapReference":{"ReferenceId":"1208265146","Spot":0.0,"SideOfStreet":"right","CountryId":"20147700","StateId":"20187401","CountyId":"20187402","CityId":"20187403","DistrictId":"20328197"}}},{"Relevance":1.0,"Distance":46.7,"MatchLevel":"houseNumber","MatchQuality":{"Country":1.0,"State":1.0,"County":1.0,"City":1.0,"District":1.0,"Street":[1.0],"HouseNumber":1.0,"PostalCode":1.0},"MatchType":"interpolated","Location":{"LocationId":"NT_iEKmeXcJLXodYhByW4-tYC_xA","LocationType":"point","DisplayPosition":{"Latitude":52.59247,"Longitude":13.27828},"MapView":{"TopLeft":{"Latitude":52.5935942,"Longitude":13.2764295},"BottomRight":{"Latitude":52.5913458,"Longitude":13.2801305}},"Address":{"Label":"Humboldtinsel 1, 13507 Berlin, Deutschland","Country":"DEU","State":"Berlin","County":"Berlin","City":"Berlin","District":"Tegel","Street":"Humboldtinsel","HouseNumber":"1","PostalCode":"13507","AdditionalData":[{"value":"Deutschland","key":"CountryName"},{"value":"Berlin","key":"StateName"},{"value":"Berlin","key":"CountyName"}]},"MapReference":{"ReferenceId":"1208265145","Spot":0.94,"SideOfStreet":"right","CountryId":"20147700","StateId":"20187401","CountyId":"20187402","CityId":"20187403","DistrictId":"20328197","AddressId":"776635367","RoadLinkId":"554290104"}}},{"Relevance":1.0,"Distance":58.8,"MatchLevel":"street","MatchQuality":{"Country":1.0,"State":1.0,"County":1.0,"City":1.0,"District":1.0,"PostalCode":1.0},"Location":{"LocationId":"NT_EQunUAzBxn7fcn06DRQo7C_l_1090044657_L","LocationType":"point","DisplayPosition":{"Latitude":52.59209,"Longitude":13.27935},"MapView":{"TopLeft":{"Latitude":52.59302,"Longitude":13.27935},"BottomRight":{"Latitude":52.59209,"Longitude":13.2813}},"Address":{"Label":"13507 Berlin, Deutschland","Country":"DEU","State":"Berlin","County":"Berlin","City":"Berlin","District":"Tegel","PostalCode":"13507","AdditionalData":[{"value":"Deutschland","key":"CountryName"},{"value":"Berlin","key":"StateName"},{"value":"Berlin","key":"CountyName"}]},"MapReference":{"ReferenceId":"1090044657","Spot":0.0,"SideOfStreet":"left","CountryId":"20147700","StateId":"20187401","CountyId":"20187402","CityId":"20187403","DistrictId":"20328197"}}}]}]}}