{"Response":{"MetaInfo":{"Timestamp":"2020-03-28T11:18:14.693+0000","NextPageInformation":"2"},"View":[{"_type":"SearchResultsViewType","ViewId":0,"Result":[{"Relevance":1.0,"Distance":0.0,"Direction":0.0,"MatchLevel":"district","MatchQuality":{"Country":1.0,"State":1.0,"County":1.0,"City":1.0,"District":1.0,"PostalCode":1.0},"Location":{"LocationId":"NT_dIWg3eYJ58XMW0Z-EjT3pB","LocationType":"point","DisplayPosition":{"Latitude":52.5455215,"Longitude":-1.9382563},"MapView":{"TopLeft":{"Latitude":52.56686,"Longitude":-1.96672},"BottomRight":{"Latitude":52.52994,"Longitude":-1.87401}},"Address":{"Label":"Great Barr, Birmingham, England, United Kingdom","Country":"GBR","State":"England","County":"West Midlands","City":"Birmingham","District":"Great Barr","PostalCode":"B43 5","AdditionalData":[{"value":"United Kingdom","key":"CountryName"},{"value":"England","key":"StateName"},{"value":"West Midlands","key":"CountyName"}]},"MapReference":{"ReferenceId":"26373937","SideOfStreet":"neither","StateId":"20248595","CountyId":"20358328","CityId":"20358334","DistrictId":"20358363"}}},{"Relevance":1.0,"Distance":6.1,"MatchLevel":"houseNumber","MatchQuality":{"Country":1.0,"State":1.0,"County":1.0,"City":1.0,"District":1.0,"Street":[1.0],"HouseNumber":1.0,"PostalCode":1.0},"MatchType":"interpolated","Location":{"LocationId":"NT_hHOGkMw22jQjxkepEGbHmB_l_26373084_R_xA","LocationType":"point","DisplayPosition":{"Latitude":52.5456701,"Longitude":-1.9382398},"MapView":{"TopLeft":{"Latitude":52.5467942,"Longitude":-1.9400884},"BottomRight":{"Latitude":52.5445459,"Longitude":-1.9363913}},"Address":{"Label":"1 Pages Lane, Birmingham, B43 6LL, United Kingdom","Country":"GBR","State":"England","County":"West Midlands","City":"Birmingham","District":"Great Barr","Street":"Pages Lane","HouseNumber":"1","PostalCode":"B43 6LL","AdditionalData":[{"value":"United Kingdom","key":"CountryName"},{"value":"England","key":"StateName"},{"value":"West Midlands","key":"CountyName"}]},"MapReference":{"ReferenceId":"26373084","Spot":0.07,"SideOfStreet":"right","StateId":"20248595","CountyId":"20358328","CityId":"20358334","DistrictId":"20358363"}}},{"Relevance":1.0,"Distance":11.0,"MatchLevel":"street","MatchQuality":{"Country":1.0,"State":1.0,"County":1.0,"City":1.0,"District":1.0,"Street":[1.0],"PostalCode":1.0},"Location":{"LocationId":"NT_hHOGkMw22jQjxkepEGbHmB_l_26373102_R","LocationType":"point","DisplayPosition":{"Latitude":52.5454268,"Longitude":-1.9383036},"MapView":{"TopLeft":{"Latitude":52.54559,"Longitude":-1.93841},"BottomRight":{"Latitude":52.54539,"Longitude":-1.93823}},"Address":{"Label":"Pages Lane, Birmingham, B43 6, United Kingdom","Country":"GBR","State":"England","County":"West Midlands","City":"Birmingham","District":"Great Barr","Street":"Pages Lane","PostalCode":"B43 6","AdditionalData":[{"value":"United Kingdom","key":"CountryName"},{"value":"England","key":"StateName"},{"value":"West Midlands","key":"CountyName"}]},"MapReference":{"ReferenceId":"26373102","Spot":0.27,"SideOfStreet":"right","StateId":"20248595","CountyId":"20358328","CityId":"20358334","DistrictId":"20358363"}}},{"Relevance":1.0,"Distance":14.8,"MatchLevel":"street","MatchQuality":{"Country":1.0,"State":1.0,"County":1.0,"City":1.0,"District":1.0,"Street":[1.0],"PostalCode":1.0},"Location":{"LocationId":"NT_3zP23ULUzdJJWr6Ng0TfkA_l_26373109_L","LocationType":"point","DisplayPosition":{"Latitude":52.5453889,"Longitude":-1.9382481},"MapView":{"TopLeft":{"Latitude":52.54539,"Longitude":-1.93888},"BottomRight":{"Latitude":52.54535,"Longitude":-1.93823}},"Address":{"Label":"Newton Road, Birmingham, B43 6, United Kingdom","Country":"GBR","State":"England","County":"West Midlands","City":"Birmingham","District":"Great Barr","Street":"Newton Road","PostalCode":"B43 6","AdditionalData":[{"value":"United Kingdom","key":"CountryName"},{"value":"England","key":"StateName"},{"value":"West Midlands","key":"CountyName"}]},"MapReference":{"ReferenceId":"26373109","Spot":0.97,"SideOfStreet":"left","StateId":"20248595","CountyId":"20358328","CityId":"20358334","DistrictId":"20358363"}}},{"Relevance":1.0,"Distance":16.6,"MatchLevel":"houseNumber","MatchQuality":{"Country":1.0,"State":1.0,"County":1.0,"City":1.0,"District":1.0,"Street":[1.0],"HouseNumber":1.0,"PostalCode":1.0},"MatchType":"interpolated","Location":{"LocationId":"NT_3zP23ULUzdJJWr6Ng0TfkA_l_766824395_L_zMD","LocationType":"point","DisplayPosition":{"Latitude":52.5454,"Longitude":-1.9379999},"MapView":{"TopLeft":{"Latitude":52.5465242,"Longitude":-1.9398485},"BottomRight":{"Latitude":52.5442759,"Longitude":-1.9361514}},"Address":{"Label":"33 Newton Road, Birmingham, B43 6AA, United Kingdom","Country":"GBR","State":"England","County":"West Midlands","City":"Birmingham","District":"Great Barr","Street":"Newton Road","HouseNumber":"33","PostalCode":"B43 6AA","AdditionalData":[{"value":"United Kingdom","key":"CountryName"},{"value":"England","key":"StateName"},{"value":"West Midlands","key":"CountyName"}]},"MapReference":{"ReferenceId":"766824395","Spot":0.17,"SideOfStreet":"left","StateId":"20248595","CountyId":"20358328","CityId":"20358334","DistrictId":"20358363"}}},{"Relevance":1.0,"Distance":24.8,"MatchLevel":"street","MatchQuality":{"Country":1.0,"State":1.0,"County":1.0,"City":1.0,"District":1.0,"Street":[1.0],"PostalCode":1.0},"Location":{"LocationId":"NT_l5EyCUOCWrfQvmodQJOqDA_l_26373122_L","LocationType":"point","DisplayPosition":{"Latitude":52.5453,"Longitude":-1.9383},"MapView":{"TopLeft":{"Latitude":52.5453,"Longitude":-1.93842},"BottomRight":{"Latitude":52.54529,"Longitude":-1.9383}},"Address":{"Label":"Newton Road, Birmingham, B43 6, United Kingdom","Country":"GBR","State":"England","County":"West Midlands","City":"Birmingham","District":"Great Barr","Street":"Newton Road","PostalCode":"B43 6","AdditionalData":[{"value":"United Kingdom","key":"CountryName"},{"value":"England","key":"StateName"},{"value":"West Midlands","key":"CountyName"}]},"MapReference":{"ReferenceId":"26373122","Spot":1.0,"SideOfStreet":"left","StateId":"20248595","CountyId":"20358328","CityId":"20358334","DistrictId":"20358363"}}},{"Relevance":1.0,"Distance":26.4,"MatchLevel":"houseNumber","MatchQuality":{"Country":1.0,"State":1.0,"County":1.0,"City":1.0,"District":1.0,"Street":[1.0],"HouseNumber":1.0,"PostalCode":1.0},"MatchType":"interpolated","Location":{"LocationId":"NT_3zP23ULUzdJJWr6Ng0TfkA_l_766824392_R_2QD","LocationType":"point","DisplayPosition":{"Latitude":52.54531,"Longitude":-1.9380799},"MapView":{"TopLeft":{"Latitude":52.5464342,"Longitude":-1.9399284},"BottomRight":{"Latitude":52.5441859,"Longitude":-1.9362314}},"Address":{"Label":"64 Newton Road, Birmingham, B43 6BW, United Kingdom","Country":"GBR","State":"England","County":"West Midlands","City":"Birmingham","District":"Great Barr","Street":"Newton Road","HouseNumber":"64","PostalCode":"B43 6BW","AdditionalData":[{"value":"United Kingdom","key":"CountryName"},{"value":"England","key":"StateName"},{"value":"West Midlands","key":"CountyName"}]},"MapReference":{"ReferenceId":"766824392","Spot":0.16,"SideOfStreet":"right","StateId":"20248595","CountyId":"20358328","CityId":"20358334","DistrictId":"20358363"}}},{"Relevance":1.0,"Distance":26.6,"MatchLevel":"houseNumber","MatchQuality":{"Country":1.0,"State":1.0,"County":1.0,"City":1.0,"District":1.0,"Street":[1.0],"HouseNumber":1.0,"PostalCode":1.0},"MatchType":"interpolated","Location":{"LocationId":"NT_hHOGkMw22jQjxkepEGbHmB_l_26373110_L_yA","LocationType":"point","DisplayPosition":{"Latitude":52.5454657,"Longitude":-1.9386385},"MapView":{"TopLeft":{"Latitude":52.5465899,"Longitude":-1.9404871},"BottomRight":{"Latitude":52.5443416,"Longitude":-1.93679}},"Address":{"Label":"2 Pages Lane, Birmingham, B43 6LL, United Kingdom","Country":"GBR","State":"England","County":"West Midlands","City":"Birmingham","District":"Great Barr","Street":"Pages Lane","HouseNumber":"2","PostalCode":"B43 6LL","AdditionalData":[{"value":"United Kingdom","key":"CountryName"},{"value":"England","key":"StateName"},{"value":"West Midlands","key":"CountyName"}]},"MapReference":{"ReferenceId":"26373110","Spot":0.51,"SideOfStreet":"left","StateId":"20248595","CountyId":"20358328","CityId":"20358334","DistrictId":"20358363"}}},{"Relevance":1.0,"Distance":33.0,"MatchLevel":"houseNumber","MatchQuality":{"Country":1.0,"State":1.0,"County":1.0,"City":1.0,"District":1.0,"Street":[1.0],"HouseNumber":1.0,"PostalCode":1.0},"MatchType":"interpolated","Location":{"LocationId":"NT_2Hx84WwB9xoZ04fpmYFyLD_l_26373146_R_xA","LocationType":"point","DisplayPosition":{"Latitude":52.5451533,"Longitude":-1.9382767},"MapView":{"TopLeft":{"Latitude":52.5462775,"Longitude":-1.9401252},"BottomRight":{"Latitude":52.5440292,"Longitude":-1.9364282}},"Address":{"Label":"1 Meadowside Close, Birmingham, B43 6BP, United Kingdom","Country":"GBR","State":"England","County":"West Midlands","City":"Birmingham","District":"Great Barr","Street":"Meadowside Close","HouseNumber":"1","PostalCode":"B43 6BP","AdditionalData":[{"value":"United Kingdom","key":"CountryName"},{"value":"England","key":"StateName"},{"value":"West Midlands","key":"CountyName"}]},"MapReference":{"ReferenceId":"26373146","Spot":0.49,"SideOfStreet":"right","StateId":"20248595","CountyId":"20358328","CityId":"20358334","DistrictId":"20358363"}}},{"Relevance":1.0,"Distance":43.2,"MatchLevel":"houseNumber","MatchQuality":{"Country":1.0,"State":1.0,"County":1.0,"City":1.0,"District":1.0,"Street":[1.0],"HouseNumber":1.0,"PostalCode":1.0},"MatchType":"interpolated","Location":{"LocationId":"NT_2Hx84WwB9xoZ04fpmYFyLD_l_26373147_L_yA","LocationType":"point","DisplayPosition":{"Latitude":52.54514,"Longitude":-1.9383767},"MapView":{"TopLeft":{"Latitude":52.5462642,"Longitude":-1.9402252},"BottomRight":{"Latitude":52.5440159,"Longitude":-1.9365281}},"Address":{"Label":"2 Meadowside Close, Birmingham, B43 6BP, United Kingdom","Country":"GBR","State":"England","County":"West Midlands","City":"Birmingham","District":"Great Barr","Street":"Meadowside Close","HouseNumber":"2","PostalCode":"B43 6BP","AdditionalData":[{"value":"United Kingdom","key":"CountryName"},{"value":"England","key":"StateName"},{"value":"West Midlands","key":"CountyName"}]},"MapReference":{"ReferenceId":"26373147","Spot":0.54,"SideOfStreet":"left","StateId":"20248595","CountyId":"20358328","CityId":"20358334","DistrictId":"20358363"}}}]}]}}