{"Response":{"MetaInfo":{"Timestamp":"2020-03-28T10:20:49.942+0000","NextPageInformation":"2"},"View":[{"_type":"SearchResultsViewType","ViewId":0,"Result":[{"Relevance":1.0,"Distance":0.0,"Direction":0.0,"MatchLevel":"district","MatchQuality":{"Country":1.0,"State":1.0,"County":1.0,"City":1.0,"District":1.0,"PostalCode":1.0},"Location":{"LocationId":"NT_FxsVScZ3NU99J6q-EQsYnC","LocationType":"point","DisplayPosition":{"Latitude":52.5320979,"Longitude":13.842363},"MapView":{"TopLeft":{"Latitude":52.59549,"Longitude":13.82805},"BottomRight":{"Latitude":52.53181,"Longitude":13.92436}},"Address":{"Label":"Strausberg, Brandenburg, Deutschland","Country":"DEU","State":"Brandenburg","County":"Märkisch-Oderland","City":"Strausberg","District":"Strausberg","PostalCode":"15344","AdditionalData":[{"value":"Deutschland","key":"CountryName"},{"value":"Brandenburg","key":"StateName"},{"value":"Märkisch-Oderland","key":"CountyName"}]},"MapReference":{"ReferenceId":"60927148","SideOfStreet":"neither","CountryId":"20147700","StateId":"20187428","CountyId":"20188078","CityId":"20212385","DistrictId":"20212567"}}},{"Relevance":1.0,"Distance":12.7,"MatchLevel":"houseNumber","MatchQuality":{"Country":1.0,"State":1.0,"County":1.0,"City":1.0,"District":1.0,"Street":[1.0],"HouseNumber":1.0,"PostalCode":1.0},"MatchType":"interpolated","Location":{"LocationId":"NT_sDY-X9ohBSunkLkS6H64xB_yAD","LocationType":"point","DisplayPosition":{"Latitude":52.53186,"Longitude":13.84248},"MapView":{"TopLeft":{"Latitude":52.5329842,"Longitude":13.840632},"BottomRight":{"Latitude":52.5307358,"Longitude":13.844328}},"Address":{"Label":"Bahnhofstraße 20, 15344 Strausberg, Deutschland","Country":"DEU","State":"Brandenburg","County":"Märkisch-Oderland","City":"Strausberg","District":"Strausberg","Street":"Bahnhofstraße","HouseNumber":"20","PostalCode":"15344","AdditionalData":[{"value":"Deutschland","key":"CountryName"},{"value":"Brandenburg","key":"StateName"},{"value":"Märkisch-Oderland","key":"CountyName"}]},"MapReference":{"ReferenceId":"1191238578","Spot":0.45,"SideOfStreet":"right","CountryId":"20147700","StateId":"20187428","CountyId":"20188078","CityId":"20212385","DistrictId":"20212567","AddressId":"182460952","RoadLinkId":"500736482"}}},{"Relevance":1.0,"Distance":36.0,"MatchLevel":"houseNumber","MatchQuality":{"Country":1.0,"State":1.0,"County":1.0,"City":1.0,"District":1.0,"Street":[1.0],"HouseNumber":1.0,"PostalCode":1.0},"MatchType":"interpolated","Location":{"LocationId":"NT_hRYRdoUCEbw9yKgkWw.8yD_xAD","LocationType":"point","DisplayPosition":{"Latitude":52.53256,"Longitude":13.84229},"MapView":{"TopLeft":{"Latitude":52.5336842,"Longitude":13.840442},"BottomRight":{"Latitude":52.5314358,"Longitude":13.844138}},"Address":{"Label":"Barnimstraße 10, 15344 Strausberg, Deutschland","Country":"DEU","State":"Brandenburg","County":"Märkisch-Oderland","City":"Strausberg","District":"Strausberg","Street":"Barnimstraße","HouseNumber":"10","PostalCode":"15344","AdditionalData":[{"value":"Deutschland","key":"CountryName"},{"value":"Brandenburg","key":"StateName"},{"value":"Märkisch-Oderland","key":"CountyName"}]},"MapReference":{"ReferenceId":"544526430","Spot":0.51,"SideOfStreet":"left","CountryId":"20147700","StateId":"20187428","CountyId":"20188078","CityId":"20212385","DistrictId":"20212567","AddressId":"181798083","RoadLinkId":"37862211"}}},{"Relevance":1.0,"Distance":48.0,"MatchLevel":"houseNumber","MatchQuality":{"Country":1.0,"State":1.0,"County":1.0,"City":1.0,"District":1.0,"Street":[1.0],"HouseNumber":1.0,"PostalCode":1.0},"MatchType":"interpolated","Location":{"LocationId":"NT_sDY-X9ohBSunkLkS6H64xB_yID","LocationType":"point","DisplayPosition":{"Latitude":52.53184,"Longitude":13.84303},"MapView":{"TopLeft":{"Latitude":52.5329642,"Longitude":13.841182},"BottomRight":{"Latitude":52.5307158,"Longitude":13.844878}},"Address":{"Label":"Bahnhofstraße 22, 15344 Strausberg, Deutschland","Country":"DEU","State":"Brandenburg","County":"Märkisch-Oderland","City":"Strausberg","District":"Strausberg","Street":"Bahnhofstraße","HouseNumber":"22","PostalCode":"15344","AdditionalData":[{"value":"Deutschland","key":"CountryName"},{"value":"Brandenburg","key":"StateName"},{"value":"Märkisch-Oderland","key":"CountyName"}]},"MapReference":{"ReferenceId":"1191238577","Spot":0.99,"SideOfStreet":"right","CountryId":"20147700","StateId":"20187428","CountyId":"20188078","CityId":"20212385","DistrictId":"20212567","AddressId":"182460953","RoadLinkId":"500736481"}}},{"Relevance":1.0,"Distance":51.7,"MatchLevel":"houseNumber","MatchQuality":{"Country":1.0,"State":1.0,"County":1.0,"City":1.0,"District":1.0,"Street":[1.0],"HouseNumber":1.0,"PostalCode":1.0},"MatchType":"interpolated","Location":{"LocationId":"NT_sDY-X9ohBSunkLkS6H64xB_xcD","LocationType":"point","DisplayPosition":{"Latitude":52.5319,"Longitude":13.84158},"MapView":{"TopLeft":{"Latitude":52.5330242,"Longitude":13.839732},"BottomRight":{"Latitude":52.5307758,"Longitude":13.843428}},"Address":{"Label":"Bahnhofstraße 17, 15344 Strausberg, Deutschland","Country":"DEU","State":"Brandenburg","County":"Märkisch-Oderland","City":"Strausberg","District":"Strausberg","Street":"Bahnhofstraße","HouseNumber":"17","PostalCode":"15344","AdditionalData":[{"value":"Deutschland","key":"CountryName"},{"value":"Brandenburg","key":"StateName"},{"value":"Märkisch-Oderland","key":"CountyName"}]},"MapReference":{"ReferenceId":"985584520","Spot":0.04,"SideOfStreet":"right","CountryId":"20147700","StateId":"20187428","CountyId":"20188078","CityId":"20212385","DistrictId":"20212567","AddressId":"181805358","RoadLinkId":"316410214"}}},{"Relevance":1.0,"Distance":56.7,"MatchLevel":"houseNumber","MatchQuality":{"Country":1.0,"State":1.0,"County":1.0,"City":1.0,"Street":[1.0],"HouseNumber":1.0,"PostalCode":1.0},"MatchType":"interpolated","Location":{"LocationId":"NT_YkVP8YmUQQJQKjp.PzCAYC_zA","LocationType":"point","DisplayPosition":{"Latitude":52.53159,"Longitude":13.84244},"MapView":{"TopLeft":{"Latitude":52.5327142,"Longitude":13.8405921},"BottomRight":{"Latitude":52.5304658,"Longitude":13.8442879}},"Address":{"Label":"Hennickendorfer Chaussee 3, 15344 Strausberg, Deutschland","Country":"DEU","State":"Brandenburg","County":"Märkisch-Oderland","City":"Strausberg","Street":"Hennickendorfer Chaussee","HouseNumber":"3","PostalCode":"15344","AdditionalData":[{"value":"Deutschland","key":"CountryName"},{"value":"Brandenburg","key":"StateName"},{"value":"Märkisch-Oderland","key":"CountyName"}]},"MapReference":{"ReferenceId":"1122819219","Spot":0.79,"SideOfStreet":"left","CountryId":"20147700","StateId":"20187428","CountyId":"20188078","CityId":"20212385","AddressId":"182698410","RoadLinkId":"433069537"}}},{"Relevance":1.0,"Distance":59.5,"MatchLevel":"houseNumber","MatchQuality":{"Country":1.0,"State":1.0,"County":1.0,"City":1.0,"Street":[1.0],"HouseNumber":1.0,"PostalCode":1.0},"MatchType":"interpolated","Location":{"LocationId":"NT_YkVP8YmUQQJQKjp.PzCAYC_xA","LocationType":"point","DisplayPosition":{"Latitude":52.53161,"Longitude":13.842},"MapView":{"TopLeft":{"Latitude":52.5327342,"Longitude":13.840152},"BottomRight":{"Latitude":52.5304858,"Longitude":13.843848}},"Address":{"Label":"Hennickendorfer Chaussee 1, 15344 Strausberg, Deutschland","Country":"DEU","State":"Brandenburg","County":"Märkisch-Oderland","City":"Strausberg","Street":"Hennickendorfer Chaussee","HouseNumber":"1","PostalCode":"15344","AdditionalData":[{"value":"Deutschland","key":"CountryName"},{"value":"Brandenburg","key":"StateName"},{"value":"Märkisch-Oderland","key":"CountyName"}]},"MapReference":{"ReferenceId":"1122819220","Spot":0.24,"SideOfStreet":"left","CountryId":"20147700","StateId":"20187428","CountyId":"20188078","CityId":"20212385","AddressId":"182698409","RoadLinkId":"433069538"}}},{"Relevance":1.0,"Distance":70.5,"MatchLevel":"street","MatchQuality":{"Country":1.0,"State":1.0,"County":1.0,"City":1.0,"PostalCode":1.0},"Location":{"LocationId":"NT_lp7JMVlK3tX5tYpXG7Fi1D_l_985584524_R","LocationType":"point","DisplayPosition":{"Latitude":52.53163,"Longitude":13.84166},"MapView":{"TopLeft":{"Latitude":52.5318,"Longitude":13.83573},"BottomRight":{"Latitude":52.53163,"Longitude":13.84166}},"Address":{"Label":"15344 Strausberg, Deutschland","Country":"DEU","State":"Brandenburg","County":"Märkisch-Oderland","City":"Strausberg","PostalCode":"15344","AdditionalData":[{"value":"Deutschland","key":"CountryName"},{"value":"Brandenburg","key":"StateName"},{"value":"Märkisch-Oderland","key":"CountyName"}]},"MapReference":{"ReferenceId":"985584524","Spot":0.0,"SideOfStreet":"right","CountryId":"20147700","StateId":"20187428","CountyId":"20188078","CityId":"20212385"}}},{"Relevance":1.0,"Distance":108.5,"MatchLevel":"street","MatchQuality":{"Country":1.0,"State":1.0,"County":1.0,"City":1.0,"Street":[1.0],"PostalCode":1.0},"Location":{"LocationId":"NT_YkVP8YmUQQJQKjp.PzCAYC_l_1122819225_L","LocationType":"point","DisplayPosition":{"Latitude":52.53163,"Longitude":13.84377},"MapView":{"TopLeft":{"Latitude":52.53167,"Longitude":13.84377},"BottomRight":{"Latitude":52.53163,"Longitude":13.84381}},"Address":{"Label":"Hennickendorfer Chaussee, 15344 Strausberg, Deutschland","Country":"DEU","State":"Brandenburg","County":"Märkisch-Oderland","City":"Strausberg","Street":"Hennickendorfer Chaussee","PostalCode":"15344","AdditionalData":[{"value":"Deutschland","key":"CountryName"},{"value":"Brandenburg","key":"StateName"},{"value":"Märkisch-Oderland","key":"CountyName"}]},"MapReference":{"ReferenceId":"1122819225","Spot":0.0,"SideOfStreet":"left","CountryId":"20147700","StateId":"20187428","CountyId":"20188078","CityId":"20212385"}}},{"Relevance":1.0,"Distance":109.5,"MatchLevel":"street","MatchQuality":{"Country":1.0,"State":1.0,"County":1.0,"City":1.0,"Street":[1.0],"PostalCode":1.0},"Location":{"LocationId":"NT_YkVP8YmUQQJQKjp.PzCAYC_l_1122819224_L","LocationType":"point","DisplayPosition":{"Latitude":52.5315,"Longitude":13.84365},"MapView":{"TopLeft":{"Latitude":52.53163,"Longitude":13.84365},"BottomRight":{"Latitude":52.5315,"Longitude":13.84377}},"Address":{"Label":"Hennickendorfer Chaussee, 15344 Strausberg, Deutschland","Country":"DEU","State":"Brandenburg","County":"Märkisch-Oderland","City":"Strausberg","Street":"Hennickendorfer Chaussee","PostalCode":"15344","AdditionalData":[{"value":"Deutschland","key":"CountryName"},{"value":"Brandenburg","key":"StateName"},{"value":"Märkisch-Oderland","key":"CountyName"}]},"MapReference":{"ReferenceId":"1122819224","Spot":0.0,"SideOfStreet":"left","CountryId":"20147700","StateId":"20187428","CountyId":"20188078","CityId":"20212385"}}}]}]}}