{"Response":{"MetaInfo":{"Timestamp":"2020-03-28T09:50:28.116+0000","NextPageInformation":"2"},"View":[{"_type":"SearchResultsViewType","ViewId":0,"Result":[{"Relevance":1.0,"Distance":0.0,"Direction":0.0,"MatchLevel":"district","MatchQuality":{"Country":1.0,"State":1.0,"County":1.0,"City":1.0,"District":1.0,"PostalCode":1.0},"Location":{"LocationId":"NT_v-zVot3KjlnJQhk3EONTqA","LocationType":"point","DisplayPosition":{"Latitude":52.5350946,"Longitude":-2.4244969},"MapView":{"TopLeft":{"Latitude":52.54504,"Longitude":-2.44549},"BottomRight":{"Latitude":52.52203,"Longitude":-2.39526}},"Address":{"Label":"Bridgnorth, England, United Kingdom","Country":"GBR","State":"England","County":"Shropshire","City":"Bridgnorth","District":"Bridgnorth","PostalCode":"WV16 4","AdditionalData":[{"value":"United Kingdom","key":"CountryName"},{"value":"England","key":"StateName"},{"value":"Shropshire","key":"CountyName"}]},"MapReference":{"ReferenceId":"779308461","SideOfStreet":"neither","StateId":"20248595","CountyId":"20343211","CityId":"20349543","DistrictId":"20349544"}}},{"Relevance":1.0,"Distance":7.9,"MatchLevel":"houseNumber","MatchQuality":{"Country":1.0,"State":1.0,"County":1.0,"City":1.0,"District":1.0,"Street":[1.0],"HouseNumber":1.0,"PostalCode":1.0},"MatchType":"interpolated","Location":{"LocationId":"NT_lnZ3lcwgH-WQdOYLWsvFtD_l_1185419444_R_zMD","LocationType":"point","DisplayPosition":{"Latitude":52.53518,"Longitude":-2.42445},"MapView":{"TopLeft":{"Latitude":52.5363042,"Longitude":-2.4262981},"BottomRight":{"Latitude":52.5340559,"Longitude":-2.4226019}},"Address":{"Label":"33 Salop Street, Bridgnorth, WV16 5, United Kingdom","Country":"GBR","State":"England","County":"Shropshire","City":"Bridgnorth","District":"Bridgnorth","Street":"Salop Street","HouseNumber":"33","PostalCode":"WV16 5","AdditionalData":[{"value":"United Kingdom","key":"CountryName"},{"value":"England","key":"StateName"},{"value":"Shropshire","key":"CountyName"}]},"MapReference":{"ReferenceId":"1185419444","Spot":0.39,"SideOfStreet":"right","StateId":"20248595","CountyId":"20343211","CityId":"20349543","DistrictId":"20349544"}}},{"Relevance":1.0,"Distance":21.9,"MatchLevel":"postalCode","MatchQuality":{"PostalCode":1.0},"MatchType":"interpolated","Location":{"LocationId":"NT_jxJ0xbTYo9lkXLV5eNRPbC_l_1185419445_L_zID","LocationType":"point","DisplayPosition":{"Latitude":52.53509,"Longitude":-2.42482},"MapView":{"TopLeft":{"Latitude":52.5440832,"Longitude":-2.4396048},"BottomRight":{"Latitude":52.5260968,"Longitude":-2.4100352}},"Address":{"Label":"WV16 5BR, Bridgnorth, England, United Kingdom","Country":"GBR","State":"England","County":"Shropshire","City":"Bridgnorth","PostalCode":"WV16 5BR","AdditionalData":[{"value":"United Kingdom","key":"CountryName"},{"value":"England","key":"StateName"},{"value":"Shropshire","key":"CountyName"}]},"MapReference":{"ReferenceId":"1185419445","Spot":0.07,"SideOfStreet":"neither","StateId":"20248595","CountyId":"20343211","CityId":"20349543"}}},{"Relevance":1.0,"Distance":27.1,"MatchLevel":"houseNumber","MatchQuality":{"Country":1.0,"State":1.0,"County":1.0,"City":1.0,"District":1.0,"Street":[1.0],"HouseNumber":1.0,"PostalCode":1.0},"MatchType":"interpolated","Location":{"LocationId":"NT_jxJ0xbTYo9lkXLV5eNRPbC_l_1185419445_L_zID","LocationType":"point","DisplayPosition":{"Latitude":52.53514,"Longitude":-2.4248902},"MapView":{"TopLeft":{"Latitude":52.5362642,"Longitude":-2.4267383},"BottomRight":{"Latitude":52.5340159,"Longitude":-2.4230421}},"Address":{"Label":"32 Salop Street, Bridgnorth, WV16 5, United Kingdom","Country":"GBR","State":"England","County":"Shropshire","City":"Bridgnorth","District":"Bridgnorth","Street":"Salop Street","HouseNumber":"32","PostalCode":"WV16 5","AdditionalData":[{"value":"United Kingdom","key":"CountryName"},{"value":"England","key":"StateName"},{"value":"Shropshire","key":"CountyName"}]},"MapReference":{"ReferenceId":"1185419445","Spot":0.07,"SideOfStreet":"left","StateId":"20248595","CountyId":"20343211","CityId":"20349543","DistrictId":"20349544"}}},{"Relevance":1.0,"Distance":31.2,"MatchLevel":"houseNumber","MatchQuality":{"Country":1.0,"State":1.0,"County":1.0,"City":1.0,"District":1.0,"Street":[1.0],"HouseNumber":1.0,"PostalCode":1.0},"MatchType":"interpolated","Location":{"LocationId":"NT_UOB1mm-T7HyKR-36vXsq2D_l_843918720_L_xA","LocationType":"point","DisplayPosition":{"Latitude":52.5350977,"Longitude":-2.4239449},"MapView":{"TopLeft":{"Latitude":52.5362219,"Longitude":-2.425793},"BottomRight":{"Latitude":52.5339735,"Longitude":-2.4220968}},"Address":{"Label":"1 Pound Street, Bridgnorth, WV16 4AP, United Kingdom","Country":"GBR","State":"England","County":"Shropshire","City":"Bridgnorth","District":"Bridgnorth","Street":"Pound Street","HouseNumber":"1","PostalCode":"WV16 4AP","AdditionalData":[{"value":"United Kingdom","key":"CountryName"},{"value":"England","key":"StateName"},{"value":"Shropshire","key":"CountyName"}]},"MapReference":{"ReferenceId":"843918720","Spot":0.66,"SideOfStreet":"left","StateId":"20248595","CountyId":"20343211","CityId":"20349543","DistrictId":"20349544"}}},{"Relevance":1.0,"Distance":42.3,"MatchLevel":"postalCode","MatchQuality":{"PostalCode":1.0},"MatchType":"interpolated","Location":{"LocationId":"NT_UOB1mm-T7HyKR-36vXsq2D_l_843918720_L_xA","LocationType":"point","DisplayPosition":{"Latitude":52.53498,"Longitude":-2.4239},"MapView":{"TopLeft":{"Latitude":52.5439732,"Longitude":-2.4386847},"BottomRight":{"Latitude":52.5259868,"Longitude":-2.4091153}},"Address":{"Label":"WV16 4AP, Bridgnorth, England, United Kingdom","Country":"GBR","State":"England","County":"Shropshire","City":"Bridgnorth","PostalCode":"WV16 4AP","AdditionalData":[{"value":"United Kingdom","key":"CountryName"},{"value":"England","key":"StateName"},{"value":"Shropshire","key":"CountyName"}]},"MapReference":{"ReferenceId":"843918720","Spot":0.66,"SideOfStreet":"neither","StateId":"20248595","CountyId":"20343211","CityId":"20349543"}}},{"Relevance":1.0,"Distance":48.3,"MatchLevel":"houseNumber","MatchQuality":{"Country":1.0,"State":1.0,"County":1.0,"City":1.0,"District":1.0,"Street":[1.0],"HouseNumber":1.0,"PostalCode":1.0},"MatchType":"interpolated","Location":{"LocationId":"NT_Mu3KhtQ6AvmthIWYFOkSGC_l_26197813_L_1AD","LocationType":"point","DisplayPosition":{"Latitude":52.5353501,"Longitude":-2.4239199},"MapView":{"TopLeft":{"Latitude":52.5364742,"Longitude":-2.425768},"BottomRight":{"Latitude":52.5342259,"Longitude":-2.4220718}},"Address":{"Label":"50 Whitburn Street, Bridgnorth, WV16 4, United Kingdom","Country":"GBR","State":"England","County":"Shropshire","City":"Bridgnorth","District":"Bridgnorth","Street":"Whitburn Street","HouseNumber":"50","PostalCode":"WV16 4","AdditionalData":[{"value":"United Kingdom","key":"CountryName"},{"value":"England","key":"StateName"},{"value":"Shropshire","key":"CountyName"}]},"MapReference":{"ReferenceId":"26197813","Spot":0.21,"SideOfStreet":"left","StateId":"20248595","CountyId":"20343211","CityId":"20349543","DistrictId":"20349544"}}},{"Relevance":1.0,"Distance":58.5,"MatchLevel":"street","MatchQuality":{"Country":1.0,"State":1.0,"County":1.0,"City":1.0,"District":1.0,"Street":[1.0],"PostalCode":1.0},"Location":{"LocationId":"NT_WNgfFiHH66SkD02cx3AyPD_l_843918721_L","LocationType":"point","DisplayPosition":{"Latitude":52.53463,"Longitude":-2.42409},"MapView":{"TopLeft":{"Latitude":52.53474,"Longitude":-2.42409},"BottomRight":{"Latitude":52.53463,"Longitude":-2.42362}},"Address":{"Label":"Squirrel Court, Bridgnorth, WV16 4, United Kingdom","Country":"GBR","State":"England","County":"Shropshire","City":"Bridgnorth","District":"Bridgnorth","Street":"Squirrel Court","PostalCode":"WV16 4","AdditionalData":[{"value":"United Kingdom","key":"CountryName"},{"value":"England","key":"StateName"},{"value":"Shropshire","key":"CountyName"}]},"MapReference":{"ReferenceId":"843918721","Spot":0.0,"SideOfStreet":"left","StateId":"20248595","CountyId":"20343211","CityId":"20349543","DistrictId":"20349544"}}},{"Relevance":1.0,"Distance":71.7,"MatchLevel":"postalCode","MatchQuality":{"PostalCode":1.0},"MatchType":"interpolated","Location":{"LocationId":"NT_Mu3KhtQ6AvmthIWYFOkSGC_l_26197813_L_1AD","LocationType":"point","DisplayPosition":{"Latitude":52.53549,"Longitude":-2.42366},"MapView":{"TopLeft":{"Latitude":52.5444832,"Longitude":-2.4384449},"BottomRight":{"Latitude":52.5264968,"Longitude":-2.4088751}},"Address":{"Label":"WV16 4QT, Bridgnorth, England, United Kingdom","Country":"GBR","State":"England","County":"Shropshire","City":"Bridgnorth","PostalCode":"WV16 4QT","AdditionalData":[{"value":"United Kingdom","key":"CountryName"},{"value":"England","key":"StateName"},{"value":"Shropshire","key":"CountyName"}]},"MapReference":{"ReferenceId":"26197813","Spot":0.21,"SideOfStreet":"neither","StateId":"20248595","CountyId":"20343211","CityId":"20349543"}}},{"Relevance":1.0,"Distance":77.2,"MatchLevel":"houseNumber","MatchQuality":{"Country":1.0,"State":1.0,"County":1.0,"City":1.0,"District":1.0,"Street":[1.0],"HouseNumber":1.0,"PostalCode":1.0},"MatchType":"interpolated","Location":{"LocationId":"NT_UOB1mm-T7HyKR-36vXsq2D_l_843918719_L_2A","LocationType":"point","DisplayPosition":{"Latitude":52.5346871,"Longitude":-2.4235681},"MapView":{"TopLeft":{"Latitude":52.5358113,"Longitude":-2.4254162},"BottomRight":{"Latitude":52.533563,"Longitude":-2.42172}},"Address":{"Label":"6 Pound Street, Bridgnorth, WV16 4BS, United Kingdom","Country":"GBR","State":"England","County":"Shropshire","City":"Bridgnorth","District":"Bridgnorth","Street":"Pound Street","HouseNumber":"6","PostalCode":"WV16 4BS","AdditionalData":[{"value":"United Kingdom","key":"CountryName"},{"value":"England","key":"StateName"},{"value":"Shropshire","key":"CountyName"}]},"MapReference":{"ReferenceId":"843918719","Spot":0.48,"SideOfStreet":"left","StateId":"20248595","CountyId":"20343211","CityId":"20349543","DistrictId":"20349544"}}}]}]}}