{"Response":{"MetaInfo":{"Timestamp":"2020-03-28T10:57:20.853+0000","NextPageInformation":"2"},"View":[{"_type":"SearchResultsViewType","ViewId":0,"Result":[{"Relevance":1.0,"Distance":0.0,"Direction":0.0,"MatchLevel":"district","MatchQuality":{"Country":1.0,"State":1.0,"County":1.0,"City":1.0,"District":1.0,"PostalCode":1.0},"Location":{"LocationId":"NT_lovCBPy2NDIRxhSnztHFPD","LocationType":"point","DisplayPosition":{"Latitude":52.5547557,"Longitude":13.3686182},"MapView":{"TopLeft":{"Latitude":52.56761,"Longitude":13.36545},"BottomRight":{"Latitude":52.5334,"Longitude":13.4043}},"Address":{"Label":"Gesundbrunnen, Berlin, Deutschland","Country":"DEU","State":"Berlin","County":"Berlin","City":"Berlin","District":"Gesundbrunnen","PostalCode":"13357","AdditionalData":[{"value":"Deutschland","key":"CountryName"},{"value":"Berlin","key":"StateName"},{"value":"Berlin","key":"CountyName"}]},"MapReference":{"ReferenceId":"1248638960","SideOfStreet":"neither","CountryId":"20147700","StateId":"20187401","CountyId":"20187402","CityId":"20187403","DistrictId":"20428239"}}},{"Relevance":1.0,"Distance":18.9,"MatchLevel":"houseNumber","MatchQuality":{"Country":1.0,"State":1.0,"County":1.0,"City":1.0,"District":1.0,"Street":[1.0],"HouseNumber":1.0,"PostalCode":1.0},"MatchType":"interpolated","Location":{"LocationId":"NT_tBtlf1z13Kp1N0JEJPjXvA_zEE","LocationType":"point","DisplayPosition":{"Latitude":52.55469,"Longitude":13.36836},"MapView":{"TopLeft":{"Latitude":52.5558142,"Longitude":13.3665111},"BottomRight":{"Latitude":52.5535658,"Longitude":13.3702089}},"Address":{"Label":"Iranische Straße 3A, 13347 Berlin, Deutschland","Country":"DEU","State":"Berlin","County":"Berlin","City":"Berlin","District":"Gesundbrunnen","Street":"Iranische Straße","HouseNumber":"3A","PostalCode":"13347","AdditionalData":[{"value":"Deutschland","key":"CountryName"},{"value":"Berlin","key":"StateName"},{"value":"Berlin","key":"CountyName"}]},"MapReference":{"ReferenceId":"592185696","Spot":0.5,"SideOfStreet":"left","CountryId":"20147700","StateId":"20187401","CountyId":"20187402","CityId":"20187403","DistrictId":"20428239","AddressId":"769570111","RoadLinkId":"37765149"}}},{"Relevance":1.0,"Distance":26.4,"MatchLevel":"landmark","MatchQuality":{"Country":1.0,"State":1.0,"County":1.0,"City":1.0,"District":1.0,"Street":[1.0],"HouseNumber":1.0,"PostalCode":1.0,"Name":1.0},"Location":{"LocationId":"NT_YE7cnalmR7Q2ahjt55FAkD_p_-B9tRtpOXrG8-kOb0yzapB","LocationType":"hospital","Name":"Jüdisches Krankenhaus Berlin","DisplayPosition":{"Latitude":52.55569,"Longitude":13.3721},"MapView":{"TopLeft":{"Latitude":52.5568142,"Longitude":13.370251},"BottomRight":{"Latitude":52.5545658,"Longitude":13.373949}},"Address":{"Label":"Heinz-Galinski-Straße 1, 13347 Berlin, Deutschland","Country":"DEU","State":"Berlin","County":"Berlin","City":"Berlin","District":"Gesundbrunnen","Street":"Heinz-Galinski-Straße","HouseNumber":"1","PostalCode":"13347","AdditionalData":[{"value":"Deutschland","key":"CountryName"},{"value":"Berlin","key":"StateName"},{"value":"Berlin","key":"CountyName"}]},"MapReference":{"CountryId":"20147700","StateId":"20187401","CountyId":"20187402","CityId":"20187403","DistrictId":"20428239","PlaceId":"56123360"}}},{"Relevance":1.0,"Distance":30.5,"MatchLevel":"houseNumber","MatchQuality":{"Country":1.0,"State":1.0,"County":1.0,"City":1.0,"District":1.0,"Street":[1.0],"HouseNumber":1.0,"PostalCode":1.0},"MatchType":"interpolated","Location":{"LocationId":"NT_tBtlf1z13Kp1N0JEJPjXvA_0A","LocationType":"point","DisplayPosition":{"Latitude":52.55462,"Longitude":13.36901},"MapView":{"TopLeft":{"Latitude":52.5557442,"Longitude":13.3671611},"BottomRight":{"Latitude":52.5534958,"Longitude":13.3708589}},"Address":{"Label":"Iranische Straße 4, 13347 Berlin, Deutschland","Country":"DEU","State":"Berlin","County":"Berlin","City":"Berlin","District":"Gesundbrunnen","Street":"Iranische Straße","HouseNumber":"4","PostalCode":"13347","AdditionalData":[{"value":"Deutschland","key":"CountryName"},{"value":"Berlin","key":"StateName"},{"value":"Berlin","key":"CountyName"}]},"MapReference":{"ReferenceId":"53503463","Spot":0.97,"SideOfStreet":"right","CountryId":"20147700","StateId":"20187401","CountyId":"20187402","CityId":"20187403","DistrictId":"20428239","AddressId":"168196029","RoadLinkId":"37887291"}}},{"Relevance":1.0,"Distance":67.8,"MatchLevel":"houseNumber","MatchQuality":{"Country":1.0,"State":1.0,"County":1.0,"City":1.0,"District":1.0,"Street":[1.0],"HouseNumber":1.0,"PostalCode":1.0},"MatchType":"interpolated","Location":{"LocationId":"NT_tBtlf1z13Kp1N0JEJPjXvA_2A","LocationType":"point","DisplayPosition":{"Latitude":52.55475,"Longitude":13.3677},"MapView":{"TopLeft":{"Latitude":52.5558742,"Longitude":13.3658511},"BottomRight":{"Latitude":52.5536258,"Longitude":13.3695489}},"Address":{"Label":"Iranische Straße 6, 13347 Berlin, Deutschland","Country":"DEU","State":"Berlin","County":"Berlin","City":"Berlin","District":"Gesundbrunnen","Street":"Iranische Straße","HouseNumber":"6","PostalCode":"13347","AdditionalData":[{"value":"Deutschland","key":"CountryName"},{"value":"Berlin","key":"StateName"},{"value":"Berlin","key":"CountyName"}]},"MapReference":{"ReferenceId":"592185697","Spot":0.05,"SideOfStreet":"right","CountryId":"20147700","StateId":"20187401","CountyId":"20187402","CityId":"20187403","DistrictId":"20428239","AddressId":"170225719","RoadLinkId":"37616329"}}},{"Relevance":1.0,"Distance":126.3,"MatchLevel":"houseNumber","MatchQuality":{"Country":1.0,"State":1.0,"County":1.0,"City":1.0,"District":1.0,"Street":[1.0],"HouseNumber":1.0,"PostalCode":1.0},"MatchType":"interpolated","Location":{"LocationId":"NT_y1OSod3nAVCH7JNqRhXaMB_5cD","LocationType":"point","DisplayPosition":{"Latitude":52.55338,"Longitude":13.37032},"MapView":{"TopLeft":{"Latitude":52.5545042,"Longitude":13.3684711},"BottomRight":{"Latitude":52.5522558,"Longitude":13.3721689}},"Address":{"Label":"Schulstraße 97, 13347 Berlin, Deutschland","Country":"DEU","State":"Berlin","County":"Berlin","City":"Berlin","District":"Gesundbrunnen","Street":"Schulstraße","HouseNumber":"97","PostalCode":"13347","AdditionalData":[{"value":"Deutschland","key":"CountryName"},{"value":"Berlin","key":"StateName"},{"value":"Berlin","key":"CountyName"}]},"MapReference":{"ReferenceId":"53502439","Spot":0.31,"SideOfStreet":"left","CountryId":"20147700","StateId":"20187401","CountyId":"20187402","CityId":"20187403","DistrictId":"20428239","AddressId":"170552637","RoadLinkId":"37958752"}}},{"Relevance":1.0,"Distance":150.8,"MatchLevel":"houseNumber","MatchQuality":{"Country":1.0,"State":1.0,"County":1.0,"City":1.0,"District":1.0,"Street":[1.0],"HouseNumber":1.0,"PostalCode":1.0},"MatchType":"interpolated","Location":{"LocationId":"NT_fhSPMs8HXkks23PbkGrRKB_1gjQ","LocationType":"point","DisplayPosition":{"Latitude":52.55467,"Longitude":13.36609},"MapView":{"TopLeft":{"Latitude":52.5557942,"Longitude":13.3642411},"BottomRight":{"Latitude":52.5535458,"Longitude":13.3679389}},"Address":{"Label":"Reinickendorfer Straße 58B, 13347 Berlin, Deutschland","Country":"DEU","State":"Berlin","County":"Berlin","City":"Berlin","District":"Wedding","Street":"Reinickendorfer Straße","HouseNumber":"58B","PostalCode":"13347","AdditionalData":[{"value":"Deutschland","key":"CountryName"},{"value":"Berlin","key":"StateName"},{"value":"Berlin","key":"CountyName"}]},"MapReference":{"ReferenceId":"1196879434","Spot":0.45,"SideOfStreet":"right","CountryId":"20147700","StateId":"20187401","CountyId":"20187402","CityId":"20187403","DistrictId":"20187406","AddressId":"167932554","RoadLinkId":"507511968"}}},{"Relevance":1.0,"Distance":156.7,"MatchLevel":"houseNumber","MatchQuality":{"Country":1.0,"State":1.0,"County":1.0,"City":1.0,"District":1.0,"Street":[1.0],"HouseNumber":1.0,"PostalCode":1.0},"MatchType":"interpolated","Location":{"LocationId":"NT_fhSPMs8HXkks23PbkGrRKB_1gTQ","LocationType":"point","DisplayPosition":{"Latitude":52.55414,"Longitude":13.3662},"MapView":{"TopLeft":{"Latitude":52.5552642,"Longitude":13.3643511},"BottomRight":{"Latitude":52.5530158,"Longitude":13.3680489}},"Address":{"Label":"Reinickendorfer Straße 58A, 13347 Berlin, Deutschland","Country":"DEU","State":"Berlin","County":"Berlin","City":"Berlin","District":"Wedding","Street":"Reinickendorfer Straße","HouseNumber":"58A","PostalCode":"13347","AdditionalData":[{"value":"Deutschland","key":"CountryName"},{"value":"Berlin","key":"StateName"},{"value":"Berlin","key":"CountyName"}]},"MapReference":{"ReferenceId":"53503559","Spot":0.58,"SideOfStreet":"right","CountryId":"20147700","StateId":"20187401","CountyId":"20187402","CityId":"20187403","DistrictId":"20187406","AddressId":"168805211","RoadLinkId":"37453899"}}},{"Relevance":1.0,"Distance":156.7,"MatchLevel":"street","MatchQuality":{"Country":1.0,"State":1.0,"County":1.0,"City":1.0,"District":1.0,"Street":[1.0],"PostalCode":1.0},"Location":{"LocationId":"NT_tBtlf1z13Kp1N0JEJPjXvA_l_53503464_R","LocationType":"point","DisplayPosition":{"Latitude":52.55442,"Longitude":13.37087},"MapView":{"TopLeft":{"Latitude":52.55442,"Longitude":13.37087},"BottomRight":{"Latitude":52.55438,"Longitude":13.37124}},"Address":{"Label":"Iranische Straße, 13347 Berlin, Deutschland","Country":"DEU","State":"Berlin","County":"Berlin","City":"Berlin","District":"Gesundbrunnen","Street":"Iranische Straße","PostalCode":"13347","AdditionalData":[{"value":"Deutschland","key":"CountryName"},{"value":"Berlin","key":"StateName"},{"value":"Berlin","key":"CountyName"}]},"MapReference":{"ReferenceId":"53503464","Spot":1.0,"SideOfStreet":"right","CountryId":"20147700","StateId":"20187401","CountyId":"20187402","CityId":"20187403","DistrictId":"20428239"}}},{"Relevance":1.0,"Distance":170.6,"MatchLevel":"street","MatchQuality":{"Country":1.0,"State":1.0,"County":1.0,"City":1.0,"District":1.0,"PostalCode":1.0},"Location":{"LocationId":"NT_F6q3mSFPWXZqccCe4dGn3A_l_53503702_L","LocationType":"point","DisplayPosition":{"Latitude":52.55459,"Longitude":13.36611},"MapView":{"TopLeft":{"Latitude":52.55459,"Longitude":13.36594},"BottomRight":{"Latitude":52.55459,"Longitude":13.36611}},"Address":{"Label":"13347 Berlin, Deutschland","Country":"DEU","State":"Berlin","County":"Berlin","City":"Berlin","District":"Wedding","PostalCode":"13347","AdditionalData":[{"value":"Deutschland","key":"CountryName"},{"value":"Berlin","key":"StateName"},{"value":"Berlin","key":"CountyName"}]},"MapReference":{"ReferenceId":"53503702","Spot":1.0,"SideOfStreet":"left","CountryId":"20147700","StateId":"20187401","CountyId":"20187402","CityId":"20187403","DistrictId":"20187406"}}}]}]}}