{"Response":{"MetaInfo":{"Timestamp":"2020-03-28T10:06:59.469+0000","NextPageInformation":"2"},"View":[{"_type":"SearchResultsViewType","ViewId":0,"Result":[{"Relevance":1.0,"Distance":0.0,"Direction":0.0,"MatchLevel":"district","MatchQuality":{"Country":1.0,"State":1.0,"County":1.0,"City":1.0,"District":1.0,"PostalCode":1.0},"Location":{"LocationId":"NT_ATBcrTqHxbMhnunz7jBNaC","LocationType":"point","DisplayPosition":{"Latitude":52.5159425,"Longitude":-1.7352642},"MapView":{"TopLeft":{"Latitude":52.52123,"Longitude":-1.75707},"BottomRight":{"Latitude":52.5112,"Longitude":-1.72713}},"Address":{"Label":"Water Orton, Birmingham, England, United Kingdom","Country":"GBR","State":"England","County":"West Midlands","City":"Birmingham","District":"Water Orton","PostalCode":"B46 1","AdditionalData":[{"value":"United Kingdom","key":"CountryName"},{"value":"England","key":"StateName"},{"value":"West Midlands","key":"CountyName"}]},"MapReference":{"ReferenceId":"779159966","SideOfStreet":"neither","StateId":"20248595","CountyId":"20358328","CityId":"20358334","DistrictId":"20358406"}}},{"Relevance":1.0,"Distance":6.9,"MatchLevel":"houseNumber","MatchQuality":{"Country":1.0,"State":1.0,"County":1.0,"City":1.0,"District":1.0,"Street":[1.0],"HouseNumber":1.0,"PostalCode":1.0},"MatchType":"interpolated","Location":{"LocationId":"NT_TXg2vojJBE4Scut9G50lwA_l_26313862_R_xEjM","LocationType":"point","DisplayPosition":{"Latitude":52.516126,"Longitude":-1.7351934},"MapView":{"TopLeft":{"Latitude":52.5172501,"Longitude":-1.7370407},"BottomRight":{"Latitude":52.5150018,"Longitude":-1.7333461}},"Address":{"Label":"112 Coleshill Road, Birmingham, B46 1RD, United Kingdom","Country":"GBR","State":"England","County":"West Midlands","City":"Birmingham","District":"Water Orton","Street":"Coleshill Road","HouseNumber":"112","PostalCode":"B46 1RD","AdditionalData":[{"value":"United Kingdom","key":"CountryName"},{"value":"England","key":"StateName"},{"value":"West Midlands","key":"CountyName"}]},"MapReference":{"ReferenceId":"26313862","Spot":0.9,"SideOfStreet":"right","StateId":"20248595","CountyId":"20358328","CityId":"20358334","DistrictId":"20358406"}}},{"Relevance":1.0,"Distance":12.9,"MatchLevel":"houseNumber","MatchQuality":{"Country":1.0,"State":1.0,"County":1.0,"City":1.0,"District":1.0,"Street":[1.0],"HouseNumber":1.0,"PostalCode":1.0},"MatchType":"interpolated","Location":{"LocationId":"NT_gh99v771HiwOOxGGtv25ZA_l_26313870_L_5A","LocationType":"point","DisplayPosition":{"Latitude":52.5159131,"Longitude":-1.7348567},"MapView":{"TopLeft":{"Latitude":52.5170373,"Longitude":-1.736704},"BottomRight":{"Latitude":52.514789,"Longitude":-1.7330094}},"Address":{"Label":"9 Openfield Croft, Birmingham, B46 1, United Kingdom","Country":"GBR","State":"England","County":"West Midlands","City":"Birmingham","District":"Water Orton","Street":"Openfield Croft","HouseNumber":"9","PostalCode":"B46 1","AdditionalData":[{"value":"United Kingdom","key":"CountryName"},{"value":"England","key":"StateName"},{"value":"West Midlands","key":"CountyName"}]},"MapReference":{"ReferenceId":"26313870","Spot":0.68,"SideOfStreet":"left","StateId":"20248595","CountyId":"20358328","CityId":"20358334","DistrictId":"20358406"}}},{"Relevance":1.0,"Distance":33.7,"MatchLevel":"street","MatchQuality":{"Country":1.0,"State":1.0,"County":1.0,"City":1.0,"District":1.0,"Street":[1.0],"PostalCode":1.0},"Location":{"LocationId":"NT_TXg2vojJBE4Scut9G50lwA_l_26313860_L","LocationType":"point","DisplayPosition":{"Latitude":52.51611,"Longitude":-1.73485},"MapView":{"TopLeft":{"Latitude":52.51611,"Longitude":-1.73485},"BottomRight":{"Latitude":52.51609,"Longitude":-1.73441}},"Address":{"Label":"Coleshill Road, Birmingham, B46 1, United Kingdom","Country":"GBR","State":"England","County":"West Midlands","City":"Birmingham","District":"Water Orton","Street":"Coleshill Road","PostalCode":"B46 1","AdditionalData":[{"value":"United Kingdom","key":"CountryName"},{"value":"England","key":"StateName"},{"value":"West Midlands","key":"CountyName"}]},"MapReference":{"ReferenceId":"26313860","Spot":1.0,"SideOfStreet":"left","StateId":"20248595","CountyId":"20358328","CityId":"20358334","DistrictId":"20358406"}}},{"Relevance":1.0,"Distance":37.7,"MatchLevel":"houseNumber","MatchQuality":{"Country":1.0,"State":1.0,"County":1.0,"City":1.0,"District":1.0,"Street":[1.0],"HouseNumber":1.0,"PostalCode":1.0},"MatchType":"interpolated","Location":{"LocationId":"NT_3-AXx1rsOriYo-ZflszeLB_l_755944070_L_4AD","LocationType":"point","DisplayPosition":{"Latitude":52.516274,"Longitude":-1.7347368},"MapView":{"TopLeft":{"Latitude":52.5173981,"Longitude":-1.7365841},"BottomRight":{"Latitude":52.5151498,"Longitude":-1.7328895}},"Address":{"Label":"80 New Road, Birmingham, B46 1QU, United Kingdom","Country":"GBR","State":"England","County":"West Midlands","City":"Birmingham","District":"Water Orton","Street":"New Road","HouseNumber":"80","PostalCode":"B46 1QU","AdditionalData":[{"value":"United Kingdom","key":"CountryName"},{"value":"England","key":"StateName"},{"value":"West Midlands","key":"CountyName"}]},"MapReference":{"ReferenceId":"755944070","Spot":0.5,"SideOfStreet":"left","StateId":"20248595","CountyId":"20358328","CityId":"20358334","DistrictId":"20358406"}}},{"Relevance":1.0,"Distance":58.4,"MatchLevel":"houseNumber","MatchQuality":{"Country":1.0,"State":1.0,"County":1.0,"City":1.0,"District":1.0,"Street":[1.0],"HouseNumber":1.0,"PostalCode":1.0},"MatchType":"interpolated","Location":{"LocationId":"NT_xlSh.95KJX28CwymIHn7HC_l_755944071_L_3gD","LocationType":"point","DisplayPosition":{"Latitude":52.51659,"Longitude":-1.7351801},"MapView":{"TopLeft":{"Latitude":52.5177142,"Longitude":-1.7370274},"BottomRight":{"Latitude":52.5154659,"Longitude":-1.7333327}},"Address":{"Label":"78 New Road, Birmingham, B46 1QU, United Kingdom","Country":"GBR","State":"England","County":"West Midlands","City":"Birmingham","District":"Water Orton","Street":"New Road","HouseNumber":"78","PostalCode":"B46 1QU","AdditionalData":[{"value":"United Kingdom","key":"CountryName"},{"value":"England","key":"StateName"},{"value":"West Midlands","key":"CountyName"}]},"MapReference":{"ReferenceId":"755944071","Spot":0.16,"SideOfStreet":"left","StateId":"20248595","CountyId":"20358328","CityId":"20358334","DistrictId":"20358406"}}},{"Relevance":1.0,"Distance":62.8,"MatchLevel":"postalCode","MatchQuality":{"PostalCode":1.0},"MatchType":"interpolated","Location":{"LocationId":"NT_gh99v771HiwOOxGGtv25ZA_l_26313870_L_5A","LocationType":"point","DisplayPosition":{"Latitude":52.51545,"Longitude":-1.73481},"MapView":{"TopLeft":{"Latitude":52.5244432,"Longitude":-1.7495882},"BottomRight":{"Latitude":52.5064568,"Longitude":-1.7200318}},"Address":{"Label":"B46 1RE, Birmingham, England, United Kingdom","Country":"GBR","State":"England","County":"West Midlands","City":"Birmingham","PostalCode":"B46 1RE","AdditionalData":[{"value":"United Kingdom","key":"CountryName"},{"value":"England","key":"StateName"},{"value":"West Midlands","key":"CountyName"}]},"MapReference":{"ReferenceId":"26313870","Spot":0.68,"SideOfStreet":"neither","StateId":"20248595","CountyId":"20358328","CityId":"20358334"}}},{"Relevance":1.0,"Distance":64.0,"MatchLevel":"houseNumber","MatchQuality":{"Country":1.0,"State":1.0,"County":1.0,"City":1.0,"District":1.0,"Street":[1.0],"HouseNumber":1.0,"PostalCode":1.0},"MatchType":"interpolated","Location":{"LocationId":"NT_iZfID2gGAC3IahP74Qy3oD_l_1195681758_R_zgD","LocationType":"point","DisplayPosition":{"Latitude":52.5153299,"Longitude":-1.7357812},"MapView":{"TopLeft":{"Latitude":52.5164541,"Longitude":-1.7376285},"BottomRight":{"Latitude":52.5142057,"Longitude":-1.733934}},"Address":{"Label":"38 St Blaise Avenue, Birmingham, B46 1RT, United Kingdom","Country":"GBR","State":"England","County":"West Midlands","City":"Birmingham","District":"Water Orton","Street":"St Blaise Avenue","HouseNumber":"38","PostalCode":"B46 1RT","AdditionalData":[{"value":"United Kingdom","key":"CountryName"},{"value":"England","key":"StateName"},{"value":"West Midlands","key":"CountyName"}]},"MapReference":{"ReferenceId":"1195681758","Spot":0.33,"SideOfStreet":"right","StateId":"20248595","CountyId":"20358328","CityId":"20358334","DistrictId":"20358406"}}},{"Relevance":1.0,"Distance":76.1,"MatchLevel":"houseNumber","MatchQuality":{"Country":1.0,"State":1.0,"County":1.0,"City":1.0,"District":1.0,"Street":[1.0],"HouseNumber":1.0,"PostalCode":1.0},"MatchType":"interpolated","Location":{"LocationId":"NT_xlSh.95KJX28CwymIHn7HC_l_755944077_L_xEDN","LocationType":"point","DisplayPosition":{"Latitude":52.51605,"Longitude":-1.7341397},"MapView":{"TopLeft":{"Latitude":52.5171742,"Longitude":-1.735987},"BottomRight":{"Latitude":52.5149258,"Longitude":-1.7322924}},"Address":{"Label":"114 Coleshill Road, Birmingham, B46 1QE, United Kingdom","Country":"GBR","State":"England","County":"West Midlands","City":"Birmingham","District":"Water Orton","Street":"Coleshill Road","HouseNumber":"114","PostalCode":"B46 1QE","AdditionalData":[{"value":"United Kingdom","key":"CountryName"},{"value":"England","key":"StateName"},{"value":"West Midlands","key":"CountyName"}]},"MapReference":{"ReferenceId":"755944077","Spot":0.58,"SideOfStreet":"left","StateId":"20248595","CountyId":"20358328","CityId":"20358334","DistrictId":"20358406"}}},{"Relevance":1.0,"Distance":85.3,"MatchLevel":"postalCode","MatchQuality":{"PostalCode":1.0},"MatchType":"interpolated","Location":{"LocationId":"NT_xlSh.95KJX28CwymIHn7HC_l_755944071_L_3gD","LocationType":"point","DisplayPosition":{"Latitude":52.51671,"Longitude":-1.73525},"MapView":{"TopLeft":{"Latitude":52.5257032,"Longitude":-1.7500286},"BottomRight":{"Latitude":52.5077168,"Longitude":-1.7204714}},"Address":{"Label":"B46 1QG, Birmingham, England, United Kingdom","Country":"GBR","State":"England","County":"West Midlands","City":"Birmingham","PostalCode":"B46 1QG","AdditionalData":[{"value":"United Kingdom","key":"CountryName"},{"value":"England","key":"StateName"},{"value":"West Midlands","key":"CountyName"}]},"MapReference":{"ReferenceId":"755944071","Spot":0.16,"SideOfStreet":"neither","StateId":"20248595","CountyId":"20358328","CityId":"20358334"}}}]}]}}