{"Response":{"MetaInfo":{"Timestamp":"2020-03-28T10:55:31.391+0000","NextPageInformation":"2"},"View":[{"_type":"SearchResultsViewType","ViewId":0,"Result":[{"Relevance":1.0,"Distance":-9.8,"MatchLevel":"landmark","MatchQuality":{"Country":1.0,"State":1.0,"County":1.0,"City":1.0,"District":1.0,"Street":[1.0],"HouseNumber":1.0,"PostalCode":1.0,"Name":1.0},"Location":{"LocationId":"NT_APM3ZQ3JW5V3rtTn4DcHAB_p_CXkOH6MWDn74c1dgU2VvbC","LocationType":"hospital","Name":"DRK Kliniken Berlin Mitte","DisplayPosition":{"Latitude":52.55741,"Longitude":13.377},"MapView":{"TopLeft":{"Latitude":52.5585342,"Longitude":13.375151},"BottomRight":{"Latitude":52.5562858,"Longitude":13.378849}},"Address":{"Label":"Drontheimer Straße 39, 13359 Berlin, Deutschland","Country":"DEU","State":"Berlin","County":"Berlin","City":"Berlin","District":"Gesundbrunnen","Street":"Drontheimer Straße","HouseNumber":"39","PostalCode":"13359","AdditionalData":[{"value":"Deutschland","key":"CountryName"},{"value":"Berlin","key":"StateName"},{"value":"Berlin","key":"CountyName"}]},"MapReference":{"CountryId":"20147700","StateId":"20187401","CountyId":"20187402","CityId":"20187403","DistrictId":"20428239","PlaceId":"50668504"}}},{"Relevance":1.0,"Distance":0.0,"Direction":0.0,"MatchLevel":"district","MatchQuality":{"Country":1.0,"State":1.0,"County":1.0,"City":1.0,"District":1.0,"PostalCode":1.0},"Location":{"LocationId":"NT_lovCBPy2NDIRxhSnztHFPD","LocationType":"point","DisplayPosition":{"Latitude":52.5567096,"Longitude":13.3767948},"MapView":{"TopLeft":{"Latitude":52.56761,"Longitude":13.36545},"BottomRight":{"Latitude":52.5334,"Longitude":13.4043}},"Address":{"Label":"Gesundbrunnen, Berlin, Deutschland","Country":"DEU","State":"Berlin","County":"Berlin","City":"Berlin","District":"Gesundbrunnen","PostalCode":"13357","AdditionalData":[{"value":"Deutschland","key":"CountryName"},{"value":"Berlin","key":"StateName"},{"value":"Berlin","key":"CountyName"}]},"MapReference":{"ReferenceId":"1248638960","SideOfStreet":"neither","CountryId":"20147700","StateId":"20187401","CountyId":"20187402","CityId":"20187403","DistrictId":"20428239"}}},{"Relevance":1.0,"Distance":9.9,"MatchLevel":"street","MatchQuality":{"Country":1.0,"State":1.0,"County":1.0,"City":1.0,"District":1.0,"Street":[1.0],"PostalCode":1.0},"Location":{"LocationId":"NT_rsXr3b95Q1D7VRKqNqJGqA_l_544597606_R","LocationType":"point","DisplayPosition":{"Latitude":52.5566203,"Longitude":13.3767879},"MapView":{"TopLeft":{"Latitude":52.5567,"Longitude":13.37576},"BottomRight":{"Latitude":52.5566,"Longitude":13.37705}},"Address":{"Label":"Osloer Straße, 13359 Berlin, Deutschland","Country":"DEU","State":"Berlin","County":"Berlin","City":"Berlin","District":"Gesundbrunnen","Street":"Osloer Straße","PostalCode":"13359","AdditionalData":[{"value":"Deutschland","key":"CountryName"},{"value":"Berlin","key":"StateName"},{"value":"Berlin","key":"CountyName"}]},"MapReference":{"ReferenceId":"544597606","Spot":0.2,"SideOfStreet":"right","CountryId":"20147700","StateId":"20187401","CountyId":"20187402","CityId":"20187403","DistrictId":"20428239"}}},{"Relevance":1.0,"Distance":21.1,"MatchLevel":"street","MatchQuality":{"Country":1.0,"State":1.0,"County":1.0,"City":1.0,"District":1.0,"PostalCode":1.0},"Location":{"LocationId":"NT_Ubd0qiqPzvXPn-RucclrhB_l_1268415127_L","LocationType":"point","DisplayPosition":{"Latitude":52.5566,"Longitude":13.37705},"MapView":{"TopLeft":{"Latitude":52.5566,"Longitude":13.37705},"BottomRight":{"Latitude":52.55644,"Longitude":13.37708}},"Address":{"Label":"13359 Berlin, Deutschland","Country":"DEU","State":"Berlin","County":"Berlin","City":"Berlin","District":"Gesundbrunnen","PostalCode":"13359","AdditionalData":[{"value":"Deutschland","key":"CountryName"},{"value":"Berlin","key":"StateName"},{"value":"Berlin","key":"CountyName"}]},"MapReference":{"ReferenceId":"1268415127","Spot":1.0,"SideOfStreet":"left","CountryId":"20147700","StateId":"20187401","CountyId":"20187402","CityId":"20187403","DistrictId":"20428239"}}},{"Relevance":1.0,"Distance":35.6,"MatchLevel":"street","MatchQuality":{"Country":1.0,"State":1.0,"County":1.0,"City":1.0,"District":1.0,"PostalCode":1.0},"Location":{"LocationId":"NT_Ubd0qiqPzvXPn-RucclrhB_l_1268415126_L","LocationType":"point","DisplayPosition":{"Latitude":52.55644,"Longitude":13.37708},"MapView":{"TopLeft":{"Latitude":52.55644,"Longitude":13.37708},"BottomRight":{"Latitude":52.5563,"Longitude":13.3771}},"Address":{"Label":"13359 Berlin, Deutschland","Country":"DEU","State":"Berlin","County":"Berlin","City":"Berlin","District":"Gesundbrunnen","PostalCode":"13359","AdditionalData":[{"value":"Deutschland","key":"CountryName"},{"value":"Berlin","key":"StateName"},{"value":"Berlin","key":"CountyName"}]},"MapReference":{"ReferenceId":"1268415126","Spot":1.0,"SideOfStreet":"left","CountryId":"20147700","StateId":"20187401","CountyId":"20187402","CityId":"20187403","DistrictId":"20428239"}}},{"Relevance":1.0,"Distance":38.3,"MatchLevel":"houseNumber","MatchQuality":{"Country":1.0,"State":1.0,"County":1.0,"City":1.0,"District":1.0,"Street":[1.0],"HouseNumber":1.0,"PostalCode":1.0},"MatchType":"interpolated","Location":{"LocationId":"NT_rsXr3b95Q1D7VRKqNqJGqA_zMD","LocationType":"point","DisplayPosition":{"Latitude":52.55658,"Longitude":13.37732},"MapView":{"TopLeft":{"Latitude":52.5577042,"Longitude":13.375471},"BottomRight":{"Latitude":52.5554558,"Longitude":13.379169}},"Address":{"Label":"Osloer Straße 33, 13359 Berlin, Deutschland","Country":"DEU","State":"Berlin","County":"Berlin","City":"Berlin","District":"Gesundbrunnen","Street":"Osloer Straße","HouseNumber":"33","PostalCode":"13359","AdditionalData":[{"value":"Deutschland","key":"CountryName"},{"value":"Berlin","key":"StateName"},{"value":"Berlin","key":"CountyName"}]},"MapReference":{"ReferenceId":"544597607","Spot":0.53,"SideOfStreet":"right","CountryId":"20147700","StateId":"20187401","CountyId":"20187402","CityId":"20187403","DistrictId":"20428239","AddressId":"169523729","RoadLinkId":"37987953"}}},{"Relevance":1.0,"Distance":42.6,"MatchLevel":"houseNumber","MatchQuality":{"Country":1.0,"State":1.0,"County":1.0,"City":1.0,"District":1.0,"Street":[1.0],"HouseNumber":1.0,"PostalCode":1.0},"MatchType":"interpolated","Location":{"LocationId":"NT_rsXr3b95Q1D7VRKqNqJGqA_5ID","LocationType":"point","DisplayPosition":{"Latitude":52.55634,"Longitude":13.37663},"MapView":{"TopLeft":{"Latitude":52.5574642,"Longitude":13.374781},"BottomRight":{"Latitude":52.5552158,"Longitude":13.378479}},"Address":{"Label":"Osloer Straße 92, 13359 Berlin, Deutschland","Country":"DEU","State":"Berlin","County":"Berlin","City":"Berlin","District":"Gesundbrunnen","Street":"Osloer Straße","HouseNumber":"92","PostalCode":"13359","AdditionalData":[{"value":"Deutschland","key":"CountryName"},{"value":"Berlin","key":"StateName"},{"value":"Berlin","key":"CountyName"}]},"MapReference":{"ReferenceId":"1200041464","Spot":0.8,"SideOfStreet":"left","CountryId":"20147700","StateId":"20187401","CountyId":"20187402","CityId":"20187403","DistrictId":"20428239","AddressId":"168002374","RoadLinkId":"512267014"}}},{"Relevance":1.0,"Distance":43.2,"MatchLevel":"houseNumber","MatchQuality":{"Country":1.0,"State":1.0,"County":1.0,"City":1.0,"District":1.0,"Street":[1.0],"HouseNumber":1.0,"PostalCode":1.0},"MatchType":"interpolated","Location":{"LocationId":"NT_rPrckuWsxF5vF0Qj7Rb59B_0AD","LocationType":"point","DisplayPosition":{"Latitude":52.55708,"Longitude":13.377},"MapView":{"TopLeft":{"Latitude":52.5582042,"Longitude":13.375151},"BottomRight":{"Latitude":52.5559558,"Longitude":13.378849}},"Address":{"Label":"Drontheimer Straße 40, 13359 Berlin, Deutschland","Country":"DEU","State":"Berlin","County":"Berlin","City":"Berlin","District":"Gesundbrunnen","Street":"Drontheimer Straße","HouseNumber":"40","PostalCode":"13359","AdditionalData":[{"value":"Deutschland","key":"CountryName"},{"value":"Berlin","key":"StateName"},{"value":"Berlin","key":"CountyName"}]},"MapReference":{"ReferenceId":"1198732194","Spot":0.89,"SideOfStreet":"left","CountryId":"20147700","StateId":"20187401","CountyId":"20187402","CityId":"20187403","DistrictId":"20428239","AddressId":"168135099","RoadLinkId":"510202547"}}},{"Relevance":1.0,"Distance":46.8,"MatchLevel":"houseNumber","MatchQuality":{"Country":1.0,"State":1.0,"County":1.0,"City":1.0,"District":1.0,"Street":[1.0],"HouseNumber":1.0,"PostalCode":1.0},"MatchType":"interpolated","Location":{"LocationId":"NT_rsXr3b95Q1D7VRKqNqJGqA_5ED","LocationType":"point","DisplayPosition":{"Latitude":52.55636,"Longitude":13.37641},"MapView":{"TopLeft":{"Latitude":52.5574842,"Longitude":13.374561},"BottomRight":{"Latitude":52.5552358,"Longitude":13.378259}},"Address":{"Label":"Osloer Straße 91, 13359 Berlin, Deutschland","Country":"DEU","State":"Berlin","County":"Berlin","City":"Berlin","District":"Gesundbrunnen","Street":"Osloer Straße","HouseNumber":"91","PostalCode":"13359","AdditionalData":[{"value":"Deutschland","key":"CountryName"},{"value":"Berlin","key":"StateName"},{"value":"Berlin","key":"CountyName"}]},"MapReference":{"ReferenceId":"1200041465","Spot":0.13,"SideOfStreet":"left","CountryId":"20147700","StateId":"20187401","CountyId":"20187402","CityId":"20187403","DistrictId":"20428239","AddressId":"168002376","RoadLinkId":"512267015"}}},{"Relevance":1.0,"Distance":50.0,"MatchLevel":"street","MatchQuality":{"Country":1.0,"State":1.0,"County":1.0,"City":1.0,"District":1.0,"Street":[1.0],"PostalCode":1.0},"Location":{"LocationId":"NT_rsXr3b95Q1D7VRKqNqJGqA_l_544597608_R","LocationType":"point","DisplayPosition":{"Latitude":52.5563,"Longitude":13.3771},"MapView":{"TopLeft":{"Latitude":52.5563,"Longitude":13.3771},"BottomRight":{"Latitude":52.55627,"Longitude":13.37746}},"Address":{"Label":"Osloer Straße, 13359 Berlin, Deutschland","Country":"DEU","State":"Berlin","County":"Berlin","City":"Berlin","District":"Gesundbrunnen","Street":"Osloer Straße","PostalCode":"13359","AdditionalData":[{"value":"Deutschland","key":"CountryName"},{"value":"Berlin","key":"StateName"},{"value":"Berlin","key":"CountyName"}]},"MapReference":{"ReferenceId":"544597608","Spot":1.0,"SideOfStreet":"right","CountryId":"20147700","StateId":"20187401","CountyId":"20187402","CityId":"20187403","DistrictId":"20428239"}}}]}]}}