{"Response":{"MetaInfo":{"Timestamp":"2020-03-28T10:41:51.976+0000","NextPageInformation":"2"},"View":[{"_type":"SearchResultsViewType","ViewId":0,"Result":[{"Relevance":1.0,"Distance":0.0,"Direction":0.0,"MatchLevel":"city","MatchQuality":{"Country":1.0,"State":1.0,"County":1.0,"City":1.0,"PostalCode":1.0},"Location":{"LocationId":"NT_iQaqaaSVyfol1lyM-M.zbC","LocationType":"point","DisplayPosition":{"Latitude":52.5377953,"Longitude":-2.1024376},"MapView":{"TopLeft":{"Latitude":52.55822,"Longitude":-2.19169},"BottomRight":{"Latitude":52.42602,"Longitude":-2.01144}},"Address":{"Label":"Dudley, England, United Kingdom","Country":"GBR","State":"England","County":"West Midlands","City":"Dudley","PostalCode":"DY2 8","AdditionalData":[{"value":"United Kingdom","key":"CountryName"},{"value":"England","key":"StateName"},{"value":"West Midlands","key":"CountyName"}]},"MapReference":{"ReferenceId":"26385197","SideOfStreet":"neither","StateId":"20248595","CountyId":"20358328","CityId":"20358464"}}},{"Relevance":1.0,"Distance":26.0,"MatchLevel":"houseNumber","MatchQuality":{"Country":1.0,"State":1.0,"County":1.0,"City":1.0,"District":1.0,"Street":[1.0],"HouseNumber":1.0,"PostalCode":1.0},"MatchType":"interpolated","Location":{"LocationId":"NT_W3NV-qkRcOB8gInQ-a0CSB_l_26381068_R_xQD","LocationType":"point","DisplayPosition":{"Latitude":52.5375133,"Longitude":-2.1028033},"MapView":{"TopLeft":{"Latitude":52.5386375,"Longitude":-2.1046515},"BottomRight":{"Latitude":52.5363892,"Longitude":-2.1009551}},"Address":{"Label":"14 Helmsdale Way, Dudley, DY3 1, United Kingdom","Country":"GBR","State":"England","County":"West Midlands","City":"Dudley","District":"Woodsetton","Street":"Helmsdale Way","HouseNumber":"14","PostalCode":"DY3 1","AdditionalData":[{"value":"United Kingdom","key":"CountryName"},{"value":"England","key":"StateName"},{"value":"West Midlands","key":"CountyName"}]},"MapReference":{"ReferenceId":"26381068","Spot":0.67,"SideOfStreet":"right","StateId":"20248595","CountyId":"20358328","CityId":"20358464","DistrictId":"20358474"}}},{"Relevance":1.0,"Distance":46.3,"MatchLevel":"postalCode","MatchQuality":{"PostalCode":1.0},"MatchType":"interpolated","Location":{"LocationId":"NT_W3NV-qkRcOB8gInQ-a0CSB_l_26381102_R_4A","LocationType":"point","DisplayPosition":{"Latitude":52.53738,"Longitude":-2.10239},"MapView":{"TopLeft":{"Latitude":52.5463732,"Longitude":-2.1171755},"BottomRight":{"Latitude":52.5283868,"Longitude":-2.0876045}},"Address":{"Label":"DY3 1AP, Dudley, England, United Kingdom","Country":"GBR","State":"England","County":"West Midlands","City":"Dudley","PostalCode":"DY3 1AP","AdditionalData":[{"value":"United Kingdom","key":"CountryName"},{"value":"England","key":"StateName"},{"value":"West Midlands","key":"CountyName"}]},"MapReference":{"ReferenceId":"26381102","Spot":0.66,"SideOfStreet":"neither","StateId":"20248595","CountyId":"20358328","CityId":"20358464"}}},{"Relevance":1.0,"Distance":46.8,"MatchLevel":"houseNumber","MatchQuality":{"Country":1.0,"State":1.0,"County":1.0,"City":1.0,"District":1.0,"Street":[1.0],"HouseNumber":1.0,"PostalCode":1.0},"MatchType":"interpolated","Location":{"LocationId":"NT_W3NV-qkRcOB8gInQ-a0CSB_l_26381102_R_4A","LocationType":"point","DisplayPosition":{"Latitude":52.5372737,"Longitude":-2.1022074},"MapView":{"TopLeft":{"Latitude":52.5383979,"Longitude":-2.1040556},"BottomRight":{"Latitude":52.5361496,"Longitude":-2.1003593}},"Address":{"Label":"8 Helmsdale Way, Dudley, DY3 1AP, United Kingdom","Country":"GBR","State":"England","County":"West Midlands","City":"Dudley","District":"Woodsetton","Street":"Helmsdale Way","HouseNumber":"8","PostalCode":"DY3 1AP","AdditionalData":[{"value":"United Kingdom","key":"CountryName"},{"value":"England","key":"StateName"},{"value":"West Midlands","key":"CountyName"}]},"MapReference":{"ReferenceId":"26381102","Spot":0.66,"SideOfStreet":"right","StateId":"20248595","CountyId":"20358328","CityId":"20358464","DistrictId":"20358474"}}},{"Relevance":1.0,"Distance":64.7,"MatchLevel":"houseNumber","MatchQuality":{"Country":1.0,"State":1.0,"County":1.0,"City":1.0,"District":1.0,"Street":[1.0],"HouseNumber":1.0,"PostalCode":1.0},"MatchType":"interpolated","Location":{"LocationId":"NT_WCkf4iqLjVxj0kfW7iEKnB_l_26381172_L_yA","LocationType":"point","DisplayPosition":{"Latitude":52.53717,"Longitude":-2.1027461},"MapView":{"TopLeft":{"Latitude":52.5382942,"Longitude":-2.1045943},"BottomRight":{"Latitude":52.5360459,"Longitude":-2.1008979}},"Address":{"Label":"2 Westerdale Close, Dudley, DY3 1, United Kingdom","Country":"GBR","State":"England","County":"West Midlands","City":"Dudley","District":"Woodsetton","Street":"Westerdale Close","HouseNumber":"2","PostalCode":"DY3 1","AdditionalData":[{"value":"United Kingdom","key":"CountryName"},{"value":"England","key":"StateName"},{"value":"West Midlands","key":"CountyName"}]},"MapReference":{"ReferenceId":"26381172","Spot":0.8,"SideOfStreet":"left","StateId":"20248595","CountyId":"20358328","CityId":"20358464","DistrictId":"20358474"}}},{"Relevance":1.0,"Distance":66.8,"MatchLevel":"houseNumber","MatchQuality":{"Country":1.0,"State":1.0,"County":1.0,"City":1.0,"District":1.0,"Street":[1.0],"HouseNumber":1.0,"PostalCode":1.0},"MatchType":"interpolated","Location":{"LocationId":"NT_6PQPDd0Mgl6QczvC3WiduD_l_26381060_L_ykD","LocationType":"point","DisplayPosition":{"Latitude":52.5376202,"Longitude":-2.1012699},"MapView":{"TopLeft":{"Latitude":52.5387443,"Longitude":-2.1031181},"BottomRight":{"Latitude":52.536496,"Longitude":-2.0994217}},"Address":{"Label":"29 Bourne Street, Dudley, DY3 1AD, United Kingdom","Country":"GBR","State":"England","County":"West Midlands","City":"Dudley","District":"Woodsetton","Street":"Bourne Street","HouseNumber":"29","PostalCode":"DY3 1AD","AdditionalData":[{"value":"United Kingdom","key":"CountryName"},{"value":"England","key":"StateName"},{"value":"West Midlands","key":"CountyName"}]},"MapReference":{"ReferenceId":"26381060","Spot":0.09,"SideOfStreet":"left","StateId":"20248595","CountyId":"20358328","CityId":"20358464","DistrictId":"20358474"}}},{"Relevance":1.0,"Distance":74.0,"MatchLevel":"houseNumber","MatchQuality":{"Country":1.0,"State":1.0,"County":1.0,"City":1.0,"District":1.0,"Street":[1.0],"HouseNumber":1.0,"PostalCode":1.0},"MatchType":"interpolated","Location":{"LocationId":"NT_5UEAm3S3LrVrrT6O3q0iHC_l_26381101_L_zUD","LocationType":"point","DisplayPosition":{"Latitude":52.5373167,"Longitude":-2.1013833},"MapView":{"TopLeft":{"Latitude":52.5384408,"Longitude":-2.1032315},"BottomRight":{"Latitude":52.5361925,"Longitude":-2.0995351}},"Address":{"Label":"35 Brook Street, Dudley, DY3 1, United Kingdom","Country":"GBR","State":"England","County":"West Midlands","City":"Dudley","District":"Woodsetton","Street":"Brook Street","HouseNumber":"35","PostalCode":"DY3 1","AdditionalData":[{"value":"United Kingdom","key":"CountryName"},{"value":"England","key":"StateName"},{"value":"West Midlands","key":"CountyName"}]},"MapReference":{"ReferenceId":"26381101","Spot":0.54,"SideOfStreet":"left","StateId":"20248595","CountyId":"20358328","CityId":"20358464","DistrictId":"20358474"}}},{"Relevance":1.0,"Distance":94.2,"MatchLevel":"postalCode","MatchQuality":{"PostalCode":1.0},"MatchType":"interpolated","Location":{"LocationId":"NT_6PQPDd0Mgl6QczvC3WiduD_l_26381060_L_ykD","LocationType":"point","DisplayPosition":{"Latitude":52.53801,"Longitude":-2.10109},"MapView":{"TopLeft":{"Latitude":52.5470032,"Longitude":-2.1158758},"BottomRight":{"Latitude":52.5290168,"Longitude":-2.0863042}},"Address":{"Label":"DY3 1AF, Dudley, England, United Kingdom","Country":"GBR","State":"England","County":"West Midlands","City":"Dudley","PostalCode":"DY3 1AF","AdditionalData":[{"value":"United Kingdom","key":"CountryName"},{"value":"England","key":"StateName"},{"value":"West Midlands","key":"CountyName"}]},"MapReference":{"ReferenceId":"26381060","Spot":0.09,"SideOfStreet":"neither","StateId":"20248595","CountyId":"20358328","CityId":"20358464"}}},{"Relevance":1.0,"Distance":99.5,"MatchLevel":"houseNumber","MatchQuality":{"Country":1.0,"State":1.0,"County":1.0,"City":1.0,"District":1.0,"Street":[1.0],"HouseNumber":1.0,"PostalCode":1.0},"MatchType":"interpolated","Location":{"LocationId":"NT_5UEAm3S3LrVrrT6O3q0iHC_l_26381258_L_zID","LocationType":"point","DisplayPosition":{"Latitude":52.536928,"Longitude":-2.101551},"MapView":{"TopLeft":{"Latitude":52.5380522,"Longitude":-2.1033992},"BottomRight":{"Latitude":52.5358038,"Longitude":-2.0997028}},"Address":{"Label":"32 Brook Street, Dudley, DY3 1AD, United Kingdom","Country":"GBR","State":"England","County":"West Midlands","City":"Dudley","District":"Woodsetton","Street":"Brook Street","HouseNumber":"32","PostalCode":"DY3 1AD","AdditionalData":[{"value":"United Kingdom","key":"CountryName"},{"value":"England","key":"StateName"},{"value":"West Midlands","key":"CountyName"}]},"MapReference":{"ReferenceId":"26381258","Spot":0.89,"SideOfStreet":"left","StateId":"20248595","CountyId":"20358328","CityId":"20358464","DistrictId":"20358474"}}},{"Relevance":1.0,"Distance":105.6,"MatchLevel":"postalCode","MatchQuality":{"PostalCode":1.0},"MatchType":"interpolated","Location":{"LocationId":"NT_WCkf4iqLjVxj0kfW7iEKnB_l_26381172_L_yA","LocationType":"point","DisplayPosition":{"Latitude":52.53689,"Longitude":-2.10291},"MapView":{"TopLeft":{"Latitude":52.5458832,"Longitude":-2.1176954},"BottomRight":{"Latitude":52.5278968,"Longitude":-2.0881246}},"Address":{"Label":"DY3 1AR, Dudley, England, United Kingdom","Country":"GBR","State":"England","County":"West Midlands","City":"Dudley","PostalCode":"DY3 1AR","AdditionalData":[{"value":"United Kingdom","key":"CountryName"},{"value":"England","key":"StateName"},{"value":"West Midlands","key":"CountyName"}]},"MapReference":{"ReferenceId":"26381172","Spot":0.8,"SideOfStreet":"neither","StateId":"20248595","CountyId":"20358328","CityId":"20358464"}}}]}]}}