{"Response":{"MetaInfo":{"Timestamp":"2020-03-28T11:55:49.600+0000","NextPageInformation":"2"},"View":[{"_type":"SearchResultsViewType","ViewId":0,"Result":[{"Relevance":1.0,"Distance":0.0,"Direction":0.0,"MatchLevel":"district","MatchQuality":{"Country":1.0,"State":1.0,"County":1.0,"City":1.0,"District":1.0,"PostalCode":1.0},"Location":{"LocationId":"NT_HZIvJYj10A32.cmTSyOT5C","LocationType":"point","DisplayPosition":{"Latitude":52.5860583,"Longitude":-1.9838747},"MapView":{"TopLeft":{"Latitude":52.64474,"Longitude":-2.03542},"BottomRight":{"Latitude":52.54522,"Longitude":-1.87188}},"Address":{"Label":"Walsall, England, United Kingdom","Country":"GBR","State":"England","County":"West Midlands","City":"Walsall","District":"Walsall","PostalCode":"WS1 2","AdditionalData":[{"value":"United Kingdom","key":"CountryName"},{"value":"England","key":"StateName"},{"value":"West Midlands","key":"CountyName"}]},"MapReference":{"ReferenceId":"1034867334","SideOfStreet":"neither","StateId":"20248595","CountyId":"20358328","CityId":"20358553","DistrictId":"20358554"}}},{"Relevance":1.0,"Distance":16.9,"MatchLevel":"street","MatchQuality":{"Country":1.0,"State":1.0,"County":1.0,"City":1.0,"District":1.0,"Street":[1.0],"PostalCode":1.0},"Location":{"LocationId":"NT_PZIPbnGtwA65wOMJPHjIlA_l_956527462_L","LocationType":"point","DisplayPosition":{"Latitude":52.5862036,"Longitude":-1.983803},"MapView":{"TopLeft":{"Latitude":52.58636,"Longitude":-1.98412},"BottomRight":{"Latitude":52.58598,"Longitude":-1.98335}},"Address":{"Label":"St Paul's Street, Walsall, WS1 1, United Kingdom","Country":"GBR","State":"England","County":"West Midlands","City":"Walsall","District":"Walsall","Street":"St Paul's Street","PostalCode":"WS1 1","AdditionalData":[{"value":"United Kingdom","key":"CountryName"},{"value":"England","key":"StateName"},{"value":"West Midlands","key":"CountyName"}]},"MapReference":{"ReferenceId":"956527462","Spot":0.59,"SideOfStreet":"left","StateId":"20248595","CountyId":"20358328","CityId":"20358553","DistrictId":"20358554"}}},{"Relevance":1.0,"Distance":36.5,"MatchLevel":"street","MatchQuality":{"Country":1.0,"State":1.0,"County":1.0,"City":1.0,"District":1.0,"Street":[1.0],"PostalCode":1.0},"Location":{"LocationId":"NT_PZIPbnGtwA65wOMJPHjIlA_l_956527461_L","LocationType":"point","DisplayPosition":{"Latitude":52.58598,"Longitude":-1.98335},"MapView":{"TopLeft":{"Latitude":52.58598,"Longitude":-1.98335},"BottomRight":{"Latitude":52.5859,"Longitude":-1.98319}},"Address":{"Label":"St Paul's Street, Walsall, WS1 1, United Kingdom","Country":"GBR","State":"England","County":"West Midlands","City":"Walsall","District":"Walsall","Street":"St Paul's Street","PostalCode":"WS1 1","AdditionalData":[{"value":"United Kingdom","key":"CountryName"},{"value":"England","key":"StateName"},{"value":"West Midlands","key":"CountyName"}]},"MapReference":{"ReferenceId":"956527461","Spot":1.0,"SideOfStreet":"left","StateId":"20248595","CountyId":"20358328","CityId":"20358553","DistrictId":"20358554"}}},{"Relevance":1.0,"Distance":37.4,"MatchLevel":"street","MatchQuality":{"Country":1.0,"State":1.0,"County":1.0,"City":1.0,"District":1.0,"Street":[1.0],"PostalCode":1.0},"Location":{"LocationId":"NT_PZIPbnGtwA65wOMJPHjIlA_l_956527463_L","LocationType":"point","DisplayPosition":{"Latitude":52.58636,"Longitude":-1.98412},"MapView":{"TopLeft":{"Latitude":52.58655,"Longitude":-1.98455},"BottomRight":{"Latitude":52.58636,"Longitude":-1.98412}},"Address":{"Label":"St Paul's Street, Walsall, WS1 1, United Kingdom","Country":"GBR","State":"England","County":"West Midlands","City":"Walsall","District":"Walsall","Street":"St Paul's Street","PostalCode":"WS1 1","AdditionalData":[{"value":"United Kingdom","key":"CountryName"},{"value":"England","key":"StateName"},{"value":"West Midlands","key":"CountyName"}]},"MapReference":{"ReferenceId":"956527463","Spot":0.0,"SideOfStreet":"left","StateId":"20248595","CountyId":"20358328","CityId":"20358553","DistrictId":"20358554"}}},{"Relevance":1.0,"Distance":49.5,"MatchLevel":"street","MatchQuality":{"Country":1.0,"State":1.0,"County":1.0,"City":1.0,"District":1.0,"Street":[1.0],"PostalCode":1.0},"Location":{"LocationId":"NT_PZIPbnGtwA65wOMJPHjIlA_l_858453287_L","LocationType":"point","DisplayPosition":{"Latitude":52.5859,"Longitude":-1.98319},"MapView":{"TopLeft":{"Latitude":52.5859,"Longitude":-1.98319},"BottomRight":{"Latitude":52.58576,"Longitude":-1.98294}},"Address":{"Label":"St Paul's Street, Walsall, WS1 1, United Kingdom","Country":"GBR","State":"England","County":"West Midlands","City":"Walsall","District":"Walsall","Street":"St Paul's Street","PostalCode":"WS1 1","AdditionalData":[{"value":"United Kingdom","key":"CountryName"},{"value":"England","key":"StateName"},{"value":"West Midlands","key":"CountyName"}]},"MapReference":{"ReferenceId":"858453287","Spot":1.0,"SideOfStreet":"left","StateId":"20248595","CountyId":"20358328","CityId":"20358553","DistrictId":"20358554"}}},{"Relevance":1.0,"Distance":54.7,"MatchLevel":"houseNumber","MatchQuality":{"Country":1.0,"State":1.0,"County":1.0,"City":1.0,"District":1.0,"Street":[1.0],"HouseNumber":1.0,"PostalCode":1.0},"MatchType":"interpolated","Location":{"LocationId":"NT_GxexwsbQmNcOg3PkGlq4KC_l_26864872_R_2YD","LocationType":"point","DisplayPosition":{"Latitude":52.5855786,"Longitude":-1.9845143},"MapView":{"TopLeft":{"Latitude":52.5867027,"Longitude":-1.9863645},"BottomRight":{"Latitude":52.5844544,"Longitude":-1.9826641}},"Address":{"Label":"66 Park Street, Walsall, WS1 1, United Kingdom","Country":"GBR","State":"England","County":"West Midlands","City":"Walsall","District":"Walsall","Street":"Park Street","HouseNumber":"66","PostalCode":"WS1 1","AdditionalData":[{"value":"United Kingdom","key":"CountryName"},{"value":"England","key":"StateName"},{"value":"West Midlands","key":"CountyName"}]},"MapReference":{"ReferenceId":"26864872","Spot":0.65,"SideOfStreet":"right","StateId":"20248595","CountyId":"20358328","CityId":"20358553","DistrictId":"20358554"}}},{"Relevance":1.0,"Distance":63.9,"MatchLevel":"postalCode","MatchQuality":{"PostalCode":1.0},"Location":{"LocationId":"NT_x8EWM-fTR0H5BbN88MizZC_l_26864867_R","LocationType":"point","DisplayPosition":{"Latitude":52.58635,"Longitude":-1.98469},"MapView":{"TopLeft":{"Latitude":52.5953432,"Longitude":-1.9994921},"BottomRight":{"Latitude":52.5773568,"Longitude":-1.9698879}},"Address":{"Label":"WS1 1NS, Walsall, England, United Kingdom","Country":"GBR","State":"England","County":"West Midlands","City":"Walsall","PostalCode":"WS1 1NS","AdditionalData":[{"value":"United Kingdom","key":"CountryName"},{"value":"England","key":"StateName"},{"value":"West Midlands","key":"CountyName"}]},"MapReference":{"ReferenceId":"26864867","Spot":1.0,"SideOfStreet":"neither","StateId":"20248595","CountyId":"20358328","CityId":"20358553"}}},{"Relevance":1.0,"Distance":68.0,"MatchLevel":"street","MatchQuality":{"Country":1.0,"State":1.0,"County":1.0,"City":1.0,"District":1.0,"PostalCode":1.0},"Location":{"LocationId":"NT_x8EWM-fTR0H5BbN88MizZC_l_26864867_R","LocationType":"point","DisplayPosition":{"Latitude":52.5864,"Longitude":-1.98471},"MapView":{"TopLeft":{"Latitude":52.5864,"Longitude":-1.98498},"BottomRight":{"Latitude":52.58636,"Longitude":-1.98471}},"Address":{"Label":"Walsall, WS1 1, United Kingdom","Country":"GBR","State":"England","County":"West Midlands","City":"Walsall","District":"Walsall","PostalCode":"WS1 1","AdditionalData":[{"value":"United Kingdom","key":"CountryName"},{"value":"England","key":"StateName"},{"value":"West Midlands","key":"CountyName"}]},"MapReference":{"ReferenceId":"26864867","Spot":1.0,"SideOfStreet":"right","StateId":"20248595","CountyId":"20358328","CityId":"20358553","DistrictId":"20358554"}}},{"Relevance":1.0,"Distance":68.8,"MatchLevel":"street","MatchQuality":{"Country":1.0,"State":1.0,"County":1.0,"City":1.0,"District":1.0,"PostalCode":1.0},"Location":{"LocationId":"NT_x8EWM-fTR0H5BbN88MizZC_l_858453288_R","LocationType":"point","DisplayPosition":{"Latitude":52.58651,"Longitude":-1.98457},"MapView":{"TopLeft":{"Latitude":52.58655,"Longitude":-1.98471},"BottomRight":{"Latitude":52.5864,"Longitude":-1.98455}},"Address":{"Label":"Walsall, WS1 1, United Kingdom","Country":"GBR","State":"England","County":"West Midlands","City":"Walsall","District":"Walsall","PostalCode":"WS1 1","AdditionalData":[{"value":"United Kingdom","key":"CountryName"},{"value":"England","key":"StateName"},{"value":"West Midlands","key":"CountyName"}]},"MapReference":{"ReferenceId":"858453288","Spot":0.8,"SideOfStreet":"right","StateId":"20248595","CountyId":"20358328","CityId":"20358553","DistrictId":"20358554"}}},{"Relevance":1.0,"Distance":69.1,"MatchLevel":"street","MatchQuality":{"Country":1.0,"State":1.0,"County":1.0,"City":1.0,"District":1.0,"Street":[1.0],"PostalCode":1.0},"Location":{"LocationId":"NT_GxexwsbQmNcOg3PkGlq4KC_l_26864874_R","LocationType":"point","DisplayPosition":{"Latitude":52.5857,"Longitude":-1.98471},"MapView":{"TopLeft":{"Latitude":52.58585,"Longitude":-1.98538},"BottomRight":{"Latitude":52.5857,"Longitude":-1.98471}},"Address":{"Label":"Park Street, Walsall, WS1 1, United Kingdom","Country":"GBR","State":"England","County":"West Midlands","City":"Walsall","District":"Walsall","Street":"Park Street","PostalCode":"WS1 1","AdditionalData":[{"value":"United Kingdom","key":"CountryName"},{"value":"England","key":"StateName"},{"value":"West Midlands","key":"CountyName"}]},"MapReference":{"ReferenceId":"26864874","Spot":0.0,"SideOfStreet":"right","StateId":"20248595","CountyId":"20358328","CityId":"20358553","DistrictId":"20358554"}}}]}]}}