{"Response":{"MetaInfo":{"Timestamp":"2020-03-28T11:42:56.982+0000","NextPageInformation":"2"},"View":[{"_type":"SearchResultsViewType","ViewId":0,"Result":[{"Relevance":1.0,"Distance":0.0,"Direction":0.0,"MatchLevel":"district","MatchQuality":{"Country":1.0,"State":1.0,"County":1.0,"City":1.0,"District":1.0,"PostalCode":1.0},"Location":{"LocationId":"NT_blUxJ2xebpGk8DyWWeV0wA","LocationType":"point","DisplayPosition":{"Latitude":52.5095804,"Longitude":13.4974085},"MapView":{"TopLeft":{"Latitude":52.5129,"Longitude":13.46797},"BottomRight":{"Latitude":52.48258,"Longitude":13.51695}},"Address":{"Label":"Rummelsburg, Berlin, Deutschland","Country":"DEU","State":"Berlin","County":"Berlin","City":"Berlin","District":"Rummelsburg","PostalCode":"10317","AdditionalData":[{"value":"Deutschland","key":"CountryName"},{"value":"Berlin","key":"StateName"},{"value":"Berlin","key":"CountyName"}]},"MapReference":{"ReferenceId":"1268395201","SideOfStreet":"neither","CountryId":"20147700","StateId":"20187401","CountyId":"20187402","CityId":"20187403","DistrictId":"20487139"}}},{"Relevance":1.0,"Distance":15.3,"MatchLevel":"houseNumber","MatchQuality":{"Country":1.0,"State":1.0,"County":1.0,"City":1.0,"District":1.0,"Street":[1.0],"HouseNumber":1.0,"PostalCode":1.0},"MatchType":"interpolated","Location":{"LocationId":"NT_Wx6-Mf4uuzWF4iIs88-sQD_yID","LocationType":"point","DisplayPosition":{"Latitude":52.50941,"Longitude":13.49766},"MapView":{"TopLeft":{"Latitude":52.5105342,"Longitude":13.495813},"BottomRight":{"Latitude":52.5082858,"Longitude":13.499507}},"Address":{"Label":"Weitlingstraße 22, 10317 Berlin, Deutschland","Country":"DEU","State":"Berlin","County":"Berlin","City":"Berlin","District":"Rummelsburg","Street":"Weitlingstraße","HouseNumber":"22","PostalCode":"10317","AdditionalData":[{"value":"Deutschland","key":"CountryName"},{"value":"Berlin","key":"StateName"},{"value":"Berlin","key":"CountyName"}]},"MapReference":{"ReferenceId":"572714062","Spot":0.42,"SideOfStreet":"left","CountryId":"20147700","StateId":"20187401","CountyId":"20187402","CityId":"20187403","DistrictId":"20487139","AddressId":"168705061","RoadLinkId":"38010254"}}},{"Relevance":1.0,"Distance":39.8,"MatchLevel":"houseNumber","MatchQuality":{"Country":1.0,"State":1.0,"County":1.0,"City":1.0,"District":1.0,"Street":[1.0],"HouseNumber":1.0,"PostalCode":1.0},"MatchType":"interpolated","Location":{"LocationId":"NT_Wx6-Mf4uuzWF4iIs88-sQD_l_1198167334_L_yAD","LocationType":"point","DisplayPosition":{"Latitude":52.5096701,"Longitude":13.49806},"MapView":{"TopLeft":{"Latitude":52.5107942,"Longitude":13.496213},"BottomRight":{"Latitude":52.5085459,"Longitude":13.4999071}},"Address":{"Label":"Weitlingstraße 20, 10317 Berlin, Deutschland","Country":"DEU","State":"Berlin","County":"Berlin","City":"Berlin","District":"Rummelsburg","Street":"Weitlingstraße","HouseNumber":"20","PostalCode":"10317","AdditionalData":[{"value":"Deutschland","key":"CountryName"},{"value":"Berlin","key":"StateName"},{"value":"Berlin","key":"CountyName"}]},"MapReference":{"ReferenceId":"1198167334","Spot":0.0,"SideOfStreet":"left","CountryId":"20147700","StateId":"20187401","CountyId":"20187402","CityId":"20187403","DistrictId":"20487139"}}},{"Relevance":1.0,"Distance":48.3,"MatchLevel":"houseNumber","MatchQuality":{"Country":1.0,"State":1.0,"County":1.0,"City":1.0,"District":1.0,"Street":[1.0],"HouseNumber":1.0,"PostalCode":1.0},"MatchType":"interpolated","Location":{"LocationId":"NT_Wx6-Mf4uuzWF4iIs88-sQD_xcD","LocationType":"point","DisplayPosition":{"Latitude":52.50921,"Longitude":13.49778},"MapView":{"TopLeft":{"Latitude":52.5103342,"Longitude":13.495933},"BottomRight":{"Latitude":52.5080858,"Longitude":13.499627}},"Address":{"Label":"Weitlingstraße 17, 10317 Berlin, Deutschland","Country":"DEU","State":"Berlin","County":"Berlin","City":"Berlin","District":"Rummelsburg","Street":"Weitlingstraße","HouseNumber":"17","PostalCode":"10317","AdditionalData":[{"value":"Deutschland","key":"CountryName"},{"value":"Berlin","key":"StateName"},{"value":"Berlin","key":"CountyName"}]},"MapReference":{"ReferenceId":"572714063","Spot":0.49,"SideOfStreet":"right","CountryId":"20147700","StateId":"20187401","CountyId":"20187402","CityId":"20187403","DistrictId":"20487139","AddressId":"168265823","RoadLinkId":"37918214"}}},{"Relevance":1.0,"Distance":55.8,"MatchLevel":"street","MatchQuality":{"Country":1.0,"State":1.0,"County":1.0,"City":1.0,"District":1.0,"Street":[1.0],"PostalCode":1.0},"Location":{"LocationId":"NT_Wx6-Mf4uuzWF4iIs88-sQD_l_572714064_R","LocationType":"point","DisplayPosition":{"Latitude":52.50908,"Longitude":13.49747},"MapView":{"TopLeft":{"Latitude":52.50908,"Longitude":13.49747},"BottomRight":{"Latitude":52.50877,"Longitude":13.49751}},"Address":{"Label":"Weitlingstraße, 10317 Berlin, Deutschland","Country":"DEU","State":"Berlin","County":"Berlin","City":"Berlin","District":"Rummelsburg","Street":"Weitlingstraße","PostalCode":"10317","AdditionalData":[{"value":"Deutschland","key":"CountryName"},{"value":"Berlin","key":"StateName"},{"value":"Berlin","key":"CountyName"}]},"MapReference":{"ReferenceId":"572714064","Spot":1.0,"SideOfStreet":"right","CountryId":"20147700","StateId":"20187401","CountyId":"20187402","CityId":"20187403","DistrictId":"20487139"}}},{"Relevance":1.0,"Distance":56.8,"MatchLevel":"houseNumber","MatchQuality":{"Country":1.0,"State":1.0,"County":1.0,"City":1.0,"District":1.0,"Street":[1.0],"HouseNumber":1.0,"PostalCode":1.0},"MatchType":"interpolated","Location":{"LocationId":"NT_Wx6-Mf4uuzWF4iIs88-sQD_l_1198167335_L_4A","LocationType":"point","DisplayPosition":{"Latitude":52.50984,"Longitude":13.49817},"MapView":{"TopLeft":{"Latitude":52.5109642,"Longitude":13.496323},"BottomRight":{"Latitude":52.5087159,"Longitude":13.5000171}},"Address":{"Label":"Weitlingstraße 8, 10317 Berlin, Deutschland","Country":"DEU","State":"Berlin","County":"Berlin","City":"Berlin","District":"Rummelsburg","Street":"Weitlingstraße","HouseNumber":"8","PostalCode":"10317","AdditionalData":[{"value":"Deutschland","key":"CountryName"},{"value":"Berlin","key":"StateName"},{"value":"Berlin","key":"CountyName"}]},"MapReference":{"ReferenceId":"1198167335","Spot":0.0,"SideOfStreet":"left","CountryId":"20147700","StateId":"20187401","CountyId":"20187402","CityId":"20187403","DistrictId":"20487139"}}},{"Relevance":1.0,"Distance":64.7,"MatchLevel":"houseNumber","MatchQuality":{"Country":1.0,"State":1.0,"County":1.0,"City":1.0,"District":1.0,"Street":[1.0],"HouseNumber":1.0,"PostalCode":1.0},"MatchType":"interpolated","Location":{"LocationId":"NT_qy-Iu9RlgDKLvyc7UBc-9C_xA","LocationType":"point","DisplayPosition":{"Latitude":52.50961,"Longitude":13.49841},"MapView":{"TopLeft":{"Latitude":52.5107342,"Longitude":13.496563},"BottomRight":{"Latitude":52.5084858,"Longitude":13.500257}},"Address":{"Label":"Irenenstraße 1, 10317 Berlin, Deutschland","Country":"DEU","State":"Berlin","County":"Berlin","City":"Berlin","District":"Rummelsburg","Street":"Irenenstraße","HouseNumber":"1","PostalCode":"10317","AdditionalData":[{"value":"Deutschland","key":"CountryName"},{"value":"Berlin","key":"StateName"},{"value":"Berlin","key":"CountyName"}]},"MapReference":{"ReferenceId":"53504813","Spot":0.79,"SideOfStreet":"left","CountryId":"20147700","StateId":"20187401","CountyId":"20187402","CityId":"20187403","DistrictId":"20487139","AddressId":"167800638","RoadLinkId":"37634960"}}},{"Relevance":1.0,"Distance":83.5,"MatchLevel":"houseNumber","MatchQuality":{"Country":1.0,"State":1.0,"County":1.0,"City":1.0,"District":1.0,"Street":[1.0],"HouseNumber":1.0,"PostalCode":1.0},"MatchType":"interpolated","Location":{"LocationId":"NT_Wx6-Mf4uuzWF4iIs88-sQD_yQD","LocationType":"point","DisplayPosition":{"Latitude":52.50877,"Longitude":13.49751},"MapView":{"TopLeft":{"Latitude":52.5098942,"Longitude":13.495663},"BottomRight":{"Latitude":52.5076458,"Longitude":13.499357}},"Address":{"Label":"Weitlingstraße 24, 10317 Berlin, Deutschland","Country":"DEU","State":"Berlin","County":"Berlin","City":"Berlin","District":"Rummelsburg","Street":"Weitlingstraße","HouseNumber":"24","PostalCode":"10317","AdditionalData":[{"value":"Deutschland","key":"CountryName"},{"value":"Berlin","key":"StateName"},{"value":"Berlin","key":"CountyName"}]},"MapReference":{"ReferenceId":"53504825","Spot":1.0,"SideOfStreet":"left","CountryId":"20147700","StateId":"20187401","CountyId":"20187402","CityId":"20187403","DistrictId":"20487139","AddressId":"167895791","RoadLinkId":"37488409"}}},{"Relevance":1.0,"Distance":89.8,"MatchLevel":"houseNumber","MatchQuality":{"Country":1.0,"State":1.0,"County":1.0,"City":1.0,"District":1.0,"Street":[1.0],"HouseNumber":1.0,"PostalCode":1.0},"MatchType":"interpolated","Location":{"LocationId":"NT_Wx6-Mf4uuzWF4iIs88-sQD_xED","LocationType":"point","DisplayPosition":{"Latitude":52.51011,"Longitude":13.49841},"MapView":{"TopLeft":{"Latitude":52.5112342,"Longitude":13.496563},"BottomRight":{"Latitude":52.5089858,"Longitude":13.500257}},"Address":{"Label":"Weitlingstraße 11, 10317 Berlin, Deutschland","Country":"DEU","State":"Berlin","County":"Berlin","City":"Berlin","District":"Rummelsburg","Street":"Weitlingstraße","HouseNumber":"11","PostalCode":"10317","AdditionalData":[{"value":"Deutschland","key":"CountryName"},{"value":"Berlin","key":"StateName"},{"value":"Berlin","key":"CountyName"}]},"MapReference":{"ReferenceId":"1198166433","Spot":0.29,"SideOfStreet":"right","CountryId":"20147700","StateId":"20187401","CountyId":"20187402","CityId":"20187403","DistrictId":"20487139","AddressId":"169001227","RoadLinkId":"509255939"}}},{"Relevance":1.0,"Distance":99.2,"MatchLevel":"houseNumber","MatchQuality":{"Country":1.0,"State":1.0,"County":1.0,"City":1.0,"District":1.0,"Street":[1.0],"HouseNumber":1.0,"PostalCode":1.0},"MatchType":"interpolated","Location":{"LocationId":"NT_tZBUtKvmhMhiytlp-IGxmC_yATR","LocationType":"point","DisplayPosition":{"Latitude":52.50864,"Longitude":13.49874},"MapView":{"TopLeft":{"Latitude":52.5097642,"Longitude":13.496893},"BottomRight":{"Latitude":52.5075158,"Longitude":13.500587}},"Address":{"Label":"Wönnichstraße 20E, 10317 Berlin, Deutschland","Country":"DEU","State":"Berlin","County":"Berlin","City":"Berlin","District":"Rummelsburg","Street":"Wönnichstraße","HouseNumber":"20E","PostalCode":"10317","AdditionalData":[{"value":"Deutschland","key":"CountryName"},{"value":"Berlin","key":"StateName"},{"value":"Berlin","key":"CountyName"}]},"MapReference":{"ReferenceId":"717640045","Spot":0.33,"SideOfStreet":"right","CountryId":"20147700","StateId":"20187401","CountyId":"20187402","CityId":"20187403","DistrictId":"20487139","AddressId":"208132870","RoadLinkId":"122605202"}}}]}]}}