{"Response":{"MetaInfo":{"Timestamp":"2020-03-28T10:46:29.910+0000","NextPageInformation":"2"},"View":[{"_type":"SearchResultsViewType","ViewId":0,"Result":[{"Relevance":1.0,"Distance":0.0,"Direction":0.0,"MatchLevel":"district","MatchQuality":{"Country":1.0,"State":1.0,"County":1.0,"City":1.0,"District":1.0,"PostalCode":1.0},"Location":{"LocationId":"NT_CynJa7JLe8--JO67wEx0oB","LocationType":"point","DisplayPosition":{"Latitude":52.5311541,"Longitude":17.6035424},"MapView":{"TopLeft":{"Latitude":52.56511,"Longitude":17.54748},"BottomRight":{"Latitude":52.49382,"Longitude":17.65853}},"Address":{"Label":"Gniezno, Woj. Wielkopolskie, Polska","Country":"POL","State":"Woj. Wielkopolskie","County":"Powiat Gnieźnieński","City":"Gniezno","District":"Gniezno","PostalCode":"62-200","AdditionalData":[{"value":"Polska","key":"CountryName"},{"value":"Woj. Wielkopolskie","key":"StateName"},{"value":"Powiat Gnieźnieński","key":"CountyName"}]},"MapReference":{"ReferenceId":"1085230943","SideOfStreet":"neither","CountryId":"20624059","StateId":"20629915","CountyId":"20629952","CityId":"20695798","DistrictId":"20695799"}}},{"Relevance":1.0,"Distance":14.2,"MatchLevel":"houseNumber","MatchQuality":{"Country":1.0,"State":1.0,"County":1.0,"City":1.0,"District":1.0,"Street":[1.0],"HouseNumber":1.0,"PostalCode":1.0},"MatchType":"interpolated","Location":{"LocationId":"NT_BbFV4Vx4HOWZTEydFw6LjB_1A","LocationType":"point","DisplayPosition":{"Latitude":52.53087,"Longitude":17.60376},"MapView":{"TopLeft":{"Latitude":52.5319942,"Longitude":17.6019121},"BottomRight":{"Latitude":52.5297458,"Longitude":17.6056079}},"Address":{"Label":"ulica Tadeusza Kościuszki 5, 62-200 Gniezno, Polska","Country":"POL","State":"Woj. Wielkopolskie","County":"Powiat Gnieźnieński","City":"Gniezno","District":"Gniezno","Street":"ulica Tadeusza Kościuszki","HouseNumber":"5","PostalCode":"62-200","AdditionalData":[{"value":"Polska","key":"CountryName"},{"value":"Woj. Wielkopolskie","key":"StateName"},{"value":"Powiat Gnieźnieński","key":"CountyName"}]},"MapReference":{"ReferenceId":"757647437","Spot":0.37,"SideOfStreet":"right","CountryId":"20624059","StateId":"20629915","CountyId":"20629952","CityId":"20695798","DistrictId":"20695799","AddressId":"222030881","RoadLinkId":"152560392"}}},{"Relevance":1.0,"Distance":59.7,"MatchLevel":"houseNumber","MatchQuality":{"Country":1.0,"State":1.0,"County":1.0,"City":1.0,"District":1.0,"Street":[1.0],"HouseNumber":1.0,"PostalCode":1.0},"MatchType":"interpolated","Location":{"LocationId":"NT_arQE9WFoUyabsxDqLd00DB_2A","LocationType":"point","DisplayPosition":{"Latitude":52.53099,"Longitude":17.60221},"MapView":{"TopLeft":{"Latitude":52.5321142,"Longitude":17.6003621},"BottomRight":{"Latitude":52.5298658,"Longitude":17.6040579}},"Address":{"Label":"ulica Lecha 6, 62-200 Gniezno, Polska","Country":"POL","State":"Woj. Wielkopolskie","County":"Powiat Gnieźnieński","City":"Gniezno","District":"Gniezno","Street":"ulica Lecha","HouseNumber":"6","PostalCode":"62-200","AdditionalData":[{"value":"Polska","key":"CountryName"},{"value":"Woj. Wielkopolskie","key":"StateName"},{"value":"Powiat Gnieźnieński","key":"CountyName"}]},"MapReference":{"ReferenceId":"757647421","Spot":0.21,"SideOfStreet":"right","CountryId":"20624059","StateId":"20629915","CountyId":"20629952","CityId":"20695798","DistrictId":"20695799","AddressId":"702045685","RoadLinkId":"152560387"}}},{"Relevance":1.0,"Distance":76.7,"MatchLevel":"houseNumber","MatchQuality":{"Country":1.0,"State":1.0,"County":1.0,"City":1.0,"District":1.0,"Street":[1.0],"HouseNumber":1.0,"PostalCode":1.0},"MatchType":"interpolated","Location":{"LocationId":"NT_arQE9WFoUyabsxDqLd00DB_1A","LocationType":"point","DisplayPosition":{"Latitude":52.53141,"Longitude":17.60219},"MapView":{"TopLeft":{"Latitude":52.5325342,"Longitude":17.6003421},"BottomRight":{"Latitude":52.5302858,"Longitude":17.6040379}},"Address":{"Label":"ulica Lecha 5, 62-200 Gniezno, Polska","Country":"POL","State":"Woj. Wielkopolskie","County":"Powiat Gnieźnieński","City":"Gniezno","District":"Gniezno","Street":"ulica Lecha","HouseNumber":"5","PostalCode":"62-200","AdditionalData":[{"value":"Polska","key":"CountryName"},{"value":"Woj. Wielkopolskie","key":"StateName"},{"value":"Powiat Gnieźnieński","key":"CountyName"}]},"MapReference":{"ReferenceId":"1085411303","Spot":0.84,"SideOfStreet":"right","CountryId":"20624059","StateId":"20629915","CountyId":"20629952","CityId":"20695798","DistrictId":"20695799","AddressId":"702066291","RoadLinkId":"401537108"}}},{"Relevance":1.0,"Distance":91.6,"MatchLevel":"street","MatchQuality":{"Country":1.0,"State":1.0,"County":1.0,"City":1.0,"District":1.0,"Street":[1.0],"PostalCode":1.0},"Location":{"LocationId":"NT_y.uweMJq5bVgxrHSPJUO7D_l_757647424_L","LocationType":"point","DisplayPosition":{"Latitude":52.5303321,"Longitude":17.6036191},"MapView":{"TopLeft":{"Latitude":52.53039,"Longitude":17.60349},"BottomRight":{"Latitude":52.53032,"Longitude":17.60424}},"Address":{"Label":"ulica Dworcowa, 62-200 Gniezno, Polska","Country":"POL","State":"Woj. Wielkopolskie","County":"Powiat Gnieźnieński","City":"Gniezno","District":"Gniezno","Street":"ulica Dworcowa","PostalCode":"62-200","AdditionalData":[{"value":"Polska","key":"CountryName"},{"value":"Woj. Wielkopolskie","key":"StateName"},{"value":"Powiat Gnieźnieński","key":"CountyName"}]},"MapReference":{"ReferenceId":"757647424","Spot":0.17,"SideOfStreet":"left","CountryId":"20624059","StateId":"20629915","CountyId":"20629952","CityId":"20695798","DistrictId":"20695799"}}},{"Relevance":1.0,"Distance":92.8,"MatchLevel":"street","MatchQuality":{"Country":1.0,"State":1.0,"County":1.0,"City":1.0,"District":1.0,"Street":[1.0],"PostalCode":1.0},"Location":{"LocationId":"NT_y.uweMJq5bVgxrHSPJUO7D_l_757647430_R","LocationType":"point","DisplayPosition":{"Latitude":52.53032,"Longitude":17.60349},"MapView":{"TopLeft":{"Latitude":52.53032,"Longitude":17.60273},"BottomRight":{"Latitude":52.53009,"Longitude":17.60351}},"Address":{"Label":"ulica Dworcowa, 62-200 Gniezno, Polska","Country":"POL","State":"Woj. Wielkopolskie","County":"Powiat Gnieźnieński","City":"Gniezno","District":"Gniezno","Street":"ulica Dworcowa","PostalCode":"62-200","AdditionalData":[{"value":"Polska","key":"CountryName"},{"value":"Woj. Wielkopolskie","key":"StateName"},{"value":"Powiat Gnieźnieński","key":"CountyName"}]},"MapReference":{"ReferenceId":"757647430","Spot":1.0,"SideOfStreet":"right","CountryId":"20624059","StateId":"20629915","CountyId":"20629952","CityId":"20695798","DistrictId":"20695799"}}},{"Relevance":1.0,"Distance":92.8,"MatchLevel":"street","MatchQuality":{"Country":1.0,"State":1.0,"County":1.0,"City":1.0,"District":1.0,"Street":[1.0],"PostalCode":1.0},"Location":{"LocationId":"NT_y.uweMJq5bVgxrHSPJUO7D_l_757647427_L","LocationType":"point","DisplayPosition":{"Latitude":52.53032,"Longitude":17.60349},"MapView":{"TopLeft":{"Latitude":52.53032,"Longitude":17.60288},"BottomRight":{"Latitude":52.53029,"Longitude":17.60349}},"Address":{"Label":"ulica Dworcowa, 62-200 Gniezno, Polska","Country":"POL","State":"Woj. Wielkopolskie","County":"Powiat Gnieźnieński","City":"Gniezno","District":"Gniezno","Street":"ulica Dworcowa","PostalCode":"62-200","AdditionalData":[{"value":"Polska","key":"CountryName"},{"value":"Woj. Wielkopolskie","key":"StateName"},{"value":"Powiat Gnieźnieński","key":"CountyName"}]},"MapReference":{"ReferenceId":"757647427","Spot":1.0,"SideOfStreet":"left","CountryId":"20624059","StateId":"20629915","CountyId":"20629952","CityId":"20695798","DistrictId":"20695799"}}},{"Relevance":1.0,"Distance":96.9,"MatchLevel":"street","MatchQuality":{"Country":1.0,"State":1.0,"County":1.0,"City":1.0,"District":1.0,"Street":[1.0],"PostalCode":1.0},"Location":{"LocationId":"NT_arQE9WFoUyabsxDqLd00DB_l_757647426_R","LocationType":"point","DisplayPosition":{"Latitude":52.5307,"Longitude":17.60232},"MapView":{"TopLeft":{"Latitude":52.5307,"Longitude":17.60232},"BottomRight":{"Latitude":52.53047,"Longitude":17.6024}},"Address":{"Label":"ulica Lecha, 62-200 Gniezno, Polska","Country":"POL","State":"Woj. Wielkopolskie","County":"Powiat Gnieźnieński","City":"Gniezno","District":"Gniezno","Street":"ulica Lecha","PostalCode":"62-200","AdditionalData":[{"value":"Polska","key":"CountryName"},{"value":"Woj. Wielkopolskie","key":"StateName"},{"value":"Powiat Gnieźnieński","key":"CountyName"}]},"MapReference":{"ReferenceId":"757647426","Spot":1.0,"SideOfStreet":"right","CountryId":"20624059","StateId":"20629915","CountyId":"20629952","CityId":"20695798","DistrictId":"20695799"}}},{"Relevance":1.0,"Distance":96.9,"MatchLevel":"street","MatchQuality":{"Country":1.0,"State":1.0,"County":1.0,"City":1.0,"District":1.0,"Street":[1.0],"PostalCode":1.0},"Location":{"LocationId":"NT_hKO.DB847kIv13gQFNQmHD_l_1085411301_R","LocationType":"point","DisplayPosition":{"Latitude":52.5307,"Longitude":17.60232},"MapView":{"TopLeft":{"Latitude":52.5308,"Longitude":17.60228},"BottomRight":{"Latitude":52.5307,"Longitude":17.60232}},"Address":{"Label":"ulica Lecha, 62-200 Gniezno, Polska","Country":"POL","State":"Woj. Wielkopolskie","County":"Powiat Gnieźnieński","City":"Gniezno","District":"Gniezno","Street":"ulica Lecha","PostalCode":"62-200","AdditionalData":[{"value":"Polska","key":"CountryName"},{"value":"Woj. Wielkopolskie","key":"StateName"},{"value":"Powiat Gnieźnieński","key":"CountyName"}]},"MapReference":{"ReferenceId":"1085411301","Spot":0.0,"SideOfStreet":"right","CountryId":"20624059","StateId":"20629915","CountyId":"20629952","CityId":"20695798","DistrictId":"20695799"}}},{"Relevance":1.0,"Distance":106.0,"MatchLevel":"street","MatchQuality":{"Country":1.0,"State":1.0,"County":1.0,"City":1.0,"District":1.0,"Street":[1.0],"PostalCode":1.0},"Location":{"LocationId":"NT_y.uweMJq5bVgxrHSPJUO7D_l_757647428_R","LocationType":"point","DisplayPosition":{"Latitude":52.53029,"Longitude":17.60288},"MapView":{"TopLeft":{"Latitude":52.53047,"Longitude":17.6024},"BottomRight":{"Latitude":52.53029,"Longitude":17.60288}},"Address":{"Label":"ulica Dworcowa, 62-200 Gniezno, Polska","Country":"POL","State":"Woj. Wielkopolskie","County":"Powiat Gnieźnieński","City":"Gniezno","District":"Gniezno","Street":"ulica Dworcowa","PostalCode":"62-200","AdditionalData":[{"value":"Polska","key":"CountryName"},{"value":"Woj. Wielkopolskie","key":"StateName"},{"value":"Powiat Gnieźnieński","key":"CountyName"}]},"MapReference":{"ReferenceId":"757647428","Spot":0.0,"SideOfStreet":"right","CountryId":"20624059","StateId":"20629915","CountyId":"20629952","CityId":"20695798","DistrictId":"20695799"}}}]}]}}