{"Response":{"MetaInfo":{"Timestamp":"2020-03-28T10:08:29.925+0000","NextPageInformation":"2"},"View":[{"_type":"SearchResultsViewType","ViewId":0,"Result":[{"Relevance":1.0,"Distance":0.0,"Direction":0.0,"MatchLevel":"district","MatchQuality":{"Country":1.0,"State":1.0,"County":1.0,"City":1.0,"District":1.0,"PostalCode":1.0},"Location":{"LocationId":"NT_Y57al.FhGJj7kDTfL.kMfD","LocationType":"point","DisplayPosition":{"Latitude":52.5328815,"Longitude":-1.829206},"MapView":{"TopLeft":{"Latitude":52.54552,"Longitude":-2.04426},"BottomRight":{"Latitude":52.38596,"Longitude":-1.70869}},"Address":{"Label":"Birmingham, England, United Kingdom","Country":"GBR","State":"England","County":"West Midlands","City":"Birmingham","District":"Birmingham","PostalCode":"B3 3","AdditionalData":[{"value":"United Kingdom","key":"CountryName"},{"value":"England","key":"StateName"},{"value":"West Midlands","key":"CountyName"}]},"MapReference":{"ReferenceId":"833060830","SideOfStreet":"neither","StateId":"20248595","CountyId":"20358328","CityId":"20358334","DistrictId":"20358335"}}},{"Relevance":1.0,"Distance":9.6,"MatchLevel":"houseNumber","MatchQuality":{"Country":1.0,"State":1.0,"County":1.0,"City":1.0,"District":1.0,"Street":[1.0],"HouseNumber":1.0,"PostalCode":1.0},"MatchType":"interpolated","Location":{"LocationId":"NT_4GwhEnzi44LMM4lWCyZfJA_l_26335996_R_xEzM","LocationType":"point","DisplayPosition":{"Latitude":52.53302,"Longitude":-1.82944},"MapView":{"TopLeft":{"Latitude":52.5341442,"Longitude":-1.831288},"BottomRight":{"Latitude":52.5318959,"Longitude":-1.827592}},"Address":{"Label":"113 Sutton Road, Birmingham, B23 5XB, United Kingdom","Country":"GBR","State":"England","County":"West Midlands","City":"Birmingham","District":"Birmingham","Street":"Sutton Road","HouseNumber":"113","PostalCode":"B23 5XB","AdditionalData":[{"value":"United Kingdom","key":"CountryName"},{"value":"England","key":"StateName"},{"value":"West Midlands","key":"CountyName"}]},"MapReference":{"ReferenceId":"26335996","Spot":0.25,"SideOfStreet":"right","StateId":"20248595","CountyId":"20358328","CityId":"20358334","DistrictId":"20358335"}}},{"Relevance":1.0,"Distance":30.6,"MatchLevel":"street","MatchQuality":{"Country":1.0,"State":1.0,"County":1.0,"City":1.0,"District":1.0,"Street":[1.0],"PostalCode":1.0},"Location":{"LocationId":"NT_4GwhEnzi44LMM4lWCyZfJA_l_1219956596_R","LocationType":"point","DisplayPosition":{"Latitude":52.5331,"Longitude":-1.82948},"MapView":{"TopLeft":{"Latitude":52.5331,"Longitude":-1.82961},"BottomRight":{"Latitude":52.53294,"Longitude":-1.82948}},"Address":{"Label":"Sutton Road, Birmingham, B23 5, United Kingdom","Country":"GBR","State":"England","County":"West Midlands","City":"Birmingham","District":"Birmingham","Street":"Sutton Road","PostalCode":"B23 5","AdditionalData":[{"value":"United Kingdom","key":"CountryName"},{"value":"England","key":"StateName"},{"value":"West Midlands","key":"CountyName"}]},"MapReference":{"ReferenceId":"1219956596","Spot":1.0,"SideOfStreet":"right","StateId":"20248595","CountyId":"20358328","CityId":"20358334","DistrictId":"20358335"}}},{"Relevance":1.0,"Distance":32.6,"MatchLevel":"street","MatchQuality":{"Country":1.0,"State":1.0,"County":1.0,"City":1.0,"District":1.0,"Street":[1.0],"PostalCode":1.0},"Location":{"LocationId":"NT_4GwhEnzi44LMM4lWCyZfJA_l_1219956597_R","LocationType":"point","DisplayPosition":{"Latitude":52.5331396,"Longitude":-1.8294354},"MapView":{"TopLeft":{"Latitude":52.53342,"Longitude":-1.82948},"BottomRight":{"Latitude":52.5331,"Longitude":-1.82912}},"Address":{"Label":"Sutton Road, Birmingham, B23 5, United Kingdom","Country":"GBR","State":"England","County":"West Midlands","City":"Birmingham","District":"Birmingham","Street":"Sutton Road","PostalCode":"B23 5","AdditionalData":[{"value":"United Kingdom","key":"CountryName"},{"value":"England","key":"StateName"},{"value":"West Midlands","key":"CountyName"}]},"MapReference":{"ReferenceId":"1219956597","Spot":0.12,"SideOfStreet":"right","StateId":"20248595","CountyId":"20358328","CityId":"20358334","DistrictId":"20358335"}}},{"Relevance":1.0,"Distance":44.2,"MatchLevel":"houseNumber","MatchQuality":{"Country":1.0,"State":1.0,"County":1.0,"City":1.0,"District":1.0,"Street":[1.0],"HouseNumber":1.0,"PostalCode":1.0},"MatchType":"interpolated","Location":{"LocationId":"NT_4GwhEnzi44LMM4lWCyZfJA_l_26336021_R_xETM","LocationType":"point","DisplayPosition":{"Latitude":52.53273,"Longitude":-1.82981},"MapView":{"TopLeft":{"Latitude":52.5338542,"Longitude":-1.831658},"BottomRight":{"Latitude":52.5316059,"Longitude":-1.827962}},"Address":{"Label":"111 Sutton Road, Birmingham, B23 5XB, United Kingdom","Country":"GBR","State":"England","County":"West Midlands","City":"Birmingham","District":"Birmingham","Street":"Sutton Road","HouseNumber":"111","PostalCode":"B23 5XB","AdditionalData":[{"value":"United Kingdom","key":"CountryName"},{"value":"England","key":"StateName"},{"value":"West Midlands","key":"CountyName"}]},"MapReference":{"ReferenceId":"26336021","Spot":0.5,"SideOfStreet":"right","StateId":"20248595","CountyId":"20358328","CityId":"20358334","DistrictId":"20358335"}}},{"Relevance":1.0,"Distance":45.7,"MatchLevel":"houseNumber","MatchQuality":{"Country":1.0,"State":1.0,"County":1.0,"City":1.0,"District":1.0,"Street":[1.0],"HouseNumber":1.0,"PostalCode":1.0},"MatchType":"interpolated","Location":{"LocationId":"NT_8assi7nLE-A5iIoGHQIdbB_l_868741643_L_3EDO","LocationType":"point","DisplayPosition":{"Latitude":52.53342,"Longitude":-1.82912},"MapView":{"TopLeft":{"Latitude":52.5345442,"Longitude":-1.8309681},"BottomRight":{"Latitude":52.5322959,"Longitude":-1.827272}},"Address":{"Label":"718 Chester Road, Birmingham, B23 5TE, United Kingdom","Country":"GBR","State":"England","County":"West Midlands","City":"Birmingham","District":"Birmingham","Street":"Chester Road","HouseNumber":"718","PostalCode":"B23 5TE","AdditionalData":[{"value":"United Kingdom","key":"CountryName"},{"value":"England","key":"StateName"},{"value":"West Midlands","key":"CountyName"}]},"MapReference":{"ReferenceId":"868741643","Spot":0.0,"SideOfStreet":"left","StateId":"20248595","CountyId":"20358328","CityId":"20358334","DistrictId":"20358335"}}},{"Relevance":1.0,"Distance":54.8,"MatchLevel":"street","MatchQuality":{"Country":1.0,"State":1.0,"County":1.0,"City":1.0,"District":1.0,"Street":[1.0],"PostalCode":1.0},"Location":{"LocationId":"NT_uefxiLXWPVEKBhu0CwA2WB_l_1219953981_L","LocationType":"point","DisplayPosition":{"Latitude":52.5333548,"Longitude":-1.8289791},"MapView":{"TopLeft":{"Latitude":52.53336,"Longitude":-1.82899},"BottomRight":{"Latitude":52.53301,"Longitude":-1.82826}},"Address":{"Label":"Chester Road, Birmingham, B24 0, United Kingdom","Country":"GBR","State":"England","County":"West Midlands","City":"Birmingham","District":"Birmingham","Street":"Chester Road","PostalCode":"B24 0","AdditionalData":[{"value":"United Kingdom","key":"CountryName"},{"value":"England","key":"StateName"},{"value":"West Midlands","key":"CountyName"}]},"MapReference":{"ReferenceId":"1219953981","Spot":0.99,"SideOfStreet":"left","StateId":"20248595","CountyId":"20358328","CityId":"20358334","DistrictId":"20358335"}}},{"Relevance":1.0,"Distance":55.2,"MatchLevel":"street","MatchQuality":{"Country":1.0,"State":1.0,"County":1.0,"City":1.0,"District":1.0,"Street":[1.0],"PostalCode":1.0},"Location":{"LocationId":"NT_ikahia83JV6ikqbAlkHSWC_l_26335948_L","LocationType":"point","DisplayPosition":{"Latitude":52.53336,"Longitude":-1.82899},"MapView":{"TopLeft":{"Latitude":52.53342,"Longitude":-1.82912},"BottomRight":{"Latitude":52.53336,"Longitude":-1.82899}},"Address":{"Label":"Chester Road, Birmingham, B23 5, United Kingdom","Country":"GBR","State":"England","County":"West Midlands","City":"Birmingham","District":"Birmingham","Street":"Chester Road","PostalCode":"B23 5","AdditionalData":[{"value":"United Kingdom","key":"CountryName"},{"value":"England","key":"StateName"},{"value":"West Midlands","key":"CountyName"}]},"MapReference":{"ReferenceId":"26335948","Spot":0.0,"SideOfStreet":"left","StateId":"20248595","CountyId":"20358328","CityId":"20358334","DistrictId":"20358335"}}},{"Relevance":1.0,"Distance":55.2,"MatchLevel":"street","MatchQuality":{"Country":1.0,"State":1.0,"County":1.0,"City":1.0,"District":1.0,"Street":[1.0],"PostalCode":1.0},"Location":{"LocationId":"NT_ROEdgf2bEkEWQ7GzSC5qHA_l_26335947_R","LocationType":"point","DisplayPosition":{"Latitude":52.53336,"Longitude":-1.82899},"MapView":{"TopLeft":{"Latitude":52.53343,"Longitude":-1.82899},"BottomRight":{"Latitude":52.53336,"Longitude":-1.82891}},"Address":{"Label":"Sutton Road, Birmingham, B23 5, United Kingdom","Country":"GBR","State":"England","County":"West Midlands","City":"Birmingham","District":"Birmingham","Street":"Sutton Road","PostalCode":"B23 5","AdditionalData":[{"value":"United Kingdom","key":"CountryName"},{"value":"England","key":"StateName"},{"value":"West Midlands","key":"CountyName"}]},"MapReference":{"ReferenceId":"26335947","Spot":0.0,"SideOfStreet":"right","StateId":"20248595","CountyId":"20358328","CityId":"20358334","DistrictId":"20358335"}}},{"Relevance":1.0,"Distance":60.2,"MatchLevel":"street","MatchQuality":{"Country":1.0,"State":1.0,"County":1.0,"City":1.0,"District":1.0,"Street":[1.0],"PostalCode":1.0},"Location":{"LocationId":"NT_ROEdgf2bEkEWQ7GzSC5qHA_l_26335941_R","LocationType":"point","DisplayPosition":{"Latitude":52.53342,"Longitude":-1.82912},"MapView":{"TopLeft":{"Latitude":52.53348,"Longitude":-1.82912},"BottomRight":{"Latitude":52.53342,"Longitude":-1.82903}},"Address":{"Label":"Sutton Road, Birmingham, B23 5, United Kingdom","Country":"GBR","State":"England","County":"West Midlands","City":"Birmingham","District":"Birmingham","Street":"Sutton Road","PostalCode":"B23 5","AdditionalData":[{"value":"United Kingdom","key":"CountryName"},{"value":"England","key":"StateName"},{"value":"West Midlands","key":"CountyName"}]},"MapReference":{"ReferenceId":"26335941","Spot":0.0,"SideOfStreet":"right","StateId":"20248595","CountyId":"20358328","CityId":"20358334","DistrictId":"20358335"}}}]}]}}