{"Response":{"MetaInfo":{"Timestamp":"2020-03-28T10:45:57.908+0000","NextPageInformation":"2"},"View":[{"_type":"SearchResultsViewType","ViewId":0,"Result":[{"Relevance":1.0,"Distance":0.0,"Direction":0.0,"MatchLevel":"district","MatchQuality":{"Country":1.0,"State":1.0,"County":1.0,"City":1.0,"District":1.0,"PostalCode":1.0},"Location":{"LocationId":"NT_CynJa7JLe8--JO67wEx0oB","LocationType":"point","DisplayPosition":{"Latitude":52.5071615,"Longitude":17.5939524},"MapView":{"TopLeft":{"Latitude":52.56511,"Longitude":17.54748},"BottomRight":{"Latitude":52.49382,"Longitude":17.65853}},"Address":{"Label":"Gniezno, Woj. Wielkopolskie, Polska","Country":"POL","State":"Woj. Wielkopolskie","County":"Powiat Gnieźnieński","City":"Gniezno","District":"Gniezno","PostalCode":"62-200","AdditionalData":[{"value":"Polska","key":"CountryName"},{"value":"Woj. Wielkopolskie","key":"StateName"},{"value":"Powiat Gnieźnieński","key":"CountyName"}]},"MapReference":{"ReferenceId":"1085230943","SideOfStreet":"neither","CountryId":"20624059","StateId":"20629915","CountyId":"20629952","CityId":"20695798","DistrictId":"20695799"}}},{"Relevance":1.0,"Distance":6.9,"MatchLevel":"houseNumber","MatchQuality":{"Country":1.0,"State":1.0,"County":1.0,"City":1.0,"District":1.0,"Street":[1.0],"HouseNumber":1.0,"PostalCode":1.0},"MatchType":"interpolated","Location":{"LocationId":"NT_KN9TmcTn1P5tRkVRAfORbB_xA","LocationType":"point","DisplayPosition":{"Latitude":52.50721,"Longitude":17.59378},"MapView":{"TopLeft":{"Latitude":52.5083342,"Longitude":17.5919331},"BottomRight":{"Latitude":52.5060858,"Longitude":17.5956269}},"Address":{"Label":"ulica Pustachowska 1, 62-200 Gniezno, Polska","Country":"POL","State":"Woj. Wielkopolskie","County":"Powiat Gnieźnieński","City":"Gniezno","District":"Gniezno","Street":"ulica Pustachowska","HouseNumber":"1","PostalCode":"62-200","AdditionalData":[{"value":"Polska","key":"CountryName"},{"value":"Woj. Wielkopolskie","key":"StateName"},{"value":"Powiat Gnieźnieński","key":"CountyName"}]},"MapReference":{"ReferenceId":"595262656","Spot":0.74,"SideOfStreet":"right","CountryId":"20624059","StateId":"20629915","CountyId":"20629952","CityId":"20695798","DistrictId":"20695799","AddressId":"702036814","RoadLinkId":"95040265"}}},{"Relevance":1.0,"Distance":33.7,"MatchLevel":"houseNumber","MatchQuality":{"Country":1.0,"State":1.0,"County":1.0,"City":1.0,"District":1.0,"Street":[1.0],"HouseNumber":1.0,"PostalCode":1.0},"MatchType":"interpolated","Location":{"LocationId":"NT_Hh0C1LzJ28WqGPm6ymbk7D_xA","LocationType":"point","DisplayPosition":{"Latitude":52.50746,"Longitude":17.59387},"MapView":{"TopLeft":{"Latitude":52.5085842,"Longitude":17.5920231},"BottomRight":{"Latitude":52.5063358,"Longitude":17.5957169}},"Address":{"Label":"ulica Dzieci Wrzesińskich 1, 62-200 Gniezno, Polska","Country":"POL","State":"Woj. Wielkopolskie","County":"Powiat Gnieźnieński","City":"Gniezno","District":"Gniezno","Street":"ulica Dzieci Wrzesińskich","HouseNumber":"1","PostalCode":"62-200","AdditionalData":[{"value":"Polska","key":"CountryName"},{"value":"Woj. Wielkopolskie","key":"StateName"},{"value":"Powiat Gnieźnieński","key":"CountyName"}]},"MapReference":{"ReferenceId":"755875670","Spot":0.06,"SideOfStreet":"left","CountryId":"20624059","StateId":"20629915","CountyId":"20629952","CityId":"20695798","DistrictId":"20695799","AddressId":"211003381","RoadLinkId":"151110374"}}},{"Relevance":1.0,"Distance":42.3,"MatchLevel":"houseNumber","MatchQuality":{"Country":1.0,"State":1.0,"County":1.0,"City":1.0,"District":1.0,"Street":[1.0],"HouseNumber":1.0,"PostalCode":1.0},"MatchType":"interpolated","Location":{"LocationId":"NT_Iw3kWaCRwbyLbKl4o.FlBC_xMDM","LocationType":"point","DisplayPosition":{"Latitude":52.50698,"Longitude":17.59481},"MapView":{"TopLeft":{"Latitude":52.5081042,"Longitude":17.5929631},"BottomRight":{"Latitude":52.5058558,"Longitude":17.5966569}},"Address":{"Label":"ulica Wrzesińska 130, 62-200 Gniezno, Polska","Country":"POL","State":"Woj. Wielkopolskie","County":"Powiat Gnieźnieński","City":"Gniezno","District":"Gniezno","Street":"ulica Wrzesińska","HouseNumber":"130","PostalCode":"62-200","AdditionalData":[{"value":"Polska","key":"CountryName"},{"value":"Woj. Wielkopolskie","key":"StateName"},{"value":"Powiat Gnieźnieński","key":"CountyName"}]},"MapReference":{"ReferenceId":"803019689","Spot":0.11,"SideOfStreet":"left","CountryId":"20624059","StateId":"20629915","CountyId":"20629952","CityId":"20695798","DistrictId":"20695799","AddressId":"209851699","RoadLinkId":"192433060"}}},{"Relevance":1.0,"Distance":62.3,"MatchLevel":"houseNumber","MatchQuality":{"Country":1.0,"State":1.0,"County":1.0,"City":1.0,"District":1.0,"Street":[1.0],"HouseNumber":1.0,"PostalCode":1.0},"MatchType":"interpolated","Location":{"LocationId":"NT_KN9TmcTn1P5tRkVRAfORbB_yEE","LocationType":"point","DisplayPosition":{"Latitude":52.50757,"Longitude":17.59444},"MapView":{"TopLeft":{"Latitude":52.5086942,"Longitude":17.5925931},"BottomRight":{"Latitude":52.5064458,"Longitude":17.5962869}},"Address":{"Label":"ulica Pustachowska 2A, 62-200 Gniezno, Polska","Country":"POL","State":"Woj. Wielkopolskie","County":"Powiat Gnieźnieński","City":"Gniezno","District":"Gniezno","Street":"ulica Pustachowska","HouseNumber":"2A","PostalCode":"62-200","AdditionalData":[{"value":"Polska","key":"CountryName"},{"value":"Woj. Wielkopolskie","key":"StateName"},{"value":"Powiat Gnieźnieński","key":"CountyName"}]},"MapReference":{"ReferenceId":"595262609","Spot":0.51,"SideOfStreet":"left","CountryId":"20624059","StateId":"20629915","CountyId":"20629952","CityId":"20695798","DistrictId":"20695799","AddressId":"702036785","RoadLinkId":"94878136"}}},{"Relevance":1.0,"Distance":64.8,"MatchLevel":"street","MatchQuality":{"Country":1.0,"State":1.0,"County":1.0,"City":1.0,"District":1.0,"Street":[1.0],"PostalCode":1.0},"Location":{"LocationId":"NT_Iw3kWaCRwbyLbKl4o.FlBC_l_803019688_L","LocationType":"point","DisplayPosition":{"Latitude":52.50689,"Longitude":17.5948},"MapView":{"TopLeft":{"Latitude":52.50689,"Longitude":17.59478},"BottomRight":{"Latitude":52.50654,"Longitude":17.5948}},"Address":{"Label":"ulica Wrzesińska, 62-200 Gniezno, Polska","Country":"POL","State":"Woj. Wielkopolskie","County":"Powiat Gnieźnieński","City":"Gniezno","District":"Gniezno","Street":"ulica Wrzesińska","PostalCode":"62-200","AdditionalData":[{"value":"Polska","key":"CountryName"},{"value":"Woj. Wielkopolskie","key":"StateName"},{"value":"Powiat Gnieźnieński","key":"CountyName"}]},"MapReference":{"ReferenceId":"803019688","Spot":1.0,"SideOfStreet":"left","CountryId":"20624059","StateId":"20629915","CountyId":"20629952","CityId":"20695798","DistrictId":"20695799"}}},{"Relevance":1.0,"Distance":70.0,"MatchLevel":"houseNumber","MatchQuality":{"Country":1.0,"State":1.0,"County":1.0,"City":1.0,"District":1.0,"Street":[1.0],"HouseNumber":1.0,"PostalCode":1.0},"MatchType":"interpolated","Location":{"LocationId":"NT_y7RmDZY5wqbp8RkVRvptpC_yA","LocationType":"point","DisplayPosition":{"Latitude":52.50702,"Longitude":17.59273},"MapView":{"TopLeft":{"Latitude":52.5081442,"Longitude":17.5908831},"BottomRight":{"Latitude":52.5058958,"Longitude":17.5945769}},"Address":{"Label":"ulica Nowa 2, 62-200 Gniezno, Polska","Country":"POL","State":"Woj. Wielkopolskie","County":"Powiat Gnieźnieński","City":"Gniezno","District":"Gniezno","Street":"ulica Nowa","HouseNumber":"2","PostalCode":"62-200","AdditionalData":[{"value":"Polska","key":"CountryName"},{"value":"Woj. Wielkopolskie","key":"StateName"},{"value":"Powiat Gnieźnieński","key":"CountyName"}]},"MapReference":{"ReferenceId":"595262657","Spot":0.15,"SideOfStreet":"right","CountryId":"20624059","StateId":"20629915","CountyId":"20629952","CityId":"20695798","DistrictId":"20695799","AddressId":"209291259","RoadLinkId":"95098354"}}},{"Relevance":1.0,"Distance":84.6,"MatchLevel":"houseNumber","MatchQuality":{"Country":1.0,"State":1.0,"County":1.0,"City":1.0,"District":1.0,"Street":[1.0],"HouseNumber":1.0,"PostalCode":1.0},"MatchType":"interpolated","Location":{"LocationId":"NT_Iw3kWaCRwbyLbKl4o.FlBC_xIDN","LocationType":"point","DisplayPosition":{"Latitude":52.50778,"Longitude":17.59485},"MapView":{"TopLeft":{"Latitude":52.5089042,"Longitude":17.5930031},"BottomRight":{"Latitude":52.5066558,"Longitude":17.5966969}},"Address":{"Label":"ulica Wrzesińska 124, 62-200 Gniezno, Polska","Country":"POL","State":"Woj. Wielkopolskie","County":"Powiat Gnieźnieński","City":"Gniezno","District":"Gniezno","Street":"ulica Wrzesińska","HouseNumber":"124","PostalCode":"62-200","AdditionalData":[{"value":"Polska","key":"CountryName"},{"value":"Woj. Wielkopolskie","key":"StateName"},{"value":"Powiat Gnieźnieński","key":"CountyName"}]},"MapReference":{"ReferenceId":"755875671","Spot":0.06,"SideOfStreet":"left","CountryId":"20624059","StateId":"20629915","CountyId":"20629952","CityId":"20695798","DistrictId":"20695799","AddressId":"210707978","RoadLinkId":"151110375"}}},{"Relevance":1.0,"Distance":89.0,"MatchLevel":"street","MatchQuality":{"Country":1.0,"State":1.0,"County":1.0,"City":1.0,"District":1.0,"Street":[1.0],"PostalCode":1.0},"Location":{"LocationId":"NT_fRyRJfbeOuR3sLoxs69zmD_l_595262700_L","LocationType":"point","DisplayPosition":{"Latitude":52.50654,"Longitude":17.59478},"MapView":{"TopLeft":{"Latitude":52.50759,"Longitude":17.59478},"BottomRight":{"Latitude":52.50654,"Longitude":17.59787}},"Address":{"Label":"ulica Pułkowa, 62-200 Gniezno, Polska","Country":"POL","State":"Woj. Wielkopolskie","County":"Powiat Gnieźnieński","City":"Gniezno","District":"Gniezno","Street":"ulica Pułkowa","PostalCode":"62-200","AdditionalData":[{"value":"Polska","key":"CountryName"},{"value":"Woj. Wielkopolskie","key":"StateName"},{"value":"Powiat Gnieźnieński","key":"CountyName"}]},"MapReference":{"ReferenceId":"595262700","Spot":0.0,"SideOfStreet":"left","CountryId":"20624059","StateId":"20629915","CountyId":"20629952","CityId":"20695798","DistrictId":"20695799"}}},{"Relevance":1.0,"Distance":90.7,"MatchLevel":"houseNumber","MatchQuality":{"Country":1.0,"State":1.0,"County":1.0,"City":1.0,"District":1.0,"Street":[1.0],"HouseNumber":1.0,"PostalCode":1.0},"MatchType":"interpolated","Location":{"LocationId":"NT_KN9TmcTn1P5tRkVRAfORbB_zIE","LocationType":"point","DisplayPosition":{"Latitude":52.50674,"Longitude":17.5929},"MapView":{"TopLeft":{"Latitude":52.5078642,"Longitude":17.5910531},"BottomRight":{"Latitude":52.5056158,"Longitude":17.5947469}},"Address":{"Label":"ulica Pustachowska 3B, 62-200 Gniezno, Polska","Country":"POL","State":"Woj. Wielkopolskie","County":"Powiat Gnieźnieński","City":"Gniezno","District":"Gniezno","Street":"ulica Pustachowska","HouseNumber":"3B","PostalCode":"62-200","AdditionalData":[{"value":"Polska","key":"CountryName"},{"value":"Woj. Wielkopolskie","key":"StateName"},{"value":"Powiat Gnieźnieński","key":"CountyName"}]},"MapReference":{"ReferenceId":"1157109868","Spot":0.94,"SideOfStreet":"right","CountryId":"20624059","StateId":"20629915","CountyId":"20629952","CityId":"20695798","DistrictId":"20695799","AddressId":"702067144","RoadLinkId":"463433648"}}}]}]}}