{"Response":{"MetaInfo":{"Timestamp":"2020-03-28T11:58:52.246+0000","NextPageInformation":"2"},"View":[{"_type":"SearchResultsViewType","ViewId":0,"Result":[{"Relevance":1.0,"Distance":0.0,"Direction":0.0,"MatchLevel":"district","MatchQuality":{"Country":1.0,"State":1.0,"County":1.0,"City":1.0,"District":1.0,"PostalCode":1.0},"Location":{"LocationId":"NT_Svt-dsVtY9Vp0c8R8YcMvC","LocationType":"point","DisplayPosition":{"Latitude":52.5648888,"Longitude":-1.6813744},"MapView":{"TopLeft":{"Latitude":52.57733,"Longitude":-1.69011},"BottomRight":{"Latitude":52.55603,"Longitude":-1.66705}},"Address":{"Label":"Kingsbury, Tamworth, England, United Kingdom","Country":"GBR","State":"England","County":"Staffordshire","City":"Tamworth","District":"Kingsbury","PostalCode":"B78 2","AdditionalData":[{"value":"United Kingdom","key":"CountryName"},{"value":"England","key":"StateName"},{"value":"Staffordshire","key":"CountyName"}]},"MapReference":{"ReferenceId":"26330003","SideOfStreet":"neither","StateId":"20248595","CountyId":"20345040","CityId":"20358262","DistrictId":"20358287"}}},{"Relevance":1.0,"Distance":10.1,"MatchLevel":"street","MatchQuality":{"Country":1.0,"State":1.0,"County":1.0,"City":1.0,"District":1.0,"PostalCode":1.0},"Location":{"LocationId":"NT_PYebp1Cc7bA88zT0.djtaA_l_26330040_L","LocationType":"point","DisplayPosition":{"Latitude":52.56485,"Longitude":-1.68124},"MapView":{"TopLeft":{"Latitude":52.565,"Longitude":-1.68124},"BottomRight":{"Latitude":52.56438,"Longitude":-1.68069}},"Address":{"Label":"Tamworth, B78 2, United Kingdom","Country":"GBR","State":"England","County":"Staffordshire","City":"Tamworth","District":"Kingsbury","PostalCode":"B78 2","AdditionalData":[{"value":"United Kingdom","key":"CountryName"},{"value":"England","key":"StateName"},{"value":"Staffordshire","key":"CountyName"}]},"MapReference":{"ReferenceId":"26330040","Spot":0.52,"SideOfStreet":"left","StateId":"20248595","CountyId":"20345040","CityId":"20358262","DistrictId":"20358287"}}},{"Relevance":1.0,"Distance":24.3,"MatchLevel":"street","MatchQuality":{"Country":1.0,"State":1.0,"County":1.0,"City":1.0,"District":1.0,"Street":[1.0],"PostalCode":1.0},"Location":{"LocationId":"NT_fr3Dn3Kxvg.84iokiPMP7A_l_26330030_R","LocationType":"point","DisplayPosition":{"Latitude":52.5650261,"Longitude":-1.6816549},"MapView":{"TopLeft":{"Latitude":52.56522,"Longitude":-1.68179},"BottomRight":{"Latitude":52.56475,"Longitude":-1.68156}},"Address":{"Label":"Coventry Road, Tamworth, B78 2, United Kingdom","Country":"GBR","State":"England","County":"Staffordshire","City":"Tamworth","District":"Kingsbury","Street":"Coventry Road","PostalCode":"B78 2","AdditionalData":[{"value":"United Kingdom","key":"CountryName"},{"value":"England","key":"StateName"},{"value":"Staffordshire","key":"CountyName"}]},"MapReference":{"ReferenceId":"26330030","Spot":0.59,"SideOfStreet":"right","StateId":"20248595","CountyId":"20345040","CityId":"20358262","DistrictId":"20358287"}}},{"Relevance":1.0,"Distance":26.8,"MatchLevel":"postalCode","MatchQuality":{"PostalCode":1.0},"Location":{"LocationId":"NT_fr3Dn3Kxvg.84iokiPMP7A_l_26330030_R","LocationType":"point","DisplayPosition":{"Latitude":52.56477,"Longitude":-1.68172},"MapView":{"TopLeft":{"Latitude":52.5737632,"Longitude":-1.6965148},"BottomRight":{"Latitude":52.5557768,"Longitude":-1.6669252}},"Address":{"Label":"B78 2LN, Tamworth, England, United Kingdom","Country":"GBR","State":"England","County":"Staffordshire","City":"Tamworth","PostalCode":"B78 2LN","AdditionalData":[{"value":"United Kingdom","key":"CountryName"},{"value":"England","key":"StateName"},{"value":"Staffordshire","key":"CountyName"}]},"MapReference":{"ReferenceId":"26330030","Spot":0.59,"SideOfStreet":"neither","StateId":"20248595","CountyId":"20345040","CityId":"20358262"}}},{"Relevance":1.0,"Distance":32.1,"MatchLevel":"street","MatchQuality":{"Country":1.0,"State":1.0,"County":1.0,"City":1.0,"District":1.0,"PostalCode":1.0},"Location":{"LocationId":"NT_PYebp1Cc7bA88zT0.djtaA_l_26330031_L","LocationType":"point","DisplayPosition":{"Latitude":52.56475,"Longitude":-1.68179},"MapView":{"TopLeft":{"Latitude":52.56475,"Longitude":-1.6821},"BottomRight":{"Latitude":52.56475,"Longitude":-1.68179}},"Address":{"Label":"Tamworth, B78 2, United Kingdom","Country":"GBR","State":"England","County":"Staffordshire","City":"Tamworth","District":"Kingsbury","PostalCode":"B78 2","AdditionalData":[{"value":"United Kingdom","key":"CountryName"},{"value":"England","key":"StateName"},{"value":"Staffordshire","key":"CountyName"}]},"MapReference":{"ReferenceId":"26330031","Spot":1.0,"SideOfStreet":"left","StateId":"20248595","CountyId":"20345040","CityId":"20358262","DistrictId":"20358287"}}},{"Relevance":1.0,"Distance":38.7,"MatchLevel":"houseNumber","MatchQuality":{"Country":1.0,"State":1.0,"County":1.0,"City":1.0,"District":1.0,"Street":[1.0],"HouseNumber":1.0,"PostalCode":1.0},"MatchType":"interpolated","Location":{"LocationId":"NT_nqfKydvNv9iVcAFem4YrmA_l_26330035_R_xED","LocationType":"point","DisplayPosition":{"Latitude":52.5646,"Longitude":-1.68183},"MapView":{"TopLeft":{"Latitude":52.5657242,"Longitude":-1.6836793},"BottomRight":{"Latitude":52.5634759,"Longitude":-1.6799807}},"Address":{"Label":"11 Coventry Road, Tamworth, B78 2, United Kingdom","Country":"GBR","State":"England","County":"Staffordshire","City":"Tamworth","District":"Kingsbury","Street":"Coventry Road","HouseNumber":"11","PostalCode":"B78 2","AdditionalData":[{"value":"United Kingdom","key":"CountryName"},{"value":"England","key":"StateName"},{"value":"Staffordshire","key":"CountyName"}]},"MapReference":{"ReferenceId":"26330035","Spot":0.49,"SideOfStreet":"right","StateId":"20248595","CountyId":"20345040","CityId":"20358262","DistrictId":"20358287"}}},{"Relevance":1.0,"Distance":38.9,"MatchLevel":"houseNumber","MatchQuality":{"Country":1.0,"State":1.0,"County":1.0,"City":1.0,"District":1.0,"Street":[1.0],"HouseNumber":1.0,"PostalCode":1.0},"MatchType":"interpolated","Location":{"LocationId":"NT_Jq1BltqZPqwRraouHwAkEB_l_26330028_L_xA","LocationType":"point","DisplayPosition":{"Latitude":52.56522,"Longitude":-1.68156},"MapView":{"TopLeft":{"Latitude":52.5663442,"Longitude":-1.6834093},"BottomRight":{"Latitude":52.5640959,"Longitude":-1.6797106}},"Address":{"Label":"1 Tamworth Road, Tamworth, B78 2LE, United Kingdom","Country":"GBR","State":"England","County":"Staffordshire","City":"Tamworth","District":"Kingsbury","Street":"Tamworth Road","HouseNumber":"1","PostalCode":"B78 2LE","AdditionalData":[{"value":"United Kingdom","key":"CountryName"},{"value":"England","key":"StateName"},{"value":"Staffordshire","key":"CountyName"}]},"MapReference":{"ReferenceId":"26330028","Spot":0.0,"SideOfStreet":"left","StateId":"20248595","CountyId":"20345040","CityId":"20358262","DistrictId":"20358287"}}},{"Relevance":1.0,"Distance":49.6,"MatchLevel":"postalCode","MatchQuality":{"PostalCode":1.0},"MatchType":"interpolated","Location":{"LocationId":"NT_Jq1BltqZPqwRraouHwAkEB_l_26330028_L_xA","LocationType":"point","DisplayPosition":{"Latitude":52.56505,"Longitude":-1.68069},"MapView":{"TopLeft":{"Latitude":52.5740432,"Longitude":-1.6954849},"BottomRight":{"Latitude":52.5560568,"Longitude":-1.6658951}},"Address":{"Label":"B78 2LL, Tamworth, England, United Kingdom","Country":"GBR","State":"England","County":"Staffordshire","City":"Tamworth","PostalCode":"B78 2LL","AdditionalData":[{"value":"United Kingdom","key":"CountryName"},{"value":"England","key":"StateName"},{"value":"Staffordshire","key":"CountyName"}]},"MapReference":{"ReferenceId":"26330028","Spot":0.0,"SideOfStreet":"neither","StateId":"20248595","CountyId":"20345040","CityId":"20358262"}}},{"Relevance":1.0,"Distance":52.1,"MatchLevel":"postalCode","MatchQuality":{"PostalCode":1.0},"Location":{"LocationId":"NT_ln0ufss.tAlLqHSdnUMb9A_l_26330041_R","LocationType":"point","DisplayPosition":{"Latitude":52.56442,"Longitude":-1.68137},"MapView":{"TopLeft":{"Latitude":52.5734132,"Longitude":-1.6961647},"BottomRight":{"Latitude":52.5554268,"Longitude":-1.6665753}},"Address":{"Label":"B78 2AG, Tamworth, England, United Kingdom","Country":"GBR","State":"England","County":"Staffordshire","City":"Tamworth","PostalCode":"B78 2AG","AdditionalData":[{"value":"United Kingdom","key":"CountryName"},{"value":"England","key":"StateName"},{"value":"Staffordshire","key":"CountyName"}]},"MapReference":{"ReferenceId":"26330041","Spot":0.5,"SideOfStreet":"neither","StateId":"20248595","CountyId":"20345040","CityId":"20358262"}}},{"Relevance":1.0,"Distance":52.9,"MatchLevel":"street","MatchQuality":{"Country":1.0,"State":1.0,"County":1.0,"City":1.0,"District":1.0,"PostalCode":1.0},"Location":{"LocationId":"NT_PYebp1Cc7bA88zT0.djtaA_l_26330029_R","LocationType":"point","DisplayPosition":{"Latitude":52.56536,"Longitude":-1.68148},"MapView":{"TopLeft":{"Latitude":52.56537,"Longitude":-1.68234},"BottomRight":{"Latitude":52.56475,"Longitude":-1.68148}},"Address":{"Label":"Tamworth, B78 2, United Kingdom","Country":"GBR","State":"England","County":"Staffordshire","City":"Tamworth","District":"Kingsbury","PostalCode":"B78 2","AdditionalData":[{"value":"United Kingdom","key":"CountryName"},{"value":"England","key":"StateName"},{"value":"Staffordshire","key":"CountyName"}]},"MapReference":{"ReferenceId":"26330029","Spot":1.0,"SideOfStreet":"right","StateId":"20248595","CountyId":"20345040","CityId":"20358262","DistrictId":"20358287"}}}]}]}}