{"Response":{"MetaInfo":{"Timestamp":"2020-03-28T11:42:16.895+0000","NextPageInformation":"2"},"View":[{"_type":"SearchResultsViewType","ViewId":0,"Result":[{"Relevance":1.0,"Distance":0.0,"Direction":0.0,"MatchLevel":"district","MatchQuality":{"Country":1.0,"State":1.0,"County":1.0,"City":1.0,"District":1.0,"PostalCode":1.0},"Location":{"LocationId":"NT_mGoRf8b6yzAydhxZB9iEoC","LocationType":"point","DisplayPosition":{"Latitude":52.5957856,"Longitude":8.8334542},"MapView":{"TopLeft":{"Latitude":52.60456,"Longitude":8.8177},"BottomRight":{"Latitude":52.58972,"Longitude":8.84858}},"Address":{"Label":"Kirchdorf, Niedersachsen, Deutschland","Country":"DEU","State":"Niedersachsen","County":"Diepholz","City":"Kirchdorf","District":"Kirchdorf","PostalCode":"27245","AdditionalData":[{"value":"Deutschland","key":"CountryName"},{"value":"Niedersachsen","key":"StateName"},{"value":"Diepholz","key":"CountyName"}]},"MapReference":{"ReferenceId":"79890924","SideOfStreet":"neither","CountryId":"20147700","StateId":"20151542","CountyId":"20152696","CityId":"20152789","DistrictId":"20152793"}}},{"Relevance":1.0,"Distance":8.3,"MatchLevel":"houseNumber","MatchQuality":{"Country":1.0,"State":1.0,"County":1.0,"City":1.0,"District":1.0,"Street":[1.0],"HouseNumber":1.0,"PostalCode":1.0},"MatchType":"interpolated","Location":{"LocationId":"NT_8w6HfigXCs1pftJ-.hSPsA_xUD","LocationType":"point","DisplayPosition":{"Latitude":52.59563,"Longitude":8.83347},"MapView":{"TopLeft":{"Latitude":52.5967542,"Longitude":8.8316194},"BottomRight":{"Latitude":52.5945058,"Longitude":8.8353206}},"Address":{"Label":"Lange Straße 15, 27245 Kirchdorf, Deutschland","Country":"DEU","State":"Niedersachsen","County":"Diepholz","City":"Kirchdorf","District":"Kirchdorf","Street":"Lange Straße","HouseNumber":"15","PostalCode":"27245","AdditionalData":[{"value":"Deutschland","key":"CountryName"},{"value":"Niedersachsen","key":"StateName"},{"value":"Diepholz","key":"CountyName"}]},"MapReference":{"ReferenceId":"79891227","Spot":0.16,"SideOfStreet":"right","CountryId":"20147700","StateId":"20151542","CountyId":"20152696","CityId":"20152789","DistrictId":"20152793","AddressId":"177699409","RoadLinkId":"36622227"}}},{"Relevance":1.0,"Distance":17.5,"MatchLevel":"street","MatchQuality":{"Country":1.0,"State":1.0,"County":1.0,"City":1.0,"District":1.0,"PostalCode":1.0},"Location":{"LocationId":"NT_kMiRwoHJNXeMXQlsM9wnTC_l_79890864_R","LocationType":"point","DisplayPosition":{"Latitude":52.5959387,"Longitude":8.8333912},"MapView":{"TopLeft":{"Latitude":52.59606,"Longitude":8.83317},"BottomRight":{"Latitude":52.59583,"Longitude":8.83374}},"Address":{"Label":"27245 Kirchdorf, Deutschland","Country":"DEU","State":"Niedersachsen","County":"Diepholz","City":"Kirchdorf","District":"Kirchdorf","PostalCode":"27245","AdditionalData":[{"value":"Deutschland","key":"CountryName"},{"value":"Niedersachsen","key":"StateName"},{"value":"Diepholz","key":"CountyName"}]},"MapReference":{"ReferenceId":"79890864","Spot":0.4,"SideOfStreet":"right","CountryId":"20147700","StateId":"20151542","CountyId":"20152696","CityId":"20152789","DistrictId":"20152793"}}},{"Relevance":1.0,"Distance":19.8,"MatchLevel":"street","MatchQuality":{"Country":1.0,"State":1.0,"County":1.0,"City":1.0,"District":1.0,"Street":[1.0],"PostalCode":1.0},"Location":{"LocationId":"NT_aqiIEuxoSJQ9fic5nkKXpC_l_79890914_R","LocationType":"point","DisplayPosition":{"Latitude":52.59583,"Longitude":8.83317},"MapView":{"TopLeft":{"Latitude":52.59583,"Longitude":8.83301},"BottomRight":{"Latitude":52.59571,"Longitude":8.83317}},"Address":{"Label":"Saint-Calais-Platz, 27245 Kirchdorf, Deutschland","Country":"DEU","State":"Niedersachsen","County":"Diepholz","City":"Kirchdorf","District":"Kirchdorf","Street":"Saint-Calais-Platz","PostalCode":"27245","AdditionalData":[{"value":"Deutschland","key":"CountryName"},{"value":"Niedersachsen","key":"StateName"},{"value":"Diepholz","key":"CountyName"}]},"MapReference":{"ReferenceId":"79890914","Spot":1.0,"SideOfStreet":"right","CountryId":"20147700","StateId":"20151542","CountyId":"20152696","CityId":"20152789","DistrictId":"20152793"}}},{"Relevance":1.0,"Distance":19.8,"MatchLevel":"street","MatchQuality":{"Country":1.0,"State":1.0,"County":1.0,"City":1.0,"District":1.0,"PostalCode":1.0},"Location":{"LocationId":"NT_kMiRwoHJNXeMXQlsM9wnTC_l_79890865_R","LocationType":"point","DisplayPosition":{"Latitude":52.59583,"Longitude":8.83317},"MapView":{"TopLeft":{"Latitude":52.59628,"Longitude":8.83269},"BottomRight":{"Latitude":52.59583,"Longitude":8.83317}},"Address":{"Label":"27245 Kirchdorf, Deutschland","Country":"DEU","State":"Niedersachsen","County":"Diepholz","City":"Kirchdorf","District":"Kirchdorf","PostalCode":"27245","AdditionalData":[{"value":"Deutschland","key":"CountryName"},{"value":"Niedersachsen","key":"StateName"},{"value":"Diepholz","key":"CountyName"}]},"MapReference":{"ReferenceId":"79890865","Spot":0.0,"SideOfStreet":"right","CountryId":"20147700","StateId":"20151542","CountyId":"20152696","CityId":"20152789","DistrictId":"20152793"}}},{"Relevance":1.0,"Distance":29.1,"MatchLevel":"houseNumber","MatchQuality":{"Country":1.0,"State":1.0,"County":1.0,"City":1.0,"District":1.0,"Street":[1.0],"HouseNumber":1.0,"PostalCode":1.0},"MatchType":"interpolated","Location":{"LocationId":"NT_8w6HfigXCs1pftJ-.hSPsA_yQD","LocationType":"point","DisplayPosition":{"Latitude":52.59558,"Longitude":8.83372},"MapView":{"TopLeft":{"Latitude":52.5967042,"Longitude":8.8318694},"BottomRight":{"Latitude":52.5944558,"Longitude":8.8355706}},"Address":{"Label":"Lange Straße 24, 27245 Kirchdorf, Deutschland","Country":"DEU","State":"Niedersachsen","County":"Diepholz","City":"Kirchdorf","District":"Kirchdorf","Street":"Lange Straße","HouseNumber":"24","PostalCode":"27245","AdditionalData":[{"value":"Deutschland","key":"CountryName"},{"value":"Niedersachsen","key":"StateName"},{"value":"Diepholz","key":"CountyName"}]},"MapReference":{"ReferenceId":"79891229","Spot":0.52,"SideOfStreet":"left","CountryId":"20147700","StateId":"20151542","CountyId":"20152696","CityId":"20152789","DistrictId":"20152793","AddressId":"177736678","RoadLinkId":"36289964"}}},{"Relevance":1.0,"Distance":29.3,"MatchLevel":"houseNumber","MatchQuality":{"Country":1.0,"State":1.0,"County":1.0,"City":1.0,"District":1.0,"Street":[1.0],"HouseNumber":1.0,"PostalCode":1.0},"MatchType":"interpolated","Location":{"LocationId":"NT_ixvsR2CMLPPam9tff9VybC_0A","LocationType":"point","DisplayPosition":{"Latitude":52.59596,"Longitude":8.83378},"MapView":{"TopLeft":{"Latitude":52.5970842,"Longitude":8.8319293},"BottomRight":{"Latitude":52.5948358,"Longitude":8.8356307}},"Address":{"Label":"Rathausstraße 4, 27245 Kirchdorf, Deutschland","Country":"DEU","State":"Niedersachsen","County":"Diepholz","City":"Kirchdorf","District":"Kirchdorf","Street":"Rathausstraße","HouseNumber":"4","PostalCode":"27245","AdditionalData":[{"value":"Deutschland","key":"CountryName"},{"value":"Niedersachsen","key":"StateName"},{"value":"Diepholz","key":"CountyName"}]},"MapReference":{"ReferenceId":"79890872","Spot":0.81,"SideOfStreet":"right","CountryId":"20147700","StateId":"20151542","CountyId":"20152696","CityId":"20152789","DistrictId":"20152793","AddressId":"177786101","RoadLinkId":"36969051"}}},{"Relevance":1.0,"Distance":40.9,"MatchLevel":"street","MatchQuality":{"Country":1.0,"State":1.0,"County":1.0,"City":1.0,"District":1.0,"Street":[1.0],"PostalCode":1.0},"Location":{"LocationId":"NT_8w6HfigXCs1pftJ-.hSPsA_l_79891230_R","LocationType":"point","DisplayPosition":{"Latitude":52.59553,"Longitude":8.83389},"MapView":{"TopLeft":{"Latitude":52.59553,"Longitude":8.83389},"BottomRight":{"Latitude":52.59535,"Longitude":8.83435}},"Address":{"Label":"Lange Straße, 27245 Kirchdorf, Deutschland","Country":"DEU","State":"Niedersachsen","County":"Diepholz","City":"Kirchdorf","District":"Kirchdorf","Street":"Lange Straße","PostalCode":"27245","AdditionalData":[{"value":"Deutschland","key":"CountryName"},{"value":"Niedersachsen","key":"StateName"},{"value":"Diepholz","key":"CountyName"}]},"MapReference":{"ReferenceId":"79891230","Spot":1.0,"SideOfStreet":"right","CountryId":"20147700","StateId":"20151542","CountyId":"20152696","CityId":"20152789","DistrictId":"20152793"}}},{"Relevance":1.0,"Distance":43.1,"MatchLevel":"houseNumber","MatchQuality":{"Country":1.0,"State":1.0,"County":1.0,"City":1.0,"District":1.0,"Street":[1.0],"HouseNumber":1.0,"PostalCode":1.0},"MatchType":"interpolated","Location":{"LocationId":"NT_8w6HfigXCs1pftJ-.hSPsA_xED","LocationType":"point","DisplayPosition":{"Latitude":52.59573,"Longitude":8.83279},"MapView":{"TopLeft":{"Latitude":52.5968542,"Longitude":8.8309393},"BottomRight":{"Latitude":52.5946058,"Longitude":8.8346407}},"Address":{"Label":"Lange Straße 11, 27245 Kirchdorf, Deutschland","Country":"DEU","State":"Niedersachsen","County":"Diepholz","City":"Kirchdorf","District":"Kirchdorf","Street":"Lange Straße","HouseNumber":"11","PostalCode":"27245","AdditionalData":[{"value":"Deutschland","key":"CountryName"},{"value":"Niedersachsen","key":"StateName"},{"value":"Diepholz","key":"CountyName"}]},"MapReference":{"ReferenceId":"79891226","Spot":0.18,"SideOfStreet":"right","CountryId":"20147700","StateId":"20151542","CountyId":"20152696","CityId":"20152789","DistrictId":"20152793","AddressId":"181703388","RoadLinkId":"37224218"}}},{"Relevance":1.0,"Distance":50.0,"MatchLevel":"houseNumber","MatchQuality":{"Country":1.0,"State":1.0,"County":1.0,"City":1.0,"District":1.0,"Street":[1.0],"HouseNumber":1.0,"PostalCode":1.0},"MatchType":"interpolated","Location":{"LocationId":"NT_SgtYFD1qNQW99CckPuoJYA_2A","LocationType":"point","DisplayPosition":{"Latitude":52.59644,"Longitude":8.83311},"MapView":{"TopLeft":{"Latitude":52.5975642,"Longitude":8.8312593},"BottomRight":{"Latitude":52.5953158,"Longitude":8.8349607}},"Address":{"Label":"Marktstraße 6, 27245 Kirchdorf, Deutschland","Country":"DEU","State":"Niedersachsen","County":"Diepholz","City":"Kirchdorf","District":"Kirchdorf","Street":"Marktstraße","HouseNumber":"6","PostalCode":"27245","AdditionalData":[{"value":"Deutschland","key":"CountryName"},{"value":"Niedersachsen","key":"StateName"},{"value":"Diepholz","key":"CountyName"}]},"MapReference":{"ReferenceId":"79890867","Spot":0.45,"SideOfStreet":"right","CountryId":"20147700","StateId":"20151542","CountyId":"20152696","CityId":"20152789","DistrictId":"20152793","AddressId":"790319097","RoadLinkId":"36913123"}}}]}]}}