{"Response":{"MetaInfo":{"Timestamp":"2020-03-28T10:37:59.336+0000","NextPageInformation":"2"},"View":[{"_type":"SearchResultsViewType","ViewId":0,"Result":[{"Relevance":1.0,"Distance":0.0,"Direction":0.0,"MatchLevel":"district","MatchQuality":{"Country":1.0,"State":1.0,"County":1.0,"City":1.0,"District":1.0,"PostalCode":1.0},"Location":{"LocationId":"NT_ycYAfy-h-AvctGQdQNoLXB","LocationType":"point","DisplayPosition":{"Latitude":52.5301378,"Longitude":-1.9875676},"MapView":{"TopLeft":{"Latitude":52.55273,"Longitude":-2.02994},"BottomRight":{"Latitude":52.50595,"Longitude":-1.94973}},"Address":{"Label":"West Bromwich, England, United Kingdom","Country":"GBR","State":"England","County":"West Midlands","City":"West Bromwich","District":"West Bromwich","PostalCode":"B70 7","AdditionalData":[{"value":"United Kingdom","key":"CountryName"},{"value":"England","key":"StateName"},{"value":"West Midlands","key":"CountyName"}]},"MapReference":{"ReferenceId":"959820985","SideOfStreet":"neither","StateId":"20248595","CountyId":"20358328","CityId":"20358575","DistrictId":"20358576"}}},{"Relevance":1.0,"Distance":25.4,"MatchLevel":"houseNumber","MatchQuality":{"Country":1.0,"State":1.0,"County":1.0,"City":1.0,"District":1.0,"Street":[1.0],"HouseNumber":1.0,"PostalCode":1.0},"MatchType":"interpolated","Location":{"LocationId":"NT_ZSgpFMPYUciBSytm-IKJhB_l_565653889_R_xQD","LocationType":"point","DisplayPosition":{"Latitude":52.530196,"Longitude":-1.9872039},"MapView":{"TopLeft":{"Latitude":52.5313201,"Longitude":-1.9890518},"BottomRight":{"Latitude":52.5290718,"Longitude":-1.985356}},"Address":{"Label":"14 Church Vale Mews, West Bromwich, B71 4DS, United Kingdom","Country":"GBR","State":"England","County":"West Midlands","City":"West Bromwich","District":"West Bromwich","Street":"Church Vale Mews","HouseNumber":"14","PostalCode":"B71 4DS","AdditionalData":[{"value":"United Kingdom","key":"CountryName"},{"value":"England","key":"StateName"},{"value":"West Midlands","key":"CountyName"}]},"MapReference":{"ReferenceId":"565653889","Spot":0.71,"SideOfStreet":"right","StateId":"20248595","CountyId":"20358328","CityId":"20358575","DistrictId":"20358576"}}},{"Relevance":1.0,"Distance":50.5,"MatchLevel":"houseNumber","MatchQuality":{"Country":1.0,"State":1.0,"County":1.0,"City":1.0,"District":1.0,"Street":[1.0],"HouseNumber":1.0,"PostalCode":1.0},"MatchType":"interpolated","Location":{"LocationId":"NT_XYdKmr1m2CmBEz42Tgj5TD_l_26374857_L_xcjM","LocationType":"point","DisplayPosition":{"Latitude":52.5298367,"Longitude":-1.9867629},"MapView":{"TopLeft":{"Latitude":52.5309608,"Longitude":-1.9886108},"BottomRight":{"Latitude":52.5287125,"Longitude":-1.984915}},"Address":{"Label":"172 Hallam Street, West Bromwich, B71 4, United Kingdom","Country":"GBR","State":"England","County":"West Midlands","City":"West Bromwich","District":"West Bromwich","Street":"Hallam Street","HouseNumber":"172","PostalCode":"B71 4","AdditionalData":[{"value":"United Kingdom","key":"CountryName"},{"value":"England","key":"StateName"},{"value":"West Midlands","key":"CountyName"}]},"MapReference":{"ReferenceId":"26374857","Spot":0.84,"SideOfStreet":"left","StateId":"20248595","CountyId":"20358328","CityId":"20358575","DistrictId":"20358576"}}},{"Relevance":1.0,"Distance":54.9,"MatchLevel":"houseNumber","MatchQuality":{"Country":1.0,"State":1.0,"County":1.0,"City":1.0,"District":1.0,"Street":[1.0],"HouseNumber":1.0,"PostalCode":1.0},"MatchType":"interpolated","Location":{"LocationId":"NT_NwEBwpn2pAwzgohkrfFJsD_l_565653887_R_3MD","LocationType":"point","DisplayPosition":{"Latitude":52.5301233,"Longitude":-1.9867567},"MapView":{"TopLeft":{"Latitude":52.5312475,"Longitude":-1.9886046},"BottomRight":{"Latitude":52.5289992,"Longitude":-1.9849088}},"Address":{"Label":"73 Church Vale, West Bromwich, B71 4, United Kingdom","Country":"GBR","State":"England","County":"West Midlands","City":"West Bromwich","District":"West Bromwich","Street":"Church Vale","HouseNumber":"73","PostalCode":"B71 4","AdditionalData":[{"value":"United Kingdom","key":"CountryName"},{"value":"England","key":"StateName"},{"value":"West Midlands","key":"CountyName"}]},"MapReference":{"ReferenceId":"565653887","Spot":0.67,"SideOfStreet":"right","StateId":"20248595","CountyId":"20358328","CityId":"20358575","DistrictId":"20358576"}}},{"Relevance":1.0,"Distance":57.9,"MatchLevel":"houseNumber","MatchQuality":{"Country":1.0,"State":1.0,"County":1.0,"City":1.0,"District":1.0,"Street":[1.0],"HouseNumber":1.0,"PostalCode":1.0},"MatchType":"interpolated","Location":{"LocationId":"NT_NwEBwpn2pAwzgohkrfFJsD_l_565653888_R_3UD","LocationType":"point","DisplayPosition":{"Latitude":52.53031,"Longitude":-1.98676},"MapView":{"TopLeft":{"Latitude":52.5314342,"Longitude":-1.9886079},"BottomRight":{"Latitude":52.5291859,"Longitude":-1.9849121}},"Address":{"Label":"75 Church Vale, West Bromwich, B71 4, United Kingdom","Country":"GBR","State":"England","County":"West Midlands","City":"West Bromwich","District":"West Bromwich","Street":"Church Vale","HouseNumber":"75","PostalCode":"B71 4","AdditionalData":[{"value":"United Kingdom","key":"CountryName"},{"value":"England","key":"StateName"},{"value":"West Midlands","key":"CountyName"}]},"MapReference":{"ReferenceId":"565653888","Spot":0.27,"SideOfStreet":"right","StateId":"20248595","CountyId":"20358328","CityId":"20358575","DistrictId":"20358576"}}},{"Relevance":1.0,"Distance":57.9,"MatchLevel":"postalCode","MatchQuality":{"PostalCode":1.0},"MatchType":"interpolated","Location":{"LocationId":"NT_NwEBwpn2pAwzgohkrfFJsD_l_565653888_R_3UD","LocationType":"point","DisplayPosition":{"Latitude":52.53038,"Longitude":-1.98681},"MapView":{"TopLeft":{"Latitude":52.5393732,"Longitude":-2.0015932},"BottomRight":{"Latitude":52.5213868,"Longitude":-1.9720268}},"Address":{"Label":"B71 4DS, West Bromwich, England, United Kingdom","Country":"GBR","State":"England","County":"West Midlands","City":"West Bromwich","PostalCode":"B71 4DS","AdditionalData":[{"value":"United Kingdom","key":"CountryName"},{"value":"England","key":"StateName"},{"value":"West Midlands","key":"CountyName"}]},"MapReference":{"ReferenceId":"565653888","Spot":0.27,"SideOfStreet":"neither","StateId":"20248595","CountyId":"20358328","CityId":"20358575"}}},{"Relevance":1.0,"Distance":61.4,"MatchLevel":"houseNumber","MatchQuality":{"Country":1.0,"State":1.0,"County":1.0,"City":1.0,"District":1.0,"Street":[1.0],"HouseNumber":1.0,"PostalCode":1.0},"MatchType":"interpolated","Location":{"LocationId":"NT_dNa5-YdcS1sSHk3i0kD5AC_l_26374704_R_xQD","LocationType":"point","DisplayPosition":{"Latitude":52.53069,"Longitude":-1.9875624},"MapView":{"TopLeft":{"Latitude":52.5318142,"Longitude":-1.9894103},"BottomRight":{"Latitude":52.5295658,"Longitude":-1.9857145}},"Address":{"Label":"14 Parsonage Street, West Bromwich, B71 4DL, United Kingdom","Country":"GBR","State":"England","County":"West Midlands","City":"West Bromwich","District":"West Bromwich","Street":"Parsonage Street","HouseNumber":"14","PostalCode":"B71 4DL","AdditionalData":[{"value":"United Kingdom","key":"CountryName"},{"value":"England","key":"StateName"},{"value":"West Midlands","key":"CountyName"}]},"MapReference":{"ReferenceId":"26374704","Spot":0.53,"SideOfStreet":"right","StateId":"20248595","CountyId":"20358328","CityId":"20358575","DistrictId":"20358576"}}},{"Relevance":1.0,"Distance":64.6,"MatchLevel":"houseNumber","MatchQuality":{"Country":1.0,"State":1.0,"County":1.0,"City":1.0,"District":1.0,"Street":[1.0],"HouseNumber":1.0,"PostalCode":1.0},"MatchType":"interpolated","Location":{"LocationId":"NT_LzU9.sgJA0JXHMbterqMQC_l_1088249125_R_3kD","LocationType":"point","DisplayPosition":{"Latitude":52.5304606,"Longitude":-1.9885709},"MapView":{"TopLeft":{"Latitude":52.5315847,"Longitude":-1.9904188},"BottomRight":{"Latitude":52.5293364,"Longitude":-1.986723}},"Address":{"Label":"79 All Saints Way, West Bromwich, B71 1RG, United Kingdom","Country":"GBR","State":"England","County":"West Midlands","City":"West Bromwich","District":"West Bromwich","Street":"All Saints Way","HouseNumber":"79","PostalCode":"B71 1RG","AdditionalData":[{"value":"United Kingdom","key":"CountryName"},{"value":"England","key":"StateName"},{"value":"West Midlands","key":"CountyName"}]},"MapReference":{"ReferenceId":"1088249125","Spot":0.78,"SideOfStreet":"right","StateId":"20248595","CountyId":"20358328","CityId":"20358575","DistrictId":"20358576"}}},{"Relevance":1.0,"Distance":67.1,"MatchLevel":"postalCode","MatchQuality":{"PostalCode":1.0},"MatchType":"interpolated","Location":{"LocationId":"NT_dNa5-YdcS1sSHk3i0kD5AC_l_26374704_R_xQD","LocationType":"point","DisplayPosition":{"Latitude":52.53074,"Longitude":-1.98751},"MapView":{"TopLeft":{"Latitude":52.5397332,"Longitude":-2.0022933},"BottomRight":{"Latitude":52.5217468,"Longitude":-1.9727267}},"Address":{"Label":"B71 4DL, West Bromwich, England, United Kingdom","Country":"GBR","State":"England","County":"West Midlands","City":"West Bromwich","PostalCode":"B71 4DL","AdditionalData":[{"value":"United Kingdom","key":"CountryName"},{"value":"England","key":"StateName"},{"value":"West Midlands","key":"CountyName"}]},"MapReference":{"ReferenceId":"26374704","Spot":0.53,"SideOfStreet":"neither","StateId":"20248595","CountyId":"20358328","CityId":"20358575"}}},{"Relevance":1.0,"Distance":67.4,"MatchLevel":"houseNumber","MatchQuality":{"Country":1.0,"State":1.0,"County":1.0,"City":1.0,"District":1.0,"Street":[1.0],"HouseNumber":1.0,"PostalCode":1.0},"MatchType":"interpolated","Location":{"LocationId":"NT_NtGU8yxTTZ9ExXQRL81gNB_l_837439715_R_4ED","LocationType":"point","DisplayPosition":{"Latitude":52.53072,"Longitude":-1.98832},"MapView":{"TopLeft":{"Latitude":52.5318442,"Longitude":-1.9901679},"BottomRight":{"Latitude":52.5295959,"Longitude":-1.9864721}},"Address":{"Label":"81 All Saints Way, West Bromwich, B71 1, United Kingdom","Country":"GBR","State":"England","County":"West Midlands","City":"West Bromwich","District":"West Bromwich","Street":"All Saints Way","HouseNumber":"81","PostalCode":"B71 1","AdditionalData":[{"value":"United Kingdom","key":"CountryName"},{"value":"England","key":"StateName"},{"value":"West Midlands","key":"CountyName"}]},"MapReference":{"ReferenceId":"837439715","Spot":0.43,"SideOfStreet":"right","StateId":"20248595","CountyId":"20358328","CityId":"20358575","DistrictId":"20358576"}}}]}]}}