{"Response":{"MetaInfo":{"Timestamp":"2020-03-28T11:40:23.826+0000","NextPageInformation":"2"},"View":[{"_type":"SearchResultsViewType","ViewId":0,"Result":[{"Relevance":1.0,"Distance":0.0,"Direction":0.0,"MatchLevel":"district","MatchQuality":{"Country":1.0,"State":1.0,"County":1.0,"City":1.0,"District":1.0,"PostalCode":1.0},"Location":{"LocationId":"NT_FXSGC8rcQWV5JRluUsojLB","LocationType":"point","DisplayPosition":{"Latitude":52.5139345,"Longitude":10.5400343},"MapView":{"TopLeft":{"Latitude":52.51889,"Longitude":10.52406},"BottomRight":{"Latitude":52.49462,"Longitude":10.54858}},"Address":{"Label":"Gamsen, Gifhorn, Niedersachsen, Deutschland","Country":"DEU","State":"Niedersachsen","County":"Gifhorn","City":"Gifhorn","District":"Gamsen","PostalCode":"38518","AdditionalData":[{"value":"Deutschland","key":"CountryName"},{"value":"Niedersachsen","key":"StateName"},{"value":"Gifhorn","key":"CountyName"}]},"MapReference":{"ReferenceId":"83644204","SideOfStreet":"neither","CountryId":"20147700","StateId":"20151542","CountyId":"20151630","CityId":"20151670","DistrictId":"20151673"}}},{"Relevance":1.0,"Distance":5.4,"MatchLevel":"houseNumber","MatchQuality":{"Country":1.0,"State":1.0,"County":1.0,"City":1.0,"District":1.0,"Street":[1.0],"HouseNumber":1.0,"PostalCode":1.0},"MatchType":"interpolated","Location":{"LocationId":"NT_.f2q9Q9wVZi-IdFNtMGjjB_1EE","LocationType":"point","DisplayPosition":{"Latitude":52.51391,"Longitude":10.53991},"MapView":{"TopLeft":{"Latitude":52.5150342,"Longitude":10.5380628},"BottomRight":{"Latitude":52.5127858,"Longitude":10.5417572}},"Address":{"Label":"Hamburger Straße 5A, 38518 Gifhorn, Deutschland","Country":"DEU","State":"Niedersachsen","County":"Gifhorn","City":"Gifhorn","District":"Gamsen","Street":"Hamburger Straße","HouseNumber":"5A","PostalCode":"38518","AdditionalData":[{"value":"Deutschland","key":"CountryName"},{"value":"Niedersachsen","key":"StateName"},{"value":"Gifhorn","key":"CountyName"}]},"MapReference":{"ReferenceId":"572234295","Spot":0.94,"SideOfStreet":"right","CountryId":"20147700","StateId":"20151542","CountyId":"20151630","CityId":"20151670","DistrictId":"20151673","AddressId":"177703432","RoadLinkId":"37223681"}}},{"Relevance":1.0,"Distance":9.9,"MatchLevel":"street","MatchQuality":{"Country":1.0,"State":1.0,"County":1.0,"City":1.0,"District":1.0,"Street":[1.0],"PostalCode":1.0},"Location":{"LocationId":"NT_XbT1WRG.9X6wJTEI84-cjA_l_572234297_L","LocationType":"point","DisplayPosition":{"Latitude":52.5140222,"Longitude":10.5400109},"MapView":{"TopLeft":{"Latitude":52.51407,"Longitude":10.53989},"BottomRight":{"Latitude":52.51386,"Longitude":10.54113}},"Address":{"Label":"Am Bahnhof, 38518 Gifhorn, Deutschland","Country":"DEU","State":"Niedersachsen","County":"Gifhorn","City":"Gifhorn","District":"Gamsen","Street":"Am Bahnhof","PostalCode":"38518","AdditionalData":[{"value":"Deutschland","key":"CountryName"},{"value":"Niedersachsen","key":"StateName"},{"value":"Gifhorn","key":"CountyName"}]},"MapReference":{"ReferenceId":"572234297","Spot":0.9,"SideOfStreet":"left","CountryId":"20147700","StateId":"20151542","CountyId":"20151630","CityId":"20151670","DistrictId":"20151673"}}},{"Relevance":1.0,"Distance":28.8,"MatchLevel":"houseNumber","MatchQuality":{"Country":1.0,"State":1.0,"County":1.0,"City":1.0,"District":1.0,"Street":[1.0],"HouseNumber":1.0,"PostalCode":1.0},"MatchType":"interpolated","Location":{"LocationId":"NT_.f2q9Q9wVZi-IdFNtMGjjB_1IE","LocationType":"point","DisplayPosition":{"Latitude":52.51417,"Longitude":10.53985},"MapView":{"TopLeft":{"Latitude":52.5152942,"Longitude":10.5380028},"BottomRight":{"Latitude":52.5130458,"Longitude":10.5416972}},"Address":{"Label":"Hamburger Straße 5B, 38518 Gifhorn, Deutschland","Country":"DEU","State":"Niedersachsen","County":"Gifhorn","City":"Gifhorn","District":"Gamsen","Street":"Hamburger Straße","HouseNumber":"5B","PostalCode":"38518","AdditionalData":[{"value":"Deutschland","key":"CountryName"},{"value":"Niedersachsen","key":"StateName"},{"value":"Gifhorn","key":"CountyName"}]},"MapReference":{"ReferenceId":"572234296","Spot":0.67,"SideOfStreet":"right","CountryId":"20147700","StateId":"20151542","CountyId":"20151630","CityId":"20151670","DistrictId":"20151673","AddressId":"179415668","RoadLinkId":"36683006"}}},{"Relevance":1.0,"Distance":38.7,"MatchLevel":"street","MatchQuality":{"Country":1.0,"State":1.0,"County":1.0,"City":1.0,"District":1.0,"Street":[1.0],"PostalCode":1.0},"Location":{"LocationId":"NT_oQHVjaomLOs55ia-hPbzyB_l_67997009_L","LocationType":"point","DisplayPosition":{"Latitude":52.51426,"Longitude":10.53983},"MapView":{"TopLeft":{"Latitude":52.51451,"Longitude":10.53867},"BottomRight":{"Latitude":52.51426,"Longitude":10.53983}},"Address":{"Label":"Am Damm, 38518 Gifhorn, Deutschland","Country":"DEU","State":"Niedersachsen","County":"Gifhorn","City":"Gifhorn","District":"Gamsen","Street":"Am Damm","PostalCode":"38518","AdditionalData":[{"value":"Deutschland","key":"CountryName"},{"value":"Niedersachsen","key":"StateName"},{"value":"Gifhorn","key":"CountyName"}]},"MapReference":{"ReferenceId":"67997009","Spot":0.0,"SideOfStreet":"left","CountryId":"20147700","StateId":"20151542","CountyId":"20151630","CityId":"20151670","DistrictId":"20151673"}}},{"Relevance":1.0,"Distance":38.7,"MatchLevel":"street","MatchQuality":{"Country":1.0,"State":1.0,"County":1.0,"City":1.0,"District":1.0,"Street":[1.0],"PostalCode":1.0},"Location":{"LocationId":"NT_.f2q9Q9wVZi-IdFNtMGjjB_l_1178928339_R","LocationType":"point","DisplayPosition":{"Latitude":52.51426,"Longitude":10.53983},"MapView":{"TopLeft":{"Latitude":52.51446,"Longitude":10.53979},"BottomRight":{"Latitude":52.51426,"Longitude":10.53983}},"Address":{"Label":"Hamburger Straße, 38518 Gifhorn, Deutschland","Country":"DEU","State":"Niedersachsen","County":"Gifhorn","City":"Gifhorn","District":"Gamsen","Street":"Hamburger Straße","PostalCode":"38518","AdditionalData":[{"value":"Deutschland","key":"CountryName"},{"value":"Niedersachsen","key":"StateName"},{"value":"Gifhorn","key":"CountyName"}]},"MapReference":{"ReferenceId":"1178928339","Spot":0.0,"SideOfStreet":"right","CountryId":"20147700","StateId":"20151542","CountyId":"20151630","CityId":"20151670","DistrictId":"20151673"}}},{"Relevance":1.0,"Distance":67.8,"MatchLevel":"houseNumber","MatchQuality":{"Country":1.0,"State":1.0,"County":1.0,"City":1.0,"District":1.0,"Street":[1.0],"HouseNumber":1.0,"PostalCode":1.0},"MatchType":"interpolated","Location":{"LocationId":"NT_.f2q9Q9wVZi-IdFNtMGjjB_1A","LocationType":"point","DisplayPosition":{"Latitude":52.5145,"Longitude":10.53977},"MapView":{"TopLeft":{"Latitude":52.5156242,"Longitude":10.5379228},"BottomRight":{"Latitude":52.5133758,"Longitude":10.5416172}},"Address":{"Label":"Hamburger Straße 5, 38518 Gifhorn, Deutschland","Country":"DEU","State":"Niedersachsen","County":"Gifhorn","City":"Gifhorn","District":"Gamsen","Street":"Hamburger Straße","HouseNumber":"5","PostalCode":"38518","AdditionalData":[{"value":"Deutschland","key":"CountryName"},{"value":"Niedersachsen","key":"StateName"},{"value":"Gifhorn","key":"CountyName"}]},"MapReference":{"ReferenceId":"1178928340","Spot":0.2,"SideOfStreet":"right","CountryId":"20147700","StateId":"20151542","CountyId":"20151630","CityId":"20151670","DistrictId":"20151673","AddressId":"180744348","RoadLinkId":"486675348"}}},{"Relevance":1.0,"Distance":80.1,"MatchLevel":"street","MatchQuality":{"Country":1.0,"State":1.0,"County":1.0,"City":1.0,"District":1.0,"Street":[1.0],"PostalCode":1.0},"Location":{"LocationId":"NT_8VM7mXGIE0fLVxQJkArbdA_l_68015802_R","LocationType":"point","DisplayPosition":{"Latitude":52.51455,"Longitude":10.54065},"MapView":{"TopLeft":{"Latitude":52.51478,"Longitude":10.54065},"BottomRight":{"Latitude":52.51455,"Longitude":10.54215}},"Address":{"Label":"Raiffeisenstraße, 38518 Gifhorn, Deutschland","Country":"DEU","State":"Niedersachsen","County":"Gifhorn","City":"Gifhorn","District":"Gamsen","Street":"Raiffeisenstraße","PostalCode":"38518","AdditionalData":[{"value":"Deutschland","key":"CountryName"},{"value":"Niedersachsen","key":"StateName"},{"value":"Gifhorn","key":"CountyName"}]},"MapReference":{"ReferenceId":"68015802","Spot":0.0,"SideOfStreet":"right","CountryId":"20147700","StateId":"20151542","CountyId":"20151630","CityId":"20151670","DistrictId":"20151673"}}},{"Relevance":1.0,"Distance":81.8,"MatchLevel":"street","MatchQuality":{"Country":1.0,"State":1.0,"County":1.0,"City":1.0,"District":1.0,"Street":[1.0],"PostalCode":1.0},"Location":{"LocationId":"NT_HB0qCB6HJqY1o13FvhcroA_l_940678212_L","LocationType":"point","DisplayPosition":{"Latitude":52.514578,"Longitude":10.5406193},"MapView":{"TopLeft":{"Latitude":52.51475,"Longitude":10.54043},"BottomRight":{"Latitude":52.51455,"Longitude":10.54065}},"Address":{"Label":"Platendorfer Straße, 38518 Gifhorn, Deutschland","Country":"DEU","State":"Niedersachsen","County":"Gifhorn","City":"Gifhorn","District":"Gamsen","Street":"Platendorfer Straße","PostalCode":"38518","AdditionalData":[{"value":"Deutschland","key":"CountryName"},{"value":"Niedersachsen","key":"StateName"},{"value":"Gifhorn","key":"CountyName"}]},"MapReference":{"ReferenceId":"940678212","Spot":0.14,"SideOfStreet":"left","CountryId":"20147700","StateId":"20151542","CountyId":"20151630","CityId":"20151670","DistrictId":"20151673"}}},{"Relevance":1.0,"Distance":83.9,"MatchLevel":"street","MatchQuality":{"Country":1.0,"State":1.0,"County":1.0,"City":1.0,"District":1.0,"Street":[1.0],"PostalCode":1.0},"Location":{"LocationId":"NT_HB0qCB6HJqY1o13FvhcroA_l_940678213_R","LocationType":"point","DisplayPosition":{"Latitude":52.5146885,"Longitude":10.5399748},"MapView":{"TopLeft":{"Latitude":52.51475,"Longitude":10.53974},"BottomRight":{"Latitude":52.51467,"Longitude":10.54043}},"Address":{"Label":"Platendorfer Straße, 38518 Gifhorn, Deutschland","Country":"DEU","State":"Niedersachsen","County":"Gifhorn","City":"Gifhorn","District":"Gamsen","Street":"Platendorfer Straße","PostalCode":"38518","AdditionalData":[{"value":"Deutschland","key":"CountryName"},{"value":"Niedersachsen","key":"StateName"},{"value":"Gifhorn","key":"CountyName"}]},"MapReference":{"ReferenceId":"940678213","Spot":0.34,"SideOfStreet":"right","CountryId":"20147700","StateId":"20151542","CountyId":"20151630","CityId":"20151670","DistrictId":"20151673"}}}]}]}}