{"Response":{"MetaInfo":{"Timestamp":"2020-03-28T11:01:41.549+0000","NextPageInformation":"2"},"View":[{"_type":"SearchResultsViewType","ViewId":0,"Result":[{"Relevance":1.0,"Distance":-2.0,"MatchLevel":"landmark","MatchQuality":{"Country":1.0,"State":1.0,"County":1.0,"City":1.0,"District":1.0,"Street":[1.0],"HouseNumber":1.0,"PostalCode":1.0,"Name":1.0},"Location":{"LocationId":"NT_iJG5auQVggPo-nHtBHx8cB_p_CR.v40nXGuau2ERhqOEFWB","LocationType":"hospital","Name":"St. Hedwig-Krankenhaus","DisplayPosition":{"Latitude":52.52615,"Longitude":13.39857},"MapView":{"TopLeft":{"Latitude":52.5272742,"Longitude":13.3967223},"BottomRight":{"Latitude":52.5250258,"Longitude":13.4004177}},"Address":{"Label":"Große Hamburger Straße 5, 10115 Berlin, Deutschland","Country":"DEU","State":"Berlin","County":"Berlin","City":"Berlin","District":"Mitte","Street":"Große Hamburger Straße","HouseNumber":"5","PostalCode":"10115","AdditionalData":[{"value":"Deutschland","key":"CountryName"},{"value":"Berlin","key":"StateName"},{"value":"Berlin","key":"CountyName"}]},"MapReference":{"CountryId":"20147700","StateId":"20187401","CountyId":"20187402","CityId":"20187403","DistrictId":"20187417","PlaceId":"50668568"}}},{"Relevance":1.0,"Distance":0.0,"Direction":0.0,"MatchLevel":"district","MatchQuality":{"Country":1.0,"State":1.0,"County":1.0,"City":1.0,"District":1.0,"PostalCode":1.0},"Location":{"LocationId":"NT_0ES-GaH3lZzJCuLQBrdw7C","LocationType":"point","DisplayPosition":{"Latitude":52.5252698,"Longitude":13.3952751},"MapView":{"TopLeft":{"Latitude":52.54063,"Longitude":13.36566},"BottomRight":{"Latitude":52.50407,"Longitude":13.42964}},"Address":{"Label":"Mitte, Berlin, Deutschland","Country":"DEU","State":"Berlin","County":"Berlin","City":"Berlin","District":"Mitte","PostalCode":"10178","AdditionalData":[{"value":"Deutschland","key":"CountryName"},{"value":"Berlin","key":"StateName"},{"value":"Berlin","key":"CountyName"}]},"MapReference":{"ReferenceId":"53500282","SideOfStreet":"neither","CountryId":"20147700","StateId":"20187401","CountyId":"20187402","CityId":"20187403","DistrictId":"20187417"}}},{"Relevance":1.0,"Distance":62.9,"MatchLevel":"houseNumber","MatchQuality":{"Country":1.0,"State":1.0,"County":1.0,"City":1.0,"District":1.0,"Street":[1.0],"HouseNumber":1.0,"PostalCode":1.0},"MatchType":"interpolated","Location":{"LocationId":"NT_hNDad2n3yYAhNUY-ZSML9B_yQD","LocationType":"point","DisplayPosition":{"Latitude":52.52469,"Longitude":13.39576},"MapView":{"TopLeft":{"Latitude":52.5258142,"Longitude":13.3939123},"BottomRight":{"Latitude":52.5235658,"Longitude":13.3976077}},"Address":{"Label":"Krausnickstraße 24, 10115 Berlin, Deutschland","Country":"DEU","State":"Berlin","County":"Berlin","City":"Berlin","District":"Mitte","Street":"Krausnickstraße","HouseNumber":"24","PostalCode":"10115","AdditionalData":[{"value":"Deutschland","key":"CountryName"},{"value":"Berlin","key":"StateName"},{"value":"Berlin","key":"CountyName"}]},"MapReference":{"ReferenceId":"53501114","Spot":0.14,"SideOfStreet":"left","CountryId":"20147700","StateId":"20187401","CountyId":"20187402","CityId":"20187403","DistrictId":"20187417","AddressId":"168211831","RoadLinkId":"37505234"}}},{"Relevance":1.0,"Distance":78.8,"MatchLevel":"houseNumber","MatchQuality":{"Country":1.0,"State":1.0,"County":1.0,"City":1.0,"District":1.0,"Street":[1.0],"HouseNumber":1.0,"PostalCode":1.0},"MatchType":"interpolated","Location":{"LocationId":"NT_G32UV5za2kBiXr2SLxFvpD_ykD","LocationType":"point","DisplayPosition":{"Latitude":52.52458,"Longitude":13.39442},"MapView":{"TopLeft":{"Latitude":52.5257042,"Longitude":13.3925723},"BottomRight":{"Latitude":52.5234558,"Longitude":13.3962677}},"Address":{"Label":"Oranienburger Straße 29, 10117 Berlin, Deutschland","Country":"DEU","State":"Berlin","County":"Berlin","City":"Berlin","District":"Mitte","Street":"Oranienburger Straße","HouseNumber":"29","PostalCode":"10117","AdditionalData":[{"value":"Deutschland","key":"CountryName"},{"value":"Berlin","key":"StateName"},{"value":"Berlin","key":"CountyName"}]},"MapReference":{"ReferenceId":"1182564957","Spot":0.15,"SideOfStreet":"right","CountryId":"20147700","StateId":"20187401","CountyId":"20187402","CityId":"20187403","DistrictId":"20187417","AddressId":"168158940","RoadLinkId":"490799833"}}},{"Relevance":1.0,"Distance":80.1,"MatchLevel":"houseNumber","MatchQuality":{"Country":1.0,"State":1.0,"County":1.0,"City":1.0,"District":1.0,"Street":[1.0],"HouseNumber":1.0,"PostalCode":1.0},"MatchType":"interpolated","Location":{"LocationId":"NT_G32UV5za2kBiXr2SLxFvpD_yYD","LocationType":"point","DisplayPosition":{"Latitude":52.52441,"Longitude":13.39514},"MapView":{"TopLeft":{"Latitude":52.5255342,"Longitude":13.3932924},"BottomRight":{"Latitude":52.5232858,"Longitude":13.3969876}},"Address":{"Label":"Oranienburger Straße 26, 10117 Berlin, Deutschland","Country":"DEU","State":"Berlin","County":"Berlin","City":"Berlin","District":"Mitte","Street":"Oranienburger Straße","HouseNumber":"26","PostalCode":"10117","AdditionalData":[{"value":"Deutschland","key":"CountryName"},{"value":"Berlin","key":"StateName"},{"value":"Berlin","key":"CountyName"}]},"MapReference":{"ReferenceId":"1182564956","Spot":0.05,"SideOfStreet":"right","CountryId":"20147700","StateId":"20187401","CountyId":"20187402","CityId":"20187403","DistrictId":"20187417","AddressId":"249004162","RoadLinkId":"490799832"}}},{"Relevance":1.0,"Distance":84.4,"MatchLevel":"street","MatchQuality":{"Country":1.0,"State":1.0,"County":1.0,"City":1.0,"District":1.0,"PostalCode":1.0},"Location":{"LocationId":"NT_QgG-Se9LlGtPSSJ.0zmIZA_l_1084663801_R","LocationType":"point","DisplayPosition":{"Latitude":52.52572,"Longitude":13.39427},"MapView":{"TopLeft":{"Latitude":52.52597,"Longitude":13.39411},"BottomRight":{"Latitude":52.52562,"Longitude":13.39427}},"Address":{"Label":"10117 Berlin, Deutschland","Country":"DEU","State":"Berlin","County":"Berlin","City":"Berlin","District":"Mitte","PostalCode":"10117","AdditionalData":[{"value":"Deutschland","key":"CountryName"},{"value":"Berlin","key":"StateName"},{"value":"Berlin","key":"CountyName"}]},"MapReference":{"ReferenceId":"1084663801","Spot":0.33,"SideOfStreet":"right","CountryId":"20147700","StateId":"20187401","CountyId":"20187402","CityId":"20187403","DistrictId":"20187417"}}},{"Relevance":1.0,"Distance":84.9,"MatchLevel":"street","MatchQuality":{"Country":1.0,"State":1.0,"County":1.0,"City":1.0,"District":1.0,"PostalCode":1.0},"Location":{"LocationId":"NT_QgG-Se9LlGtPSSJ.0zmIZA_l_1084663802_R","LocationType":"point","DisplayPosition":{"Latitude":52.52562,"Longitude":13.39416},"MapView":{"TopLeft":{"Latitude":52.52562,"Longitude":13.39403},"BottomRight":{"Latitude":52.5255,"Longitude":13.39416}},"Address":{"Label":"10117 Berlin, Deutschland","Country":"DEU","State":"Berlin","County":"Berlin","City":"Berlin","District":"Mitte","PostalCode":"10117","AdditionalData":[{"value":"Deutschland","key":"CountryName"},{"value":"Berlin","key":"StateName"},{"value":"Berlin","key":"CountyName"}]},"MapReference":{"ReferenceId":"1084663802","Spot":1.0,"SideOfStreet":"right","CountryId":"20147700","StateId":"20187401","CountyId":"20187402","CityId":"20187403","DistrictId":"20187417"}}},{"Relevance":1.0,"Distance":88.0,"MatchLevel":"street","MatchQuality":{"Country":1.0,"State":1.0,"County":1.0,"City":1.0,"District":1.0,"PostalCode":1.0},"Location":{"LocationId":"NT_QgG-Se9LlGtPSSJ.0zmIZA_l_1084663803_R","LocationType":"point","DisplayPosition":{"Latitude":52.5255,"Longitude":13.39403},"MapView":{"TopLeft":{"Latitude":52.5255,"Longitude":13.39389},"BottomRight":{"Latitude":52.52542,"Longitude":13.39403}},"Address":{"Label":"10117 Berlin, Deutschland","Country":"DEU","State":"Berlin","County":"Berlin","City":"Berlin","District":"Mitte","PostalCode":"10117","AdditionalData":[{"value":"Deutschland","key":"CountryName"},{"value":"Berlin","key":"StateName"},{"value":"Berlin","key":"CountyName"}]},"MapReference":{"ReferenceId":"1084663803","Spot":1.0,"SideOfStreet":"right","CountryId":"20147700","StateId":"20187401","CountyId":"20187402","CityId":"20187403","DistrictId":"20187417"}}},{"Relevance":1.0,"Distance":90.4,"MatchLevel":"landmark","MatchQuality":{"Country":1.0,"State":1.0,"County":1.0,"City":1.0,"District":1.0,"PostalCode":1.0,"Name":1.0},"Location":{"LocationId":"NT_ZZTjSjz1Yaoy5PxXKYMKFB_p_cpfCzFGYFHyw0wdbHW8pwD","LocationType":"park","Name":"Krausnickpark","DisplayPosition":{"Latitude":52.52495,"Longitude":13.39855},"MapView":{"TopLeft":{"Latitude":52.52511,"Longitude":13.3961},"BottomRight":{"Latitude":52.52399,"Longitude":13.39917}},"Address":{"Label":"10115 Berlin, Deutschland","Country":"DEU","State":"Berlin","County":"Berlin","City":"Berlin","District":"Mitte","PostalCode":"10115","AdditionalData":[{"value":"Deutschland","key":"CountryName"},{"value":"Berlin","key":"StateName"},{"value":"Berlin","key":"CountyName"}]},"MapReference":{"CountryId":"20147700","StateId":"20187401","CountyId":"20187402","CityId":"20187403","DistrictId":"20187417","PlaceId":"995036054"}}},{"Relevance":1.0,"Distance":97.0,"MatchLevel":"landmark","MatchQuality":{"Country":1.0,"State":1.0,"County":1.0,"City":1.0,"District":1.0,"Street":[1.0],"PostalCode":1.0,"Name":1.0},"Location":{"LocationId":"NT_Nt5gtz3PUk2pguyILsnYHC_p_YQ8.7TjiNg6upx6gNf6oBA","LocationType":"park","Name":"Monbijoupark","DisplayPosition":{"Latitude":52.52399,"Longitude":13.39673},"MapView":{"TopLeft":{"Latitude":52.5244,"Longitude":13.39417},"BottomRight":{"Latitude":52.52207,"Longitude":13.40008}},"Address":{"Label":"Oranienburger Straße, 10178 Berlin, Deutschland","Country":"DEU","State":"Berlin","County":"Berlin","City":"Berlin","District":"Mitte","Street":"Oranienburger Straße","PostalCode":"10178","AdditionalData":[{"value":"Deutschland","key":"CountryName"},{"value":"Berlin","key":"StateName"},{"value":"Berlin","key":"CountyName"}]},"MapReference":{"CountryId":"20147700","StateId":"20187401","CountyId":"20187402","CityId":"20187403","DistrictId":"20187417","PlaceId":"56121976"}}}]}]}}