{"Response":{"MetaInfo":{"Timestamp":"2020-03-28T10:41:02.670+0000","NextPageInformation":"2"},"View":[{"_type":"SearchResultsViewType","ViewId":0,"Result":[{"Relevance":1.0,"Distance":0.0,"Direction":0.0,"MatchLevel":"district","MatchQuality":{"Country":1.0,"State":1.0,"County":1.0,"City":1.0,"District":1.0,"PostalCode":1.0},"Location":{"LocationId":"NT_RRxVvdsqwOo7D47Bxc..fD","LocationType":"point","DisplayPosition":{"Latitude":52.6100842,"Longitude":1.2897634},"MapView":{"TopLeft":{"Latitude":52.68472,"Longitude":1.20391},"BottomRight":{"Latitude":52.59942,"Longitude":1.34226}},"Address":{"Label":"Norwich, England, United Kingdom","Country":"GBR","State":"England","County":"Norfolk","City":"Norwich","District":"Norwich","PostalCode":"NR1 3","AdditionalData":[{"value":"United Kingdom","key":"CountryName"},{"value":"England","key":"StateName"},{"value":"Norfolk","key":"CountyName"}]},"MapReference":{"ReferenceId":"26478241","SideOfStreet":"neither","StateId":"20248595","CountyId":"20355986","CityId":"20356363","DistrictId":"20356364"}}},{"Relevance":1.0,"Distance":31.8,"MatchLevel":"street","MatchQuality":{"Country":1.0,"State":1.0,"County":1.0,"City":1.0,"District":1.0,"Street":[1.0],"PostalCode":1.0},"Location":{"LocationId":"NT_qIBiYcJ7uy6fW-CBnNF.cC_l_811708269_L","LocationType":"point","DisplayPosition":{"Latitude":52.61037,"Longitude":1.2897802},"MapView":{"TopLeft":{"Latitude":52.61037,"Longitude":1.28978},"BottomRight":{"Latitude":52.6103,"Longitude":1.29035}},"Address":{"Label":"Lakenham Road, Norwich, NR4 6, United Kingdom","Country":"GBR","State":"England","County":"Norfolk","City":"Norwich","District":"Norwich","Street":"Lakenham Road","PostalCode":"NR4 6","AdditionalData":[{"value":"United Kingdom","key":"CountryName"},{"value":"England","key":"StateName"},{"value":"Norfolk","key":"CountyName"}]},"MapReference":{"ReferenceId":"811708269","Spot":1.0,"SideOfStreet":"left","StateId":"20248595","CountyId":"20355986","CityId":"20356363","DistrictId":"20356364"}}},{"Relevance":1.0,"Distance":31.8,"MatchLevel":"street","MatchQuality":{"Country":1.0,"State":1.0,"County":1.0,"City":1.0,"District":1.0,"Street":[1.0],"PostalCode":1.0},"Location":{"LocationId":"NT_qIBiYcJ7uy6fW-CBnNF.cC_l_1147494178_L","LocationType":"point","DisplayPosition":{"Latitude":52.6103702,"Longitude":1.2897733},"MapView":{"TopLeft":{"Latitude":52.61039,"Longitude":1.28923},"BottomRight":{"Latitude":52.61037,"Longitude":1.28978}},"Address":{"Label":"Lakenham Road, Norwich, NR4 6, United Kingdom","Country":"GBR","State":"England","County":"Norfolk","City":"Norwich","District":"Norwich","Street":"Lakenham Road","PostalCode":"NR4 6","AdditionalData":[{"value":"United Kingdom","key":"CountryName"},{"value":"England","key":"StateName"},{"value":"Norfolk","key":"CountyName"}]},"MapReference":{"ReferenceId":"1147494178","Spot":0.01,"SideOfStreet":"left","StateId":"20248595","CountyId":"20355986","CityId":"20356363","DistrictId":"20356364"}}},{"Relevance":1.0,"Distance":35.8,"MatchLevel":"houseNumber","MatchQuality":{"Country":1.0,"State":1.0,"County":1.0,"City":1.0,"District":1.0,"Street":[1.0],"HouseNumber":1.0,"PostalCode":1.0},"MatchType":"interpolated","Location":{"LocationId":"NT_W.ATMz.uXCD3mZyI-AlY2B_l_26480280_L_zADM","LocationType":"point","DisplayPosition":{"Latitude":52.609665,"Longitude":1.2896925},"MapView":{"TopLeft":{"Latitude":52.6107892,"Longitude":1.2878413},"BottomRight":{"Latitude":52.6085409,"Longitude":1.2915438}},"Address":{"Label":"300 Hall Road, Norwich, NR4 6NE, United Kingdom","Country":"GBR","State":"England","County":"Norfolk","City":"Norwich","District":"Norwich","Street":"Hall Road","HouseNumber":"300","PostalCode":"NR4 6NE","AdditionalData":[{"value":"United Kingdom","key":"CountryName"},{"value":"England","key":"StateName"},{"value":"Norfolk","key":"CountyName"}]},"MapReference":{"ReferenceId":"26480280","Spot":0.61,"SideOfStreet":"left","StateId":"20248595","CountyId":"20355986","CityId":"20356363","DistrictId":"20356364"}}},{"Relevance":1.0,"Distance":39.2,"MatchLevel":"street","MatchQuality":{"Country":1.0,"State":1.0,"County":1.0,"City":1.0,"District":1.0,"Street":[1.0],"PostalCode":1.0},"Location":{"LocationId":"NT_W.ATMz.uXCD3mZyI-AlY2B_l_1225711755_L","LocationType":"point","DisplayPosition":{"Latitude":52.60995,"Longitude":1.2903},"MapView":{"TopLeft":{"Latitude":52.61011,"Longitude":1.2903},"BottomRight":{"Latitude":52.60995,"Longitude":1.29047}},"Address":{"Label":"Hall Road, Norwich, NR4 6, United Kingdom","Country":"GBR","State":"England","County":"Norfolk","City":"Norwich","District":"Norwich","Street":"Hall Road","PostalCode":"NR4 6","AdditionalData":[{"value":"United Kingdom","key":"CountryName"},{"value":"England","key":"StateName"},{"value":"Norfolk","key":"CountyName"}]},"MapReference":{"ReferenceId":"1225711755","Spot":0.0,"SideOfStreet":"left","StateId":"20248595","CountyId":"20355986","CityId":"20356363","DistrictId":"20356364"}}},{"Relevance":1.0,"Distance":41.9,"MatchLevel":"street","MatchQuality":{"Country":1.0,"State":1.0,"County":1.0,"City":1.0,"District":1.0,"PostalCode":1.0},"Location":{"LocationId":"NT_8v4-QV27eaOXXJ5lS6hqmB_l_26480196_L","LocationType":"point","DisplayPosition":{"Latitude":52.61025,"Longitude":1.29032},"MapView":{"TopLeft":{"Latitude":52.6103,"Longitude":1.29032},"BottomRight":{"Latitude":52.61011,"Longitude":1.29047}},"Address":{"Label":"Norwich, NR4 6, United Kingdom","Country":"GBR","State":"England","County":"Norfolk","City":"Norwich","District":"Norwich","PostalCode":"NR4 6","AdditionalData":[{"value":"United Kingdom","key":"CountryName"},{"value":"England","key":"StateName"},{"value":"Norfolk","key":"CountyName"}]},"MapReference":{"ReferenceId":"26480196","Spot":0.79,"SideOfStreet":"left","StateId":"20248595","CountyId":"20355986","CityId":"20356363","DistrictId":"20356364"}}},{"Relevance":1.0,"Distance":43.0,"MatchLevel":"street","MatchQuality":{"Country":1.0,"State":1.0,"County":1.0,"City":1.0,"District":1.0,"Street":[1.0],"PostalCode":1.0},"Location":{"LocationId":"NT_W.ATMz.uXCD3mZyI-AlY2B_l_1249276147_L","LocationType":"point","DisplayPosition":{"Latitude":52.6097538,"Longitude":1.2900938},"MapView":{"TopLeft":{"Latitude":52.60995,"Longitude":1.29007},"BottomRight":{"Latitude":52.60973,"Longitude":1.2903}},"Address":{"Label":"Hall Road, Norwich, NR4 6, United Kingdom","Country":"GBR","State":"England","County":"Norfolk","City":"Norwich","District":"Norwich","Street":"Hall Road","PostalCode":"NR4 6","AdditionalData":[{"value":"United Kingdom","key":"CountryName"},{"value":"England","key":"StateName"},{"value":"Norfolk","key":"CountyName"}]},"MapReference":{"ReferenceId":"1249276147","Spot":0.11,"SideOfStreet":"left","StateId":"20248595","CountyId":"20355986","CityId":"20356363","DistrictId":"20356364"}}},{"Relevance":1.0,"Distance":44.5,"MatchLevel":"street","MatchQuality":{"Country":1.0,"State":1.0,"County":1.0,"City":1.0,"District":1.0,"Street":[1.0],"PostalCode":1.0},"Location":{"LocationId":"NT_W.ATMz.uXCD3mZyI-AlY2B_l_1249276146_L","LocationType":"point","DisplayPosition":{"Latitude":52.60973,"Longitude":1.29007},"MapView":{"TopLeft":{"Latitude":52.60973,"Longitude":1.28968},"BottomRight":{"Latitude":52.60936,"Longitude":1.29007}},"Address":{"Label":"Hall Road, Norwich, NR4 6, United Kingdom","Country":"GBR","State":"England","County":"Norfolk","City":"Norwich","District":"Norwich","Street":"Hall Road","PostalCode":"NR4 6","AdditionalData":[{"value":"United Kingdom","key":"CountryName"},{"value":"England","key":"StateName"},{"value":"Norfolk","key":"CountyName"}]},"MapReference":{"ReferenceId":"1249276146","Spot":1.0,"SideOfStreet":"left","StateId":"20248595","CountyId":"20355986","CityId":"20356363","DistrictId":"20356364"}}},{"Relevance":1.0,"Distance":46.3,"MatchLevel":"street","MatchQuality":{"Country":1.0,"State":1.0,"County":1.0,"City":1.0,"District":1.0,"PostalCode":1.0},"Location":{"LocationId":"NT_YbK5m8P65fzV7I5pi9iWaB_l_26480166_L","LocationType":"point","DisplayPosition":{"Latitude":52.6103,"Longitude":1.29035},"MapView":{"TopLeft":{"Latitude":52.61041,"Longitude":1.29035},"BottomRight":{"Latitude":52.6103,"Longitude":1.29072}},"Address":{"Label":"Norwich, NR1 2, United Kingdom","Country":"GBR","State":"England","County":"Norfolk","City":"Norwich","District":"Norwich","PostalCode":"NR1 2","AdditionalData":[{"value":"United Kingdom","key":"CountryName"},{"value":"England","key":"StateName"},{"value":"Norfolk","key":"CountyName"}]},"MapReference":{"ReferenceId":"26480166","Spot":0.0,"SideOfStreet":"left","StateId":"20248595","CountyId":"20355986","CityId":"20356363","DistrictId":"20356364"}}},{"Relevance":1.0,"Distance":47.8,"MatchLevel":"street","MatchQuality":{"Country":1.0,"State":1.0,"County":1.0,"City":1.0,"District":1.0,"PostalCode":1.0},"Location":{"LocationId":"NT_YbK5m8P65fzV7I5pi9iWaB_l_565656544_R","LocationType":"point","DisplayPosition":{"Latitude":52.61011,"Longitude":1.29047},"MapView":{"TopLeft":{"Latitude":52.61019,"Longitude":1.29047},"BottomRight":{"Latitude":52.6101,"Longitude":1.29083}},"Address":{"Label":"Norwich, NR1 2, United Kingdom","Country":"GBR","State":"England","County":"Norfolk","City":"Norwich","District":"Norwich","PostalCode":"NR1 2","AdditionalData":[{"value":"United Kingdom","key":"CountryName"},{"value":"England","key":"StateName"},{"value":"Norfolk","key":"CountyName"}]},"MapReference":{"ReferenceId":"565656544","Spot":0.0,"SideOfStreet":"right","StateId":"20248595","CountyId":"20355986","CityId":"20356363","DistrictId":"20356364"}}}]}]}}