{"Response":{"MetaInfo":{"Timestamp":"2020-03-28T10:36:03.615+0000","NextPageInformation":"2"},"View":[{"_type":"SearchResultsViewType","ViewId":0,"Result":[{"Relevance":1.0,"Distance":0.0,"Direction":0.0,"MatchLevel":"district","MatchQuality":{"Country":1.0,"State":1.0,"County":1.0,"City":1.0,"District":1.0,"PostalCode":1.0},"Location":{"LocationId":"NT_9L7yAFv4cvuIz1tXLqX9cA","LocationType":"point","DisplayPosition":{"Latitude":52.6054736,"Longitude":-1.1749386},"MapView":{"TopLeft":{"Latitude":52.62385,"Longitude":-1.20541},"BottomRight":{"Latitude":52.59419,"Longitude":-1.16399}},"Address":{"Label":"Braunstone, Leicester, England, United Kingdom","Country":"GBR","State":"England","County":"Leicestershire","City":"Leicester","District":"Braunstone","PostalCode":"LE3 2","AdditionalData":[{"value":"United Kingdom","key":"CountryName"},{"value":"England","key":"StateName"},{"value":"Leicestershire","key":"CountyName"}]},"MapReference":{"ReferenceId":"26133439","SideOfStreet":"neither","StateId":"20248595","CountyId":"20354833","CityId":"20354874","DistrictId":"20354888"}}},{"Relevance":1.0,"Distance":4.0,"MatchLevel":"street","MatchQuality":{"Country":1.0,"State":1.0,"County":1.0,"City":1.0,"District":1.0,"PostalCode":1.0},"Location":{"LocationId":"NT_gjefWp-KZ24uD-m7cGIn4B_l_992295062_L","LocationType":"point","DisplayPosition":{"Latitude":52.60544,"Longitude":-1.17496},"MapView":{"TopLeft":{"Latitude":52.60544,"Longitude":-1.17514},"BottomRight":{"Latitude":52.60526,"Longitude":-1.17496}},"Address":{"Label":"Leicester, LE3 2, United Kingdom","Country":"GBR","State":"England","County":"Leicestershire","City":"Leicester","District":"Braunstone","PostalCode":"LE3 2","AdditionalData":[{"value":"United Kingdom","key":"CountryName"},{"value":"England","key":"StateName"},{"value":"Leicestershire","key":"CountyName"}]},"MapReference":{"ReferenceId":"992295062","Spot":1.0,"SideOfStreet":"left","StateId":"20248595","CountyId":"20354833","CityId":"20354874","DistrictId":"20354888"}}},{"Relevance":1.0,"Distance":14.6,"MatchLevel":"houseNumber","MatchQuality":{"Country":1.0,"State":1.0,"County":1.0,"City":1.0,"District":1.0,"Street":[1.0],"HouseNumber":1.0,"PostalCode":1.0},"MatchType":"interpolated","Location":{"LocationId":"NT_Af9KGteHC.IBfzLy6vNN6C_l_992295059_R_yUD","LocationType":"point","DisplayPosition":{"Latitude":52.6055,"Longitude":-1.17515},"MapView":{"TopLeft":{"Latitude":52.6066242,"Longitude":-1.1770011},"BottomRight":{"Latitude":52.6043759,"Longitude":-1.173299}},"Address":{"Label":"25 Kingsway, Leicester, LE3 2, United Kingdom","Country":"GBR","State":"England","County":"Leicestershire","City":"Leicester","District":"Braunstone","Street":"Kingsway","HouseNumber":"25","PostalCode":"LE3 2","AdditionalData":[{"value":"United Kingdom","key":"CountryName"},{"value":"England","key":"StateName"},{"value":"Leicestershire","key":"CountyName"}]},"MapReference":{"ReferenceId":"992295059","Spot":0.29,"SideOfStreet":"right","StateId":"20248595","CountyId":"20354833","CityId":"20354874","DistrictId":"20354888"}}},{"Relevance":1.0,"Distance":17.4,"MatchLevel":"houseNumber","MatchQuality":{"Country":1.0,"State":1.0,"County":1.0,"City":1.0,"District":1.0,"Street":[1.0],"HouseNumber":1.0,"PostalCode":1.0},"MatchType":"interpolated","Location":{"LocationId":"NT_Af9KGteHC.IBfzLy6vNN6C_l_992295058_R_yMD","LocationType":"point","DisplayPosition":{"Latitude":52.6053323,"Longitude":-1.1748277},"MapView":{"TopLeft":{"Latitude":52.6064565,"Longitude":-1.1766787},"BottomRight":{"Latitude":52.6042082,"Longitude":-1.1729766}},"Address":{"Label":"23 Kingsway, Leicester, LE3 2, United Kingdom","Country":"GBR","State":"England","County":"Leicestershire","City":"Leicester","District":"Braunstone","Street":"Kingsway","HouseNumber":"23","PostalCode":"LE3 2","AdditionalData":[{"value":"United Kingdom","key":"CountryName"},{"value":"England","key":"StateName"},{"value":"Leicestershire","key":"CountyName"}]},"MapReference":{"ReferenceId":"992295058","Spot":0.47,"SideOfStreet":"right","StateId":"20248595","CountyId":"20354833","CityId":"20354874","DistrictId":"20354888"}}},{"Relevance":1.0,"Distance":21.9,"MatchLevel":"houseNumber","MatchQuality":{"Country":1.0,"State":1.0,"County":1.0,"City":1.0,"District":1.0,"Street":[1.0],"HouseNumber":1.0,"PostalCode":1.0},"MatchType":"interpolated","Location":{"LocationId":"NT_j7Ul4-rt4Eo2jZrUOI.fpB_l_26134247_L_xUzM","LocationType":"point","DisplayPosition":{"Latitude":52.6052301,"Longitude":-1.1745799},"MapView":{"TopLeft":{"Latitude":52.6063543,"Longitude":-1.1764309},"BottomRight":{"Latitude":52.604106,"Longitude":-1.1727288}},"Address":{"Label":"153 Narborough Road South, Leicester, LE3 2LH, United Kingdom","Country":"GBR","State":"England","County":"Leicestershire","City":"Leicester","District":"Braunstone","Street":"Narborough Road South","HouseNumber":"153","PostalCode":"LE3 2LH","AdditionalData":[{"value":"United Kingdom","key":"CountryName"},{"value":"England","key":"StateName"},{"value":"Leicestershire","key":"CountyName"}]},"MapReference":{"ReferenceId":"26134247","Spot":0.08,"SideOfStreet":"left","StateId":"20248595","CountyId":"20354833","CityId":"20354874","DistrictId":"20354888"}}},{"Relevance":1.0,"Distance":27.9,"MatchLevel":"houseNumber","MatchQuality":{"Country":1.0,"State":1.0,"County":1.0,"City":1.0,"District":1.0,"Street":[1.0],"HouseNumber":1.0,"PostalCode":1.0},"MatchType":"interpolated","Location":{"LocationId":"NT_Af9KGteHC.IBfzLy6vNN6C_l_992295060_L_zQD","LocationType":"point","DisplayPosition":{"Latitude":52.60523,"Longitude":-1.17504},"MapView":{"TopLeft":{"Latitude":52.6063542,"Longitude":-1.1768911},"BottomRight":{"Latitude":52.6041059,"Longitude":-1.173189}},"Address":{"Label":"34 Kingsway, Leicester, LE3 2JJ, United Kingdom","Country":"GBR","State":"England","County":"Leicestershire","City":"Leicester","District":"Braunstone","Street":"Kingsway","HouseNumber":"34","PostalCode":"LE3 2JJ","AdditionalData":[{"value":"United Kingdom","key":"CountryName"},{"value":"England","key":"StateName"},{"value":"Leicestershire","key":"CountyName"}]},"MapReference":{"ReferenceId":"992295060","Spot":0.5,"SideOfStreet":"left","StateId":"20248595","CountyId":"20354833","CityId":"20354874","DistrictId":"20354888"}}},{"Relevance":1.0,"Distance":30.4,"MatchLevel":"street","MatchQuality":{"Country":1.0,"State":1.0,"County":1.0,"City":1.0,"District":1.0,"Street":[1.0],"PostalCode":1.0},"Location":{"LocationId":"NT_Af9KGteHC.IBfzLy6vNN6C_l_26134248_R","LocationType":"point","DisplayPosition":{"Latitude":52.6052,"Longitude":-1.17494},"MapView":{"TopLeft":{"Latitude":52.6052,"Longitude":-1.17494},"BottomRight":{"Latitude":52.60512,"Longitude":-1.17471}},"Address":{"Label":"Kingsway, Leicester, LE3 2, United Kingdom","Country":"GBR","State":"England","County":"Leicestershire","City":"Leicester","District":"Braunstone","Street":"Kingsway","PostalCode":"LE3 2","AdditionalData":[{"value":"United Kingdom","key":"CountryName"},{"value":"England","key":"StateName"},{"value":"Leicestershire","key":"CountyName"}]},"MapReference":{"ReferenceId":"26134248","Spot":1.0,"SideOfStreet":"right","StateId":"20248595","CountyId":"20354833","CityId":"20354874","DistrictId":"20354888"}}},{"Relevance":1.0,"Distance":31.5,"MatchLevel":"houseNumber","MatchQuality":{"Country":1.0,"State":1.0,"County":1.0,"City":1.0,"District":1.0,"Street":[1.0],"HouseNumber":1.0,"PostalCode":1.0},"MatchType":"interpolated","Location":{"LocationId":"NT_Af9KGteHC.IBfzLy6vNN6C_l_992295061_L_zYD","LocationType":"point","DisplayPosition":{"Latitude":52.60532,"Longitude":-1.17533},"MapView":{"TopLeft":{"Latitude":52.6064442,"Longitude":-1.1771811},"BottomRight":{"Latitude":52.6041959,"Longitude":-1.173479}},"Address":{"Label":"36 Kingsway, Leicester, LE3 2JJ, United Kingdom","Country":"GBR","State":"England","County":"Leicestershire","City":"Leicester","District":"Braunstone","Street":"Kingsway","HouseNumber":"36","PostalCode":"LE3 2JJ","AdditionalData":[{"value":"United Kingdom","key":"CountryName"},{"value":"England","key":"StateName"},{"value":"Leicestershire","key":"CountyName"}]},"MapReference":{"ReferenceId":"992295061","Spot":0.35,"SideOfStreet":"left","StateId":"20248595","CountyId":"20354833","CityId":"20354874","DistrictId":"20354888"}}},{"Relevance":1.0,"Distance":35.3,"MatchLevel":"houseNumber","MatchQuality":{"Country":1.0,"State":1.0,"County":1.0,"City":1.0,"District":1.0,"Street":[1.0],"HouseNumber":1.0,"PostalCode":1.0},"MatchType":"interpolated","Location":{"LocationId":"NT_Hk4o5qqaCOXJZhfNZ.JddC_l_26134193_R_xA","LocationType":"point","DisplayPosition":{"Latitude":52.6057701,"Longitude":-1.1754799},"MapView":{"TopLeft":{"Latitude":52.6068943,"Longitude":-1.1773309},"BottomRight":{"Latitude":52.604646,"Longitude":-1.1736288}},"Address":{"Label":"1 Headley Road, Leicester, LE3 2PJ, United Kingdom","Country":"GBR","State":"England","County":"Leicestershire","City":"Leicester","District":"Braunstone","Street":"Headley Road","HouseNumber":"1","PostalCode":"LE3 2PJ","AdditionalData":[{"value":"United Kingdom","key":"CountryName"},{"value":"England","key":"StateName"},{"value":"Leicestershire","key":"CountyName"}]},"MapReference":{"ReferenceId":"26134193","Spot":0.18,"SideOfStreet":"right","StateId":"20248595","CountyId":"20354833","CityId":"20354874","DistrictId":"20354888"}}},{"Relevance":1.0,"Distance":49.3,"MatchLevel":"street","MatchQuality":{"Country":1.0,"State":1.0,"County":1.0,"City":1.0,"District":1.0,"Street":[1.0],"PostalCode":1.0},"Location":{"LocationId":"NT_gmmA3lVDXXms8w5BpnJysB_l_758089929_L","LocationType":"point","DisplayPosition":{"Latitude":52.6050884,"Longitude":-1.1745777},"MapView":{"TopLeft":{"Latitude":52.60953,"Longitude":-1.17824},"BottomRight":{"Latitude":52.60183,"Longitude":-1.16982}},"Address":{"Label":"Narborough Road South, Leicester, LE3 2, United Kingdom","Country":"GBR","State":"England","County":"Leicestershire","City":"Leicester","District":"Braunstone","Street":"Narborough Road South","PostalCode":"LE3 2","AdditionalData":[{"value":"United Kingdom","key":"CountryName"},{"value":"England","key":"StateName"},{"value":"Leicestershire","key":"CountyName"}]},"MapReference":{"ReferenceId":"758089929","Spot":0.43,"SideOfStreet":"left","StateId":"20248595","CountyId":"20354833","CityId":"20354874","DistrictId":"20354888"}}}]}]}}