{"Response":{"MetaInfo":{"Timestamp":"2020-03-28T10:43:41.203+0000","NextPageInformation":"2"},"View":[{"_type":"SearchResultsViewType","ViewId":0,"Result":[{"Relevance":1.0,"Distance":0.0,"Direction":0.0,"MatchLevel":"district","MatchQuality":{"Country":1.0,"County":1.0,"City":1.0,"District":1.0,"PostalCode":1.0},"Location":{"LocationId":"NT_gOxh-PnC.eN61TTc.IuylC","LocationType":"point","DisplayPosition":{"Latitude":52.6368151,"Longitude":-8.6554939},"MapView":{"TopLeft":{"Latitude":52.68863,"Longitude":-8.6957},"BottomRight":{"Latitude":52.61387,"Longitude":-8.51979}},"Address":{"Label":"Limerick, Ireland","Country":"IRL","County":"County Limerick","City":"Limerick","District":"Limerick","AdditionalData":[{"value":"Ireland","key":"CountryName"},{"value":"County Limerick","key":"CountyName"}]},"MapReference":{"ReferenceId":"554443173","SideOfStreet":"neither","CountryId":"20403667","CountyId":"20411206","CityId":"20426562","DistrictId":"20426563"}}},{"Relevance":1.0,"Distance":12.5,"MatchLevel":"houseNumber","MatchQuality":{"Country":1.0,"County":1.0,"City":1.0,"District":1.0,"Street":[1.0],"PostalCode":1.0},"MatchType":"interpolated","Location":{"LocationId":"NT_InQ-UoGG160TALxajYa0pD","LocationType":"point","DisplayPosition":{"Latitude":52.6366,"Longitude":-8.65531},"MapView":{"TopLeft":{"Latitude":52.6377242,"Longitude":-8.6571624},"BottomRight":{"Latitude":52.6354758,"Longitude":-8.6534576}},"Address":{"Label":"\"Dooradoyle Health Centre\" St Nessan's Road, Limerick, County Limerick, V94, Ireland","Country":"IRL","County":"County Limerick","City":"Limerick","District":"Limerick","Street":"St Nessan's Road","PostalCode":"V94","AdditionalData":[{"value":"Ireland","key":"CountryName"},{"value":"County Limerick","key":"CountyName"}],"Building":"Dooradoyle Health Centre"},"MapReference":{"ReferenceId":"589016091","Spot":0.55,"SideOfStreet":"right","CountryId":"20403667","CountyId":"20411206","CityId":"20426562","DistrictId":"20426563","AddressId":"358855974","RoadLinkId":"382847316"}}},{"Relevance":1.0,"Distance":23.5,"MatchLevel":"postalCode","MatchQuality":{"PostalCode":1.0},"MatchType":"interpolated","Location":{"LocationId":"NT_-sh5oRA5wWVl0c8ApgvmMC_0ED","LocationType":"point","DisplayPosition":{"Latitude":52.63687,"Longitude":-8.65583},"MapView":{"TopLeft":{"Latitude":52.6458632,"Longitude":-8.6706491},"BottomRight":{"Latitude":52.6278768,"Longitude":-8.6410109}},"Address":{"Label":"V94 VRP1, Limerick, Ireland","Country":"IRL","County":"County Limerick","City":"Limerick","PostalCode":"V94 VRP1","AdditionalData":[{"value":"Ireland","key":"CountryName"},{"value":"County Limerick","key":"CountyName"}]},"MapReference":{"ReferenceId":"589016108","Spot":0.43,"SideOfStreet":"neither","CountryId":"20403667","CountyId":"20411206","CityId":"20426562"}}},{"Relevance":1.0,"Distance":26.9,"MatchLevel":"houseNumber","MatchQuality":{"Country":1.0,"County":1.0,"City":1.0,"District":1.0,"Street":[1.0],"HouseNumber":1.0,"PostalCode":1.0},"MatchType":"interpolated","Location":{"LocationId":"NT_-sh5oRA5wWVl0c8ApgvmMC_0ED","LocationType":"point","DisplayPosition":{"Latitude":52.63713,"Longitude":-8.65577},"MapView":{"TopLeft":{"Latitude":52.6382542,"Longitude":-8.6576224},"BottomRight":{"Latitude":52.6360058,"Longitude":-8.6539176}},"Address":{"Label":"41 Gouldavoher Estate, Limerick, County Limerick, V94 NAC4, Ireland","Country":"IRL","County":"County Limerick","City":"Limerick","District":"Limerick","Street":"Gouldavoher Estate","HouseNumber":"41","PostalCode":"V94 NAC4","AdditionalData":[{"value":"Ireland","key":"CountryName"},{"value":"County Limerick","key":"CountyName"}]},"MapReference":{"ReferenceId":"589016108","Spot":0.43,"SideOfStreet":"right","CountryId":"20403667","CountyId":"20411206","CityId":"20426562","DistrictId":"20426563","AddressId":"214205787","RoadLinkId":"86848156"}}},{"Relevance":1.0,"Distance":51.3,"MatchLevel":"houseNumber","MatchQuality":{"Country":1.0,"County":1.0,"City":1.0,"District":1.0,"Street":[1.0],"PostalCode":1.0},"MatchType":"interpolated","Location":{"LocationId":"NT_InQ-UoGG160TALxajYa0pD","LocationType":"point","DisplayPosition":{"Latitude":52.63691,"Longitude":-8.65426},"MapView":{"TopLeft":{"Latitude":52.6380342,"Longitude":-8.6561124},"BottomRight":{"Latitude":52.6357858,"Longitude":-8.6524076}},"Address":{"Label":"\"Arden Rooms\" St Nessan's Road, Limerick, County Limerick, V94 XT7E, Ireland","Country":"IRL","County":"County Limerick","City":"Limerick","District":"Limerick","Street":"St Nessan's Road","PostalCode":"V94 XT7E","AdditionalData":[{"value":"Ireland","key":"CountryName"},{"value":"County Limerick","key":"CountyName"}],"Building":"Arden Rooms"},"MapReference":{"ReferenceId":"1060780069","Spot":0.74,"SideOfStreet":"left","CountryId":"20403667","CountyId":"20411206","CityId":"20426562","DistrictId":"20426563","AddressId":"677484632","RoadLinkId":"382847317"}}},{"Relevance":1.0,"Distance":61.4,"MatchLevel":"houseNumber","MatchQuality":{"Country":1.0,"County":1.0,"City":1.0,"District":1.0,"Street":[1.0],"HouseNumber":1.0,"PostalCode":1.0},"MatchType":"interpolated","Location":{"LocationId":"NT_-sh5oRA5wWVl0c8ApgvmMC_0gD","LocationType":"point","DisplayPosition":{"Latitude":52.63655,"Longitude":-8.65638},"MapView":{"TopLeft":{"Latitude":52.6376742,"Longitude":-8.6582324},"BottomRight":{"Latitude":52.6354258,"Longitude":-8.6545276}},"Address":{"Label":"48 Gouldavoher Estate, Limerick, County Limerick, V94 Y47D, Ireland","Country":"IRL","County":"County Limerick","City":"Limerick","District":"Limerick","Street":"Gouldavoher Estate","HouseNumber":"48","PostalCode":"V94 Y47D","AdditionalData":[{"value":"Ireland","key":"CountryName"},{"value":"County Limerick","key":"CountyName"}]},"MapReference":{"ReferenceId":"589016109","Spot":1.0,"SideOfStreet":"right","CountryId":"20403667","CountyId":"20411206","CityId":"20426562","DistrictId":"20426563","AddressId":"214445492","RoadLinkId":"86658580"}}},{"Relevance":1.0,"Distance":65.2,"MatchLevel":"houseNumber","MatchQuality":{"Country":1.0,"County":1.0,"City":1.0,"District":1.0,"Street":[1.0],"HouseNumber":1.0,"PostalCode":1.0},"MatchType":"interpolated","Location":{"LocationId":"NT_-sh5oRA5wWVl0c8ApgvmMC_2UD","LocationType":"point","DisplayPosition":{"Latitude":52.63669,"Longitude":-8.65664},"MapView":{"TopLeft":{"Latitude":52.6378142,"Longitude":-8.6584924},"BottomRight":{"Latitude":52.6355658,"Longitude":-8.6547876}},"Address":{"Label":"65 Gouldavoher Estate, Limerick, County Limerick, V94 HD1F, Ireland","Country":"IRL","County":"County Limerick","City":"Limerick","District":"Limerick","Street":"Gouldavoher Estate","HouseNumber":"65","PostalCode":"V94 HD1F","AdditionalData":[{"value":"Ireland","key":"CountryName"},{"value":"County Limerick","key":"CountyName"}]},"MapReference":{"ReferenceId":"589016112","Spot":0.31,"SideOfStreet":"right","CountryId":"20403667","CountyId":"20411206","CityId":"20426562","DistrictId":"20426563","AddressId":"214852053","RoadLinkId":"86693894"}}},{"Relevance":1.0,"Distance":67.8,"MatchLevel":"street","MatchQuality":{"Country":1.0,"County":1.0,"City":1.0,"District":1.0,"Street":[1.0],"PostalCode":1.0},"Location":{"LocationId":"NT_InQ-UoGG160TALxajYa0pD_l_589016090_L","LocationType":"point","DisplayPosition":{"Latitude":52.63625,"Longitude":-8.65587},"MapView":{"TopLeft":{"Latitude":52.63625,"Longitude":-8.65655},"BottomRight":{"Latitude":52.63537,"Longitude":-8.65587}},"Address":{"Label":"St Nessan's Road, Limerick, County Limerick, V94, Ireland","Country":"IRL","County":"County Limerick","City":"Limerick","District":"Limerick","Street":"St Nessan's Road","PostalCode":"V94","AdditionalData":[{"value":"Ireland","key":"CountryName"},{"value":"County Limerick","key":"CountyName"}]},"MapReference":{"ReferenceId":"589016090","Spot":1.0,"SideOfStreet":"left","CountryId":"20403667","CountyId":"20411206","CityId":"20426562","DistrictId":"20426563"}}},{"Relevance":1.0,"Distance":69.9,"MatchLevel":"street","MatchQuality":{"Country":1.0,"County":1.0,"City":1.0,"District":1.0,"Street":[1.0],"PostalCode":1.0},"Location":{"LocationId":"NT_InQ-UoGG160TALxajYa0pD_l_589016174_R","LocationType":"point","DisplayPosition":{"Latitude":52.6362,"Longitude":-8.65571},"MapView":{"TopLeft":{"Latitude":52.63625,"Longitude":-8.65587},"BottomRight":{"Latitude":52.63596,"Longitude":-8.65553}},"Address":{"Label":"St Nessan's Road, Limerick, County Limerick, V94, Ireland","Country":"IRL","County":"County Limerick","City":"Limerick","District":"Limerick","Street":"St Nessan's Road","PostalCode":"V94","AdditionalData":[{"value":"Ireland","key":"CountryName"},{"value":"County Limerick","key":"CountyName"}]},"MapReference":{"ReferenceId":"589016174","Spot":0.65,"SideOfStreet":"right","CountryId":"20403667","CountyId":"20411206","CityId":"20426562","DistrictId":"20426563"}}},{"Relevance":1.0,"Distance":76.3,"MatchLevel":"postalCode","MatchQuality":{"PostalCode":1.0},"MatchType":"interpolated","Location":{"LocationId":"NT_-sh5oRA5wWVl0c8ApgvmMC_0gD","LocationType":"point","DisplayPosition":{"Latitude":52.63634,"Longitude":-8.65631},"MapView":{"TopLeft":{"Latitude":52.6453332,"Longitude":-8.671129},"BottomRight":{"Latitude":52.6273468,"Longitude":-8.641491}},"Address":{"Label":"V94 Y1EH, Limerick, Ireland","Country":"IRL","County":"County Limerick","City":"Limerick","PostalCode":"V94 Y1EH","AdditionalData":[{"value":"Ireland","key":"CountryName"},{"value":"County Limerick","key":"CountyName"}]},"MapReference":{"ReferenceId":"589016109","Spot":1.0,"SideOfStreet":"neither","CountryId":"20403667","CountyId":"20411206","CityId":"20426562"}}}]}]}}