{"Response":{"MetaInfo":{"Timestamp":"2020-03-28T10:19:49.894+0000","NextPageInformation":"2"},"View":[{"_type":"SearchResultsViewType","ViewId":0,"Result":[{"Relevance":1.0,"Distance":0.0,"Direction":0.0,"MatchLevel":"district","MatchQuality":{"Country":1.0,"State":1.0,"County":1.0,"City":1.0,"District":1.0,"PostalCode":1.0},"Location":{"LocationId":"NT_-79uaNuFR1N0OnDvLcLQDA","LocationType":"point","DisplayPosition":{"Latitude":52.648764,"Longitude":13.5348484},"MapView":{"TopLeft":{"Latitude":52.66775,"Longitude":13.50612},"BottomRight":{"Latitude":52.64055,"Longitude":13.56702}},"Address":{"Label":"Zepernick, Panketal, Brandenburg, Deutschland","Country":"DEU","State":"Brandenburg","County":"Barnim","City":"Panketal","District":"Zepernick","PostalCode":"16341","AdditionalData":[{"value":"Deutschland","key":"CountryName"},{"value":"Brandenburg","key":"StateName"},{"value":"Barnim","key":"CountyName"}]},"MapReference":{"ReferenceId":"60895416","SideOfStreet":"neither","CountryId":"20147700","StateId":"20187428","CountyId":"20187485","CityId":"20187581","DistrictId":"20567227"}}},{"Relevance":1.0,"Distance":8.8,"MatchLevel":"houseNumber","MatchQuality":{"Country":1.0,"State":1.0,"County":1.0,"City":1.0,"District":1.0,"Street":[1.0],"HouseNumber":1.0,"PostalCode":1.0},"MatchType":"interpolated","Location":{"LocationId":"NT_rbaApgrueRmf30z3f3p.-A_xMD","LocationType":"point","DisplayPosition":{"Latitude":52.64869,"Longitude":13.53507},"MapView":{"TopLeft":{"Latitude":52.6498142,"Longitude":13.5332171},"BottomRight":{"Latitude":52.6475658,"Longitude":13.5369229}},"Address":{"Label":"Bucher Straße 13, 16341 Panketal, Deutschland","Country":"DEU","State":"Brandenburg","County":"Barnim","City":"Panketal","District":"Zepernick","Street":"Bucher Straße","HouseNumber":"13","PostalCode":"16341","AdditionalData":[{"value":"Deutschland","key":"CountryName"},{"value":"Brandenburg","key":"StateName"},{"value":"Barnim","key":"CountyName"}]},"MapReference":{"ReferenceId":"792375125","Spot":0.88,"SideOfStreet":"left","CountryId":"20147700","StateId":"20187428","CountyId":"20187485","CityId":"20187581","DistrictId":"20567227","AddressId":"181892572","RoadLinkId":"184526559"}}},{"Relevance":1.0,"Distance":19.9,"MatchLevel":"houseNumber","MatchQuality":{"Country":1.0,"State":1.0,"County":1.0,"City":1.0,"District":1.0,"Street":[1.0],"HouseNumber":1.0,"PostalCode":1.0},"MatchType":"interpolated","Location":{"LocationId":"NT_8RaUCEqdarjD9ZLZ1tVG0C_xED","LocationType":"point","DisplayPosition":{"Latitude":52.64891,"Longitude":13.53524},"MapView":{"TopLeft":{"Latitude":52.6500342,"Longitude":13.5333871},"BottomRight":{"Latitude":52.6477858,"Longitude":13.5370929}},"Address":{"Label":"Oetztaler Straße 11, 16341 Panketal, Deutschland","Country":"DEU","State":"Brandenburg","County":"Barnim","City":"Panketal","District":"Zepernick","Street":"Oetztaler Straße","HouseNumber":"11","PostalCode":"16341","AdditionalData":[{"value":"Deutschland","key":"CountryName"},{"value":"Brandenburg","key":"StateName"},{"value":"Barnim","key":"CountyName"}]},"MapReference":{"ReferenceId":"60895517","Spot":0.11,"SideOfStreet":"left","CountryId":"20147700","StateId":"20187428","CountyId":"20187485","CityId":"20187581","DistrictId":"20567227","AddressId":"621816477","RoadLinkId":"37688316"}}},{"Relevance":1.0,"Distance":54.3,"MatchLevel":"houseNumber","MatchQuality":{"Country":1.0,"State":1.0,"County":1.0,"City":1.0,"District":1.0,"Street":[1.0],"HouseNumber":1.0,"PostalCode":1.0},"MatchType":"interpolated","Location":{"LocationId":"NT_VEdI0QYn6raVIkptflH6EC_1kD","LocationType":"point","DisplayPosition":{"Latitude":52.64863,"Longitude":13.53359},"MapView":{"TopLeft":{"Latitude":52.6497542,"Longitude":13.5317371},"BottomRight":{"Latitude":52.6475058,"Longitude":13.5354429}},"Address":{"Label":"Inntaler Straße 59, 16341 Panketal, Deutschland","Country":"DEU","State":"Brandenburg","County":"Barnim","City":"Panketal","District":"Zepernick","Street":"Inntaler Straße","HouseNumber":"59","PostalCode":"16341","AdditionalData":[{"value":"Deutschland","key":"CountryName"},{"value":"Brandenburg","key":"StateName"},{"value":"Barnim","key":"CountyName"}]},"MapReference":{"ReferenceId":"60895536","Spot":0.25,"SideOfStreet":"right","CountryId":"20147700","StateId":"20187428","CountyId":"20187485","CityId":"20187581","DistrictId":"20567227","AddressId":"182597050","RoadLinkId":"37532709"}}},{"Relevance":1.0,"Distance":63.5,"MatchLevel":"houseNumber","MatchQuality":{"Country":1.0,"State":1.0,"County":1.0,"City":1.0,"District":1.0,"Street":[1.0],"HouseNumber":1.0,"PostalCode":1.0},"MatchType":"interpolated","Location":{"LocationId":"NT_8RaUCEqdarjD9ZLZ1tVG0C_xMD","LocationType":"point","DisplayPosition":{"Latitude":52.64821,"Longitude":13.53528},"MapView":{"TopLeft":{"Latitude":52.6493342,"Longitude":13.5334271},"BottomRight":{"Latitude":52.6470858,"Longitude":13.5371329}},"Address":{"Label":"Oetztaler Straße 13, 16341 Panketal, Deutschland","Country":"DEU","State":"Brandenburg","County":"Barnim","City":"Panketal","District":"Zepernick","Street":"Oetztaler Straße","HouseNumber":"13","PostalCode":"16341","AdditionalData":[{"value":"Deutschland","key":"CountryName"},{"value":"Brandenburg","key":"StateName"},{"value":"Barnim","key":"CountyName"}]},"MapReference":{"ReferenceId":"60895564","Spot":0.61,"SideOfStreet":"left","CountryId":"20147700","StateId":"20187428","CountyId":"20187485","CityId":"20187581","DistrictId":"20567227","AddressId":"181819221","RoadLinkId":"37484931"}}},{"Relevance":1.0,"Distance":95.4,"MatchLevel":"houseNumber","MatchQuality":{"Country":1.0,"State":1.0,"County":1.0,"City":1.0,"District":1.0,"Street":[1.0],"HouseNumber":1.0,"PostalCode":1.0},"MatchType":"interpolated","Location":{"LocationId":"NT_rbaApgrueRmf30z3f3p.-A_xED","LocationType":"point","DisplayPosition":{"Latitude":52.64912,"Longitude":13.53615},"MapView":{"TopLeft":{"Latitude":52.6502442,"Longitude":13.5342971},"BottomRight":{"Latitude":52.6479958,"Longitude":13.5380029}},"Address":{"Label":"Bucher Straße 11, 16341 Panketal, Deutschland","Country":"DEU","State":"Brandenburg","County":"Barnim","City":"Panketal","District":"Zepernick","Street":"Bucher Straße","HouseNumber":"11","PostalCode":"16341","AdditionalData":[{"value":"Deutschland","key":"CountryName"},{"value":"Brandenburg","key":"StateName"},{"value":"Barnim","key":"CountyName"}]},"MapReference":{"ReferenceId":"60895516","Spot":0.54,"SideOfStreet":"left","CountryId":"20147700","StateId":"20187428","CountyId":"20187485","CityId":"20187581","DistrictId":"20567227","AddressId":"181952902","RoadLinkId":"37557460"}}},{"Relevance":1.0,"Distance":96.8,"MatchLevel":"street","MatchQuality":{"Country":1.0,"State":1.0,"County":1.0,"City":1.0,"District":1.0,"Street":[1.0],"PostalCode":1.0},"Location":{"LocationId":"NT_rbaApgrueRmf30z3f3p.-A_l_792375124_L","LocationType":"point","DisplayPosition":{"Latitude":52.64819,"Longitude":13.53377},"MapView":{"TopLeft":{"Latitude":52.64819,"Longitude":13.53362},"BottomRight":{"Latitude":52.64813,"Longitude":13.53377}},"Address":{"Label":"Bucher Straße, 16341 Panketal, Deutschland","Country":"DEU","State":"Brandenburg","County":"Barnim","City":"Panketal","District":"Zepernick","Street":"Bucher Straße","PostalCode":"16341","AdditionalData":[{"value":"Deutschland","key":"CountryName"},{"value":"Brandenburg","key":"StateName"},{"value":"Barnim","key":"CountyName"}]},"MapReference":{"ReferenceId":"792375124","Spot":1.0,"SideOfStreet":"left","CountryId":"20147700","StateId":"20187428","CountyId":"20187485","CityId":"20187581","DistrictId":"20567227"}}},{"Relevance":1.0,"Distance":106.9,"MatchLevel":"houseNumber","MatchQuality":{"Country":1.0,"State":1.0,"County":1.0,"City":1.0,"District":1.0,"Street":[1.0],"HouseNumber":1.0,"PostalCode":1.0},"MatchType":"interpolated","Location":{"LocationId":"NT_VEdI0QYn6raVIkptflH6EC_1gD","LocationType":"point","DisplayPosition":{"Latitude":52.64792,"Longitude":13.53363},"MapView":{"TopLeft":{"Latitude":52.6490442,"Longitude":13.5317771},"BottomRight":{"Latitude":52.6467958,"Longitude":13.5354829}},"Address":{"Label":"Inntaler Straße 58, 16341 Panketal, Deutschland","Country":"DEU","State":"Brandenburg","County":"Barnim","City":"Panketal","District":"Zepernick","Street":"Inntaler Straße","HouseNumber":"58","PostalCode":"16341","AdditionalData":[{"value":"Deutschland","key":"CountryName"},{"value":"Brandenburg","key":"StateName"},{"value":"Barnim","key":"CountyName"}]},"MapReference":{"ReferenceId":"60895568","Spot":0.74,"SideOfStreet":"right","CountryId":"20147700","StateId":"20187428","CountyId":"20187485","CityId":"20187581","DistrictId":"20567227","AddressId":"181813490","RoadLinkId":"37532403"}}},{"Relevance":1.0,"Distance":126.6,"MatchLevel":"houseNumber","MatchQuality":{"Country":1.0,"State":1.0,"County":1.0,"City":1.0,"District":1.0,"Street":[1.0],"HouseNumber":1.0,"PostalCode":1.0},"MatchType":"interpolated","Location":{"LocationId":"NT_rbaApgrueRmf30z3f3p.-A_xYD","LocationType":"point","DisplayPosition":{"Latitude":52.64804,"Longitude":13.5334},"MapView":{"TopLeft":{"Latitude":52.6491642,"Longitude":13.5315471},"BottomRight":{"Latitude":52.6469158,"Longitude":13.5352529}},"Address":{"Label":"Bucher Straße 16, 16341 Panketal, Deutschland","Country":"DEU","State":"Brandenburg","County":"Barnim","City":"Panketal","District":"Zepernick","Street":"Bucher Straße","HouseNumber":"16","PostalCode":"16341","AdditionalData":[{"value":"Deutschland","key":"CountryName"},{"value":"Brandenburg","key":"StateName"},{"value":"Barnim","key":"CountyName"}]},"MapReference":{"ReferenceId":"60895580","Spot":0.92,"SideOfStreet":"left","CountryId":"20147700","StateId":"20187428","CountyId":"20187485","CityId":"20187581","DistrictId":"20567227","AddressId":"181796487","RoadLinkId":"37681736"}}},{"Relevance":1.0,"Distance":137.3,"MatchLevel":"houseNumber","MatchQuality":{"Country":1.0,"State":1.0,"County":1.0,"City":1.0,"District":1.0,"Street":[1.0],"HouseNumber":1.0,"PostalCode":1.0},"MatchType":"interpolated","Location":{"LocationId":"NT_6-i8UA-yrsYonAOztALEjA_xYD","LocationType":"point","DisplayPosition":{"Latitude":52.64733,"Longitude":13.53459},"MapView":{"TopLeft":{"Latitude":52.6484542,"Longitude":13.5327372},"BottomRight":{"Latitude":52.6462058,"Longitude":13.5364428}},"Address":{"Label":"Bozener Straße 16, 16341 Panketal, Deutschland","Country":"DEU","State":"Brandenburg","County":"Barnim","City":"Panketal","District":"Zepernick","Street":"Bozener Straße","HouseNumber":"16","PostalCode":"16341","AdditionalData":[{"value":"Deutschland","key":"CountryName"},{"value":"Brandenburg","key":"StateName"},{"value":"Barnim","key":"CountyName"}]},"MapReference":{"ReferenceId":"60895567","Spot":0.55,"SideOfStreet":"left","CountryId":"20147700","StateId":"20187428","CountyId":"20187485","CityId":"20187581","DistrictId":"20567227","AddressId":"182615041","RoadLinkId":"37568015"}}}]}]}}