{"Response":{"MetaInfo":{"Timestamp":"2020-03-28T10:41:49.552+0000","NextPageInformation":"2"},"View":[{"_type":"SearchResultsViewType","ViewId":0,"Result":[{"Relevance":1.0,"Distance":0.0,"Direction":0.0,"MatchLevel":"district","MatchQuality":{"Country":1.0,"State":1.0,"County":1.0,"City":1.0,"District":1.0,"PostalCode":1.0},"Location":{"LocationId":"NT_RRxVvdsqwOo7D47Bxc..fD","LocationType":"point","DisplayPosition":{"Latitude":52.6526435,"Longitude":1.2810431},"MapView":{"TopLeft":{"Latitude":52.68472,"Longitude":1.20391},"BottomRight":{"Latitude":52.59942,"Longitude":1.34226}},"Address":{"Label":"Norwich, England, United Kingdom","Country":"GBR","State":"England","County":"Norfolk","City":"Norwich","District":"Norwich","PostalCode":"NR1 3","AdditionalData":[{"value":"United Kingdom","key":"CountryName"},{"value":"England","key":"StateName"},{"value":"Norfolk","key":"CountyName"}]},"MapReference":{"ReferenceId":"26478241","SideOfStreet":"neither","StateId":"20248595","CountyId":"20355986","CityId":"20356363","DistrictId":"20356364"}}},{"Relevance":1.0,"Distance":13.6,"MatchLevel":"houseNumber","MatchQuality":{"Country":1.0,"State":1.0,"County":1.0,"City":1.0,"District":1.0,"Street":[1.0],"HouseNumber":1.0,"PostalCode":1.0},"MatchType":"interpolated","Location":{"LocationId":"NT_sqLbukF.HoeoZa7AFvLrLD_l_26471985_L_zMD","LocationType":"point","DisplayPosition":{"Latitude":52.6524105,"Longitude":1.2812063},"MapView":{"TopLeft":{"Latitude":52.6535347,"Longitude":1.2793533},"BottomRight":{"Latitude":52.6512864,"Longitude":1.2830594}},"Address":{"Label":"33 Woodcock Road, Norwich, NR3 3TT, United Kingdom","Country":"GBR","State":"England","County":"Norfolk","City":"Norwich","District":"Norwich","Street":"Woodcock Road","HouseNumber":"33","PostalCode":"NR3 3TT","AdditionalData":[{"value":"United Kingdom","key":"CountryName"},{"value":"England","key":"StateName"},{"value":"Norfolk","key":"CountyName"}]},"MapReference":{"ReferenceId":"26471985","Spot":0.29,"SideOfStreet":"left","StateId":"20248595","CountyId":"20355986","CityId":"20356363","DistrictId":"20356364"}}},{"Relevance":1.0,"Distance":24.6,"MatchLevel":"postalCode","MatchQuality":{"PostalCode":1.0},"MatchType":"interpolated","Location":{"LocationId":"NT_sqLbukF.HoeoZa7AFvLrLD_l_26471985_L_zMD","LocationType":"point","DisplayPosition":{"Latitude":52.65243,"Longitude":1.28114},"MapView":{"TopLeft":{"Latitude":52.6614232,"Longitude":1.2663156},"BottomRight":{"Latitude":52.6434368,"Longitude":1.2959644}},"Address":{"Label":"NR3 3UA, Norwich, England, United Kingdom","Country":"GBR","State":"England","County":"Norfolk","City":"Norwich","PostalCode":"NR3 3UA","AdditionalData":[{"value":"United Kingdom","key":"CountryName"},{"value":"England","key":"StateName"},{"value":"Norfolk","key":"CountyName"}]},"MapReference":{"ReferenceId":"26471985","Spot":0.29,"SideOfStreet":"neither","StateId":"20248595","CountyId":"20355986","CityId":"20356363"}}},{"Relevance":1.0,"Distance":26.8,"MatchLevel":"street","MatchQuality":{"Country":1.0,"State":1.0,"County":1.0,"City":1.0,"District":1.0,"PostalCode":1.0},"Location":{"LocationId":"NT_7JqmU66KL2o9WLRw4LRTdB_l_991862338_L","LocationType":"point","DisplayPosition":{"Latitude":52.65288,"Longitude":1.28097},"MapView":{"TopLeft":{"Latitude":52.653,"Longitude":1.28052},"BottomRight":{"Latitude":52.65288,"Longitude":1.28097}},"Address":{"Label":"Norwich, NR3 3, United Kingdom","Country":"GBR","State":"England","County":"Norfolk","City":"Norwich","District":"Norwich","PostalCode":"NR3 3","AdditionalData":[{"value":"United Kingdom","key":"CountryName"},{"value":"England","key":"StateName"},{"value":"Norfolk","key":"CountyName"}]},"MapReference":{"ReferenceId":"991862338","Spot":0.0,"SideOfStreet":"left","StateId":"20248595","CountyId":"20355986","CityId":"20356363","DistrictId":"20356364"}}},{"Relevance":1.0,"Distance":38.7,"MatchLevel":"street","MatchQuality":{"Country":1.0,"State":1.0,"County":1.0,"City":1.0,"District":1.0,"Street":[1.0],"PostalCode":1.0},"Location":{"LocationId":"NT_OhhR9XxNVusULPDoEyBiHA_l_26472005_R","LocationType":"point","DisplayPosition":{"Latitude":52.65266,"Longitude":1.28047},"MapView":{"TopLeft":{"Latitude":52.65266,"Longitude":1.2803},"BottomRight":{"Latitude":52.65211,"Longitude":1.28058}},"Address":{"Label":"White House Court, Norwich, NR3 3, United Kingdom","Country":"GBR","State":"England","County":"Norfolk","City":"Norwich","District":"Norwich","Street":"White House Court","PostalCode":"NR3 3","AdditionalData":[{"value":"United Kingdom","key":"CountryName"},{"value":"England","key":"StateName"},{"value":"Norfolk","key":"CountyName"}]},"MapReference":{"ReferenceId":"26472005","Spot":1.0,"SideOfStreet":"right","StateId":"20248595","CountyId":"20355986","CityId":"20356363","DistrictId":"20356364"}}},{"Relevance":1.0,"Distance":38.7,"MatchLevel":"street","MatchQuality":{"Country":1.0,"State":1.0,"County":1.0,"City":1.0,"District":1.0,"PostalCode":1.0},"Location":{"LocationId":"NT_7JqmU66KL2o9WLRw4LRTdB_l_991862336_R","LocationType":"point","DisplayPosition":{"Latitude":52.65266,"Longitude":1.28047},"MapView":{"TopLeft":{"Latitude":52.653,"Longitude":1.2803},"BottomRight":{"Latitude":52.65266,"Longitude":1.28052}},"Address":{"Label":"Norwich, NR3 3, United Kingdom","Country":"GBR","State":"England","County":"Norfolk","City":"Norwich","District":"Norwich","PostalCode":"NR3 3","AdditionalData":[{"value":"United Kingdom","key":"CountryName"},{"value":"England","key":"StateName"},{"value":"Norfolk","key":"CountyName"}]},"MapReference":{"ReferenceId":"991862336","Spot":0.0,"SideOfStreet":"right","StateId":"20248595","CountyId":"20355986","CityId":"20356363","DistrictId":"20356364"}}},{"Relevance":1.0,"Distance":53.2,"MatchLevel":"street","MatchQuality":{"Country":1.0,"State":1.0,"County":1.0,"City":1.0,"District":1.0,"PostalCode":1.0},"Location":{"LocationId":"NT_7JqmU66KL2o9WLRw4LRTdB_l_991862337_R","LocationType":"point","DisplayPosition":{"Latitude":52.6530021,"Longitude":1.2805215},"MapView":{"TopLeft":{"Latitude":52.65316,"Longitude":1.28052},"BottomRight":{"Latitude":52.653,"Longitude":1.28063}},"Address":{"Label":"Norwich, NR3 3, United Kingdom","Country":"GBR","State":"England","County":"Norfolk","City":"Norwich","District":"Norwich","PostalCode":"NR3 3","AdditionalData":[{"value":"United Kingdom","key":"CountryName"},{"value":"England","key":"StateName"},{"value":"Norfolk","key":"CountyName"}]},"MapReference":{"ReferenceId":"991862337","Spot":0.01,"SideOfStreet":"right","StateId":"20248595","CountyId":"20355986","CityId":"20356363","DistrictId":"20356364"}}},{"Relevance":1.0,"Distance":59.5,"MatchLevel":"houseNumber","MatchQuality":{"Country":1.0,"State":1.0,"County":1.0,"City":1.0,"District":1.0,"Street":[1.0],"HouseNumber":1.0,"PostalCode":1.0},"MatchType":"interpolated","Location":{"LocationId":"NT_sqLbukF.HoeoZa7AFvLrLD_l_26472004_R_xAD","LocationType":"point","DisplayPosition":{"Latitude":52.6521586,"Longitude":1.2806718},"MapView":{"TopLeft":{"Latitude":52.6532828,"Longitude":1.2788188},"BottomRight":{"Latitude":52.6510345,"Longitude":1.2825249}},"Address":{"Label":"10 Woodcock Road, Norwich, NR3 3TX, United Kingdom","Country":"GBR","State":"England","County":"Norfolk","City":"Norwich","District":"Norwich","Street":"Woodcock Road","HouseNumber":"10","PostalCode":"NR3 3TX","AdditionalData":[{"value":"United Kingdom","key":"CountryName"},{"value":"England","key":"StateName"},{"value":"Norfolk","key":"CountyName"}]},"MapReference":{"ReferenceId":"26472004","Spot":0.54,"SideOfStreet":"right","StateId":"20248595","CountyId":"20355986","CityId":"20356363","DistrictId":"20356364"}}},{"Relevance":1.0,"Distance":67.1,"MatchLevel":"houseNumber","MatchQuality":{"Country":1.0,"State":1.0,"County":1.0,"City":1.0,"District":1.0,"Street":[1.0],"HouseNumber":1.0,"PostalCode":1.0},"MatchType":"interpolated","Location":{"LocationId":"NT_AH09-YJuK6nF0hTm6aqxYC_l_26472071_L_xA","LocationType":"point","DisplayPosition":{"Latitude":52.6520404,"Longitude":1.2810416},"MapView":{"TopLeft":{"Latitude":52.6531645,"Longitude":1.2791886},"BottomRight":{"Latitude":52.6509162,"Longitude":1.2828947}},"Address":{"Label":"1 Arminghall Close, Norwich, NR3 3UE, United Kingdom","Country":"GBR","State":"England","County":"Norfolk","City":"Norwich","District":"Norwich","Street":"Arminghall Close","HouseNumber":"1","PostalCode":"NR3 3UE","AdditionalData":[{"value":"United Kingdom","key":"CountryName"},{"value":"England","key":"StateName"},{"value":"Norfolk","key":"CountyName"}]},"MapReference":{"ReferenceId":"26472071","Spot":0.66,"SideOfStreet":"left","StateId":"20248595","CountyId":"20355986","CityId":"20356363","DistrictId":"20356364"}}},{"Relevance":1.0,"Distance":83.4,"MatchLevel":"houseNumber","MatchQuality":{"Country":1.0,"State":1.0,"County":1.0,"City":1.0,"District":1.0,"Street":[1.0],"HouseNumber":1.0,"PostalCode":1.0},"MatchType":"interpolated","Location":{"LocationId":"NT_hN0oAMOsDKVeAlmnYbApQA_l_26471866_L_xA","LocationType":"point","DisplayPosition":{"Latitude":52.6529001,"Longitude":1.28239},"MapView":{"TopLeft":{"Latitude":52.6540242,"Longitude":1.2805369},"BottomRight":{"Latitude":52.6517759,"Longitude":1.2842431}},"Address":{"Label":"1 Gateley Gardens, Norwich, NR3 3TU, United Kingdom","Country":"GBR","State":"England","County":"Norfolk","City":"Norwich","District":"Norwich","Street":"Gateley Gardens","HouseNumber":"1","PostalCode":"NR3 3TU","AdditionalData":[{"value":"United Kingdom","key":"CountryName"},{"value":"England","key":"StateName"},{"value":"Norfolk","key":"CountyName"}]},"MapReference":{"ReferenceId":"26471866","Spot":0.1,"SideOfStreet":"left","StateId":"20248595","CountyId":"20355986","CityId":"20356363","DistrictId":"20356364"}}}]}]}}