{"Response":{"MetaInfo":{"Timestamp":"2020-03-28T11:59:08.520+0000","NextPageInformation":"2"},"View":[{"_type":"SearchResultsViewType","ViewId":0,"Result":[{"Relevance":1.0,"Distance":0.0,"Direction":0.0,"MatchLevel":"district","MatchQuality":{"Country":1.0,"State":1.0,"County":1.0,"City":1.0,"District":1.0,"PostalCode":1.0},"Location":{"LocationId":"NT_RRxVvdsqwOo7D47Bxc..fD","LocationType":"point","DisplayPosition":{"Latitude":52.6252614,"Longitude":1.2603949},"MapView":{"TopLeft":{"Latitude":52.68472,"Longitude":1.20391},"BottomRight":{"Latitude":52.59942,"Longitude":1.34226}},"Address":{"Label":"Norwich, England, United Kingdom","Country":"GBR","State":"England","County":"Norfolk","City":"Norwich","District":"Norwich","PostalCode":"NR1 3","AdditionalData":[{"value":"United Kingdom","key":"CountryName"},{"value":"England","key":"StateName"},{"value":"Norfolk","key":"CountyName"}]},"MapReference":{"ReferenceId":"26478241","SideOfStreet":"neither","StateId":"20248595","CountyId":"20355986","CityId":"20356363","DistrictId":"20356364"}}},{"Relevance":1.0,"Distance":5.2,"MatchLevel":"houseNumber","MatchQuality":{"Country":1.0,"State":1.0,"County":1.0,"City":1.0,"District":1.0,"Street":[1.0],"HouseNumber":1.0,"PostalCode":1.0},"MatchType":"interpolated","Location":{"LocationId":"NT_GOx998hCpolL4BXJegMbsD_l_26477895_R_xMTO","LocationType":"point","DisplayPosition":{"Latitude":52.62524,"Longitude":1.260105},"MapView":{"TopLeft":{"Latitude":52.6263642,"Longitude":1.2582531},"BottomRight":{"Latitude":52.6241159,"Longitude":1.2619569}},"Address":{"Label":"139 Colman Road, Norwich, NR4 7, United Kingdom","Country":"GBR","State":"England","County":"Norfolk","City":"Norwich","District":"Norwich","Street":"Colman Road","HouseNumber":"139","PostalCode":"NR4 7","AdditionalData":[{"value":"United Kingdom","key":"CountryName"},{"value":"England","key":"StateName"},{"value":"Norfolk","key":"CountyName"}]},"MapReference":{"ReferenceId":"26477895","Spot":0.49,"SideOfStreet":"right","StateId":"20248595","CountyId":"20355986","CityId":"20356363","DistrictId":"20356364"}}},{"Relevance":1.0,"Distance":7.2,"MatchLevel":"street","MatchQuality":{"Country":1.0,"State":1.0,"County":1.0,"City":1.0,"District":1.0,"Street":[1.0],"PostalCode":1.0},"Location":{"LocationId":"NT_VOmu5ZQfTBlgfAGi5plRrA_l_26477894_R","LocationType":"point","DisplayPosition":{"Latitude":52.6252395,"Longitude":1.260295},"MapView":{"TopLeft":{"Latitude":52.62549,"Longitude":1.26014},"BottomRight":{"Latitude":52.62501,"Longitude":1.26033}},"Address":{"Label":"Bunnett Square, Norwich, NR4 7, United Kingdom","Country":"GBR","State":"England","County":"Norfolk","City":"Norwich","District":"Norwich","Street":"Bunnett Square","PostalCode":"NR4 7","AdditionalData":[{"value":"United Kingdom","key":"CountryName"},{"value":"England","key":"StateName"},{"value":"Norfolk","key":"CountyName"}]},"MapReference":{"ReferenceId":"26477894","Spot":0.59,"SideOfStreet":"right","StateId":"20248595","CountyId":"20355986","CityId":"20356363","DistrictId":"20356364"}}},{"Relevance":1.0,"Distance":12.6,"MatchLevel":"houseNumber","MatchQuality":{"Country":1.0,"State":1.0,"County":1.0,"City":1.0,"District":1.0,"Street":[1.0],"HouseNumber":1.0,"PostalCode":1.0},"MatchType":"interpolated","Location":{"LocationId":"NT_x8nDeXjx1FYfm7pAFVckMC_l_26477814_R_2gD","LocationType":"point","DisplayPosition":{"Latitude":52.6255,"Longitude":1.26046},"MapView":{"TopLeft":{"Latitude":52.6266242,"Longitude":1.2586081},"BottomRight":{"Latitude":52.6243759,"Longitude":1.2623119}},"Address":{"Label":"68 The Avenues, Norwich, NR2 3, United Kingdom","Country":"GBR","State":"England","County":"Norfolk","City":"Norwich","District":"Norwich","Street":"The Avenues","HouseNumber":"68","PostalCode":"NR2 3","AdditionalData":[{"value":"United Kingdom","key":"CountryName"},{"value":"England","key":"StateName"},{"value":"Norfolk","key":"CountyName"}]},"MapReference":{"ReferenceId":"26477814","Spot":0.17,"SideOfStreet":"right","StateId":"20248595","CountyId":"20355986","CityId":"20356363","DistrictId":"20356364"}}},{"Relevance":1.0,"Distance":24.7,"MatchLevel":"postalCode","MatchQuality":{"PostalCode":1.0},"MatchType":"interpolated","Location":{"LocationId":"NT_GOx998hCpolL4BXJegMbsD_l_26477895_R_xMTO","LocationType":"point","DisplayPosition":{"Latitude":52.62504,"Longitude":1.26036},"MapView":{"TopLeft":{"Latitude":52.6340332,"Longitude":1.2455449},"BottomRight":{"Latitude":52.6160468,"Longitude":1.2751751}},"Address":{"Label":"NR4 7HA, Norwich, England, United Kingdom","Country":"GBR","State":"England","County":"Norfolk","City":"Norwich","PostalCode":"NR4 7HA","AdditionalData":[{"value":"United Kingdom","key":"CountryName"},{"value":"England","key":"StateName"},{"value":"Norfolk","key":"CountyName"}]},"MapReference":{"ReferenceId":"26477895","Spot":0.49,"SideOfStreet":"neither","StateId":"20248595","CountyId":"20355986","CityId":"20356363"}}},{"Relevance":1.0,"Distance":27.5,"MatchLevel":"street","MatchQuality":{"Country":1.0,"State":1.0,"County":1.0,"City":1.0,"District":1.0,"Street":[1.0],"PostalCode":1.0},"Location":{"LocationId":"NT_jRSMyutqhFSxLQRTDF9HYA_l_26477815_R","LocationType":"point","DisplayPosition":{"Latitude":52.62549,"Longitude":1.26024},"MapView":{"TopLeft":{"Latitude":52.62549,"Longitude":1.26008},"BottomRight":{"Latitude":52.62548,"Longitude":1.26024}},"Address":{"Label":"The Avenues, Norwich, NR4 7, United Kingdom","Country":"GBR","State":"England","County":"Norfolk","City":"Norwich","District":"Norwich","Street":"The Avenues","PostalCode":"NR4 7","AdditionalData":[{"value":"United Kingdom","key":"CountryName"},{"value":"England","key":"StateName"},{"value":"Norfolk","key":"CountyName"}]},"MapReference":{"ReferenceId":"26477815","Spot":1.0,"SideOfStreet":"right","StateId":"20248595","CountyId":"20355986","CityId":"20356363","DistrictId":"20356364"}}},{"Relevance":1.0,"Distance":32.3,"MatchLevel":"street","MatchQuality":{"Country":1.0,"State":1.0,"County":1.0,"City":1.0,"District":1.0,"Street":[1.0],"PostalCode":1.0},"Location":{"LocationId":"NT_jRSMyutqhFSxLQRTDF9HYA_l_26477817_R","LocationType":"point","DisplayPosition":{"Latitude":52.62548,"Longitude":1.26008},"MapView":{"TopLeft":{"Latitude":52.62548,"Longitude":1.2599},"BottomRight":{"Latitude":52.62547,"Longitude":1.26008}},"Address":{"Label":"The Avenues, Norwich, NR4 7, United Kingdom","Country":"GBR","State":"England","County":"Norfolk","City":"Norwich","District":"Norwich","Street":"The Avenues","PostalCode":"NR4 7","AdditionalData":[{"value":"United Kingdom","key":"CountryName"},{"value":"England","key":"StateName"},{"value":"Norfolk","key":"CountyName"}]},"MapReference":{"ReferenceId":"26477817","Spot":1.0,"SideOfStreet":"right","StateId":"20248595","CountyId":"20355986","CityId":"20356363","DistrictId":"20356364"}}},{"Relevance":1.0,"Distance":32.8,"MatchLevel":"street","MatchQuality":{"Country":1.0,"State":1.0,"County":1.0,"City":1.0,"District":1.0,"Street":[1.0],"PostalCode":1.0},"Location":{"LocationId":"NT_VOmu5ZQfTBlgfAGi5plRrA_l_26477896_R","LocationType":"point","DisplayPosition":{"Latitude":52.62501,"Longitude":1.26014},"MapView":{"TopLeft":{"Latitude":52.62547,"Longitude":1.2599},"BottomRight":{"Latitude":52.62501,"Longitude":1.26014}},"Address":{"Label":"Bunnett Square, Norwich, NR4 7, United Kingdom","Country":"GBR","State":"England","County":"Norfolk","City":"Norwich","District":"Norwich","Street":"Bunnett Square","PostalCode":"NR4 7","AdditionalData":[{"value":"United Kingdom","key":"CountryName"},{"value":"England","key":"StateName"},{"value":"Norfolk","key":"CountyName"}]},"MapReference":{"ReferenceId":"26477896","Spot":0.0,"SideOfStreet":"right","StateId":"20248595","CountyId":"20355986","CityId":"20356363","DistrictId":"20356364"}}},{"Relevance":1.0,"Distance":38.6,"MatchLevel":"houseNumber","MatchQuality":{"Country":1.0,"State":1.0,"County":1.0,"City":1.0,"District":1.0,"Street":[1.0],"HouseNumber":1.0,"PostalCode":1.0},"MatchType":"interpolated","Location":{"LocationId":"NT_GOx998hCpolL4BXJegMbsD_l_1170442305_L_xMjN","LocationType":"point","DisplayPosition":{"Latitude":52.6249473,"Longitude":1.2601496},"MapView":{"TopLeft":{"Latitude":52.6260715,"Longitude":1.2582978},"BottomRight":{"Latitude":52.6238232,"Longitude":1.2620015}},"Address":{"Label":"136 Colman Road, Norwich, NR4 7AA, United Kingdom","Country":"GBR","State":"England","County":"Norfolk","City":"Norwich","District":"Norwich","Street":"Colman Road","HouseNumber":"136","PostalCode":"NR4 7AA","AdditionalData":[{"value":"United Kingdom","key":"CountryName"},{"value":"England","key":"StateName"},{"value":"Norfolk","key":"CountyName"}]},"MapReference":{"ReferenceId":"1170442305","Spot":0.52,"SideOfStreet":"left","StateId":"20248595","CountyId":"20355986","CityId":"20356363","DistrictId":"20356364"}}},{"Relevance":1.0,"Distance":44.4,"MatchLevel":"houseNumber","MatchQuality":{"Country":1.0,"State":1.0,"County":1.0,"City":1.0,"District":1.0,"Street":[1.0],"HouseNumber":1.0,"PostalCode":1.0},"MatchType":"interpolated","Location":{"LocationId":"NT_roM3P4OprsiabdphF031vA_l_1147481013_R_xYzN","LocationType":"point","DisplayPosition":{"Latitude":52.62561,"Longitude":1.26005},"MapView":{"TopLeft":{"Latitude":52.6267342,"Longitude":1.2581981},"BottomRight":{"Latitude":52.6244859,"Longitude":1.2619019}},"Address":{"Label":"167 Colman Road, Norwich, NR4 7, United Kingdom","Country":"GBR","State":"England","County":"Norfolk","City":"Norwich","District":"Norwich","Street":"Colman Road","HouseNumber":"167","PostalCode":"NR4 7","AdditionalData":[{"value":"United Kingdom","key":"CountryName"},{"value":"England","key":"StateName"},{"value":"Norfolk","key":"CountyName"}]},"MapReference":{"ReferenceId":"1147481013","Spot":0.35,"SideOfStreet":"right","StateId":"20248595","CountyId":"20355986","CityId":"20356363","DistrictId":"20356364"}}}]}]}}