{"Response":{"MetaInfo":{"Timestamp":"2020-03-28T10:37:22.280+0000","NextPageInformation":"2"},"View":[{"_type":"SearchResultsViewType","ViewId":0,"Result":[{"Relevance":1.0,"Distance":0.0,"Direction":0.0,"MatchLevel":"district","MatchQuality":{"Country":1.0,"State":1.0,"County":1.0,"City":1.0,"District":1.0,"PostalCode":1.0},"Location":{"LocationId":"NT_aIfYDSBEAJoV1ZA15ssyMD","LocationType":"point","DisplayPosition":{"Latitude":52.6201421,"Longitude":1.7269243},"MapView":{"TopLeft":{"Latitude":52.64085,"Longitude":1.68241},"BottomRight":{"Latitude":52.55053,"Longitude":1.74497}},"Address":{"Label":"Great Yarmouth, England, United Kingdom","Country":"GBR","State":"England","County":"Norfolk","City":"Great Yarmouth","District":"Great Yarmouth","PostalCode":"NR29 4","AdditionalData":[{"value":"United Kingdom","key":"CountryName"},{"value":"England","key":"StateName"},{"value":"Norfolk","key":"CountyName"}]},"MapReference":{"ReferenceId":"811861055","SideOfStreet":"neither","StateId":"20248595","CountyId":"20355986","CityId":"20356146","DistrictId":"20356147"}}},{"Relevance":1.0,"Distance":8.9,"MatchLevel":"houseNumber","MatchQuality":{"Country":1.0,"State":1.0,"County":1.0,"City":1.0,"District":1.0,"Street":[1.0],"HouseNumber":1.0,"PostalCode":1.0},"MatchType":"interpolated","Location":{"LocationId":"NT_Km78wpn1XPd1vYc32.p6pB_l_733040216_L_xQTM","LocationType":"point","DisplayPosition":{"Latitude":52.62006,"Longitude":1.72717},"MapView":{"TopLeft":{"Latitude":52.6211842,"Longitude":1.7253183},"BottomRight":{"Latitude":52.6189359,"Longitude":1.7290217}},"Address":{"Label":"141 Lawn Avenue, Great Yarmouth, NR30 1QP, United Kingdom","Country":"GBR","State":"England","County":"Norfolk","City":"Great Yarmouth","District":"Great Yarmouth","Street":"Lawn Avenue","HouseNumber":"141","PostalCode":"NR30 1QP","AdditionalData":[{"value":"United Kingdom","key":"CountryName"},{"value":"England","key":"StateName"},{"value":"Norfolk","key":"CountyName"}]},"MapReference":{"ReferenceId":"733040216","Spot":0.28,"SideOfStreet":"left","StateId":"20248595","CountyId":"20355986","CityId":"20356146","DistrictId":"20356147"}}},{"Relevance":1.0,"Distance":25.2,"MatchLevel":"houseNumber","MatchQuality":{"Country":1.0,"State":1.0,"County":1.0,"City":1.0,"District":1.0,"Street":[1.0],"HouseNumber":1.0,"PostalCode":1.0},"MatchType":"interpolated","Location":{"LocationId":"NT_eXp-WJdUyALl3MaDvq4NTB_l_1147910988_L_xMTO","LocationType":"point","DisplayPosition":{"Latitude":52.6198125,"Longitude":1.7269},"MapView":{"TopLeft":{"Latitude":52.6209367,"Longitude":1.7250483},"BottomRight":{"Latitude":52.6186884,"Longitude":1.7287517}},"Address":{"Label":"139 Lawn Avenue, Great Yarmouth, NR30 1QP, United Kingdom","Country":"GBR","State":"England","County":"Norfolk","City":"Great Yarmouth","District":"Great Yarmouth","Street":"Lawn Avenue","HouseNumber":"139","PostalCode":"NR30 1QP","AdditionalData":[{"value":"United Kingdom","key":"CountryName"},{"value":"England","key":"StateName"},{"value":"Norfolk","key":"CountyName"}]},"MapReference":{"ReferenceId":"1147910988","Spot":0.57,"SideOfStreet":"left","StateId":"20248595","CountyId":"20355986","CityId":"20356146","DistrictId":"20356147"}}},{"Relevance":1.0,"Distance":37.8,"MatchLevel":"street","MatchQuality":{"Country":1.0,"State":1.0,"County":1.0,"City":1.0,"District":1.0,"Street":[1.0],"PostalCode":1.0},"Location":{"LocationId":"NT_ox3phMYaOudVXBZgpYs0-A_l_1147910985_L","LocationType":"point","DisplayPosition":{"Latitude":52.6204749,"Longitude":1.7270352},"MapView":{"TopLeft":{"Latitude":52.6205,"Longitude":1.72695},"BottomRight":{"Latitude":52.62035,"Longitude":1.72741}},"Address":{"Label":"Tar Works Road, Great Yarmouth, NR30 1, United Kingdom","Country":"GBR","State":"England","County":"Norfolk","City":"Great Yarmouth","District":"Great Yarmouth","Street":"Tar Works Road","PostalCode":"NR30 1","AdditionalData":[{"value":"United Kingdom","key":"CountryName"},{"value":"England","key":"StateName"},{"value":"Norfolk","key":"CountyName"}]},"MapReference":{"ReferenceId":"1147910985","Spot":0.82,"SideOfStreet":"left","StateId":"20248595","CountyId":"20355986","CityId":"20356146","DistrictId":"20356147"}}},{"Relevance":1.0,"Distance":39.8,"MatchLevel":"street","MatchQuality":{"Country":1.0,"State":1.0,"County":1.0,"City":1.0,"District":1.0,"Street":[1.0],"PostalCode":1.0},"Location":{"LocationId":"NT_ox3phMYaOudVXBZgpYs0-A_l_1147910986_L","LocationType":"point","DisplayPosition":{"Latitude":52.6205,"Longitude":1.72695},"MapView":{"TopLeft":{"Latitude":52.62093,"Longitude":1.72501},"BottomRight":{"Latitude":52.6205,"Longitude":1.72695}},"Address":{"Label":"Tar Works Road, Great Yarmouth, NR30 1, United Kingdom","Country":"GBR","State":"England","County":"Norfolk","City":"Great Yarmouth","District":"Great Yarmouth","Street":"Tar Works Road","PostalCode":"NR30 1","AdditionalData":[{"value":"United Kingdom","key":"CountryName"},{"value":"England","key":"StateName"},{"value":"Norfolk","key":"CountyName"}]},"MapReference":{"ReferenceId":"1147910986","Spot":0.0,"SideOfStreet":"left","StateId":"20248595","CountyId":"20355986","CityId":"20356146","DistrictId":"20356147"}}},{"Relevance":1.0,"Distance":40.1,"MatchLevel":"street","MatchQuality":{"Country":1.0,"State":1.0,"County":1.0,"City":1.0,"District":1.0,"Street":[1.0],"PostalCode":1.0},"Location":{"LocationId":"NT_dP.WKyIpZtB3tkhjAy3fZA_l_26475795_L","LocationType":"point","DisplayPosition":{"Latitude":52.62035,"Longitude":1.72741},"MapView":{"TopLeft":{"Latitude":52.62035,"Longitude":1.72741},"BottomRight":{"Latitude":52.62032,"Longitude":1.72782}},"Address":{"Label":"Caister Road, Great Yarmouth, NR30 4, United Kingdom","Country":"GBR","State":"England","County":"Norfolk","City":"Great Yarmouth","District":"Great Yarmouth","Street":"Caister Road","PostalCode":"NR30 4","AdditionalData":[{"value":"United Kingdom","key":"CountryName"},{"value":"England","key":"StateName"},{"value":"Norfolk","key":"CountyName"}]},"MapReference":{"ReferenceId":"26475795","Spot":1.0,"SideOfStreet":"left","StateId":"20248595","CountyId":"20355986","CityId":"20356146","DistrictId":"20356147"}}},{"Relevance":1.0,"Distance":40.1,"MatchLevel":"street","MatchQuality":{"Country":1.0,"State":1.0,"County":1.0,"City":1.0,"District":1.0,"Street":[1.0],"PostalCode":1.0},"Location":{"LocationId":"NT_Km78wpn1XPd1vYc32.p6pB_l_26475782_L","LocationType":"point","DisplayPosition":{"Latitude":52.62035,"Longitude":1.72741},"MapView":{"TopLeft":{"Latitude":52.62046,"Longitude":1.72741},"BottomRight":{"Latitude":52.62035,"Longitude":1.72749}},"Address":{"Label":"Lawn Avenue, Great Yarmouth, NR30 4, United Kingdom","Country":"GBR","State":"England","County":"Norfolk","City":"Great Yarmouth","District":"Great Yarmouth","Street":"Lawn Avenue","PostalCode":"NR30 4","AdditionalData":[{"value":"United Kingdom","key":"CountryName"},{"value":"England","key":"StateName"},{"value":"Norfolk","key":"CountyName"}]},"MapReference":{"ReferenceId":"26475782","Spot":0.0,"SideOfStreet":"left","StateId":"20248595","CountyId":"20355986","CityId":"20356146","DistrictId":"20356147"}}},{"Relevance":1.0,"Distance":52.0,"MatchLevel":"street","MatchQuality":{"Country":1.0,"State":1.0,"County":1.0,"City":1.0,"District":1.0,"Street":[1.0],"PostalCode":1.0},"Location":{"LocationId":"NT_5fHPeDe99NE.gz6MlRHQDD_l_26475745_L","LocationType":"point","DisplayPosition":{"Latitude":52.62046,"Longitude":1.72749},"MapView":{"TopLeft":{"Latitude":52.62073,"Longitude":1.72749},"BottomRight":{"Latitude":52.62046,"Longitude":1.72762}},"Address":{"Label":"Lawn Avenue, Great Yarmouth, NR30 4, United Kingdom","Country":"GBR","State":"England","County":"Norfolk","City":"Great Yarmouth","District":"Great Yarmouth","Street":"Lawn Avenue","PostalCode":"NR30 4","AdditionalData":[{"value":"United Kingdom","key":"CountryName"},{"value":"England","key":"StateName"},{"value":"Norfolk","key":"CountyName"}]},"MapReference":{"ReferenceId":"26475745","Spot":0.0,"SideOfStreet":"left","StateId":"20248595","CountyId":"20355986","CityId":"20356146","DistrictId":"20356147"}}},{"Relevance":1.0,"Distance":57.1,"MatchLevel":"houseNumber","MatchQuality":{"Country":1.0,"State":1.0,"County":1.0,"City":1.0,"District":1.0,"Street":[1.0],"HouseNumber":1.0,"PostalCode":1.0},"MatchType":"interpolated","Location":{"LocationId":"NT_dP.WKyIpZtB3tkhjAy3fZA_l_26475892_L_1ED","LocationType":"point","DisplayPosition":{"Latitude":52.6201477,"Longitude":1.7279154},"MapView":{"TopLeft":{"Latitude":52.6212719,"Longitude":1.7260637},"BottomRight":{"Latitude":52.6190236,"Longitude":1.729767}},"Address":{"Label":"51 Caister Road, Great Yarmouth, NR30 4DA, United Kingdom","Country":"GBR","State":"England","County":"Norfolk","City":"Great Yarmouth","District":"Great Yarmouth","Street":"Caister Road","HouseNumber":"51","PostalCode":"NR30 4DA","AdditionalData":[{"value":"United Kingdom","key":"CountryName"},{"value":"England","key":"StateName"},{"value":"Norfolk","key":"CountyName"}]},"MapReference":{"ReferenceId":"26475892","Spot":0.52,"SideOfStreet":"left","StateId":"20248595","CountyId":"20355986","CityId":"20356146","DistrictId":"20356147"}}},{"Relevance":1.0,"Distance":63.6,"MatchLevel":"street","MatchQuality":{"Country":1.0,"State":1.0,"County":1.0,"City":1.0,"District":1.0,"Street":[1.0],"PostalCode":1.0},"Location":{"LocationId":"NT_dP.WKyIpZtB3tkhjAy3fZA_l_26475794_L","LocationType":"point","DisplayPosition":{"Latitude":52.62032,"Longitude":1.72782},"MapView":{"TopLeft":{"Latitude":52.62032,"Longitude":1.72782},"BottomRight":{"Latitude":52.62031,"Longitude":1.72794}},"Address":{"Label":"Caister Road, Great Yarmouth, NR30 4, United Kingdom","Country":"GBR","State":"England","County":"Norfolk","City":"Great Yarmouth","District":"Great Yarmouth","Street":"Caister Road","PostalCode":"NR30 4","AdditionalData":[{"value":"United Kingdom","key":"CountryName"},{"value":"England","key":"StateName"},{"value":"Norfolk","key":"CountyName"}]},"MapReference":{"ReferenceId":"26475794","Spot":1.0,"SideOfStreet":"left","StateId":"20248595","CountyId":"20355986","CityId":"20356146","DistrictId":"20356147"}}}]}]}}