{"Response":{"MetaInfo":{"Timestamp":"2020-03-28T11:16:30.377+0000","NextPageInformation":"2"},"View":[{"_type":"SearchResultsViewType","ViewId":0,"Result":[{"Relevance":1.0,"Distance":0.0,"Direction":0.0,"MatchLevel":"district","MatchQuality":{"Country":1.0,"State":1.0,"County":1.0,"City":1.0,"District":1.0,"PostalCode":1.0},"Location":{"LocationId":"NT_aIfYDSBEAJoV1ZA15ssyMD","LocationType":"point","DisplayPosition":{"Latitude":52.6162834,"Longitude":1.7315337},"MapView":{"TopLeft":{"Latitude":52.64085,"Longitude":1.68241},"BottomRight":{"Latitude":52.55053,"Longitude":1.74497}},"Address":{"Label":"Great Yarmouth, England, United Kingdom","Country":"GBR","State":"England","County":"Norfolk","City":"Great Yarmouth","District":"Great Yarmouth","PostalCode":"NR29 4","AdditionalData":[{"value":"United Kingdom","key":"CountryName"},{"value":"England","key":"StateName"},{"value":"Norfolk","key":"CountyName"}]},"MapReference":{"ReferenceId":"811861055","SideOfStreet":"neither","StateId":"20248595","CountyId":"20355986","CityId":"20356146","DistrictId":"20356147"}}},{"Relevance":1.0,"Distance":5.3,"MatchLevel":"street","MatchQuality":{"Country":1.0,"State":1.0,"County":1.0,"City":1.0,"District":1.0,"Street":[1.0],"PostalCode":1.0},"Location":{"LocationId":"NT_E1316SrtXsg3vtNS.HGzGC_l_1021495339_R","LocationType":"point","DisplayPosition":{"Latitude":52.6162357,"Longitude":1.7315308},"MapView":{"TopLeft":{"Latitude":52.61624,"Longitude":1.73146},"BottomRight":{"Latitude":52.61616,"Longitude":1.73278}},"Address":{"Label":"Estcourt Road, Great Yarmouth, NR30 4, United Kingdom","Country":"GBR","State":"England","County":"Norfolk","City":"Great Yarmouth","District":"Great Yarmouth","Street":"Estcourt Road","PostalCode":"NR30 4","AdditionalData":[{"value":"United Kingdom","key":"CountryName"},{"value":"England","key":"StateName"},{"value":"Norfolk","key":"CountyName"}]},"MapReference":{"ReferenceId":"1021495339","Spot":0.95,"SideOfStreet":"right","StateId":"20248595","CountyId":"20355986","CityId":"20356146","DistrictId":"20356147"}}},{"Relevance":1.0,"Distance":20.8,"MatchLevel":"houseNumber","MatchQuality":{"Country":1.0,"State":1.0,"County":1.0,"City":1.0,"District":1.0,"Street":[1.0],"HouseNumber":1.0,"PostalCode":1.0},"MatchType":"interpolated","Location":{"LocationId":"NT_E1316SrtXsg3vtNS.HGzGC_l_26476769_L_xkD","LocationType":"point","DisplayPosition":{"Latitude":52.61625,"Longitude":1.73123},"MapView":{"TopLeft":{"Latitude":52.6173742,"Longitude":1.7293784},"BottomRight":{"Latitude":52.6151258,"Longitude":1.7330815}},"Address":{"Label":"19 Estcourt Road, Great Yarmouth, NR30 4JQ, United Kingdom","Country":"GBR","State":"England","County":"Norfolk","City":"Great Yarmouth","District":"Great Yarmouth","Street":"Estcourt Road","HouseNumber":"19","PostalCode":"NR30 4JQ","AdditionalData":[{"value":"United Kingdom","key":"CountryName"},{"value":"England","key":"StateName"},{"value":"Norfolk","key":"CountyName"}]},"MapReference":{"ReferenceId":"26476769","Spot":0.16,"SideOfStreet":"left","StateId":"20248595","CountyId":"20355986","CityId":"20356146","DistrictId":"20356147"}}},{"Relevance":1.0,"Distance":30.1,"MatchLevel":"postalCode","MatchQuality":{"PostalCode":1.0},"MatchType":"interpolated","Location":{"LocationId":"NT_E1316SrtXsg3vtNS.HGzGC_l_26476769_L_xkD","LocationType":"point","DisplayPosition":{"Latitude":52.61616,"Longitude":1.73193},"MapView":{"TopLeft":{"Latitude":52.6251532,"Longitude":1.7171179},"BottomRight":{"Latitude":52.6071668,"Longitude":1.7467421}},"Address":{"Label":"NR30 4JQ, Great Yarmouth, England, United Kingdom","Country":"GBR","State":"England","County":"Norfolk","City":"Great Yarmouth","PostalCode":"NR30 4JQ","AdditionalData":[{"value":"United Kingdom","key":"CountryName"},{"value":"England","key":"StateName"},{"value":"Norfolk","key":"CountyName"}]},"MapReference":{"ReferenceId":"26476769","Spot":0.16,"SideOfStreet":"neither","StateId":"20248595","CountyId":"20355986","CityId":"20356146"}}},{"Relevance":1.0,"Distance":75.8,"MatchLevel":"street","MatchQuality":{"Country":1.0,"State":1.0,"County":1.0,"City":1.0,"District":1.0,"PostalCode":1.0},"Location":{"LocationId":"NT_iQCHJfJPuyZ.QIWhwtCPKC_l_1160011040_R","LocationType":"point","DisplayPosition":{"Latitude":52.61646,"Longitude":1.73045},"MapView":{"TopLeft":{"Latitude":52.61669,"Longitude":1.72946},"BottomRight":{"Latitude":52.61643,"Longitude":1.73047}},"Address":{"Label":"Great Yarmouth, NR30 1, United Kingdom","Country":"GBR","State":"England","County":"Norfolk","City":"Great Yarmouth","District":"Great Yarmouth","PostalCode":"NR30 1","AdditionalData":[{"value":"United Kingdom","key":"CountryName"},{"value":"England","key":"StateName"},{"value":"Norfolk","key":"CountyName"}]},"MapReference":{"ReferenceId":"1160011040","Spot":0.81,"SideOfStreet":"right","StateId":"20248595","CountyId":"20355986","CityId":"20356146","DistrictId":"20356147"}}},{"Relevance":1.0,"Distance":84.1,"MatchLevel":"street","MatchQuality":{"Country":1.0,"State":1.0,"County":1.0,"City":1.0,"District":1.0,"Street":[1.0],"PostalCode":1.0},"Location":{"LocationId":"NT_0VNFDPbvCb1s3bgPuQjQ4A_l_1021495340_L","LocationType":"point","DisplayPosition":{"Latitude":52.61628,"Longitude":1.73278},"MapView":{"TopLeft":{"Latitude":52.61664,"Longitude":1.73278},"BottomRight":{"Latitude":52.61616,"Longitude":1.73317}},"Address":{"Label":"Astley Cooper Place, Great Yarmouth, NR30 4, United Kingdom","Country":"GBR","State":"England","County":"Norfolk","City":"Great Yarmouth","District":"Great Yarmouth","Street":"Astley Cooper Place","PostalCode":"NR30 4","AdditionalData":[{"value":"United Kingdom","key":"CountryName"},{"value":"England","key":"StateName"},{"value":"Norfolk","key":"CountyName"}]},"MapReference":{"ReferenceId":"1021495340","Spot":0.17,"SideOfStreet":"left","StateId":"20248595","CountyId":"20355986","CityId":"20356146","DistrictId":"20356147"}}},{"Relevance":1.0,"Distance":84.9,"MatchLevel":"street","MatchQuality":{"Country":1.0,"State":1.0,"County":1.0,"City":1.0,"District":1.0,"PostalCode":1.0},"Location":{"LocationId":"NT_iQCHJfJPuyZ.QIWhwtCPKC_l_1160011039_R","LocationType":"point","DisplayPosition":{"Latitude":52.61669,"Longitude":1.73047},"MapView":{"TopLeft":{"Latitude":52.61718,"Longitude":1.73047},"BottomRight":{"Latitude":52.61669,"Longitude":1.73059}},"Address":{"Label":"Great Yarmouth, NR30 1, United Kingdom","Country":"GBR","State":"England","County":"Norfolk","City":"Great Yarmouth","District":"Great Yarmouth","PostalCode":"NR30 1","AdditionalData":[{"value":"United Kingdom","key":"CountryName"},{"value":"England","key":"StateName"},{"value":"Norfolk","key":"CountyName"}]},"MapReference":{"ReferenceId":"1160011039","Spot":0.0,"SideOfStreet":"right","StateId":"20248595","CountyId":"20355986","CityId":"20356146","DistrictId":"20356147"}}},{"Relevance":1.0,"Distance":84.9,"MatchLevel":"street","MatchQuality":{"Country":1.0,"State":1.0,"County":1.0,"City":1.0,"District":1.0,"PostalCode":1.0},"Location":{"LocationId":"NT_iQCHJfJPuyZ.QIWhwtCPKC_l_1160011037_L","LocationType":"point","DisplayPosition":{"Latitude":52.61669,"Longitude":1.73047},"MapView":{"TopLeft":{"Latitude":52.61676,"Longitude":1.72951},"BottomRight":{"Latitude":52.61669,"Longitude":1.73047}},"Address":{"Label":"Great Yarmouth, NR30 1, United Kingdom","Country":"GBR","State":"England","County":"Norfolk","City":"Great Yarmouth","District":"Great Yarmouth","PostalCode":"NR30 1","AdditionalData":[{"value":"United Kingdom","key":"CountryName"},{"value":"England","key":"StateName"},{"value":"Norfolk","key":"CountyName"}]},"MapReference":{"ReferenceId":"1160011037","Spot":0.0,"SideOfStreet":"left","StateId":"20248595","CountyId":"20355986","CityId":"20356146","DistrictId":"20356147"}}},{"Relevance":1.0,"Distance":85.3,"MatchLevel":"street","MatchQuality":{"Country":1.0,"State":1.0,"County":1.0,"City":1.0,"District":1.0,"Street":[1.0],"PostalCode":1.0},"Location":{"LocationId":"NT_E1316SrtXsg3vtNS.HGzGC_l_1021495338_R","LocationType":"point","DisplayPosition":{"Latitude":52.61616,"Longitude":1.73278},"MapView":{"TopLeft":{"Latitude":52.61616,"Longitude":1.73278},"BottomRight":{"Latitude":52.61609,"Longitude":1.73371}},"Address":{"Label":"Estcourt Road, Great Yarmouth, NR30 4, United Kingdom","Country":"GBR","State":"England","County":"Norfolk","City":"Great Yarmouth","District":"Great Yarmouth","Street":"Estcourt Road","PostalCode":"NR30 4","AdditionalData":[{"value":"United Kingdom","key":"CountryName"},{"value":"England","key":"StateName"},{"value":"Norfolk","key":"CountyName"}]},"MapReference":{"ReferenceId":"1021495338","Spot":1.0,"SideOfStreet":"right","StateId":"20248595","CountyId":"20355986","CityId":"20356146","DistrictId":"20356147"}}},{"Relevance":1.0,"Distance":97.8,"MatchLevel":"postalCode","MatchQuality":{"PostalCode":1.0},"MatchType":"interpolated","Location":{"LocationId":"NT_NXZyBFpk9nozMLN1VuPC-C_l_26476768_L_xATM","LocationType":"point","DisplayPosition":{"Latitude":52.61716,"Longitude":1.73166},"MapView":{"TopLeft":{"Latitude":52.6261532,"Longitude":1.7168475},"BottomRight":{"Latitude":52.6081668,"Longitude":1.7464725}},"Address":{"Label":"NR30 4NX, Great Yarmouth, England, United Kingdom","Country":"GBR","State":"England","County":"Norfolk","City":"Great Yarmouth","PostalCode":"NR30 4NX","AdditionalData":[{"value":"United Kingdom","key":"CountryName"},{"value":"England","key":"StateName"},{"value":"Norfolk","key":"CountyName"}]},"MapReference":{"ReferenceId":"26476768","Spot":0.5,"SideOfStreet":"neither","StateId":"20248595","CountyId":"20355986","CityId":"20356146"}}}]}]}}