{"Response":{"MetaInfo":{"Timestamp":"2020-03-28T10:19:49.160+0000","NextPageInformation":"2"},"View":[{"_type":"SearchResultsViewType","ViewId":0,"Result":[{"Relevance":1.0,"Distance":0.0,"Direction":0.0,"MatchLevel":"district","MatchQuality":{"Country":1.0,"State":1.0,"County":1.0,"City":1.0,"District":1.0,"PostalCode":1.0},"Location":{"LocationId":"NT_PIp.sDPO-cmCfBHSU3qxQD","LocationType":"point","DisplayPosition":{"Latitude":52.6055145,"Longitude":8.3763045},"MapView":{"TopLeft":{"Latitude":52.62045,"Longitude":8.33257},"BottomRight":{"Latitude":52.58649,"Longitude":8.39545}},"Address":{"Label":"Diepholz, Niedersachsen, Deutschland","Country":"DEU","State":"Niedersachsen","County":"Diepholz","City":"Diepholz","District":"Diepholz","PostalCode":"49356","AdditionalData":[{"value":"Deutschland","key":"CountryName"},{"value":"Niedersachsen","key":"StateName"},{"value":"Diepholz","key":"CountyName"}]},"MapReference":{"ReferenceId":"540664614","SideOfStreet":"neither","CountryId":"20147700","StateId":"20151542","CountyId":"20152696","CityId":"20152749","DistrictId":"20152753"}}},{"Relevance":1.0,"Distance":8.7,"MatchLevel":"houseNumber","MatchQuality":{"Country":1.0,"State":1.0,"County":1.0,"City":1.0,"District":1.0,"Street":[1.0],"HouseNumber":1.0,"PostalCode":1.0},"MatchType":"interpolated","Location":{"LocationId":"NT_vS5xpUIZm0Fn3Zt60Z8j1C_3A","LocationType":"point","DisplayPosition":{"Latitude":52.60557,"Longitude":8.37646},"MapView":{"TopLeft":{"Latitude":52.6066942,"Longitude":8.3746089},"BottomRight":{"Latitude":52.6044458,"Longitude":8.3783111}},"Address":{"Label":"Bahnhofstraße 7, 49356 Diepholz, Deutschland","Country":"DEU","State":"Niedersachsen","County":"Diepholz","City":"Diepholz","District":"Diepholz","Street":"Bahnhofstraße","HouseNumber":"7","PostalCode":"49356","AdditionalData":[{"value":"Deutschland","key":"CountryName"},{"value":"Niedersachsen","key":"StateName"},{"value":"Diepholz","key":"CountyName"}]},"MapReference":{"ReferenceId":"79822584","Spot":0.48,"SideOfStreet":"left","CountryId":"20147700","StateId":"20151542","CountyId":"20152696","CityId":"20152749","DistrictId":"20152753","AddressId":"180797144","RoadLinkId":"36535160"}}},{"Relevance":1.0,"Distance":39.4,"MatchLevel":"houseNumber","MatchQuality":{"Country":1.0,"State":1.0,"County":1.0,"City":1.0,"District":1.0,"Street":[1.0],"HouseNumber":1.0,"PostalCode":1.0},"MatchType":"interpolated","Location":{"LocationId":"NT_vS5xpUIZm0Fn3Zt60Z8j1C_5A","LocationType":"point","DisplayPosition":{"Latitude":52.60567,"Longitude":8.37578},"MapView":{"TopLeft":{"Latitude":52.6067942,"Longitude":8.3739289},"BottomRight":{"Latitude":52.6045458,"Longitude":8.3776311}},"Address":{"Label":"Bahnhofstraße 9, 49356 Diepholz, Deutschland","Country":"DEU","State":"Niedersachsen","County":"Diepholz","City":"Diepholz","District":"Diepholz","Street":"Bahnhofstraße","HouseNumber":"9","PostalCode":"49356","AdditionalData":[{"value":"Deutschland","key":"CountryName"},{"value":"Niedersachsen","key":"StateName"},{"value":"Diepholz","key":"CountyName"}]},"MapReference":{"ReferenceId":"79822585","Spot":0.1,"SideOfStreet":"left","CountryId":"20147700","StateId":"20151542","CountyId":"20152696","CityId":"20152749","DistrictId":"20152753","AddressId":"180714659","RoadLinkId":"36471636"}}},{"Relevance":1.0,"Distance":49.7,"MatchLevel":"street","MatchQuality":{"Country":1.0,"State":1.0,"County":1.0,"City":1.0,"District":1.0,"Street":[1.0],"PostalCode":1.0},"Location":{"LocationId":"NT_eNxTElf3NGtfBwhJGnAw-C_l_79820991_L","LocationType":"point","DisplayPosition":{"Latitude":52.60549,"Longitude":8.37704},"MapView":{"TopLeft":{"Latitude":52.60549,"Longitude":8.37704},"BottomRight":{"Latitude":52.60514,"Longitude":8.37718}},"Address":{"Label":"Luisenstraße, 49356 Diepholz, Deutschland","Country":"DEU","State":"Niedersachsen","County":"Diepholz","City":"Diepholz","District":"Diepholz","Street":"Luisenstraße","PostalCode":"49356","AdditionalData":[{"value":"Deutschland","key":"CountryName"},{"value":"Niedersachsen","key":"StateName"},{"value":"Diepholz","key":"CountyName"}]},"MapReference":{"ReferenceId":"79820991","Spot":1.0,"SideOfStreet":"left","CountryId":"20147700","StateId":"20151542","CountyId":"20152696","CityId":"20152749","DistrictId":"20152753"}}},{"Relevance":1.0,"Distance":53.9,"MatchLevel":"houseNumber","MatchQuality":{"Country":1.0,"State":1.0,"County":1.0,"City":1.0,"District":1.0,"Street":[1.0],"HouseNumber":1.0,"PostalCode":1.0},"MatchType":"interpolated","Location":{"LocationId":"NT_.NHFFUvxZbHhIAmHQ1b-oB_xA","LocationType":"point","DisplayPosition":{"Latitude":52.6056,"Longitude":8.37712},"MapView":{"TopLeft":{"Latitude":52.6067242,"Longitude":8.3752689},"BottomRight":{"Latitude":52.6044758,"Longitude":8.3789711}},"Address":{"Label":"Kurzer Weg 1, 49356 Diepholz, Deutschland","Country":"DEU","State":"Niedersachsen","County":"Diepholz","City":"Diepholz","District":"Diepholz","Street":"Kurzer Weg","HouseNumber":"1","PostalCode":"49356","AdditionalData":[{"value":"Deutschland","key":"CountryName"},{"value":"Niedersachsen","key":"StateName"},{"value":"Diepholz","key":"CountyName"}]},"MapReference":{"ReferenceId":"79821089","Spot":0.11,"SideOfStreet":"left","CountryId":"20147700","StateId":"20151542","CountyId":"20152696","CityId":"20152749","DistrictId":"20152753","AddressId":"177218477","RoadLinkId":"36616716"}}},{"Relevance":1.0,"Distance":69.3,"MatchLevel":"houseNumber","MatchQuality":{"Country":1.0,"State":1.0,"County":1.0,"City":1.0,"District":1.0,"Street":[1.0],"HouseNumber":1.0,"PostalCode":1.0},"MatchType":"interpolated","Location":{"LocationId":"NT_vS5xpUIZm0Fn3Zt60Z8j1C_1A","LocationType":"point","DisplayPosition":{"Latitude":52.60545,"Longitude":8.37733},"MapView":{"TopLeft":{"Latitude":52.6065742,"Longitude":8.3754789},"BottomRight":{"Latitude":52.6043258,"Longitude":8.3791811}},"Address":{"Label":"Bahnhofstraße 5, 49356 Diepholz, Deutschland","Country":"DEU","State":"Niedersachsen","County":"Diepholz","City":"Diepholz","District":"Diepholz","Street":"Bahnhofstraße","HouseNumber":"5","PostalCode":"49356","AdditionalData":[{"value":"Deutschland","key":"CountryName"},{"value":"Niedersachsen","key":"StateName"},{"value":"Diepholz","key":"CountyName"}]},"MapReference":{"ReferenceId":"79821342","Spot":0.83,"SideOfStreet":"left","CountryId":"20147700","StateId":"20151542","CountyId":"20152696","CityId":"20152749","DistrictId":"20152753","AddressId":"177076030","RoadLinkId":"36354604"}}},{"Relevance":1.0,"Distance":70.6,"MatchLevel":"houseNumber","MatchQuality":{"Country":1.0,"State":1.0,"County":1.0,"City":1.0,"District":1.0,"Street":[1.0],"HouseNumber":1.0,"PostalCode":1.0},"MatchType":"interpolated","Location":{"LocationId":"NT_raEnFM3yRdeLnVTRVVBkuA_xID","LocationType":"point","DisplayPosition":{"Latitude":52.60474,"Longitude":8.37653},"MapView":{"TopLeft":{"Latitude":52.6058642,"Longitude":8.374679},"BottomRight":{"Latitude":52.6036158,"Longitude":8.378381}},"Address":{"Label":"Jahnstraße 12, 49356 Diepholz, Deutschland","Country":"DEU","State":"Niedersachsen","County":"Diepholz","City":"Diepholz","District":"Diepholz","Street":"Jahnstraße","HouseNumber":"12","PostalCode":"49356","AdditionalData":[{"value":"Deutschland","key":"CountryName"},{"value":"Niedersachsen","key":"StateName"},{"value":"Diepholz","key":"CountyName"}]},"MapReference":{"ReferenceId":"79820919","Spot":0.77,"SideOfStreet":"left","CountryId":"20147700","StateId":"20151542","CountyId":"20152696","CityId":"20152749","DistrictId":"20152753","AddressId":"178365527","RoadLinkId":"36620716"}}},{"Relevance":1.0,"Distance":78.0,"MatchLevel":"houseNumber","MatchQuality":{"Country":1.0,"State":1.0,"County":1.0,"City":1.0,"District":1.0,"Street":[1.0],"HouseNumber":1.0,"PostalCode":1.0},"MatchType":"interpolated","Location":{"LocationId":"NT_hpCGMagzrCpy6CZyei6BDA_xA","LocationType":"point","DisplayPosition":{"Latitude":52.60531,"Longitude":8.37507},"MapView":{"TopLeft":{"Latitude":52.6064342,"Longitude":8.3732189},"BottomRight":{"Latitude":52.6041858,"Longitude":8.3769211}},"Address":{"Label":"Schloßstraße 1, 49356 Diepholz, Deutschland","Country":"DEU","State":"Niedersachsen","County":"Diepholz","City":"Diepholz","District":"Diepholz","Street":"Schloßstraße","HouseNumber":"1","PostalCode":"49356","AdditionalData":[{"value":"Deutschland","key":"CountryName"},{"value":"Niedersachsen","key":"StateName"},{"value":"Diepholz","key":"CountyName"}]},"MapReference":{"ReferenceId":"79821025","Spot":0.41,"SideOfStreet":"right","CountryId":"20147700","StateId":"20151542","CountyId":"20152696","CityId":"20152749","DistrictId":"20152753","AddressId":"179471200","RoadLinkId":"36911678"}}},{"Relevance":1.0,"Distance":78.7,"MatchLevel":"houseNumber","MatchQuality":{"Country":1.0,"State":1.0,"County":1.0,"City":1.0,"District":1.0,"Street":[1.0],"HouseNumber":1.0,"PostalCode":1.0},"MatchType":"interpolated","Location":{"LocationId":"NT_BGtohLfez-2Nl0-ein4hnC_xkD","LocationType":"point","DisplayPosition":{"Latitude":52.60624,"Longitude":8.37606},"MapView":{"TopLeft":{"Latitude":52.6073642,"Longitude":8.3742089},"BottomRight":{"Latitude":52.6051158,"Longitude":8.3779111}},"Address":{"Label":"Friesenstraße 19, 49356 Diepholz, Deutschland","Country":"DEU","State":"Niedersachsen","County":"Diepholz","City":"Diepholz","District":"Diepholz","Street":"Friesenstraße","HouseNumber":"19","PostalCode":"49356","AdditionalData":[{"value":"Deutschland","key":"CountryName"},{"value":"Niedersachsen","key":"StateName"},{"value":"Diepholz","key":"CountyName"}]},"MapReference":{"ReferenceId":"79820912","Spot":0.25,"SideOfStreet":"right","CountryId":"20147700","StateId":"20151542","CountyId":"20152696","CityId":"20152749","DistrictId":"20152753","AddressId":"179455768","RoadLinkId":"37224336"}}},{"Relevance":1.0,"Distance":92.5,"MatchLevel":"houseNumber","MatchQuality":{"Country":1.0,"State":1.0,"County":1.0,"City":1.0,"District":1.0,"Street":[1.0],"HouseNumber":1.0,"PostalCode":1.0},"MatchType":"interpolated","Location":{"LocationId":"NT_eNxTElf3NGtfBwhJGnAw-C_xID","LocationType":"point","DisplayPosition":{"Latitude":52.6049,"Longitude":8.37733},"MapView":{"TopLeft":{"Latitude":52.6060242,"Longitude":8.375479},"BottomRight":{"Latitude":52.6037758,"Longitude":8.379181}},"Address":{"Label":"Luisenstraße 12, 49356 Diepholz, Deutschland","Country":"DEU","State":"Niedersachsen","County":"Diepholz","City":"Diepholz","District":"Diepholz","Street":"Luisenstraße","HouseNumber":"12","PostalCode":"49356","AdditionalData":[{"value":"Deutschland","key":"CountryName"},{"value":"Niedersachsen","key":"StateName"},{"value":"Diepholz","key":"CountyName"}]},"MapReference":{"ReferenceId":"79820910","Spot":0.88,"SideOfStreet":"left","CountryId":"20147700","StateId":"20151542","CountyId":"20152696","CityId":"20152749","DistrictId":"20152753","AddressId":"177678693","RoadLinkId":"36482991"}}}]}]}}