{"Response":{"MetaInfo":{"Timestamp":"2020-03-28T12:00:10.331+0000","NextPageInformation":"2"},"View":[{"_type":"SearchResultsViewType","ViewId":0,"Result":[{"Relevance":1.0,"Distance":0.0,"Direction":0.0,"MatchLevel":"district","MatchQuality":{"Country":1.0,"State":1.0,"County":1.0,"City":1.0,"District":1.0,"PostalCode":1.0},"Location":{"LocationId":"NT_L6Uc5b.f1iDpJyEcP-GMHC","LocationType":"point","DisplayPosition":{"Latitude":52.6597032,"Longitude":-3.1469509},"MapView":{"TopLeft":{"Latitude":52.67055,"Longitude":-3.16015},"BottomRight":{"Latitude":52.65074,"Longitude":-3.12844}},"Address":{"Label":"Welshpool, Wales, United Kingdom","Country":"GBR","State":"Wales","County":"Powys","City":"Welshpool","District":"Welshpool","PostalCode":"SY21 7","AdditionalData":[{"value":"United Kingdom","key":"CountryName"},{"value":"Wales","key":"StateName"},{"value":"Powys","key":"CountyName"}]},"MapReference":{"ReferenceId":"936302913","SideOfStreet":"neither","StateId":"20287683","CountyId":"20342541","CityId":"20342846","DistrictId":"20342847"}}},{"Relevance":1.0,"Distance":10.5,"MatchLevel":"postalCode","MatchQuality":{"PostalCode":1.0},"MatchType":"interpolated","Location":{"LocationId":"NT_vD.-WVscAksxDXhTDBkgAB_l_17455162_L_yA","LocationType":"point","DisplayPosition":{"Latitude":52.65965,"Longitude":-3.14708},"MapView":{"TopLeft":{"Latitude":52.6686432,"Longitude":-3.1619069},"BottomRight":{"Latitude":52.6506568,"Longitude":-3.1322531}},"Address":{"Label":"SY21 7LH, Welshpool, Wales, United Kingdom","Country":"GBR","State":"Wales","County":"Powys","City":"Welshpool","PostalCode":"SY21 7LH","AdditionalData":[{"value":"United Kingdom","key":"CountryName"},{"value":"Wales","key":"StateName"},{"value":"Powys","key":"CountyName"}]},"MapReference":{"ReferenceId":"17455162","Spot":0.27,"SideOfStreet":"neither","StateId":"20287683","CountyId":"20342541","CityId":"20342846"}}},{"Relevance":1.0,"Distance":10.7,"MatchLevel":"houseNumber","MatchQuality":{"Country":1.0,"State":1.0,"County":1.0,"City":1.0,"District":1.0,"Street":[1.0],"HouseNumber":1.0,"PostalCode":1.0},"MatchType":"interpolated","Location":{"LocationId":"NT_vD.-WVscAksxDXhTDBkgAB_l_17455162_L_yA","LocationType":"point","DisplayPosition":{"Latitude":52.6597414,"Longitude":-3.1470967},"MapView":{"TopLeft":{"Latitude":52.6608656,"Longitude":-3.1489501},"BottomRight":{"Latitude":52.6586173,"Longitude":-3.1452433}},"Address":{"Label":"2 Church Street, Welshpool, SY21 7DL, United Kingdom","Country":"GBR","State":"Wales","County":"Powys","City":"Welshpool","District":"Welshpool","Street":"Church Street","HouseNumber":"2","PostalCode":"SY21 7DL","AdditionalData":[{"value":"United Kingdom","key":"CountryName"},{"value":"Wales","key":"StateName"},{"value":"Powys","key":"CountyName"}]},"MapReference":{"ReferenceId":"17455162","Spot":0.27,"SideOfStreet":"left","StateId":"20287683","CountyId":"20342541","CityId":"20342846","DistrictId":"20342847"}}},{"Relevance":1.0,"Distance":20.6,"MatchLevel":"houseNumber","MatchQuality":{"Country":1.0,"State":1.0,"County":1.0,"City":1.0,"District":1.0,"Street":[1.0],"HouseNumber":1.0,"PostalCode":1.0},"MatchType":"interpolated","Location":{"LocationId":"NT_DClqHG79PZPJBC-6jrAczC_l_936302913_R_yA","LocationType":"point","DisplayPosition":{"Latitude":52.6594141,"Longitude":-3.1468459},"MapView":{"TopLeft":{"Latitude":52.6605383,"Longitude":-3.1486992},"BottomRight":{"Latitude":52.65829,"Longitude":-3.1449925}},"Address":{"Label":"2 Severn Street, Welshpool, SY21 7AB, United Kingdom","Country":"GBR","State":"Wales","County":"Powys","City":"Welshpool","District":"Welshpool","Street":"Severn Street","HouseNumber":"2","PostalCode":"SY21 7AB","AdditionalData":[{"value":"United Kingdom","key":"CountryName"},{"value":"Wales","key":"StateName"},{"value":"Powys","key":"CountyName"}]},"MapReference":{"ReferenceId":"936302913","Spot":0.78,"SideOfStreet":"right","StateId":"20287683","CountyId":"20342541","CityId":"20342846","DistrictId":"20342847"}}},{"Relevance":1.0,"Distance":25.2,"MatchLevel":"houseNumber","MatchQuality":{"Country":1.0,"State":1.0,"County":1.0,"City":1.0,"District":1.0,"Street":[1.0],"HouseNumber":1.0,"PostalCode":1.0},"MatchType":"interpolated","Location":{"LocationId":"NT_MUuyRCN2C1VP7EFiyqXZwD_l_846794205_R_yAD","LocationType":"point","DisplayPosition":{"Latitude":52.65966,"Longitude":-3.1473701},"MapView":{"TopLeft":{"Latitude":52.6607842,"Longitude":-3.1492234},"BottomRight":{"Latitude":52.6585359,"Longitude":-3.1455167}},"Address":{"Label":"20 Broad Street, Welshpool, SY21 7SH, United Kingdom","Country":"GBR","State":"Wales","County":"Powys","City":"Welshpool","District":"Welshpool","Street":"Broad Street","HouseNumber":"20","PostalCode":"SY21 7SH","AdditionalData":[{"value":"United Kingdom","key":"CountryName"},{"value":"Wales","key":"StateName"},{"value":"Powys","key":"CountyName"}]},"MapReference":{"ReferenceId":"846794205","Spot":0.33,"SideOfStreet":"right","StateId":"20287683","CountyId":"20342541","CityId":"20342846","DistrictId":"20342847"}}},{"Relevance":1.0,"Distance":28.5,"MatchLevel":"houseNumber","MatchQuality":{"Country":1.0,"State":1.0,"County":1.0,"City":1.0,"District":1.0,"Street":[1.0],"HouseNumber":1.0,"PostalCode":1.0},"MatchType":"interpolated","Location":{"LocationId":"NT_53myUc8-fKdy7QwwF7rV7A_l_859296170_R_yA","LocationType":"point","DisplayPosition":{"Latitude":52.659525,"Longitude":-3.147255},"MapView":{"TopLeft":{"Latitude":52.6606492,"Longitude":-3.1491083},"BottomRight":{"Latitude":52.6584009,"Longitude":-3.1454016}},"Address":{"Label":"2 Berriew Street, Welshpool, SY21 7SQ, United Kingdom","Country":"GBR","State":"Wales","County":"Powys","City":"Welshpool","District":"Welshpool","Street":"Berriew Street","HouseNumber":"2","PostalCode":"SY21 7SQ","AdditionalData":[{"value":"United Kingdom","key":"CountryName"},{"value":"Wales","key":"StateName"},{"value":"Powys","key":"CountyName"}]},"MapReference":{"ReferenceId":"859296170","Spot":0.5,"SideOfStreet":"right","StateId":"20287683","CountyId":"20342541","CityId":"20342846","DistrictId":"20342847"}}},{"Relevance":1.0,"Distance":30.8,"MatchLevel":"postalCode","MatchQuality":{"PostalCode":1.0},"Location":{"LocationId":"NT_aaoisMNLKjU14zhVxBcZNC_l_840887053_L","LocationType":"point","DisplayPosition":{"Latitude":52.65966,"Longitude":-3.1465},"MapView":{"TopLeft":{"Latitude":52.6686532,"Longitude":-3.1613269},"BottomRight":{"Latitude":52.6506668,"Longitude":-3.1316731}},"Address":{"Label":"SY21 7DG, Welshpool, Wales, United Kingdom","Country":"GBR","State":"Wales","County":"Powys","City":"Welshpool","PostalCode":"SY21 7DG","AdditionalData":[{"value":"United Kingdom","key":"CountryName"},{"value":"Wales","key":"StateName"},{"value":"Powys","key":"CountyName"}]},"MapReference":{"ReferenceId":"840887053","Spot":0.0,"SideOfStreet":"neither","StateId":"20287683","CountyId":"20342541","CityId":"20342846"}}},{"Relevance":1.0,"Distance":32.1,"MatchLevel":"postalCode","MatchQuality":{"PostalCode":1.0},"MatchType":"interpolated","Location":{"LocationId":"NT_MUuyRCN2C1VP7EFiyqXZwD_l_846794205_R_yAD","LocationType":"point","DisplayPosition":{"Latitude":52.65975,"Longitude":-3.14742},"MapView":{"TopLeft":{"Latitude":52.6687432,"Longitude":-3.1622469},"BottomRight":{"Latitude":52.6507568,"Longitude":-3.1325931}},"Address":{"Label":"SY21 7SH, Welshpool, Wales, United Kingdom","Country":"GBR","State":"Wales","County":"Powys","City":"Welshpool","PostalCode":"SY21 7SH","AdditionalData":[{"value":"United Kingdom","key":"CountryName"},{"value":"Wales","key":"StateName"},{"value":"Powys","key":"CountyName"}]},"MapReference":{"ReferenceId":"846794205","Spot":0.33,"SideOfStreet":"neither","StateId":"20287683","CountyId":"20342541","CityId":"20342846"}}},{"Relevance":1.0,"Distance":32.9,"MatchLevel":"street","MatchQuality":{"Country":1.0,"State":1.0,"County":1.0,"City":1.0,"District":1.0,"PostalCode":1.0},"Location":{"LocationId":"NT_aaoisMNLKjU14zhVxBcZNC_l_840887053_L","LocationType":"point","DisplayPosition":{"Latitude":52.65959,"Longitude":-3.1465},"MapView":{"TopLeft":{"Latitude":52.6601,"Longitude":-3.1465},"BottomRight":{"Latitude":52.65959,"Longitude":-3.14609}},"Address":{"Label":"Welshpool, SY21 7, United Kingdom","Country":"GBR","State":"Wales","County":"Powys","City":"Welshpool","District":"Welshpool","PostalCode":"SY21 7","AdditionalData":[{"value":"United Kingdom","key":"CountryName"},{"value":"Wales","key":"StateName"},{"value":"Powys","key":"CountyName"}]},"MapReference":{"ReferenceId":"840887053","Spot":0.0,"SideOfStreet":"left","StateId":"20287683","CountyId":"20342541","CityId":"20342846","DistrictId":"20342847"}}},{"Relevance":1.0,"Distance":51.5,"MatchLevel":"houseNumber","MatchQuality":{"Country":1.0,"State":1.0,"County":1.0,"City":1.0,"District":1.0,"Street":[1.0],"HouseNumber":1.0,"PostalCode":1.0},"MatchType":"interpolated","Location":{"LocationId":"NT_53myUc8-fKdy7QwwF7rV7A_l_846794206_R_xUD","LocationType":"point","DisplayPosition":{"Latitude":52.65984,"Longitude":-3.14768},"MapView":{"TopLeft":{"Latitude":52.6609642,"Longitude":-3.1495334},"BottomRight":{"Latitude":52.6587159,"Longitude":-3.1458267}},"Address":{"Label":"15 Broad Street, Welshpool, SY21 7SD, United Kingdom","Country":"GBR","State":"Wales","County":"Powys","City":"Welshpool","District":"Welshpool","Street":"Broad Street","HouseNumber":"15","PostalCode":"SY21 7SD","AdditionalData":[{"value":"United Kingdom","key":"CountryName"},{"value":"Wales","key":"StateName"},{"value":"Powys","key":"CountyName"}]},"MapReference":{"ReferenceId":"846794206","Spot":0.0,"SideOfStreet":"right","StateId":"20287683","CountyId":"20342541","CityId":"20342846","DistrictId":"20342847"}}}]}]}}