{"Response":{"MetaInfo":{"Timestamp":"2020-03-28T10:03:23.870+0000","NextPageInformation":"2"},"View":[{"_type":"SearchResultsViewType","ViewId":0,"Result":[{"Relevance":1.0,"Distance":0.0,"Direction":0.0,"MatchLevel":"district","MatchQuality":{"Country":1.0,"State":1.0,"County":1.0,"City":1.0,"District":1.0,"PostalCode":1.0},"Location":{"LocationId":"NT_Hzm9fGDkTeGvxc-DDyZdSC","LocationType":"point","DisplayPosition":{"Latitude":52.6258357,"Longitude":13.7399345},"MapView":{"TopLeft":{"Latitude":52.64028,"Longitude":13.71591},"BottomRight":{"Latitude":52.61715,"Longitude":13.77177}},"Address":{"Label":"Werneuchen, Brandenburg, Deutschland","Country":"DEU","State":"Brandenburg","County":"Barnim","City":"Werneuchen","District":"Werneuchen","PostalCode":"16356","AdditionalData":[{"value":"Deutschland","key":"CountryName"},{"value":"Brandenburg","key":"StateName"},{"value":"Barnim","key":"CountyName"}]},"MapReference":{"ReferenceId":"1223890526","SideOfStreet":"neither","CountryId":"20147700","StateId":"20187428","CountyId":"20187485","CityId":"20212074","DistrictId":"20212188"}}},{"Relevance":1.0,"Distance":14.9,"MatchLevel":"houseNumber","MatchQuality":{"Country":1.0,"State":1.0,"County":1.0,"City":1.0,"District":1.0,"Street":[1.0],"HouseNumber":1.0,"PostalCode":1.0},"MatchType":"interpolated","Location":{"LocationId":"NT_EM1vPXSnS3Lek4iYDh.mOC_3A","LocationType":"point","DisplayPosition":{"Latitude":52.62565,"Longitude":13.74011},"MapView":{"TopLeft":{"Latitude":52.6267742,"Longitude":13.7382581},"BottomRight":{"Latitude":52.6245258,"Longitude":13.7419619}},"Address":{"Label":"Ledebourstraße 7, 16356 Werneuchen, Deutschland","Country":"DEU","State":"Brandenburg","County":"Barnim","City":"Werneuchen","District":"Werneuchen","Street":"Ledebourstraße","HouseNumber":"7","PostalCode":"16356","AdditionalData":[{"value":"Deutschland","key":"CountryName"},{"value":"Brandenburg","key":"StateName"},{"value":"Barnim","key":"CountyName"}]},"MapReference":{"ReferenceId":"544570160","Spot":0.49,"SideOfStreet":"left","CountryId":"20147700","StateId":"20187428","CountyId":"20187485","CityId":"20212074","DistrictId":"20212188","AddressId":"182579487","RoadLinkId":"37759414"}}},{"Relevance":1.0,"Distance":54.4,"MatchLevel":"houseNumber","MatchQuality":{"Country":1.0,"State":1.0,"County":1.0,"City":1.0,"District":1.0,"Street":[1.0],"HouseNumber":1.0,"PostalCode":1.0},"MatchType":"interpolated","Location":{"LocationId":"NT_wPLWhSxpIxIRZxGdb7t8zD_xED","LocationType":"point","DisplayPosition":{"Latitude":52.62599,"Longitude":13.74108},"MapView":{"TopLeft":{"Latitude":52.6271142,"Longitude":13.7392281},"BottomRight":{"Latitude":52.6248658,"Longitude":13.7429319}},"Address":{"Label":"Wegendorfer Straße 11, 16356 Werneuchen, Deutschland","Country":"DEU","State":"Brandenburg","County":"Barnim","City":"Werneuchen","District":"Werneuchen","Street":"Wegendorfer Straße","HouseNumber":"11","PostalCode":"16356","AdditionalData":[{"value":"Deutschland","key":"CountryName"},{"value":"Brandenburg","key":"StateName"},{"value":"Barnim","key":"CountyName"}]},"MapReference":{"ReferenceId":"544570217","Spot":0.59,"SideOfStreet":"left","CountryId":"20147700","StateId":"20187428","CountyId":"20187485","CityId":"20212074","DistrictId":"20212188","AddressId":"183351681","RoadLinkId":"37655702"}}},{"Relevance":1.0,"Distance":82.9,"MatchLevel":"houseNumber","MatchQuality":{"Country":1.0,"State":1.0,"County":1.0,"City":1.0,"District":1.0,"Street":[1.0],"HouseNumber":1.0,"PostalCode":1.0},"MatchType":"interpolated","Location":{"LocationId":"NT_wPLWhSxpIxIRZxGdb7t8zD_4UjQ","LocationType":"point","DisplayPosition":{"Latitude":52.62651,"Longitude":13.74046},"MapView":{"TopLeft":{"Latitude":52.6276342,"Longitude":13.738608},"BottomRight":{"Latitude":52.6253858,"Longitude":13.742312}},"Address":{"Label":"Wegendorfer Straße 85B, 16356 Werneuchen, Deutschland","Country":"DEU","State":"Brandenburg","County":"Barnim","City":"Werneuchen","District":"Werneuchen","Street":"Wegendorfer Straße","HouseNumber":"85B","PostalCode":"16356","AdditionalData":[{"value":"Deutschland","key":"CountryName"},{"value":"Brandenburg","key":"StateName"},{"value":"Barnim","key":"CountyName"}]},"MapReference":{"ReferenceId":"544570213","Spot":0.57,"SideOfStreet":"right","CountryId":"20147700","StateId":"20187428","CountyId":"20187485","CityId":"20212074","DistrictId":"20212188","AddressId":"183362163","RoadLinkId":"37527700"}}},{"Relevance":1.0,"Distance":112.6,"MatchLevel":"houseNumber","MatchQuality":{"Country":1.0,"State":1.0,"County":1.0,"City":1.0,"District":1.0,"Street":[1.0],"HouseNumber":1.0,"PostalCode":1.0},"MatchType":"interpolated","Location":{"LocationId":"NT_wPLWhSxpIxIRZxGdb7t8zD_xQD","LocationType":"point","DisplayPosition":{"Latitude":52.62553,"Longitude":13.74166},"MapView":{"TopLeft":{"Latitude":52.6266542,"Longitude":13.7398081},"BottomRight":{"Latitude":52.6244058,"Longitude":13.7435119}},"Address":{"Label":"Wegendorfer Straße 14, 16356 Werneuchen, Deutschland","Country":"DEU","State":"Brandenburg","County":"Barnim","City":"Werneuchen","District":"Werneuchen","Street":"Wegendorfer Straße","HouseNumber":"14","PostalCode":"16356","AdditionalData":[{"value":"Deutschland","key":"CountryName"},{"value":"Brandenburg","key":"StateName"},{"value":"Barnim","key":"CountyName"}]},"MapReference":{"ReferenceId":"544570216","Spot":0.84,"SideOfStreet":"left","CountryId":"20147700","StateId":"20187428","CountyId":"20187485","CityId":"20212074","DistrictId":"20212188","AddressId":"182601350","RoadLinkId":"37837846"}}},{"Relevance":1.0,"Distance":123.5,"MatchLevel":"houseNumber","MatchQuality":{"Country":1.0,"State":1.0,"County":1.0,"City":1.0,"District":1.0,"Street":[1.0],"HouseNumber":1.0,"PostalCode":1.0},"MatchType":"interpolated","Location":{"LocationId":"NT_0BrIVhqf8Fj2YOZh6EuCeC_yYjQ","LocationType":"point","DisplayPosition":{"Latitude":52.62656,"Longitude":13.74132},"MapView":{"TopLeft":{"Latitude":52.6276842,"Longitude":13.739468},"BottomRight":{"Latitude":52.6254358,"Longitude":13.743172}},"Address":{"Label":"Wesendahler Straße 26B, 16356 Werneuchen, Deutschland","Country":"DEU","State":"Brandenburg","County":"Barnim","City":"Werneuchen","District":"Werneuchen","Street":"Wesendahler Straße","HouseNumber":"26B","PostalCode":"16356","AdditionalData":[{"value":"Deutschland","key":"CountryName"},{"value":"Brandenburg","key":"StateName"},{"value":"Barnim","key":"CountyName"}]},"MapReference":{"ReferenceId":"1266489767","Spot":0.66,"SideOfStreet":"left","CountryId":"20147700","StateId":"20187428","CountyId":"20187485","CityId":"20212074","DistrictId":"20212188","AddressId":"249572782","RoadLinkId":"593063084"}}},{"Relevance":1.0,"Distance":134.7,"MatchLevel":"houseNumber","MatchQuality":{"Country":1.0,"State":1.0,"County":1.0,"City":1.0,"District":1.0,"Street":[1.0],"HouseNumber":1.0,"PostalCode":1.0},"MatchType":"interpolated","Location":{"LocationId":"NT_3MsY6fljM-b7kVm4z7hIKA_xEE","LocationType":"point","DisplayPosition":{"Latitude":52.62658,"Longitude":13.74192},"MapView":{"TopLeft":{"Latitude":52.6277042,"Longitude":13.740068},"BottomRight":{"Latitude":52.6254558,"Longitude":13.743772}},"Address":{"Label":"Thälmannstraße 1A, 16356 Werneuchen, Deutschland","Country":"DEU","State":"Brandenburg","County":"Barnim","City":"Werneuchen","District":"Werneuchen","Street":"Thälmannstraße","HouseNumber":"1A","PostalCode":"16356","AdditionalData":[{"value":"Deutschland","key":"CountryName"},{"value":"Brandenburg","key":"StateName"},{"value":"Barnim","key":"CountyName"}]},"MapReference":{"ReferenceId":"544570154","Spot":0.7,"SideOfStreet":"left","CountryId":"20147700","StateId":"20187428","CountyId":"20187485","CityId":"20212074","DistrictId":"20212188","AddressId":"182669652","RoadLinkId":"37380645"}}},{"Relevance":1.0,"Distance":139.7,"MatchLevel":"houseNumber","MatchQuality":{"Country":1.0,"State":1.0,"County":1.0,"City":1.0,"District":1.0,"Street":[1.0],"HouseNumber":1.0,"PostalCode":1.0},"MatchType":"interpolated","Location":{"LocationId":"NT_0BrIVhqf8Fj2YOZh6EuCeC_xkD","LocationType":"point","DisplayPosition":{"Latitude":52.62699,"Longitude":13.74075},"MapView":{"TopLeft":{"Latitude":52.6281142,"Longitude":13.738898},"BottomRight":{"Latitude":52.6258658,"Longitude":13.742602}},"Address":{"Label":"Wesendahler Straße 19, 16356 Werneuchen, Deutschland","Country":"DEU","State":"Brandenburg","County":"Barnim","City":"Werneuchen","District":"Werneuchen","Street":"Wesendahler Straße","HouseNumber":"19","PostalCode":"16356","AdditionalData":[{"value":"Deutschland","key":"CountryName"},{"value":"Brandenburg","key":"StateName"},{"value":"Barnim","key":"CountyName"}]},"MapReference":{"ReferenceId":"544570167","Spot":0.34,"SideOfStreet":"right","CountryId":"20147700","StateId":"20187428","CountyId":"20187485","CityId":"20212074","DistrictId":"20212188","AddressId":"249572781","RoadLinkId":"227809624"}}},{"Relevance":1.0,"Distance":153.9,"MatchLevel":"houseNumber","MatchQuality":{"Country":1.0,"State":1.0,"County":1.0,"City":1.0,"District":1.0,"Street":[1.0],"HouseNumber":1.0,"PostalCode":1.0},"MatchType":"interpolated","Location":{"LocationId":"NT_0BrIVhqf8Fj2YOZh6EuCeC_yUD","LocationType":"point","DisplayPosition":{"Latitude":52.62677,"Longitude":13.74163},"MapView":{"TopLeft":{"Latitude":52.6278942,"Longitude":13.739778},"BottomRight":{"Latitude":52.6256458,"Longitude":13.743482}},"Address":{"Label":"Wesendahler Straße 25, 16356 Werneuchen, Deutschland","Country":"DEU","State":"Brandenburg","County":"Barnim","City":"Werneuchen","District":"Werneuchen","Street":"Wesendahler Straße","HouseNumber":"25","PostalCode":"16356","AdditionalData":[{"value":"Deutschland","key":"CountryName"},{"value":"Brandenburg","key":"StateName"},{"value":"Barnim","key":"CountyName"}]},"MapReference":{"ReferenceId":"1266489768","Spot":0.12,"SideOfStreet":"left","CountryId":"20147700","StateId":"20187428","CountyId":"20187485","CityId":"20212074","DistrictId":"20212188","AddressId":"182499844","RoadLinkId":"593063085"}}},{"Relevance":1.0,"Distance":160.9,"MatchLevel":"houseNumber","MatchQuality":{"Country":1.0,"State":1.0,"County":1.0,"City":1.0,"District":1.0,"Street":[1.0],"HouseNumber":1.0,"PostalCode":1.0},"MatchType":"interpolated","Location":{"LocationId":"NT_8jqCcT8wOCZL1o7YwsM8QC_zA","LocationType":"point","DisplayPosition":{"Latitude":52.62608,"Longitude":13.74237},"MapView":{"TopLeft":{"Latitude":52.6272042,"Longitude":13.7405181},"BottomRight":{"Latitude":52.6249558,"Longitude":13.7442219}},"Address":{"Label":"Stresemannstraße 3, 16356 Werneuchen, Deutschland","Country":"DEU","State":"Brandenburg","County":"Barnim","City":"Werneuchen","District":"Werneuchen","Street":"Stresemannstraße","HouseNumber":"3","PostalCode":"16356","AdditionalData":[{"value":"Deutschland","key":"CountryName"},{"value":"Brandenburg","key":"StateName"},{"value":"Barnim","key":"CountyName"}]},"MapReference":{"ReferenceId":"544570215","Spot":0.72,"SideOfStreet":"left","CountryId":"20147700","StateId":"20187428","CountyId":"20187485","CityId":"20212074","DistrictId":"20212188","AddressId":"182703559","RoadLinkId":"37458167"}}}]}]}}