{"Response":{"MetaInfo":{"Timestamp":"2020-03-28T12:00:17.886+0000","NextPageInformation":"2"},"View":[{"_type":"SearchResultsViewType","ViewId":0,"Result":[{"Relevance":1.0,"Distance":0.0,"Direction":0.0,"MatchLevel":"district","MatchQuality":{"Country":1.0,"State":1.0,"County":1.0,"City":1.0,"District":1.0,"PostalCode":1.0},"Location":{"LocationId":"NT_L6Uc5b.f1iDpJyEcP-GMHC","LocationType":"point","DisplayPosition":{"Latitude":52.6601344,"Longitude":-3.1465188},"MapView":{"TopLeft":{"Latitude":52.67055,"Longitude":-3.16015},"BottomRight":{"Latitude":52.65074,"Longitude":-3.12844}},"Address":{"Label":"Welshpool, Wales, United Kingdom","Country":"GBR","State":"Wales","County":"Powys","City":"Welshpool","District":"Welshpool","PostalCode":"SY21 7","AdditionalData":[{"value":"United Kingdom","key":"CountryName"},{"value":"Wales","key":"StateName"},{"value":"Powys","key":"CountyName"}]},"MapReference":{"ReferenceId":"936302913","SideOfStreet":"neither","StateId":"20287683","CountyId":"20342541","CityId":"20342846","DistrictId":"20342847"}}},{"Relevance":1.0,"Distance":9.7,"MatchLevel":"street","MatchQuality":{"Country":1.0,"State":1.0,"County":1.0,"City":1.0,"District":1.0,"Street":[1.0],"PostalCode":1.0},"Location":{"LocationId":"NT_53myUc8-fKdy7QwwF7rV7A_l_938550003_L","LocationType":"point","DisplayPosition":{"Latitude":52.66022,"Longitude":-3.14649},"MapView":{"TopLeft":{"Latitude":52.66022,"Longitude":-3.14649},"BottomRight":{"Latitude":52.66016,"Longitude":-3.1463}},"Address":{"Label":"Mill Street, Welshpool, SY21 7, United Kingdom","Country":"GBR","State":"Wales","County":"Powys","City":"Welshpool","District":"Welshpool","Street":"Mill Street","PostalCode":"SY21 7","AdditionalData":[{"value":"United Kingdom","key":"CountryName"},{"value":"Wales","key":"StateName"},{"value":"Powys","key":"CountyName"}]},"MapReference":{"ReferenceId":"938550003","Spot":1.0,"SideOfStreet":"left","StateId":"20287683","CountyId":"20342541","CityId":"20342846","DistrictId":"20342847"}}},{"Relevance":1.0,"Distance":9.7,"MatchLevel":"street","MatchQuality":{"Country":1.0,"State":1.0,"County":1.0,"City":1.0,"District":1.0,"Street":[1.0],"PostalCode":1.0},"Location":{"LocationId":"NT_53myUc8-fKdy7QwwF7rV7A_l_938550005_L","LocationType":"point","DisplayPosition":{"Latitude":52.6602201,"Longitude":-3.1464902},"MapView":{"TopLeft":{"Latitude":52.66027,"Longitude":-3.14664},"BottomRight":{"Latitude":52.66022,"Longitude":-3.14649}},"Address":{"Label":"Mill Street, Welshpool, SY21 7, United Kingdom","Country":"GBR","State":"Wales","County":"Powys","City":"Welshpool","District":"Welshpool","Street":"Mill Street","PostalCode":"SY21 7","AdditionalData":[{"value":"United Kingdom","key":"CountryName"},{"value":"Wales","key":"StateName"},{"value":"Powys","key":"CountyName"}]},"MapReference":{"ReferenceId":"938550005","Spot":0.0,"SideOfStreet":"left","StateId":"20287683","CountyId":"20342541","CityId":"20342846","DistrictId":"20342847"}}},{"Relevance":1.0,"Distance":14.7,"MatchLevel":"houseNumber","MatchQuality":{"Country":1.0,"State":1.0,"County":1.0,"City":1.0,"District":1.0,"Street":[1.0],"HouseNumber":1.0,"PostalCode":1.0},"MatchType":"interpolated","Location":{"LocationId":"NT_vD.-WVscAksxDXhTDBkgAB_l_1253480356_L_xMD","LocationType":"point","DisplayPosition":{"Latitude":52.66027,"Longitude":-3.14664},"MapView":{"TopLeft":{"Latitude":52.6613942,"Longitude":-3.1484934},"BottomRight":{"Latitude":52.6591459,"Longitude":-3.1447867}},"Address":{"Label":"13 Church Street, Welshpool, SY21 7, United Kingdom","Country":"GBR","State":"Wales","County":"Powys","City":"Welshpool","District":"Welshpool","Street":"Church Street","HouseNumber":"13","PostalCode":"SY21 7","AdditionalData":[{"value":"United Kingdom","key":"CountryName"},{"value":"Wales","key":"StateName"},{"value":"Powys","key":"CountyName"}]},"MapReference":{"ReferenceId":"1253480356","Spot":0.0,"SideOfStreet":"left","StateId":"20287683","CountyId":"20342541","CityId":"20342846","DistrictId":"20342847"}}},{"Relevance":1.0,"Distance":15.0,"MatchLevel":"street","MatchQuality":{"Country":1.0,"State":1.0,"County":1.0,"City":1.0,"District":1.0,"Street":[1.0],"PostalCode":1.0},"Location":{"LocationId":"NT_4f4vPucxQhd7a7tSHaPptD_l_938550004_L","LocationType":"point","DisplayPosition":{"Latitude":52.66016,"Longitude":-3.1463},"MapView":{"TopLeft":{"Latitude":52.66016,"Longitude":-3.1463},"BottomRight":{"Latitude":52.6601,"Longitude":-3.14609}},"Address":{"Label":"Mill Street, Welshpool, SY21 7, United Kingdom","Country":"GBR","State":"Wales","County":"Powys","City":"Welshpool","District":"Welshpool","Street":"Mill Street","PostalCode":"SY21 7","AdditionalData":[{"value":"United Kingdom","key":"CountryName"},{"value":"Wales","key":"StateName"},{"value":"Powys","key":"CountyName"}]},"MapReference":{"ReferenceId":"938550004","Spot":1.0,"SideOfStreet":"left","StateId":"20287683","CountyId":"20342541","CityId":"20342846","DistrictId":"20342847"}}},{"Relevance":1.0,"Distance":19.4,"MatchLevel":"houseNumber","MatchQuality":{"Country":1.0,"State":1.0,"County":1.0,"City":1.0,"District":1.0,"Street":[1.0],"HouseNumber":1.0,"PostalCode":1.0},"MatchType":"interpolated","Location":{"LocationId":"NT_vD.-WVscAksxDXhTDBkgAB_l_1253480355_L_xID","LocationType":"point","DisplayPosition":{"Latitude":52.6602615,"Longitude":-3.1467168},"MapView":{"TopLeft":{"Latitude":52.6613856,"Longitude":-3.1485701},"BottomRight":{"Latitude":52.6591373,"Longitude":-3.1448634}},"Address":{"Label":"12 Church Street, Welshpool, SY21 7, United Kingdom","Country":"GBR","State":"Wales","County":"Powys","City":"Welshpool","District":"Welshpool","Street":"Church Street","HouseNumber":"12","PostalCode":"SY21 7","AdditionalData":[{"value":"United Kingdom","key":"CountryName"},{"value":"Wales","key":"StateName"},{"value":"Powys","key":"CountyName"}]},"MapReference":{"ReferenceId":"1253480355","Spot":0.63,"SideOfStreet":"left","StateId":"20287683","CountyId":"20342541","CityId":"20342846","DistrictId":"20342847"}}},{"Relevance":1.0,"Distance":29.2,"MatchLevel":"street","MatchQuality":{"Country":1.0,"State":1.0,"County":1.0,"City":1.0,"District":1.0,"Street":[1.0],"PostalCode":1.0},"Location":{"LocationId":"NT_53myUc8-fKdy7QwwF7rV7A_l_840887051_L","LocationType":"point","DisplayPosition":{"Latitude":52.6601,"Longitude":-3.14609},"MapView":{"TopLeft":{"Latitude":52.6601,"Longitude":-3.14609},"BottomRight":{"Latitude":52.66005,"Longitude":-3.14564}},"Address":{"Label":"Mill Street, Welshpool, SY21 7, United Kingdom","Country":"GBR","State":"Wales","County":"Powys","City":"Welshpool","District":"Welshpool","Street":"Mill Street","PostalCode":"SY21 7","AdditionalData":[{"value":"United Kingdom","key":"CountryName"},{"value":"Wales","key":"StateName"},{"value":"Powys","key":"CountyName"}]},"MapReference":{"ReferenceId":"840887051","Spot":1.0,"SideOfStreet":"left","StateId":"20287683","CountyId":"20342541","CityId":"20342846","DistrictId":"20342847"}}},{"Relevance":1.0,"Distance":29.8,"MatchLevel":"houseNumber","MatchQuality":{"Country":1.0,"State":1.0,"County":1.0,"City":1.0,"District":1.0,"Street":[1.0],"HouseNumber":1.0,"PostalCode":1.0},"MatchType":"interpolated","Location":{"LocationId":"NT_vD.-WVscAksxDXhTDBkgAB_l_17455162_L_5A","LocationType":"point","DisplayPosition":{"Latitude":52.6600291,"Longitude":-3.1469253},"MapView":{"TopLeft":{"Latitude":52.6611532,"Longitude":-3.1487787},"BottomRight":{"Latitude":52.6589049,"Longitude":-3.145072}},"Address":{"Label":"9 Church Street, Welshpool, SY21 7, United Kingdom","Country":"GBR","State":"Wales","County":"Powys","City":"Welshpool","District":"Welshpool","Street":"Church Street","HouseNumber":"9","PostalCode":"SY21 7","AdditionalData":[{"value":"United Kingdom","key":"CountryName"},{"value":"Wales","key":"StateName"},{"value":"Powys","key":"CountyName"}]},"MapReference":{"ReferenceId":"17455162","Spot":0.73,"SideOfStreet":"left","StateId":"20287683","CountyId":"20342541","CityId":"20342846","DistrictId":"20342847"}}},{"Relevance":1.0,"Distance":31.0,"MatchLevel":"street","MatchQuality":{"Country":1.0,"State":1.0,"County":1.0,"City":1.0,"District":1.0,"PostalCode":1.0},"Location":{"LocationId":"NT_aaoisMNLKjU14zhVxBcZNC_l_840887053_L","LocationType":"point","DisplayPosition":{"Latitude":52.6599115,"Longitude":-3.1462415},"MapView":{"TopLeft":{"Latitude":52.6601,"Longitude":-3.1465},"BottomRight":{"Latitude":52.65959,"Longitude":-3.14609}},"Address":{"Label":"Welshpool, SY21 7, United Kingdom","Country":"GBR","State":"Wales","County":"Powys","City":"Welshpool","District":"Welshpool","PostalCode":"SY21 7","AdditionalData":[{"value":"United Kingdom","key":"CountryName"},{"value":"Wales","key":"StateName"},{"value":"Powys","key":"CountyName"}]},"MapReference":{"ReferenceId":"840887053","Spot":0.63,"SideOfStreet":"left","StateId":"20287683","CountyId":"20342541","CityId":"20342846","DistrictId":"20342847"}}},{"Relevance":1.0,"Distance":37.0,"MatchLevel":"postalCode","MatchQuality":{"PostalCode":1.0},"Location":{"LocationId":"NT_53myUc8-fKdy7QwwF7rV7A_l_840887051_L","LocationType":"point","DisplayPosition":{"Latitude":52.66014,"Longitude":-3.14597},"MapView":{"TopLeft":{"Latitude":52.6691332,"Longitude":-3.160797},"BottomRight":{"Latitude":52.6511468,"Longitude":-3.131143}},"Address":{"Label":"SY21 7DD, Welshpool, Wales, United Kingdom","Country":"GBR","State":"Wales","County":"Powys","City":"Welshpool","PostalCode":"SY21 7DD","AdditionalData":[{"value":"United Kingdom","key":"CountryName"},{"value":"Wales","key":"StateName"},{"value":"Powys","key":"CountyName"}]},"MapReference":{"ReferenceId":"840887051","Spot":1.0,"SideOfStreet":"neither","StateId":"20287683","CountyId":"20342541","CityId":"20342846"}}}]}]}}