{"Response":{"MetaInfo":{"Timestamp":"2020-03-28T10:21:57.311+0000","NextPageInformation":"2"},"View":[{"_type":"SearchResultsViewType","ViewId":0,"Result":[{"Relevance":1.0,"Distance":0.0,"Direction":0.0,"MatchLevel":"district","MatchQuality":{"Country":1.0,"State":1.0,"County":1.0,"City":1.0,"District":1.0,"PostalCode":1.0},"Location":{"LocationId":"NT_Sc8jNEFhhp5dw7Mb-PKYLC","LocationType":"point","DisplayPosition":{"Latitude":52.6216699,"Longitude":10.2463169},"MapView":{"TopLeft":{"Latitude":52.63542,"Longitude":10.22623},"BottomRight":{"Latitude":52.6083,"Longitude":10.26005}},"Address":{"Label":"Lachendorf, Niedersachsen, Deutschland","Country":"DEU","State":"Niedersachsen","County":"Celle","City":"Lachendorf","District":"Lachendorf","PostalCode":"29331","AdditionalData":[{"value":"Deutschland","key":"CountryName"},{"value":"Niedersachsen","key":"StateName"},{"value":"Celle","key":"CountyName"}]},"MapReference":{"ReferenceId":"840372214","SideOfStreet":"neither","CountryId":"20147700","StateId":"20151542","CountyId":"20153966","CityId":"20154061","DistrictId":"20154066"}}},{"Relevance":1.0,"Distance":22.5,"MatchLevel":"houseNumber","MatchQuality":{"Country":1.0,"State":1.0,"County":1.0,"City":1.0,"District":1.0,"Street":[1.0],"HouseNumber":1.0,"PostalCode":1.0},"MatchType":"interpolated","Location":{"LocationId":"NT_-uu.NhNxVOnkqH4kosd2kC_xYD","LocationType":"point","DisplayPosition":{"Latitude":52.62089,"Longitude":10.2469},"MapView":{"TopLeft":{"Latitude":52.6220142,"Longitude":10.2450483},"BottomRight":{"Latitude":52.6197658,"Longitude":10.2487517}},"Address":{"Label":"Ackerstraße 16, 29331 Lachendorf, Deutschland","Country":"DEU","State":"Niedersachsen","County":"Celle","City":"Lachendorf","District":"Lachendorf","Street":"Ackerstraße","HouseNumber":"16","PostalCode":"29331","AdditionalData":[{"value":"Deutschland","key":"CountryName"},{"value":"Niedersachsen","key":"StateName"},{"value":"Celle","key":"CountyName"}]},"MapReference":{"ReferenceId":"1267225441","Spot":0.42,"SideOfStreet":"left","CountryId":"20147700","StateId":"20151542","CountyId":"20153966","CityId":"20154061","DistrictId":"20154066","AddressId":"180770301","RoadLinkId":"593959293"}}},{"Relevance":1.0,"Distance":44.5,"MatchLevel":"houseNumber","MatchQuality":{"Country":1.0,"State":1.0,"County":1.0,"City":1.0,"District":1.0,"Street":[1.0],"HouseNumber":1.0,"PostalCode":1.0},"MatchType":"interpolated","Location":{"LocationId":"NT_x2GlUTIO77gb9A0.Xd1OfD_xYD","LocationType":"point","DisplayPosition":{"Latitude":52.62128,"Longitude":10.2457},"MapView":{"TopLeft":{"Latitude":52.6224042,"Longitude":10.2438483},"BottomRight":{"Latitude":52.6201558,"Longitude":10.2475517}},"Address":{"Label":"Bahnhofstraße 16, 29331 Lachendorf, Deutschland","Country":"DEU","State":"Niedersachsen","County":"Celle","City":"Lachendorf","District":"Lachendorf","Street":"Bahnhofstraße","HouseNumber":"16","PostalCode":"29331","AdditionalData":[{"value":"Deutschland","key":"CountryName"},{"value":"Niedersachsen","key":"StateName"},{"value":"Celle","key":"CountyName"}]},"MapReference":{"ReferenceId":"79674010","Spot":0.35,"SideOfStreet":"right","CountryId":"20147700","StateId":"20151542","CountyId":"20153966","CityId":"20154061","DistrictId":"20154066","AddressId":"179376108","RoadLinkId":"36771294"}}},{"Relevance":1.0,"Distance":57.0,"MatchLevel":"houseNumber","MatchQuality":{"Country":1.0,"State":1.0,"County":1.0,"City":1.0,"District":1.0,"Street":[1.0],"HouseNumber":1.0,"PostalCode":1.0},"MatchType":"interpolated","Location":{"LocationId":"NT_Ww7I8vWI8Y8Emtakc-Tp0C_zA","LocationType":"point","DisplayPosition":{"Latitude":52.62238,"Longitude":10.24628},"MapView":{"TopLeft":{"Latitude":52.6235042,"Longitude":10.2444282},"BottomRight":{"Latitude":52.6212558,"Longitude":10.2481318}},"Address":{"Label":"Ahnsbecker Straße 3, 29331 Lachendorf, Deutschland","Country":"DEU","State":"Niedersachsen","County":"Celle","City":"Lachendorf","District":"Lachendorf","Street":"Ahnsbecker Straße","HouseNumber":"3","PostalCode":"29331","AdditionalData":[{"value":"Deutschland","key":"CountryName"},{"value":"Niedersachsen","key":"StateName"},{"value":"Celle","key":"CountyName"}]},"MapReference":{"ReferenceId":"79688359","Spot":0.67,"SideOfStreet":"right","CountryId":"20147700","StateId":"20151542","CountyId":"20153966","CityId":"20154061","DistrictId":"20154066","AddressId":"177655673","RoadLinkId":"36299647"}}},{"Relevance":1.0,"Distance":71.9,"MatchLevel":"houseNumber","MatchQuality":{"Country":1.0,"State":1.0,"County":1.0,"City":1.0,"District":1.0,"Street":[1.0],"HouseNumber":1.0,"PostalCode":1.0},"MatchType":"interpolated","Location":{"LocationId":"NT_Ww7I8vWI8Y8Emtakc-Tp0C_3A","LocationType":"point","DisplayPosition":{"Latitude":52.62216,"Longitude":10.24727},"MapView":{"TopLeft":{"Latitude":52.6232842,"Longitude":10.2454182},"BottomRight":{"Latitude":52.6210358,"Longitude":10.2491218}},"Address":{"Label":"Ahnsbecker Straße 7, 29331 Lachendorf, Deutschland","Country":"DEU","State":"Niedersachsen","County":"Celle","City":"Lachendorf","District":"Lachendorf","Street":"Ahnsbecker Straße","HouseNumber":"7","PostalCode":"29331","AdditionalData":[{"value":"Deutschland","key":"CountryName"},{"value":"Niedersachsen","key":"StateName"},{"value":"Celle","key":"CountyName"}]},"MapReference":{"ReferenceId":"79765003","Spot":0.83,"SideOfStreet":"left","CountryId":"20147700","StateId":"20151542","CountyId":"20153966","CityId":"20154061","DistrictId":"20154066","AddressId":"179299309","RoadLinkId":"36601352"}}},{"Relevance":1.0,"Distance":75.3,"MatchLevel":"houseNumber","MatchQuality":{"Country":1.0,"State":1.0,"County":1.0,"City":1.0,"District":1.0,"Street":[1.0],"HouseNumber":1.0,"PostalCode":1.0},"MatchType":"interpolated","Location":{"LocationId":"NT_-uu.NhNxVOnkqH4kosd2kC_yAD","LocationType":"point","DisplayPosition":{"Latitude":52.62104,"Longitude":10.24741},"MapView":{"TopLeft":{"Latitude":52.6221642,"Longitude":10.2455583},"BottomRight":{"Latitude":52.6199158,"Longitude":10.2492617}},"Address":{"Label":"Ackerstraße 20, 29331 Lachendorf, Deutschland","Country":"DEU","State":"Niedersachsen","County":"Celle","City":"Lachendorf","District":"Lachendorf","Street":"Ackerstraße","HouseNumber":"20","PostalCode":"29331","AdditionalData":[{"value":"Deutschland","key":"CountryName"},{"value":"Niedersachsen","key":"StateName"},{"value":"Celle","key":"CountyName"}]},"MapReference":{"ReferenceId":"79674021","Spot":0.02,"SideOfStreet":"left","CountryId":"20147700","StateId":"20151542","CountyId":"20153966","CityId":"20154061","DistrictId":"20154066","AddressId":"177647666","RoadLinkId":"36324737"}}},{"Relevance":1.0,"Distance":89.4,"MatchLevel":"houseNumber","MatchQuality":{"Country":1.0,"State":1.0,"County":1.0,"City":1.0,"District":1.0,"Street":[1.0],"HouseNumber":1.0,"PostalCode":1.0},"MatchType":"interpolated","Location":{"LocationId":"NT_-uu.NhNxVOnkqH4kosd2kC_xQTQ","LocationType":"point","DisplayPosition":{"Latitude":52.62079,"Longitude":10.24651},"MapView":{"TopLeft":{"Latitude":52.6219142,"Longitude":10.2446583},"BottomRight":{"Latitude":52.6196658,"Longitude":10.2483617}},"Address":{"Label":"Ackerstraße 14A, 29331 Lachendorf, Deutschland","Country":"DEU","State":"Niedersachsen","County":"Celle","City":"Lachendorf","District":"Lachendorf","Street":"Ackerstraße","HouseNumber":"14A","PostalCode":"29331","AdditionalData":[{"value":"Deutschland","key":"CountryName"},{"value":"Niedersachsen","key":"StateName"},{"value":"Celle","key":"CountyName"}]},"MapReference":{"ReferenceId":"1267225440","Spot":0.93,"SideOfStreet":"left","CountryId":"20147700","StateId":"20151542","CountyId":"20153966","CityId":"20154061","DistrictId":"20154066","AddressId":"181688672","RoadLinkId":"593959292"}}},{"Relevance":1.0,"Distance":104.9,"MatchLevel":"street","MatchQuality":{"Country":1.0,"State":1.0,"County":1.0,"City":1.0,"District":1.0,"PostalCode":1.0},"Location":{"LocationId":"NT_N.JnBavAnmCH2xOi6Wk8oD_l_867279786_L","LocationType":"point","DisplayPosition":{"Latitude":52.62075,"Longitude":10.24597},"MapView":{"TopLeft":{"Latitude":52.62075,"Longitude":10.24584},"BottomRight":{"Latitude":52.62067,"Longitude":10.24597}},"Address":{"Label":"29331 Lachendorf, Deutschland","Country":"DEU","State":"Niedersachsen","County":"Celle","City":"Lachendorf","District":"Lachendorf","PostalCode":"29331","AdditionalData":[{"value":"Deutschland","key":"CountryName"},{"value":"Niedersachsen","key":"StateName"},{"value":"Celle","key":"CountyName"}]},"MapReference":{"ReferenceId":"867279786","Spot":1.0,"SideOfStreet":"left","CountryId":"20147700","StateId":"20151542","CountyId":"20153966","CityId":"20154061","DistrictId":"20154066"}}},{"Relevance":1.0,"Distance":105.0,"MatchLevel":"street","MatchQuality":{"Country":1.0,"State":1.0,"County":1.0,"City":1.0,"District":1.0,"PostalCode":1.0},"Location":{"LocationId":"NT_N.JnBavAnmCH2xOi6Wk8oD_l_867279785_R","LocationType":"point","DisplayPosition":{"Latitude":52.62074,"Longitude":10.24605},"MapView":{"TopLeft":{"Latitude":52.62075,"Longitude":10.24597},"BottomRight":{"Latitude":52.62068,"Longitude":10.24612}},"Address":{"Label":"29331 Lachendorf, Deutschland","Country":"DEU","State":"Niedersachsen","County":"Celle","City":"Lachendorf","District":"Lachendorf","PostalCode":"29331","AdditionalData":[{"value":"Deutschland","key":"CountryName"},{"value":"Niedersachsen","key":"StateName"},{"value":"Celle","key":"CountyName"}]},"MapReference":{"ReferenceId":"867279785","Spot":0.54,"SideOfStreet":"right","CountryId":"20147700","StateId":"20151542","CountyId":"20153966","CityId":"20154061","DistrictId":"20154066"}}},{"Relevance":1.0,"Distance":110.9,"MatchLevel":"street","MatchQuality":{"Country":1.0,"State":1.0,"County":1.0,"City":1.0,"District":1.0,"PostalCode":1.0},"Location":{"LocationId":"NT_N.JnBavAnmCH2xOi6Wk8oD_l_867279784_R","LocationType":"point","DisplayPosition":{"Latitude":52.62068,"Longitude":10.24612},"MapView":{"TopLeft":{"Latitude":52.62068,"Longitude":10.2461},"BottomRight":{"Latitude":52.62063,"Longitude":10.24612}},"Address":{"Label":"29331 Lachendorf, Deutschland","Country":"DEU","State":"Niedersachsen","County":"Celle","City":"Lachendorf","District":"Lachendorf","PostalCode":"29331","AdditionalData":[{"value":"Deutschland","key":"CountryName"},{"value":"Niedersachsen","key":"StateName"},{"value":"Celle","key":"CountyName"}]},"MapReference":{"ReferenceId":"867279784","Spot":1.0,"SideOfStreet":"right","CountryId":"20147700","StateId":"20151542","CountyId":"20153966","CityId":"20154061","DistrictId":"20154066"}}}]}]}}