{"Response":{"MetaInfo":{"Timestamp":"2020-03-28T10:08:16.235+0000","NextPageInformation":"2"},"View":[{"_type":"SearchResultsViewType","ViewId":0,"Result":[{"Relevance":1.0,"Distance":0.0,"Direction":0.0,"MatchLevel":"district","MatchQuality":{"Country":1.0,"State":1.0,"County":1.0,"City":1.0,"District":1.0,"PostalCode":1.0},"Location":{"LocationId":"NT_RRxVvdsqwOo7D47Bxc..fD","LocationType":"point","DisplayPosition":{"Latitude":52.629442,"Longitude":1.2528831},"MapView":{"TopLeft":{"Latitude":52.68472,"Longitude":1.20391},"BottomRight":{"Latitude":52.59942,"Longitude":1.34226}},"Address":{"Label":"Norwich, England, United Kingdom","Country":"GBR","State":"England","County":"Norfolk","City":"Norwich","District":"Norwich","PostalCode":"NR1 3","AdditionalData":[{"value":"United Kingdom","key":"CountryName"},{"value":"England","key":"StateName"},{"value":"Norfolk","key":"CountyName"}]},"MapReference":{"ReferenceId":"26478241","SideOfStreet":"neither","StateId":"20248595","CountyId":"20355986","CityId":"20356363","DistrictId":"20356364"}}},{"Relevance":1.0,"Distance":18.2,"MatchLevel":"street","MatchQuality":{"Country":1.0,"State":1.0,"County":1.0,"City":1.0,"District":1.0,"Street":[1.0],"PostalCode":1.0},"Location":{"LocationId":"NT_CdLt5e5NVMlkTi2HvT6GZC_l_1091980082_L","LocationType":"point","DisplayPosition":{"Latitude":52.6294593,"Longitude":1.2531517},"MapView":{"TopLeft":{"Latitude":52.63001,"Longitude":1.25312},"BottomRight":{"Latitude":52.62902,"Longitude":1.25318}},"Address":{"Label":"Earles Gardens, Norwich, NR4 7, United Kingdom","Country":"GBR","State":"England","County":"Norfolk","City":"Norwich","District":"Norwich","Street":"Earles Gardens","PostalCode":"NR4 7","AdditionalData":[{"value":"United Kingdom","key":"CountryName"},{"value":"England","key":"StateName"},{"value":"Norfolk","key":"CountyName"}]},"MapReference":{"ReferenceId":"1091980082","Spot":0.44,"SideOfStreet":"left","StateId":"20248595","CountyId":"20355986","CityId":"20356363","DistrictId":"20356364"}}},{"Relevance":1.0,"Distance":34.7,"MatchLevel":"houseNumber","MatchQuality":{"Country":1.0,"State":1.0,"County":1.0,"City":1.0,"District":1.0,"Street":[1.0],"HouseNumber":1.0,"PostalCode":1.0},"MatchType":"interpolated","Location":{"LocationId":"NT_xvRfOoG8aFg.GwelnrkQ.B_l_767255438_L_1EzN","LocationType":"point","DisplayPosition":{"Latitude":52.6289964,"Longitude":1.2528408},"MapView":{"TopLeft":{"Latitude":52.6301206,"Longitude":1.2509887},"BottomRight":{"Latitude":52.6278723,"Longitude":1.2546928}},"Address":{"Label":"517 Earlham Road, Norwich, NR4 7HN, United Kingdom","Country":"GBR","State":"England","County":"Norfolk","City":"Norwich","District":"Norwich","Street":"Earlham Road","HouseNumber":"517","PostalCode":"NR4 7HN","AdditionalData":[{"value":"United Kingdom","key":"CountryName"},{"value":"England","key":"StateName"},{"value":"Norfolk","key":"CountyName"}]},"MapReference":{"ReferenceId":"767255438","Spot":0.81,"SideOfStreet":"left","StateId":"20248595","CountyId":"20355986","CityId":"20356363","DistrictId":"20356364"}}},{"Relevance":1.0,"Distance":42.4,"MatchLevel":"houseNumber","MatchQuality":{"Country":1.0,"State":1.0,"County":1.0,"City":1.0,"District":1.0,"Street":[1.0],"HouseNumber":1.0,"PostalCode":1.0},"MatchType":"interpolated","Location":{"LocationId":"NT_mGRt.Va7wFJrQ7nivdZR9D_l_26788088_R_xQD","LocationType":"point","DisplayPosition":{"Latitude":52.6298241,"Longitude":1.2523558},"MapView":{"TopLeft":{"Latitude":52.6309482,"Longitude":1.2505037},"BottomRight":{"Latitude":52.6286999,"Longitude":1.2542079}},"Address":{"Label":"14 Beverley Close, Norwich, NR5 8BB, United Kingdom","Country":"GBR","State":"England","County":"Norfolk","City":"Norwich","District":"Norwich","Street":"Beverley Close","HouseNumber":"14","PostalCode":"NR5 8BB","AdditionalData":[{"value":"United Kingdom","key":"CountryName"},{"value":"England","key":"StateName"},{"value":"Norfolk","key":"CountyName"}]},"MapReference":{"ReferenceId":"26788088","Spot":0.44,"SideOfStreet":"right","StateId":"20248595","CountyId":"20355986","CityId":"20356363","DistrictId":"20356364"}}},{"Relevance":1.0,"Distance":46.0,"MatchLevel":"houseNumber","MatchQuality":{"Country":1.0,"State":1.0,"County":1.0,"City":1.0,"District":1.0,"Street":[1.0],"HouseNumber":1.0,"PostalCode":1.0},"MatchType":"interpolated","Location":{"LocationId":"NT_3-6a3avH5UZlEHFrAGJInC_l_767255439_L_1ETN","LocationType":"point","DisplayPosition":{"Latitude":52.62903,"Longitude":1.2534003},"MapView":{"TopLeft":{"Latitude":52.6301542,"Longitude":1.2515482},"BottomRight":{"Latitude":52.6279059,"Longitude":1.2552524}},"Address":{"Label":"515 Earlham Road, Norwich, NR4 7HN, United Kingdom","Country":"GBR","State":"England","County":"Norfolk","City":"Norwich","District":"Norwich","Street":"Earlham Road","HouseNumber":"515","PostalCode":"NR4 7HN","AdditionalData":[{"value":"United Kingdom","key":"CountryName"},{"value":"England","key":"StateName"},{"value":"Norfolk","key":"CountyName"}]},"MapReference":{"ReferenceId":"767255439","Spot":0.07,"SideOfStreet":"left","StateId":"20248595","CountyId":"20355986","CityId":"20356363","DistrictId":"20356364"}}},{"Relevance":1.0,"Distance":66.1,"MatchLevel":"street","MatchQuality":{"Country":1.0,"State":1.0,"County":1.0,"City":1.0,"District":1.0,"Street":[1.0],"PostalCode":1.0},"Location":{"LocationId":"NT_CdLt5e5NVMlkTi2HvT6GZC_l_1091980083_R","LocationType":"point","DisplayPosition":{"Latitude":52.63001,"Longitude":1.25317},"MapView":{"TopLeft":{"Latitude":52.63007,"Longitude":1.25317},"BottomRight":{"Latitude":52.62997,"Longitude":1.25513}},"Address":{"Label":"Earles Gardens, Norwich, NR4 7, United Kingdom","Country":"GBR","State":"England","County":"Norfolk","City":"Norwich","District":"Norwich","Street":"Earles Gardens","PostalCode":"NR4 7","AdditionalData":[{"value":"United Kingdom","key":"CountryName"},{"value":"England","key":"StateName"},{"value":"Norfolk","key":"CountyName"}]},"MapReference":{"ReferenceId":"1091980083","Spot":1.0,"SideOfStreet":"right","StateId":"20248595","CountyId":"20355986","CityId":"20356363","DistrictId":"20356364"}}},{"Relevance":1.0,"Distance":79.2,"MatchLevel":"houseNumber","MatchQuality":{"Country":1.0,"State":1.0,"County":1.0,"City":1.0,"District":1.0,"Street":[1.0],"HouseNumber":1.0,"PostalCode":1.0},"MatchType":"interpolated","Location":{"LocationId":"NT_mGRt.Va7wFJrQ7nivdZR9D_l_26788086_L_1A","LocationType":"point","DisplayPosition":{"Latitude":52.62998,"Longitude":1.2521},"MapView":{"TopLeft":{"Latitude":52.6311042,"Longitude":1.2502479},"BottomRight":{"Latitude":52.6288559,"Longitude":1.2539521}},"Address":{"Label":"5 Beverley Close, Norwich, NR5 8BB, United Kingdom","Country":"GBR","State":"England","County":"Norfolk","City":"Norwich","District":"Norwich","Street":"Beverley Close","HouseNumber":"5","PostalCode":"NR5 8BB","AdditionalData":[{"value":"United Kingdom","key":"CountryName"},{"value":"England","key":"StateName"},{"value":"Norfolk","key":"CountyName"}]},"MapReference":{"ReferenceId":"26788086","Spot":0.0,"SideOfStreet":"left","StateId":"20248595","CountyId":"20355986","CityId":"20356363","DistrictId":"20356364"}}},{"Relevance":1.0,"Distance":82.0,"MatchLevel":"postalCode","MatchQuality":{"PostalCode":1.0},"MatchType":"interpolated","Location":{"LocationId":"NT_3-6a3avH5UZlEHFrAGJInC_l_767255439_L_1ETN","LocationType":"point","DisplayPosition":{"Latitude":52.62902,"Longitude":1.25388},"MapView":{"TopLeft":{"Latitude":52.6380132,"Longitude":1.2390635},"BottomRight":{"Latitude":52.6200268,"Longitude":1.2686965}},"Address":{"Label":"NR4 7HP, Norwich, England, United Kingdom","Country":"GBR","State":"England","County":"Norfolk","City":"Norwich","PostalCode":"NR4 7HP","AdditionalData":[{"value":"United Kingdom","key":"CountryName"},{"value":"England","key":"StateName"},{"value":"Norfolk","key":"CountyName"}]},"MapReference":{"ReferenceId":"767255439","Spot":0.07,"SideOfStreet":"neither","StateId":"20248595","CountyId":"20355986","CityId":"20356363"}}},{"Relevance":1.0,"Distance":82.2,"MatchLevel":"postalCode","MatchQuality":{"PostalCode":1.0},"MatchType":"interpolated","Location":{"LocationId":"NT_mGRt.Va7wFJrQ7nivdZR9D_l_26476934_R_0A","LocationType":"point","DisplayPosition":{"Latitude":52.62987,"Longitude":1.25189},"MapView":{"TopLeft":{"Latitude":52.6388632,"Longitude":1.2370732},"BottomRight":{"Latitude":52.6208768,"Longitude":1.2667068}},"Address":{"Label":"NR5 8BB, Norwich, England, United Kingdom","Country":"GBR","State":"England","County":"Norfolk","City":"Norwich","PostalCode":"NR5 8BB","AdditionalData":[{"value":"United Kingdom","key":"CountryName"},{"value":"England","key":"StateName"},{"value":"Norfolk","key":"CountyName"}]},"MapReference":{"ReferenceId":"26476934","Spot":0.49,"SideOfStreet":"neither","StateId":"20248595","CountyId":"20355986","CityId":"20356363"}}},{"Relevance":1.0,"Distance":84.8,"MatchLevel":"houseNumber","MatchQuality":{"Country":1.0,"State":1.0,"County":1.0,"City":1.0,"District":1.0,"Street":[1.0],"HouseNumber":1.0,"PostalCode":1.0},"MatchType":"interpolated","Location":{"LocationId":"NT_mGRt.Va7wFJrQ7nivdZR9D_l_26476934_R_0A","LocationType":"point","DisplayPosition":{"Latitude":52.62986,"Longitude":1.25168},"MapView":{"TopLeft":{"Latitude":52.6309842,"Longitude":1.2498279},"BottomRight":{"Latitude":52.6287359,"Longitude":1.2535321}},"Address":{"Label":"4 Beverley Close, Norwich, NR5 8BB, United Kingdom","Country":"GBR","State":"England","County":"Norfolk","City":"Norwich","District":"Norwich","Street":"Beverley Close","HouseNumber":"4","PostalCode":"NR5 8BB","AdditionalData":[{"value":"United Kingdom","key":"CountryName"},{"value":"England","key":"StateName"},{"value":"Norfolk","key":"CountyName"}]},"MapReference":{"ReferenceId":"26476934","Spot":0.49,"SideOfStreet":"right","StateId":"20248595","CountyId":"20355986","CityId":"20356363","DistrictId":"20356364"}}}]}]}}