{"Response":{"MetaInfo":{"Timestamp":"2020-03-28T10:35:28.514+0000","NextPageInformation":"2"},"View":[{"_type":"SearchResultsViewType","ViewId":0,"Result":[{"Relevance":1.0,"Distance":0.0,"Direction":0.0,"MatchLevel":"district","MatchQuality":{"Country":1.0,"State":1.0,"County":1.0,"City":1.0,"District":1.0,"PostalCode":1.0},"Location":{"LocationId":"NT_Y5HVqIQUpiJoYkQ-.Nk1UC","LocationType":"point","DisplayPosition":{"Latitude":52.6342357,"Longitude":-1.1136234},"MapView":{"TopLeft":{"Latitude":52.67902,"Longitude":-1.21593},"BottomRight":{"Latitude":52.5765,"Longitude":-1.04621}},"Address":{"Label":"Leicester, England, United Kingdom","Country":"GBR","State":"England","County":"Leicestershire","City":"Leicester","District":"Leicester","PostalCode":"LE1 4","AdditionalData":[{"value":"United Kingdom","key":"CountryName"},{"value":"England","key":"StateName"},{"value":"Leicestershire","key":"CountyName"}]},"MapReference":{"ReferenceId":"917393414","SideOfStreet":"neither","StateId":"20248595","CountyId":"20354833","CityId":"20354874","DistrictId":"20354875"}}},{"Relevance":1.0,"Distance":2.4,"MatchLevel":"street","MatchQuality":{"Country":1.0,"State":1.0,"County":1.0,"City":1.0,"District":1.0,"Street":[1.0],"PostalCode":1.0},"Location":{"LocationId":"NT_-J7rlPrEyqsGULNOWCXuJA_l_26129906_L","LocationType":"point","DisplayPosition":{"Latitude":52.6342436,"Longitude":-1.1136568},"MapView":{"TopLeft":{"Latitude":52.6344,"Longitude":-1.11373},"BottomRight":{"Latitude":52.63393,"Longitude":-1.11362}},"Address":{"Label":"Melbourne Road, Leicester, LE2 0, United Kingdom","Country":"GBR","State":"England","County":"Leicestershire","City":"Leicester","District":"Leicester","Street":"Melbourne Road","PostalCode":"LE2 0","AdditionalData":[{"value":"United Kingdom","key":"CountryName"},{"value":"England","key":"StateName"},{"value":"Leicestershire","key":"CountyName"}]},"MapReference":{"ReferenceId":"26129906","Spot":0.67,"SideOfStreet":"neither","StateId":"20248595","CountyId":"20354833","CityId":"20354874","DistrictId":"20354875"}}},{"Relevance":1.0,"Distance":17.4,"MatchLevel":"houseNumber","MatchQuality":{"Country":1.0,"State":1.0,"County":1.0,"City":1.0,"District":1.0,"Street":[1.0],"HouseNumber":1.0,"PostalCode":1.0},"MatchType":"interpolated","Location":{"LocationId":"NT_-J7rlPrEyqsGULNOWCXuJA_l_1050142296_R_3UD","LocationType":"point","DisplayPosition":{"Latitude":52.6344,"Longitude":-1.11362},"MapView":{"TopLeft":{"Latitude":52.6355242,"Longitude":-1.1154723},"BottomRight":{"Latitude":52.6332759,"Longitude":-1.1117677}},"Address":{"Label":"75 Melbourne Road, Leicester, LE2 0GW, United Kingdom","Country":"GBR","State":"England","County":"Leicestershire","City":"Leicester","District":"Leicester","Street":"Melbourne Road","HouseNumber":"75","PostalCode":"LE2 0GW","AdditionalData":[{"value":"United Kingdom","key":"CountryName"},{"value":"England","key":"StateName"},{"value":"Leicestershire","key":"CountyName"}]},"MapReference":{"ReferenceId":"1050142296","Spot":0.0,"SideOfStreet":"right","StateId":"20248595","CountyId":"20354833","CityId":"20354874","DistrictId":"20354875"}}},{"Relevance":1.0,"Distance":17.6,"MatchLevel":"houseNumber","MatchQuality":{"Country":1.0,"State":1.0,"County":1.0,"City":1.0,"District":1.0,"Street":[1.0],"HouseNumber":1.0,"PostalCode":1.0},"MatchType":"interpolated","Location":{"LocationId":"NT_oh-o6R8CsnJgynf8RXMvoC_l_1069686034_R_4ID","LocationType":"point","DisplayPosition":{"Latitude":52.6343916,"Longitude":-1.1135778},"MapView":{"TopLeft":{"Latitude":52.6355157,"Longitude":-1.1154301},"BottomRight":{"Latitude":52.6332674,"Longitude":-1.1117255}},"Address":{"Label":"82 Berners Street, Leicester, LE2 0FS, United Kingdom","Country":"GBR","State":"England","County":"Leicestershire","City":"Leicester","District":"Leicester","Street":"Berners Street","HouseNumber":"82","PostalCode":"LE2 0FS","AdditionalData":[{"value":"United Kingdom","key":"CountryName"},{"value":"England","key":"StateName"},{"value":"Leicestershire","key":"CountyName"}]},"MapReference":{"ReferenceId":"1069686034","Spot":0.58,"SideOfStreet":"right","StateId":"20248595","CountyId":"20354833","CityId":"20354874","DistrictId":"20354875"}}},{"Relevance":1.0,"Distance":27.1,"MatchLevel":"houseNumber","MatchQuality":{"Country":1.0,"State":1.0,"County":1.0,"City":1.0,"District":1.0,"Street":[1.0],"HouseNumber":1.0,"PostalCode":1.0},"MatchType":"interpolated","Location":{"LocationId":"NT_oh-o6R8CsnJgynf8RXMvoC_l_1069686033_R_4QD","LocationType":"point","DisplayPosition":{"Latitude":52.6343463,"Longitude":-1.113265},"MapView":{"TopLeft":{"Latitude":52.6354704,"Longitude":-1.1151173},"BottomRight":{"Latitude":52.6332221,"Longitude":-1.1114127}},"Address":{"Label":"84 Berners Street, Leicester, LE2 0FS, United Kingdom","Country":"GBR","State":"England","County":"Leicestershire","City":"Leicester","District":"Leicester","Street":"Berners Street","HouseNumber":"84","PostalCode":"LE2 0FS","AdditionalData":[{"value":"United Kingdom","key":"CountryName"},{"value":"England","key":"StateName"},{"value":"Leicestershire","key":"CountyName"}]},"MapReference":{"ReferenceId":"1069686033","Spot":0.64,"SideOfStreet":"right","StateId":"20248595","CountyId":"20354833","CityId":"20354874","DistrictId":"20354875"}}},{"Relevance":1.0,"Distance":27.9,"MatchLevel":"houseNumber","MatchQuality":{"Country":1.0,"State":1.0,"County":1.0,"City":1.0,"District":1.0,"Street":[1.0],"HouseNumber":1.0,"PostalCode":1.0},"MatchType":"interpolated","Location":{"LocationId":"NT_oh-o6R8CsnJgynf8RXMvoC_l_26129786_R_4AD","LocationType":"point","DisplayPosition":{"Latitude":52.63446,"Longitude":-1.1138101},"MapView":{"TopLeft":{"Latitude":52.6355842,"Longitude":-1.1156624},"BottomRight":{"Latitude":52.6333359,"Longitude":-1.1119578}},"Address":{"Label":"80 Berners Street, Leicester, LE2 0, United Kingdom","Country":"GBR","State":"England","County":"Leicestershire","City":"Leicester","District":"Leicester","Street":"Berners Street","HouseNumber":"80","PostalCode":"LE2 0","AdditionalData":[{"value":"United Kingdom","key":"CountryName"},{"value":"England","key":"StateName"},{"value":"Leicestershire","key":"CountyName"}]},"MapReference":{"ReferenceId":"26129786","Spot":0.26,"SideOfStreet":"right","StateId":"20248595","CountyId":"20354833","CityId":"20354874","DistrictId":"20354875"}}},{"Relevance":1.0,"Distance":30.3,"MatchLevel":"houseNumber","MatchQuality":{"Country":1.0,"State":1.0,"County":1.0,"City":1.0,"District":1.0,"Street":[1.0],"HouseNumber":1.0,"PostalCode":1.0},"MatchType":"interpolated","Location":{"LocationId":"NT_gNqNXhKaa3z9YudcmtYEvC_l_26129908_L_xA","LocationType":"point","DisplayPosition":{"Latitude":52.63393,"Longitude":-1.1139731},"MapView":{"TopLeft":{"Latitude":52.6350542,"Longitude":-1.1158254},"BottomRight":{"Latitude":52.6328058,"Longitude":-1.1121208}},"Address":{"Label":"1 Mensa Close, Leicester, LE2 0UT, United Kingdom","Country":"GBR","State":"England","County":"Leicestershire","City":"Leicester","District":"Leicester","Street":"Mensa Close","HouseNumber":"1","PostalCode":"LE2 0UT","AdditionalData":[{"value":"United Kingdom","key":"CountryName"},{"value":"England","key":"StateName"},{"value":"Leicestershire","key":"CountyName"}]},"MapReference":{"ReferenceId":"26129908","Spot":0.7,"SideOfStreet":"left","StateId":"20248595","CountyId":"20354833","CityId":"20354874","DistrictId":"20354875"}}},{"Relevance":1.0,"Distance":34.7,"MatchLevel":"street","MatchQuality":{"Country":1.0,"State":1.0,"County":1.0,"City":1.0,"District":1.0,"Street":[1.0],"PostalCode":1.0},"Location":{"LocationId":"NT_-J7rlPrEyqsGULNOWCXuJA_l_1050142299_R","LocationType":"point","DisplayPosition":{"Latitude":52.63393,"Longitude":-1.11373},"MapView":{"TopLeft":{"Latitude":52.63393,"Longitude":-1.11375},"BottomRight":{"Latitude":52.63361,"Longitude":-1.11373}},"Address":{"Label":"Melbourne Road, Leicester, LE2 0, United Kingdom","Country":"GBR","State":"England","County":"Leicestershire","City":"Leicester","District":"Leicester","Street":"Melbourne Road","PostalCode":"LE2 0","AdditionalData":[{"value":"United Kingdom","key":"CountryName"},{"value":"England","key":"StateName"},{"value":"Leicestershire","key":"CountyName"}]},"MapReference":{"ReferenceId":"1050142299","Spot":1.0,"SideOfStreet":"right","StateId":"20248595","CountyId":"20354833","CityId":"20354874","DistrictId":"20354875"}}},{"Relevance":1.0,"Distance":45.5,"MatchLevel":"houseNumber","MatchQuality":{"Country":1.0,"State":1.0,"County":1.0,"City":1.0,"District":1.0,"Street":[1.0],"HouseNumber":1.0,"PostalCode":1.0},"MatchType":"interpolated","Location":{"LocationId":"NT_-J7rlPrEyqsGULNOWCXuJA_l_1050142297_R_4ED","LocationType":"point","DisplayPosition":{"Latitude":52.63468,"Longitude":-1.11352},"MapView":{"TopLeft":{"Latitude":52.6358042,"Longitude":-1.1153723},"BottomRight":{"Latitude":52.6335559,"Longitude":-1.1116677}},"Address":{"Label":"81 Melbourne Road, Leicester, LE2 0, United Kingdom","Country":"GBR","State":"England","County":"Leicestershire","City":"Leicester","District":"Leicester","Street":"Melbourne Road","HouseNumber":"81","PostalCode":"LE2 0","AdditionalData":[{"value":"United Kingdom","key":"CountryName"},{"value":"England","key":"StateName"},{"value":"Leicestershire","key":"CountyName"}]},"MapReference":{"ReferenceId":"1050142297","Spot":0.0,"SideOfStreet":"right","StateId":"20248595","CountyId":"20354833","CityId":"20354874","DistrictId":"20354875"}}},{"Relevance":1.0,"Distance":46.0,"MatchLevel":"postalCode","MatchQuality":{"PostalCode":1.0},"MatchType":"interpolated","Location":{"LocationId":"NT_gNqNXhKaa3z9YudcmtYEvC_l_26129908_L_xA","LocationType":"point","DisplayPosition":{"Latitude":52.63398,"Longitude":-1.11416},"MapView":{"TopLeft":{"Latitude":52.6429732,"Longitude":-1.1289782},"BottomRight":{"Latitude":52.6249868,"Longitude":-1.0993418}},"Address":{"Label":"LE2 0UT, Leicester, England, United Kingdom","Country":"GBR","State":"England","County":"Leicestershire","City":"Leicester","PostalCode":"LE2 0UT","AdditionalData":[{"value":"United Kingdom","key":"CountryName"},{"value":"England","key":"StateName"},{"value":"Leicestershire","key":"CountyName"}]},"MapReference":{"ReferenceId":"26129908","Spot":0.7,"SideOfStreet":"neither","StateId":"20248595","CountyId":"20354833","CityId":"20354874"}}}]}]}}