{"Response":{"MetaInfo":{"Timestamp":"2020-03-28T10:08:38.074+0000","NextPageInformation":"2"},"View":[{"_type":"SearchResultsViewType","ViewId":0,"Result":[{"Relevance":1.0,"Distance":0.0,"Direction":0.0,"MatchLevel":"district","MatchQuality":{"Country":1.0,"State":1.0,"County":1.0,"City":1.0,"District":1.0,"PostalCode":1.0},"Location":{"LocationId":"NT_1E.O2vFdBl3DJk-ilpw99C","LocationType":"point","DisplayPosition":{"Latitude":52.6352329,"Longitude":-1.6937538},"MapView":{"TopLeft":{"Latitude":52.65464,"Longitude":-1.73018},"BottomRight":{"Latitude":52.59243,"Longitude":-1.63588}},"Address":{"Label":"Tamworth, England, United Kingdom","Country":"GBR","State":"England","County":"Staffordshire","City":"Tamworth","District":"Tamworth","PostalCode":"B79 7","AdditionalData":[{"value":"United Kingdom","key":"CountryName"},{"value":"England","key":"StateName"},{"value":"Staffordshire","key":"CountyName"}]},"MapReference":{"ReferenceId":"1227476530","SideOfStreet":"neither","StateId":"20248595","CountyId":"20345040","CityId":"20358262","DistrictId":"20358263"}}},{"Relevance":1.0,"Distance":4.4,"MatchLevel":"street","MatchQuality":{"Country":1.0,"State":1.0,"County":1.0,"City":1.0,"District":1.0,"PostalCode":1.0},"Location":{"LocationId":"NT_7jNdHTiQuz5ModlxAlkihB_l_26440453_L","LocationType":"point","DisplayPosition":{"Latitude":52.6352605,"Longitude":-1.6937081},"MapView":{"TopLeft":{"Latitude":52.63533,"Longitude":-1.69375},"BottomRight":{"Latitude":52.6347,"Longitude":-1.69337}},"Address":{"Label":"Tamworth, B79 7, United Kingdom","Country":"GBR","State":"England","County":"Staffordshire","City":"Tamworth","District":"Tamworth","PostalCode":"B79 7","AdditionalData":[{"value":"United Kingdom","key":"CountryName"},{"value":"England","key":"StateName"},{"value":"Staffordshire","key":"CountyName"}]},"MapReference":{"ReferenceId":"26440453","Spot":0.89,"SideOfStreet":"left","StateId":"20248595","CountyId":"20345040","CityId":"20358262","DistrictId":"20358263"}}},{"Relevance":1.0,"Distance":10.0,"MatchLevel":"postalCode","MatchQuality":{"PostalCode":1.0},"Location":{"LocationId":"NT_ZxJ4taWn8z7siKAifKS1NB_l_26327337_L","LocationType":"point","DisplayPosition":{"Latitude":52.63532,"Longitude":-1.69379},"MapView":{"TopLeft":{"Latitude":52.6443132,"Longitude":-1.7086086},"BottomRight":{"Latitude":52.6263268,"Longitude":-1.6789714}},"Address":{"Label":"B79 7AT, Tamworth, England, United Kingdom","Country":"GBR","State":"England","County":"Staffordshire","City":"Tamworth","PostalCode":"B79 7AT","AdditionalData":[{"value":"United Kingdom","key":"CountryName"},{"value":"England","key":"StateName"},{"value":"Staffordshire","key":"CountyName"}]},"MapReference":{"ReferenceId":"26327337","Spot":0.0,"SideOfStreet":"neither","StateId":"20248595","CountyId":"20345040","CityId":"20358262"}}},{"Relevance":1.0,"Distance":10.8,"MatchLevel":"street","MatchQuality":{"Country":1.0,"State":1.0,"County":1.0,"City":1.0,"District":1.0,"Street":[1.0],"PostalCode":1.0},"Location":{"LocationId":"NT_ZxJ4taWn8z7siKAifKS1NB_l_26327337_L","LocationType":"point","DisplayPosition":{"Latitude":52.63533,"Longitude":-1.69375},"MapView":{"TopLeft":{"Latitude":52.63558,"Longitude":-1.69391},"BottomRight":{"Latitude":52.63533,"Longitude":-1.69375}},"Address":{"Label":"Lower Gungate, Tamworth, B79 7, United Kingdom","Country":"GBR","State":"England","County":"Staffordshire","City":"Tamworth","District":"Tamworth","Street":"Lower Gungate","PostalCode":"B79 7","AdditionalData":[{"value":"United Kingdom","key":"CountryName"},{"value":"England","key":"StateName"},{"value":"Staffordshire","key":"CountyName"}]},"MapReference":{"ReferenceId":"26327337","Spot":0.0,"SideOfStreet":"left","StateId":"20248595","CountyId":"20345040","CityId":"20358262","DistrictId":"20358263"}}},{"Relevance":1.0,"Distance":10.8,"MatchLevel":"street","MatchQuality":{"Country":1.0,"State":1.0,"County":1.0,"City":1.0,"District":1.0,"Street":[1.0],"PostalCode":1.0},"Location":{"LocationId":"NT_ocasjSseT1t2caby4SwoUD_l_26327336_R","LocationType":"point","DisplayPosition":{"Latitude":52.63533,"Longitude":-1.69375},"MapView":{"TopLeft":{"Latitude":52.63559,"Longitude":-1.69375},"BottomRight":{"Latitude":52.63533,"Longitude":-1.69123}},"Address":{"Label":"Spinning School Lane, Tamworth, B79 7, United Kingdom","Country":"GBR","State":"England","County":"Staffordshire","City":"Tamworth","District":"Tamworth","Street":"Spinning School Lane","PostalCode":"B79 7","AdditionalData":[{"value":"United Kingdom","key":"CountryName"},{"value":"England","key":"StateName"},{"value":"Staffordshire","key":"CountyName"}]},"MapReference":{"ReferenceId":"26327336","Spot":0.0,"SideOfStreet":"right","StateId":"20248595","CountyId":"20345040","CityId":"20358262","DistrictId":"20358263"}}},{"Relevance":1.0,"Distance":40.0,"MatchLevel":"street","MatchQuality":{"Country":1.0,"State":1.0,"County":1.0,"City":1.0,"District":1.0,"Street":[1.0],"PostalCode":1.0},"Location":{"LocationId":"NT_DLKh6JO4xlfb.wXroovnBD_l_26327368_R","LocationType":"point","DisplayPosition":{"Latitude":52.63558,"Longitude":-1.69391},"MapView":{"TopLeft":{"Latitude":52.63558,"Longitude":-1.69465},"BottomRight":{"Latitude":52.63473,"Longitude":-1.69391}},"Address":{"Label":"Church Lane, Tamworth, B79 7, United Kingdom","Country":"GBR","State":"England","County":"Staffordshire","City":"Tamworth","District":"Tamworth","Street":"Church Lane","PostalCode":"B79 7","AdditionalData":[{"value":"United Kingdom","key":"CountryName"},{"value":"England","key":"StateName"},{"value":"Staffordshire","key":"CountyName"}]},"MapReference":{"ReferenceId":"26327368","Spot":1.0,"SideOfStreet":"right","StateId":"20248595","CountyId":"20345040","CityId":"20358262","DistrictId":"20358263"}}},{"Relevance":1.0,"Distance":40.0,"MatchLevel":"street","MatchQuality":{"Country":1.0,"State":1.0,"County":1.0,"City":1.0,"District":1.0,"Street":[1.0],"PostalCode":1.0},"Location":{"LocationId":"NT_iPUM4DbSrACS6zHQAL9uqC_l_26327323_L","LocationType":"point","DisplayPosition":{"Latitude":52.63558,"Longitude":-1.69391},"MapView":{"TopLeft":{"Latitude":52.63624,"Longitude":-1.69439},"BottomRight":{"Latitude":52.63558,"Longitude":-1.69391}},"Address":{"Label":"Lower Gungate, Tamworth, B79 7, United Kingdom","Country":"GBR","State":"England","County":"Staffordshire","City":"Tamworth","District":"Tamworth","Street":"Lower Gungate","PostalCode":"B79 7","AdditionalData":[{"value":"United Kingdom","key":"CountryName"},{"value":"England","key":"StateName"},{"value":"Staffordshire","key":"CountyName"}]},"MapReference":{"ReferenceId":"26327323","Spot":0.0,"SideOfStreet":"left","StateId":"20248595","CountyId":"20345040","CityId":"20358262","DistrictId":"20358263"}}},{"Relevance":1.0,"Distance":55.5,"MatchLevel":"postalCode","MatchQuality":{"PostalCode":1.0},"Location":{"LocationId":"NT_ocasjSseT1t2caby4SwoUD_l_26327336_R","LocationType":"point","DisplayPosition":{"Latitude":52.63548,"Longitude":-1.69304},"MapView":{"TopLeft":{"Latitude":52.6444732,"Longitude":-1.7078587},"BottomRight":{"Latitude":52.6264868,"Longitude":-1.6782213}},"Address":{"Label":"B79 7BD, Tamworth, England, United Kingdom","Country":"GBR","State":"England","County":"Staffordshire","City":"Tamworth","PostalCode":"B79 7BD","AdditionalData":[{"value":"United Kingdom","key":"CountryName"},{"value":"England","key":"StateName"},{"value":"Staffordshire","key":"CountyName"}]},"MapReference":{"ReferenceId":"26327336","Spot":0.0,"SideOfStreet":"neither","StateId":"20248595","CountyId":"20345040","CityId":"20358262"}}},{"Relevance":1.0,"Distance":61.7,"MatchLevel":"postalCode","MatchQuality":{"PostalCode":1.0},"Location":{"LocationId":"NT_DLKh6JO4xlfb.wXroovnBD_l_26327368_R","LocationType":"point","DisplayPosition":{"Latitude":52.63494,"Longitude":-1.69453},"MapView":{"TopLeft":{"Latitude":52.6439332,"Longitude":-1.7093485},"BottomRight":{"Latitude":52.6259468,"Longitude":-1.6797115}},"Address":{"Label":"B79 7AU, Tamworth, England, United Kingdom","Country":"GBR","State":"England","County":"Staffordshire","City":"Tamworth","PostalCode":"B79 7AU","AdditionalData":[{"value":"United Kingdom","key":"CountryName"},{"value":"England","key":"StateName"},{"value":"Staffordshire","key":"CountyName"}]},"MapReference":{"ReferenceId":"26327368","Spot":1.0,"SideOfStreet":"neither","StateId":"20248595","CountyId":"20345040","CityId":"20358262"}}},{"Relevance":1.0,"Distance":61.9,"MatchLevel":"postalCode","MatchQuality":{"PostalCode":1.0},"Location":{"LocationId":"NT_tC5qOvX8Y3dIiNPfFqE6ED_l_26440454_L","LocationType":"point","DisplayPosition":{"Latitude":52.63468,"Longitude":-1.69365},"MapView":{"TopLeft":{"Latitude":52.6436732,"Longitude":-1.7084684},"BottomRight":{"Latitude":52.6256868,"Longitude":-1.6788316}},"Address":{"Label":"B79 7AX, Tamworth, England, United Kingdom","Country":"GBR","State":"England","County":"Staffordshire","City":"Tamworth","PostalCode":"B79 7AX","AdditionalData":[{"value":"United Kingdom","key":"CountryName"},{"value":"England","key":"StateName"},{"value":"Staffordshire","key":"CountyName"}]},"MapReference":{"ReferenceId":"26440454","Spot":0.61,"SideOfStreet":"neither","StateId":"20248595","CountyId":"20345040","CityId":"20358262"}}}]}]}}