{"Response":{"MetaInfo":{"Timestamp":"2020-03-28T10:35:32.116+0000","NextPageInformation":"2"},"View":[{"_type":"SearchResultsViewType","ViewId":0,"Result":[{"Relevance":1.0,"Distance":-47.5,"MatchLevel":"landmark","MatchQuality":{"Country":1.0,"State":1.0,"County":1.0,"City":1.0,"District":1.0,"PostalCode":1.0,"Name":1.0},"Location":{"LocationId":"NT_eFcBp8Q332q14R9KVTLwCC_p_6s6rE7wic-DGBqpmpwHyQA","LocationType":"shoppingCentre","Name":"Hamilton Retail Parade","DisplayPosition":{"Latitude":52.65176,"Longitude":-1.06853},"MapView":{"TopLeft":{"Latitude":52.65368,"Longitude":-1.07244},"BottomRight":{"Latitude":52.65031,"Longitude":-1.06684}},"Address":{"Label":"Leicester, LE5 1, United Kingdom","Country":"GBR","State":"England","County":"Leicestershire","City":"Leicester","District":"Leicester","PostalCode":"LE5 1","AdditionalData":[{"value":"United Kingdom","key":"CountryName"},{"value":"England","key":"StateName"},{"value":"Leicestershire","key":"CountyName"}]},"MapReference":{"StateId":"20248595","CountyId":"20354833","CityId":"20354874","DistrictId":"20354875","PlaceId":"1001028328"}}},{"Relevance":1.0,"Distance":0.0,"Direction":0.0,"MatchLevel":"district","MatchQuality":{"Country":1.0,"State":1.0,"County":1.0,"City":1.0,"District":1.0,"PostalCode":1.0},"Location":{"LocationId":"NT_Y5HVqIQUpiJoYkQ-.Nk1UC","LocationType":"point","DisplayPosition":{"Latitude":52.6523973,"Longitude":-1.0675676},"MapView":{"TopLeft":{"Latitude":52.67902,"Longitude":-1.21593},"BottomRight":{"Latitude":52.5765,"Longitude":-1.04621}},"Address":{"Label":"Leicester, England, United Kingdom","Country":"GBR","State":"England","County":"Leicestershire","City":"Leicester","District":"Leicester","PostalCode":"LE1 4","AdditionalData":[{"value":"United Kingdom","key":"CountryName"},{"value":"England","key":"StateName"},{"value":"Leicestershire","key":"CountyName"}]},"MapReference":{"ReferenceId":"917393414","SideOfStreet":"neither","StateId":"20248595","CountyId":"20354833","CityId":"20354874","DistrictId":"20354875"}}},{"Relevance":1.0,"Distance":35.9,"MatchLevel":"street","MatchQuality":{"Country":1.0,"State":1.0,"County":1.0,"City":1.0,"District":1.0,"PostalCode":1.0},"Location":{"LocationId":"NT_FRJlr5k8YPrGS4dCiSHdtA_l_801484314_R","LocationType":"point","DisplayPosition":{"Latitude":52.6524,"Longitude":-1.0681},"MapView":{"TopLeft":{"Latitude":52.6524,"Longitude":-1.06877},"BottomRight":{"Latitude":52.65225,"Longitude":-1.0681}},"Address":{"Label":"Leicester, LE5 1, United Kingdom","Country":"GBR","State":"England","County":"Leicestershire","City":"Leicester","District":"Leicester","PostalCode":"LE5 1","AdditionalData":[{"value":"United Kingdom","key":"CountryName"},{"value":"England","key":"StateName"},{"value":"Leicestershire","key":"CountyName"}]},"MapReference":{"ReferenceId":"801484314","Spot":1.0,"SideOfStreet":"right","StateId":"20248595","CountyId":"20354833","CityId":"20354874","DistrictId":"20354875"}}},{"Relevance":1.0,"Distance":42.5,"MatchLevel":"postalCode","MatchQuality":{"PostalCode":1.0},"Location":{"LocationId":"NT_pTMH2Zh0Riz3pn09Txc0CC_l_1068882208_L","LocationType":"point","DisplayPosition":{"Latitude":52.65236,"Longitude":-1.06694},"MapView":{"TopLeft":{"Latitude":52.6613532,"Longitude":-1.0817644},"BottomRight":{"Latitude":52.6433668,"Longitude":-1.0521156}},"Address":{"Label":"LE5 1BL, Leicester, England, United Kingdom","Country":"GBR","State":"England","County":"Leicestershire","City":"Leicester","PostalCode":"LE5 1BL","AdditionalData":[{"value":"United Kingdom","key":"CountryName"},{"value":"England","key":"StateName"},{"value":"Leicestershire","key":"CountyName"}]},"MapReference":{"ReferenceId":"1068882208","Spot":0.26,"SideOfStreet":"neither","StateId":"20248595","CountyId":"20354833","CityId":"20354874"}}},{"Relevance":1.0,"Distance":47.6,"MatchLevel":"street","MatchQuality":{"Country":1.0,"State":1.0,"County":1.0,"City":1.0,"District":1.0,"Street":[1.0],"PostalCode":1.0},"Location":{"LocationId":"NT_pTMH2Zh0Riz3pn09Txc0CC_l_1068882208_L","LocationType":"point","DisplayPosition":{"Latitude":52.6521913,"Longitude":-1.0669496},"MapView":{"TopLeft":{"Latitude":52.65261,"Longitude":-1.067},"BottomRight":{"Latitude":52.65205,"Longitude":-1.06684}},"Address":{"Label":"Maidenwell Avenue, Leicester, LE5 1, United Kingdom","Country":"GBR","State":"England","County":"Leicestershire","City":"Leicester","District":"Leicester","Street":"Maidenwell Avenue","PostalCode":"LE5 1","AdditionalData":[{"value":"United Kingdom","key":"CountryName"},{"value":"England","key":"StateName"},{"value":"Leicestershire","key":"CountyName"}]},"MapReference":{"ReferenceId":"1068882208","Spot":0.26,"SideOfStreet":"left","StateId":"20248595","CountyId":"20354833","CityId":"20354874","DistrictId":"20354875"}}},{"Relevance":1.0,"Distance":54.4,"MatchLevel":"street","MatchQuality":{"Country":1.0,"State":1.0,"County":1.0,"City":1.0,"District":1.0,"Street":[1.0],"PostalCode":1.0},"Location":{"LocationId":"NT_pTMH2Zh0Riz3pn09Txc0CC_l_1068882207_L","LocationType":"point","DisplayPosition":{"Latitude":52.65205,"Longitude":-1.067},"MapView":{"TopLeft":{"Latitude":52.65205,"Longitude":-1.06765},"BottomRight":{"Latitude":52.65129,"Longitude":-1.067}},"Address":{"Label":"Maidenwell Avenue, Leicester, LE5 1, United Kingdom","Country":"GBR","State":"England","County":"Leicestershire","City":"Leicester","District":"Leicester","Street":"Maidenwell Avenue","PostalCode":"LE5 1","AdditionalData":[{"value":"United Kingdom","key":"CountryName"},{"value":"England","key":"StateName"},{"value":"Leicestershire","key":"CountyName"}]},"MapReference":{"ReferenceId":"1068882207","Spot":1.0,"SideOfStreet":"left","StateId":"20248595","CountyId":"20354833","CityId":"20354874","DistrictId":"20354875"}}},{"Relevance":1.0,"Distance":54.5,"MatchLevel":"street","MatchQuality":{"Country":1.0,"State":1.0,"County":1.0,"City":1.0,"District":1.0,"Street":[1.0],"PostalCode":1.0},"Location":{"LocationId":"NT_pTMH2Zh0Riz3pn09Txc0CC_l_1050238119_L","LocationType":"point","DisplayPosition":{"Latitude":52.65261,"Longitude":-1.06684},"MapView":{"TopLeft":{"Latitude":52.65293,"Longitude":-1.06695},"BottomRight":{"Latitude":52.65261,"Longitude":-1.06684}},"Address":{"Label":"Maidenwell Avenue, Leicester, LE5 1, United Kingdom","Country":"GBR","State":"England","County":"Leicestershire","City":"Leicester","District":"Leicester","Street":"Maidenwell Avenue","PostalCode":"LE5 1","AdditionalData":[{"value":"United Kingdom","key":"CountryName"},{"value":"England","key":"StateName"},{"value":"Leicestershire","key":"CountyName"}]},"MapReference":{"ReferenceId":"1050238119","Spot":0.0,"SideOfStreet":"left","StateId":"20248595","CountyId":"20354833","CityId":"20354874","DistrictId":"20354875"}}},{"Relevance":1.0,"Distance":58.1,"MatchLevel":"street","MatchQuality":{"Country":1.0,"State":1.0,"County":1.0,"City":1.0,"District":1.0,"Street":[1.0],"PostalCode":1.0},"Location":{"LocationId":"NT_pTMH2Zh0Riz3pn09Txc0CC_l_1068886300_L","LocationType":"point","DisplayPosition":{"Latitude":52.65235,"Longitude":-1.06671},"MapView":{"TopLeft":{"Latitude":52.65267,"Longitude":-1.06671},"BottomRight":{"Latitude":52.65235,"Longitude":-1.06663}},"Address":{"Label":"Maidenwell Avenue, Leicester, LE5 1, United Kingdom","Country":"GBR","State":"England","County":"Leicestershire","City":"Leicester","District":"Leicester","Street":"Maidenwell Avenue","PostalCode":"LE5 1","AdditionalData":[{"value":"United Kingdom","key":"CountryName"},{"value":"England","key":"StateName"},{"value":"Leicestershire","key":"CountyName"}]},"MapReference":{"ReferenceId":"1068886300","Spot":0.0,"SideOfStreet":"left","StateId":"20248595","CountyId":"20354833","CityId":"20354874","DistrictId":"20354875"}}},{"Relevance":1.0,"Distance":65.1,"MatchLevel":"street","MatchQuality":{"Country":1.0,"State":1.0,"County":1.0,"City":1.0,"District":1.0,"Street":[1.0],"PostalCode":1.0},"Location":{"LocationId":"NT_pTMH2Zh0Riz3pn09Txc0CC_l_1068886299_L","LocationType":"point","DisplayPosition":{"Latitude":52.6520248,"Longitude":-1.0668226},"MapView":{"TopLeft":{"Latitude":52.65235,"Longitude":-1.0674},"BottomRight":{"Latitude":52.65115,"Longitude":-1.06671}},"Address":{"Label":"Maidenwell Avenue, Leicester, LE5 1, United Kingdom","Country":"GBR","State":"England","County":"Leicestershire","City":"Leicester","District":"Leicester","Street":"Maidenwell Avenue","PostalCode":"LE5 1","AdditionalData":[{"value":"United Kingdom","key":"CountryName"},{"value":"England","key":"StateName"},{"value":"Leicestershire","key":"CountyName"}]},"MapReference":{"ReferenceId":"1068886299","Spot":0.75,"SideOfStreet":"left","StateId":"20248595","CountyId":"20354833","CityId":"20354874","DistrictId":"20354875"}}},{"Relevance":1.0,"Distance":70.1,"MatchLevel":"street","MatchQuality":{"Country":1.0,"State":1.0,"County":1.0,"City":1.0,"District":1.0,"Street":[1.0],"PostalCode":1.0},"Location":{"LocationId":"NT_pTMH2Zh0Riz3pn09Txc0CC_l_1050238121_L","LocationType":"point","DisplayPosition":{"Latitude":52.65267,"Longitude":-1.06663},"MapView":{"TopLeft":{"Latitude":52.65298,"Longitude":-1.06663},"BottomRight":{"Latitude":52.65267,"Longitude":-1.06652}},"Address":{"Label":"Maidenwell Avenue, Leicester, LE5 1, United Kingdom","Country":"GBR","State":"England","County":"Leicestershire","City":"Leicester","District":"Leicester","Street":"Maidenwell Avenue","PostalCode":"LE5 1","AdditionalData":[{"value":"United Kingdom","key":"CountryName"},{"value":"England","key":"StateName"},{"value":"Leicestershire","key":"CountyName"}]},"MapReference":{"ReferenceId":"1050238121","Spot":0.0,"SideOfStreet":"left","StateId":"20248595","CountyId":"20354833","CityId":"20354874","DistrictId":"20354875"}}}]}]}}