{"Response":{"MetaInfo":{"Timestamp":"2020-03-28T11:22:52.750+0000","NextPageInformation":"2"},"View":[{"_type":"SearchResultsViewType","ViewId":0,"Result":[{"Relevance":1.0,"Distance":0.0,"Direction":0.0,"MatchLevel":"district","MatchQuality":{"Country":1.0,"County":1.0,"City":1.0,"District":1.0,"PostalCode":1.0},"Location":{"LocationId":"NT_gOxh-PnC.eN61TTc.IuylC","LocationType":"point","DisplayPosition":{"Latitude":52.6694935,"Longitude":-8.640283},"MapView":{"TopLeft":{"Latitude":52.68863,"Longitude":-8.6957},"BottomRight":{"Latitude":52.61387,"Longitude":-8.51979}},"Address":{"Label":"Limerick, Ireland","Country":"IRL","County":"County Limerick","City":"Limerick","District":"Limerick","AdditionalData":[{"value":"Ireland","key":"CountryName"},{"value":"County Limerick","key":"CountyName"}]},"MapReference":{"ReferenceId":"554443173","SideOfStreet":"neither","CountryId":"20403667","CountyId":"20411206","CityId":"20426562","DistrictId":"20426563"}}},{"Relevance":1.0,"Distance":1.6,"MatchLevel":"landmark","MatchQuality":{"Country":1.0,"County":1.0,"City":1.0,"District":1.0,"Name":1.0},"Location":{"LocationId":"NT_qExfIwwWGbn5JL17lXtrRD","LocationType":"hospital","Name":"St Camillus Hospital","DisplayPosition":{"Latitude":52.66876,"Longitude":-8.64241},"MapView":{"TopLeft":{"Latitude":52.66948,"Longitude":-8.64467},"BottomRight":{"Latitude":52.66803,"Longitude":-8.64014}},"Address":{"Label":"Limerick, County Limerick, Ireland","Country":"IRL","County":"County Limerick","City":"Limerick","District":"Limerick","AdditionalData":[{"value":"Ireland","key":"CountryName"},{"value":"County Limerick","key":"CountyName"}]},"MapReference":{"CountryId":"20403667","CountyId":"20411206","CityId":"20426562","DistrictId":"20426563","PlaceId":"83166411"}}},{"Relevance":1.0,"Distance":4.6,"MatchLevel":"houseNumber","MatchQuality":{"Country":1.0,"County":1.0,"City":1.0,"District":1.0,"Street":[1.0],"HouseNumber":1.0,"PostalCode":1.0},"MatchType":"interpolated","Location":{"LocationId":"NT_PLaImz3hD-CYQDdY7qc7fD_xQD","LocationType":"point","DisplayPosition":{"Latitude":52.66951,"Longitude":-8.64022},"MapView":{"TopLeft":{"Latitude":52.6706342,"Longitude":-8.6420738},"BottomRight":{"Latitude":52.6683858,"Longitude":-8.6383662}},"Address":{"Label":"14 Shelbourne Road, Limerick, County Limerick, V94 PPC7, Ireland","Country":"IRL","County":"County Limerick","City":"Limerick","District":"Limerick","Street":"Shelbourne Road","HouseNumber":"14","PostalCode":"V94 PPC7","AdditionalData":[{"value":"Ireland","key":"CountryName"},{"value":"County Limerick","key":"CountyName"}]},"MapReference":{"ReferenceId":"554456580","Spot":0.07,"SideOfStreet":"right","CountryId":"20403667","CountyId":"20411206","CityId":"20426562","DistrictId":"20426563","AddressId":"214724572","RoadLinkId":"86596990"}}},{"Relevance":1.0,"Distance":12.5,"MatchLevel":"houseNumber","MatchQuality":{"Country":1.0,"County":1.0,"City":1.0,"District":1.0,"Street":[1.0],"HouseNumber":1.0,"PostalCode":1.0},"MatchType":"interpolated","Location":{"LocationId":"NT_PLaImz3hD-CYQDdY7qc7fD_xMD","LocationType":"point","DisplayPosition":{"Latitude":52.66939,"Longitude":-8.64021},"MapView":{"TopLeft":{"Latitude":52.6705142,"Longitude":-8.6420638},"BottomRight":{"Latitude":52.6682658,"Longitude":-8.6383562}},"Address":{"Label":"13 Shelbourne Road, Limerick, County Limerick, V94 FTP0, Ireland","Country":"IRL","County":"County Limerick","City":"Limerick","District":"Limerick","Street":"Shelbourne Road","HouseNumber":"13","PostalCode":"V94 FTP0","AdditionalData":[{"value":"Ireland","key":"CountryName"},{"value":"County Limerick","key":"CountyName"}]},"MapReference":{"ReferenceId":"554456554","Spot":0.91,"SideOfStreet":"right","CountryId":"20403667","CountyId":"20411206","CityId":"20426562","DistrictId":"20426563","AddressId":"214726273","RoadLinkId":"86629633"}}},{"Relevance":1.0,"Distance":19.5,"MatchLevel":"houseNumber","MatchQuality":{"Country":1.0,"County":1.0,"City":1.0,"District":1.0,"Street":[1.0],"HouseNumber":1.0,"PostalCode":1.0},"MatchType":"interpolated","Location":{"LocationId":"NT_JOumZqXinHM3BcYpxS9mIC_xA","LocationType":"point","DisplayPosition":{"Latitude":52.66989,"Longitude":-8.64055},"MapView":{"TopLeft":{"Latitude":52.6710142,"Longitude":-8.6424038},"BottomRight":{"Latitude":52.6687658,"Longitude":-8.6386962}},"Address":{"Label":"1 Shelbourne Park, Limerick, County Limerick, V94 E72H, Ireland","Country":"IRL","County":"County Limerick","City":"Limerick","District":"Limerick","Street":"Shelbourne Park","HouseNumber":"1","PostalCode":"V94 E72H","AdditionalData":[{"value":"Ireland","key":"CountryName"},{"value":"County Limerick","key":"CountyName"}]},"MapReference":{"ReferenceId":"554456591","Spot":0.75,"SideOfStreet":"right","CountryId":"20403667","CountyId":"20411206","CityId":"20426562","DistrictId":"20426563","AddressId":"214400655","RoadLinkId":"86627390"}}},{"Relevance":1.0,"Distance":22.1,"MatchLevel":"postalCode","MatchQuality":{"PostalCode":1.0},"MatchType":"interpolated","Location":{"LocationId":"NT_PLaImz3hD-CYQDdY7qc7fD_xQD","LocationType":"point","DisplayPosition":{"Latitude":52.66969,"Longitude":-8.64023},"MapView":{"TopLeft":{"Latitude":52.6786832,"Longitude":-8.6550603},"BottomRight":{"Latitude":52.6606968,"Longitude":-8.6253997}},"Address":{"Label":"V94 R6C0, Limerick, Ireland","Country":"IRL","County":"County Limerick","City":"Limerick","PostalCode":"V94 R6C0","AdditionalData":[{"value":"Ireland","key":"CountryName"},{"value":"County Limerick","key":"CountyName"}]},"MapReference":{"ReferenceId":"554456580","Spot":0.07,"SideOfStreet":"neither","CountryId":"20403667","CountyId":"20411206","CityId":"20426562"}}},{"Relevance":1.0,"Distance":27.9,"MatchLevel":"postalCode","MatchQuality":{"PostalCode":1.0},"MatchType":"interpolated","Location":{"LocationId":"NT_JOumZqXinHM3BcYpxS9mIC_xA","LocationType":"point","DisplayPosition":{"Latitude":52.66969,"Longitude":-8.64054},"MapView":{"TopLeft":{"Latitude":52.6786832,"Longitude":-8.6553703},"BottomRight":{"Latitude":52.6606968,"Longitude":-8.6257097}},"Address":{"Label":"V94 EHP2, Limerick, Ireland","Country":"IRL","County":"County Limerick","City":"Limerick","PostalCode":"V94 EHP2","AdditionalData":[{"value":"Ireland","key":"CountryName"},{"value":"County Limerick","key":"CountyName"}]},"MapReference":{"ReferenceId":"554456591","Spot":0.75,"SideOfStreet":"neither","CountryId":"20403667","CountyId":"20411206","CityId":"20426562"}}},{"Relevance":1.0,"Distance":35.3,"MatchLevel":"postalCode","MatchQuality":{"PostalCode":1.0},"MatchType":"interpolated","Location":{"LocationId":"NT_PLaImz3hD-CYQDdY7qc7fD_xMD","LocationType":"point","DisplayPosition":{"Latitude":52.66937,"Longitude":-8.6398},"MapView":{"TopLeft":{"Latitude":52.6783632,"Longitude":-8.6546302},"BottomRight":{"Latitude":52.6603768,"Longitude":-8.6249698}},"Address":{"Label":"V94 XRD7, Limerick, Ireland","Country":"IRL","County":"County Limerick","City":"Limerick","PostalCode":"V94 XRD7","AdditionalData":[{"value":"Ireland","key":"CountryName"},{"value":"County Limerick","key":"CountyName"}]},"MapReference":{"ReferenceId":"554456554","Spot":0.91,"SideOfStreet":"neither","CountryId":"20403667","CountyId":"20411206","CityId":"20426562"}}},{"Relevance":1.0,"Distance":45.3,"MatchLevel":"landmark","MatchQuality":{"Country":1.0,"County":1.0,"City":1.0,"District":1.0,"PostalCode":1.0,"Name":1.0},"Location":{"LocationId":"NT_chO5PHwhs8jcCM1a8JtxVD_p_qcILAI9CgugiA8z8Yodm5C","LocationType":"park","Name":"Shelbourne Park","DisplayPosition":{"Latitude":52.67028,"Longitude":-8.63936},"MapView":{"TopLeft":{"Latitude":52.67188,"Longitude":-8.64028},"BottomRight":{"Latitude":52.66916,"Longitude":-8.63786}},"Address":{"Label":"Limerick, County Limerick, V94, Ireland","Country":"IRL","County":"County Limerick","City":"Limerick","District":"Limerick","PostalCode":"V94","AdditionalData":[{"value":"Ireland","key":"CountryName"},{"value":"County Limerick","key":"CountyName"}]},"MapReference":{"CountryId":"20403667","CountyId":"20411206","CityId":"20426562","DistrictId":"20426563","PlaceId":"83363622"}}},{"Relevance":1.0,"Distance":45.3,"MatchLevel":"street","MatchQuality":{"Country":1.0,"County":1.0,"City":1.0,"District":1.0,"Street":[1.0],"PostalCode":1.0},"Location":{"LocationId":"NT_PLaImz3hD-CYQDdY7qc7fD_l_554456596_L","LocationType":"point","DisplayPosition":{"Latitude":52.6699,"Longitude":-8.64024},"MapView":{"TopLeft":{"Latitude":52.67026,"Longitude":-8.64026},"BottomRight":{"Latitude":52.6699,"Longitude":-8.64024}},"Address":{"Label":"Shelbourne Road, Limerick, County Limerick, V94, Ireland","Country":"IRL","County":"County Limerick","City":"Limerick","District":"Limerick","Street":"Shelbourne Road","PostalCode":"V94","AdditionalData":[{"value":"Ireland","key":"CountryName"},{"value":"County Limerick","key":"CountyName"}]},"MapReference":{"ReferenceId":"554456596","Spot":0.0,"SideOfStreet":"left","CountryId":"20403667","CountyId":"20411206","CityId":"20426562","DistrictId":"20426563"}}}]}]}}