{"Response":{"MetaInfo":{"Timestamp":"2020-03-28T10:03:51.037+0000","NextPageInformation":"2"},"View":[{"_type":"SearchResultsViewType","ViewId":0,"Result":[{"Relevance":1.0,"Distance":0.0,"Direction":0.0,"MatchLevel":"district","MatchQuality":{"Country":1.0,"State":1.0,"County":1.0,"City":1.0,"District":1.0,"PostalCode":1.0},"Location":{"LocationId":"NT_Sv8SdR9AfGiBG7TD8DCNTA","LocationType":"point","DisplayPosition":{"Latitude":52.7345389,"Longitude":10.2364303},"MapView":{"TopLeft":{"Latitude":52.75671,"Longitude":10.2162},"BottomRight":{"Latitude":52.7254,"Longitude":10.24861}},"Address":{"Label":"Eschede, Niedersachsen, Deutschland","Country":"DEU","State":"Niedersachsen","County":"Celle","City":"Eschede","District":"Eschede","PostalCode":"29348","AdditionalData":[{"value":"Deutschland","key":"CountryName"},{"value":"Niedersachsen","key":"StateName"},{"value":"Celle","key":"CountyName"}]},"MapReference":{"ReferenceId":"51743508","SideOfStreet":"neither","CountryId":"20147700","StateId":"20151542","CountyId":"20153966","CityId":"20154026","DistrictId":"20154031"}}},{"Relevance":1.0,"Distance":10.3,"MatchLevel":"houseNumber","MatchQuality":{"Country":1.0,"State":1.0,"County":1.0,"City":1.0,"District":1.0,"Street":[1.0],"HouseNumber":1.0,"PostalCode":1.0},"MatchType":"interpolated","Location":{"LocationId":"NT_vEDpx3.cDWS7otHnP8hLzA_5A","LocationType":"point","DisplayPosition":{"Latitude":52.73456,"Longitude":10.23612},"MapView":{"TopLeft":{"Latitude":52.7356842,"Longitude":10.2342635},"BottomRight":{"Latitude":52.7334358,"Longitude":10.2379765}},"Address":{"Label":"Uelzener Straße 9, 29348 Eschede, Deutschland","Country":"DEU","State":"Niedersachsen","County":"Celle","City":"Eschede","District":"Eschede","Street":"Uelzener Straße","HouseNumber":"9","PostalCode":"29348","AdditionalData":[{"value":"Deutschland","key":"CountryName"},{"value":"Niedersachsen","key":"StateName"},{"value":"Celle","key":"CountyName"}]},"MapReference":{"ReferenceId":"1178613118","Spot":0.58,"SideOfStreet":"right","CountryId":"20147700","StateId":"20151542","CountyId":"20153966","CityId":"20154026","DistrictId":"20154031","AddressId":"180567746","RoadLinkId":"486310974"}}},{"Relevance":1.0,"Distance":32.0,"MatchLevel":"houseNumber","MatchQuality":{"Country":1.0,"State":1.0,"County":1.0,"City":1.0,"District":1.0,"Street":[1.0],"HouseNumber":1.0,"PostalCode":1.0},"MatchType":"interpolated","Location":{"LocationId":"NT_vEDpx3.cDWS7otHnP8hLzA_xETQ","LocationType":"point","DisplayPosition":{"Latitude":52.7349,"Longitude":10.23675},"MapView":{"TopLeft":{"Latitude":52.7360242,"Longitude":10.2348934},"BottomRight":{"Latitude":52.7337758,"Longitude":10.2386066}},"Address":{"Label":"Uelzener Straße 11A, 29348 Eschede, Deutschland","Country":"DEU","State":"Niedersachsen","County":"Celle","City":"Eschede","District":"Eschede","Street":"Uelzener Straße","HouseNumber":"11A","PostalCode":"29348","AdditionalData":[{"value":"Deutschland","key":"CountryName"},{"value":"Niedersachsen","key":"StateName"},{"value":"Celle","key":"CountyName"}]},"MapReference":{"ReferenceId":"554715013","Spot":0.28,"SideOfStreet":"right","CountryId":"20147700","StateId":"20151542","CountyId":"20153966","CityId":"20154026","DistrictId":"20154031","AddressId":"180923421","RoadLinkId":"36490087"}}},{"Relevance":1.0,"Distance":50.9,"MatchLevel":"houseNumber","MatchQuality":{"Country":1.0,"State":1.0,"County":1.0,"City":1.0,"District":1.0,"Street":[1.0],"HouseNumber":1.0,"PostalCode":1.0},"MatchType":"interpolated","Location":{"LocationId":"NT_UlKf9wlznnsMMy4KiuQKyC_3A","LocationType":"point","DisplayPosition":{"Latitude":52.73481,"Longitude":10.23575},"MapView":{"TopLeft":{"Latitude":52.7359342,"Longitude":10.2338934},"BottomRight":{"Latitude":52.7336858,"Longitude":10.2376066}},"Address":{"Label":"Augustenstraße 7, 29348 Eschede, Deutschland","Country":"DEU","State":"Niedersachsen","County":"Celle","City":"Eschede","District":"Eschede","Street":"Augustenstraße","HouseNumber":"7","PostalCode":"29348","AdditionalData":[{"value":"Deutschland","key":"CountryName"},{"value":"Niedersachsen","key":"StateName"},{"value":"Celle","key":"CountyName"}]},"MapReference":{"ReferenceId":"79639837","Spot":0.62,"SideOfStreet":"right","CountryId":"20147700","StateId":"20151542","CountyId":"20153966","CityId":"20154026","DistrictId":"20154031","AddressId":"181257772","RoadLinkId":"37160072"}}},{"Relevance":1.0,"Distance":61.7,"MatchLevel":"houseNumber","MatchQuality":{"Country":1.0,"State":1.0,"County":1.0,"City":1.0,"District":1.0,"Street":[1.0],"HouseNumber":1.0,"PostalCode":1.0},"MatchType":"interpolated","Location":{"LocationId":"NT_vEDpx3.cDWS7otHnP8hLzA_zA","LocationType":"point","DisplayPosition":{"Latitude":52.73419,"Longitude":10.23567},"MapView":{"TopLeft":{"Latitude":52.7353142,"Longitude":10.2338135},"BottomRight":{"Latitude":52.7330658,"Longitude":10.2375265}},"Address":{"Label":"Uelzener Straße 3, 29348 Eschede, Deutschland","Country":"DEU","State":"Niedersachsen","County":"Celle","City":"Eschede","District":"Eschede","Street":"Uelzener Straße","HouseNumber":"3","PostalCode":"29348","AdditionalData":[{"value":"Deutschland","key":"CountryName"},{"value":"Niedersachsen","key":"StateName"},{"value":"Celle","key":"CountyName"}]},"MapReference":{"ReferenceId":"1178613117","Spot":1.0,"SideOfStreet":"right","CountryId":"20147700","StateId":"20151542","CountyId":"20153966","CityId":"20154026","DistrictId":"20154031","AddressId":"181076629","RoadLinkId":"486310973"}}},{"Relevance":1.0,"Distance":67.8,"MatchLevel":"houseNumber","MatchQuality":{"Country":1.0,"State":1.0,"County":1.0,"City":1.0,"District":1.0,"Street":[1.0],"HouseNumber":1.0,"PostalCode":1.0},"MatchType":"interpolated","Location":{"LocationId":"NT_nxsdMFPPnxZsf5IFxjce1A_zA","LocationType":"point","DisplayPosition":{"Latitude":52.7343,"Longitude":10.23755},"MapView":{"TopLeft":{"Latitude":52.7354242,"Longitude":10.2356935},"BottomRight":{"Latitude":52.7331758,"Longitude":10.2394065}},"Address":{"Label":"Imkerstieg 3, 29348 Eschede, Deutschland","Country":"DEU","State":"Niedersachsen","County":"Celle","City":"Eschede","District":"Eschede","Street":"Imkerstieg","HouseNumber":"3","PostalCode":"29348","AdditionalData":[{"value":"Deutschland","key":"CountryName"},{"value":"Niedersachsen","key":"StateName"},{"value":"Celle","key":"CountyName"}]},"MapReference":{"ReferenceId":"554715015","Spot":0.18,"SideOfStreet":"left","CountryId":"20147700","StateId":"20151542","CountyId":"20153966","CityId":"20154026","DistrictId":"20154031","AddressId":"178336965","RoadLinkId":"36877190"}}},{"Relevance":1.0,"Distance":93.4,"MatchLevel":"houseNumber","MatchQuality":{"Country":1.0,"State":1.0,"County":1.0,"City":1.0,"District":1.0,"Street":[1.0],"HouseNumber":1.0,"PostalCode":1.0},"MatchType":"interpolated","Location":{"LocationId":"NT_vEDpx3.cDWS7otHnP8hLzA_xUTQ","LocationType":"point","DisplayPosition":{"Latitude":52.73497,"Longitude":10.23776},"MapView":{"TopLeft":{"Latitude":52.7360942,"Longitude":10.2359034},"BottomRight":{"Latitude":52.7338458,"Longitude":10.2396166}},"Address":{"Label":"Uelzener Straße 15A, 29348 Eschede, Deutschland","Country":"DEU","State":"Niedersachsen","County":"Celle","City":"Eschede","District":"Eschede","Street":"Uelzener Straße","HouseNumber":"15A","PostalCode":"29348","AdditionalData":[{"value":"Deutschland","key":"CountryName"},{"value":"Niedersachsen","key":"StateName"},{"value":"Celle","key":"CountyName"}]},"MapReference":{"ReferenceId":"554715014","Spot":0.11,"SideOfStreet":"right","CountryId":"20147700","StateId":"20151542","CountyId":"20153966","CityId":"20154026","DistrictId":"20154031","AddressId":"180898457","RoadLinkId":"36912988"}}},{"Relevance":1.0,"Distance":94.6,"MatchLevel":"houseNumber","MatchQuality":{"Country":1.0,"State":1.0,"County":1.0,"City":1.0,"District":1.0,"Street":[1.0],"HouseNumber":1.0,"PostalCode":1.0},"MatchType":"interpolated","Location":{"LocationId":"NT_zFoF0euRVe0lp7hQpFaGXB_xA","LocationType":"point","DisplayPosition":{"Latitude":52.73434,"Longitude":10.23491},"MapView":{"TopLeft":{"Latitude":52.7354642,"Longitude":10.2330535},"BottomRight":{"Latitude":52.7332158,"Longitude":10.2367665}},"Address":{"Label":"Bahnhofstraße 1, 29348 Eschede, Deutschland","Country":"DEU","State":"Niedersachsen","County":"Celle","City":"Eschede","District":"Eschede","Street":"Bahnhofstraße","HouseNumber":"1","PostalCode":"29348","AdditionalData":[{"value":"Deutschland","key":"CountryName"},{"value":"Niedersachsen","key":"StateName"},{"value":"Celle","key":"CountyName"}]},"MapReference":{"ReferenceId":"1197004721","Spot":0.66,"SideOfStreet":"right","CountryId":"20147700","StateId":"20151542","CountyId":"20153966","CityId":"20154026","DistrictId":"20154031","AddressId":"179449183","RoadLinkId":"507658479"}}},{"Relevance":1.0,"Distance":103.2,"MatchLevel":"houseNumber","MatchQuality":{"Country":1.0,"State":1.0,"County":1.0,"City":1.0,"District":1.0,"Street":[1.0],"HouseNumber":1.0,"PostalCode":1.0},"MatchType":"interpolated","Location":{"LocationId":"NT_zFoF0euRVe0lp7hQpFaGXB_zA","LocationType":"point","DisplayPosition":{"Latitude":52.73456,"Longitude":10.23475},"MapView":{"TopLeft":{"Latitude":52.7356842,"Longitude":10.2328935},"BottomRight":{"Latitude":52.7334358,"Longitude":10.2366065}},"Address":{"Label":"Bahnhofstraße 3, 29348 Eschede, Deutschland","Country":"DEU","State":"Niedersachsen","County":"Celle","City":"Eschede","District":"Eschede","Street":"Bahnhofstraße","HouseNumber":"3","PostalCode":"29348","AdditionalData":[{"value":"Deutschland","key":"CountryName"},{"value":"Niedersachsen","key":"StateName"},{"value":"Celle","key":"CountyName"}]},"MapReference":{"ReferenceId":"79639829","Spot":0.27,"SideOfStreet":"right","CountryId":"20147700","StateId":"20151542","CountyId":"20153966","CityId":"20154026","DistrictId":"20154031","AddressId":"180788621","RoadLinkId":"36930960"}}},{"Relevance":1.0,"Distance":106.1,"MatchLevel":"street","MatchQuality":{"Country":1.0,"State":1.0,"County":1.0,"City":1.0,"District":1.0,"Street":[1.0],"PostalCode":1.0},"Location":{"LocationId":"NT_vEDpx3.cDWS7otHnP8hLzA_l_79639835_R","LocationType":"point","DisplayPosition":{"Latitude":52.7339,"Longitude":10.23526},"MapView":{"TopLeft":{"Latitude":52.7339,"Longitude":10.23511},"BottomRight":{"Latitude":52.73378,"Longitude":10.23526}},"Address":{"Label":"Uelzener Straße, 29348 Eschede, Deutschland","Country":"DEU","State":"Niedersachsen","County":"Celle","City":"Eschede","District":"Eschede","Street":"Uelzener Straße","PostalCode":"29348","AdditionalData":[{"value":"Deutschland","key":"CountryName"},{"value":"Niedersachsen","key":"StateName"},{"value":"Celle","key":"CountyName"}]},"MapReference":{"ReferenceId":"79639835","Spot":1.0,"SideOfStreet":"right","CountryId":"20147700","StateId":"20151542","CountyId":"20153966","CityId":"20154026","DistrictId":"20154031"}}}]}]}}