{"Response":{"MetaInfo":{"Timestamp":"2020-03-28T09:52:04.542+0000","NextPageInformation":"2"},"View":[{"_type":"SearchResultsViewType","ViewId":0,"Result":[{"Relevance":1.0,"Distance":0.0,"Direction":0.0,"MatchLevel":"district","MatchQuality":{"Country":1.0,"State":1.0,"County":1.0,"City":1.0,"District":1.0,"PostalCode":1.0},"Location":{"LocationId":"NT_rCX-0UyUS.4xADJRA89dgD","LocationType":"point","DisplayPosition":{"Latitude":52.7579521,"Longitude":-1.2052815},"MapView":{"TopLeft":{"Latitude":52.79123,"Longitude":-1.25979},"BottomRight":{"Latitude":52.74345,"Longitude":-1.18932}},"Address":{"Label":"Loughborough, England, United Kingdom","Country":"GBR","State":"England","County":"Leicestershire","City":"Loughborough","District":"Loughborough","PostalCode":"LE11 3","AdditionalData":[{"value":"United Kingdom","key":"CountryName"},{"value":"England","key":"StateName"},{"value":"Leicestershire","key":"CountyName"}]},"MapReference":{"ReferenceId":"1104206610","SideOfStreet":"neither","StateId":"20248595","CountyId":"20354833","CityId":"20354977","DistrictId":"20354978"}}},{"Relevance":1.0,"Distance":2.1,"MatchLevel":"houseNumber","MatchQuality":{"Country":1.0,"State":1.0,"County":1.0,"City":1.0,"District":1.0,"Street":[1.0],"HouseNumber":1.0,"PostalCode":1.0},"MatchType":"interpolated","Location":{"LocationId":"NT_VsVIROceZcUG7a5SQWHr.D_l_26119802_R_xAD","LocationType":"point","DisplayPosition":{"Latitude":52.7580492,"Longitude":-1.2054393},"MapView":{"TopLeft":{"Latitude":52.7591734,"Longitude":-1.2072969},"BottomRight":{"Latitude":52.7569251,"Longitude":-1.2035818}},"Address":{"Label":"10 Beaumont Road, Loughborough, LE11 2, United Kingdom","Country":"GBR","State":"England","County":"Leicestershire","City":"Loughborough","District":"Loughborough","Street":"Beaumont Road","HouseNumber":"10","PostalCode":"LE11 2","AdditionalData":[{"value":"United Kingdom","key":"CountryName"},{"value":"England","key":"StateName"},{"value":"Leicestershire","key":"CountyName"}]},"MapReference":{"ReferenceId":"26119802","Spot":0.42,"SideOfStreet":"right","StateId":"20248595","CountyId":"20354833","CityId":"20354977","DistrictId":"20354978"}}},{"Relevance":1.0,"Distance":33.6,"MatchLevel":"street","MatchQuality":{"Country":1.0,"State":1.0,"County":1.0,"City":1.0,"District":1.0,"Street":[1.0],"PostalCode":1.0},"Location":{"LocationId":"NT_VsVIROceZcUG7a5SQWHr.D_l_26119816_R","LocationType":"point","DisplayPosition":{"Latitude":52.75777,"Longitude":-1.20568},"MapView":{"TopLeft":{"Latitude":52.75777,"Longitude":-1.20585},"BottomRight":{"Latitude":52.75756,"Longitude":-1.20568}},"Address":{"Label":"Beaumont Road, Loughborough, LE11 2, United Kingdom","Country":"GBR","State":"England","County":"Leicestershire","City":"Loughborough","District":"Loughborough","Street":"Beaumont Road","PostalCode":"LE11 2","AdditionalData":[{"value":"United Kingdom","key":"CountryName"},{"value":"England","key":"StateName"},{"value":"Leicestershire","key":"CountyName"}]},"MapReference":{"ReferenceId":"26119816","Spot":1.0,"SideOfStreet":"right","StateId":"20248595","CountyId":"20354833","CityId":"20354977","DistrictId":"20354978"}}},{"Relevance":1.0,"Distance":35.9,"MatchLevel":"houseNumber","MatchQuality":{"Country":1.0,"State":1.0,"County":1.0,"City":1.0,"District":1.0,"Street":[1.0],"HouseNumber":1.0,"PostalCode":1.0},"MatchType":"interpolated","Location":{"LocationId":"NT_VwDW0K8Cf4lfBOSlkL.Y4C_l_577307433_L_1MD","LocationType":"point","DisplayPosition":{"Latitude":52.7582971,"Longitude":-1.2048246},"MapView":{"TopLeft":{"Latitude":52.7594212,"Longitude":-1.2066822},"BottomRight":{"Latitude":52.7571729,"Longitude":-1.202967}},"Address":{"Label":"53 Ling Road, Loughborough, LE11 2, United Kingdom","Country":"GBR","State":"England","County":"Leicestershire","City":"Loughborough","District":"Loughborough","Street":"Ling Road","HouseNumber":"53","PostalCode":"LE11 2","AdditionalData":[{"value":"United Kingdom","key":"CountryName"},{"value":"England","key":"StateName"},{"value":"Leicestershire","key":"CountyName"}]},"MapReference":{"ReferenceId":"577307433","Spot":0.5,"SideOfStreet":"left","StateId":"20248595","CountyId":"20354833","CityId":"20354977","DistrictId":"20354978"}}},{"Relevance":1.0,"Distance":37.5,"MatchLevel":"houseNumber","MatchQuality":{"Country":1.0,"State":1.0,"County":1.0,"City":1.0,"District":1.0,"Street":[1.0],"HouseNumber":1.0,"PostalCode":1.0},"MatchType":"interpolated","Location":{"LocationId":"NT_VsVIROceZcUG7a5SQWHr.D_l_26119803_R_5A","LocationType":"point","DisplayPosition":{"Latitude":52.75782,"Longitude":-1.20588},"MapView":{"TopLeft":{"Latitude":52.7589442,"Longitude":-1.2077376},"BottomRight":{"Latitude":52.7566959,"Longitude":-1.2040225}},"Address":{"Label":"9 Beaumont Road, Loughborough, LE11 2JA, United Kingdom","Country":"GBR","State":"England","County":"Leicestershire","City":"Loughborough","District":"Loughborough","Street":"Beaumont Road","HouseNumber":"9","PostalCode":"LE11 2JA","AdditionalData":[{"value":"United Kingdom","key":"CountryName"},{"value":"England","key":"StateName"},{"value":"Leicestershire","key":"CountyName"}]},"MapReference":{"ReferenceId":"26119803","Spot":0.3,"SideOfStreet":"right","StateId":"20248595","CountyId":"20354833","CityId":"20354977","DistrictId":"20354978"}}},{"Relevance":1.0,"Distance":54.5,"MatchLevel":"street","MatchQuality":{"Country":1.0,"State":1.0,"County":1.0,"City":1.0,"District":1.0,"Street":[1.0],"PostalCode":1.0},"Location":{"LocationId":"NT_IGNxiV3JWTIXHX9xb-izGD_l_565698494_L","LocationType":"point","DisplayPosition":{"Latitude":52.75843,"Longitude":-1.2051},"MapView":{"TopLeft":{"Latitude":52.75865,"Longitude":-1.20554},"BottomRight":{"Latitude":52.75843,"Longitude":-1.2051}},"Address":{"Label":"Ling Road, Loughborough, LE11 2, United Kingdom","Country":"GBR","State":"England","County":"Leicestershire","City":"Loughborough","District":"Loughborough","Street":"Ling Road","PostalCode":"LE11 2","AdditionalData":[{"value":"United Kingdom","key":"CountryName"},{"value":"England","key":"StateName"},{"value":"Leicestershire","key":"CountyName"}]},"MapReference":{"ReferenceId":"565698494","Spot":0.0,"SideOfStreet":"left","StateId":"20248595","CountyId":"20354833","CityId":"20354977","DistrictId":"20354978"}}},{"Relevance":1.0,"Distance":54.9,"MatchLevel":"street","MatchQuality":{"Country":1.0,"State":1.0,"County":1.0,"City":1.0,"District":1.0,"PostalCode":1.0},"Location":{"LocationId":"NT_vr3E85iu6NnE-F7GtI8a2B_l_577307434_L","LocationType":"point","DisplayPosition":{"Latitude":52.75817,"Longitude":-1.20455},"MapView":{"TopLeft":{"Latitude":52.75817,"Longitude":-1.20455},"BottomRight":{"Latitude":52.75816,"Longitude":-1.20427}},"Address":{"Label":"Loughborough, LE11 2, United Kingdom","Country":"GBR","State":"England","County":"Leicestershire","City":"Loughborough","District":"Loughborough","PostalCode":"LE11 2","AdditionalData":[{"value":"United Kingdom","key":"CountryName"},{"value":"England","key":"StateName"},{"value":"Leicestershire","key":"CountyName"}]},"MapReference":{"ReferenceId":"577307434","Spot":1.0,"SideOfStreet":"left","StateId":"20248595","CountyId":"20354833","CityId":"20354977","DistrictId":"20354978"}}},{"Relevance":1.0,"Distance":59.9,"MatchLevel":"houseNumber","MatchQuality":{"Country":1.0,"State":1.0,"County":1.0,"City":1.0,"District":1.0,"Street":[1.0],"HouseNumber":1.0,"PostalCode":1.0},"MatchType":"interpolated","Location":{"LocationId":"NT_P.FrtfT-xqq.CmnTQFAcgD_l_26119863_L_xA","LocationType":"point","DisplayPosition":{"Latitude":52.7574425,"Longitude":-1.2055683},"MapView":{"TopLeft":{"Latitude":52.7585667,"Longitude":-1.2074259},"BottomRight":{"Latitude":52.7563184,"Longitude":-1.2037108}},"Address":{"Label":"1 Farnham Road, Loughborough, LE11 2, United Kingdom","Country":"GBR","State":"England","County":"Leicestershire","City":"Loughborough","District":"Loughborough","Street":"Farnham Road","HouseNumber":"1","PostalCode":"LE11 2","AdditionalData":[{"value":"United Kingdom","key":"CountryName"},{"value":"England","key":"StateName"},{"value":"Leicestershire","key":"CountyName"}]},"MapReference":{"ReferenceId":"26119863","Spot":0.81,"SideOfStreet":"left","StateId":"20248595","CountyId":"20354833","CityId":"20354977","DistrictId":"20354978"}}},{"Relevance":1.0,"Distance":59.9,"MatchLevel":"houseNumber","MatchQuality":{"Country":1.0,"State":1.0,"County":1.0,"City":1.0,"District":1.0,"Street":[1.0],"HouseNumber":1.0,"PostalCode":1.0},"MatchType":"interpolated","Location":{"LocationId":"NT_IGNxiV3JWTIXHX9xb-izGD_l_565698512_R_yAD","LocationType":"point","DisplayPosition":{"Latitude":52.75836,"Longitude":-1.2047},"MapView":{"TopLeft":{"Latitude":52.7594842,"Longitude":-1.2065576},"BottomRight":{"Latitude":52.7572359,"Longitude":-1.2028425}},"Address":{"Label":"20 Ling Road, Loughborough, LE11 2LP, United Kingdom","Country":"GBR","State":"England","County":"Leicestershire","City":"Loughborough","District":"Loughborough","Street":"Ling Road","HouseNumber":"20","PostalCode":"LE11 2LP","AdditionalData":[{"value":"United Kingdom","key":"CountryName"},{"value":"England","key":"StateName"},{"value":"Leicestershire","key":"CountyName"}]},"MapReference":{"ReferenceId":"565698512","Spot":0.58,"SideOfStreet":"right","StateId":"20248595","CountyId":"20354833","CityId":"20354977","DistrictId":"20354978"}}},{"Relevance":1.0,"Distance":60.9,"MatchLevel":"houseNumber","MatchQuality":{"Country":1.0,"State":1.0,"County":1.0,"City":1.0,"District":1.0,"Street":[1.0],"HouseNumber":1.0,"PostalCode":1.0},"MatchType":"interpolated","Location":{"LocationId":"NT_IGNxiV3JWTIXHX9xb-izGD_l_577307432_L_1UD","LocationType":"point","DisplayPosition":{"Latitude":52.7580514,"Longitude":-1.2043127},"MapView":{"TopLeft":{"Latitude":52.7591755,"Longitude":-1.2061703},"BottomRight":{"Latitude":52.7569272,"Longitude":-1.2024552}},"Address":{"Label":"55 Ling Road, Loughborough, LE11 2LW, United Kingdom","Country":"GBR","State":"England","County":"Leicestershire","City":"Loughborough","District":"Loughborough","Street":"Ling Road","HouseNumber":"55","PostalCode":"LE11 2LW","AdditionalData":[{"value":"United Kingdom","key":"CountryName"},{"value":"England","key":"StateName"},{"value":"Leicestershire","key":"CountyName"}]},"MapReference":{"ReferenceId":"577307432","Spot":0.49,"SideOfStreet":"left","StateId":"20248595","CountyId":"20354833","CityId":"20354977","DistrictId":"20354978"}}}]}]}}