{"Response":{"MetaInfo":{"Timestamp":"2020-03-28T10:46:36.459+0000","NextPageInformation":"2"},"View":[{"_type":"SearchResultsViewType","ViewId":0,"Result":[{"Relevance":1.0,"Distance":0.0,"Direction":0.0,"MatchLevel":"district","MatchQuality":{"Country":1.0,"State":1.0,"County":1.0,"City":1.0,"District":1.0,"PostalCode":1.0},"Location":{"LocationId":"NT_LOyKeBlgX6X7VG50wODOZC","LocationType":"point","DisplayPosition":{"Latitude":52.7418117,"Longitude":22.8410872},"MapView":{"TopLeft":{"Latitude":52.75315,"Longitude":22.816},"BottomRight":{"Latitude":52.73811,"Longitude":22.86351}},"Address":{"Label":"Brańsk, Woj. Podlaskie, Polska","Country":"POL","State":"Woj. Podlaskie","County":"Powiat Bielski","City":"Brańsk","District":"Brańsk","PostalCode":"17-120","AdditionalData":[{"value":"Polska","key":"CountryName"},{"value":"Woj. Podlaskie","key":"StateName"},{"value":"Powiat Bielski","key":"CountyName"}]},"MapReference":{"ReferenceId":"851047696","SideOfStreet":"neither","CountryId":"20624059","StateId":"20628466","CountyId":"20628521","CityId":"20692069","DistrictId":"20692070"}}},{"Relevance":1.0,"Distance":23.8,"MatchLevel":"houseNumber","MatchQuality":{"Country":1.0,"State":1.0,"County":1.0,"City":1.0,"District":1.0,"Street":[1.0],"HouseNumber":1.0,"PostalCode":1.0},"MatchType":"interpolated","Location":{"LocationId":"NT_-KOIF9ISVB-jBgD5gTB2zD_5A","LocationType":"point","DisplayPosition":{"Latitude":52.74206,"Longitude":22.84072},"MapView":{"TopLeft":{"Latitude":52.7431842,"Longitude":22.8388631},"BottomRight":{"Latitude":52.7409358,"Longitude":22.8425769}},"Address":{"Label":"ulica Kościelna 9, 17-120 Brańsk, Polska","Country":"POL","State":"Woj. Podlaskie","County":"Powiat Bielski","City":"Brańsk","District":"Brańsk","Street":"ulica Kościelna","HouseNumber":"9","PostalCode":"17-120","AdditionalData":[{"value":"Polska","key":"CountryName"},{"value":"Woj. Podlaskie","key":"StateName"},{"value":"Powiat Bielski","key":"CountyName"}]},"MapReference":{"ReferenceId":"1156570685","Spot":0.57,"SideOfStreet":"right","CountryId":"20624059","StateId":"20628466","CountyId":"20628521","CityId":"20692069","DistrictId":"20692070","AddressId":"209925641","RoadLinkId":"462837644"}}},{"Relevance":1.0,"Distance":75.4,"MatchLevel":"street","MatchQuality":{"Country":1.0,"State":1.0,"County":1.0,"City":1.0,"District":1.0,"PostalCode":1.0},"Location":{"LocationId":"NT_pU3VuwvLnNC-8SA9RlpLYA_l_1156570686_R","LocationType":"point","DisplayPosition":{"Latitude":52.74121,"Longitude":22.84057},"MapView":{"TopLeft":{"Latitude":52.74166,"Longitude":22.8399},"BottomRight":{"Latitude":52.74121,"Longitude":22.84057}},"Address":{"Label":"17-120 Brańsk, Polska","Country":"POL","State":"Woj. Podlaskie","County":"Powiat Bielski","City":"Brańsk","District":"Brańsk","PostalCode":"17-120","AdditionalData":[{"value":"Polska","key":"CountryName"},{"value":"Woj. Podlaskie","key":"StateName"},{"value":"Powiat Bielski","key":"CountyName"}]},"MapReference":{"ReferenceId":"1156570686","Spot":0.0,"SideOfStreet":"right","CountryId":"20624059","StateId":"20628466","CountyId":"20628521","CityId":"20692069","DistrictId":"20692070"}}},{"Relevance":1.0,"Distance":80.9,"MatchLevel":"houseNumber","MatchQuality":{"Country":1.0,"State":1.0,"County":1.0,"City":1.0,"District":1.0,"Street":[1.0],"HouseNumber":1.0,"PostalCode":1.0},"MatchType":"interpolated","Location":{"LocationId":"NT_-KOIF9ISVB-jBgD5gTB2zD_xUzLyA","LocationType":"point","DisplayPosition":{"Latitude":52.7416,"Longitude":22.83979},"MapView":{"TopLeft":{"Latitude":52.7427242,"Longitude":22.8379332},"BottomRight":{"Latitude":52.7404758,"Longitude":22.8416468}},"Address":{"Label":"ulica Kościelna 15/2, 17-120 Brańsk, Polska","Country":"POL","State":"Woj. Podlaskie","County":"Powiat Bielski","City":"Brańsk","District":"Brańsk","Street":"ulica Kościelna","HouseNumber":"15/2","PostalCode":"17-120","AdditionalData":[{"value":"Polska","key":"CountryName"},{"value":"Woj. Podlaskie","key":"StateName"},{"value":"Powiat Bielski","key":"CountyName"}]},"MapReference":{"ReferenceId":"1156570684","Spot":0.61,"SideOfStreet":"right","CountryId":"20624059","StateId":"20628466","CountyId":"20628521","CityId":"20692069","DistrictId":"20692070","AddressId":"210104580","RoadLinkId":"462837643"}}},{"Relevance":1.0,"Distance":86.3,"MatchLevel":"houseNumber","MatchQuality":{"Country":1.0,"State":1.0,"County":1.0,"City":1.0,"District":1.0,"Street":[1.0],"HouseNumber":1.0,"PostalCode":1.0},"MatchType":"interpolated","Location":{"LocationId":"NT_-KOIF9ISVB-jBgD5gTB2zD_1A","LocationType":"point","DisplayPosition":{"Latitude":52.74275,"Longitude":22.84132},"MapView":{"TopLeft":{"Latitude":52.7438742,"Longitude":22.8394631},"BottomRight":{"Latitude":52.7416258,"Longitude":22.8431769}},"Address":{"Label":"ulica Kościelna 5, 17-120 Brańsk, Polska","Country":"POL","State":"Woj. Podlaskie","County":"Powiat Bielski","City":"Brańsk","District":"Brańsk","Street":"ulica Kościelna","HouseNumber":"5","PostalCode":"17-120","AdditionalData":[{"value":"Polska","key":"CountryName"},{"value":"Woj. Podlaskie","key":"StateName"},{"value":"Powiat Bielski","key":"CountyName"}]},"MapReference":{"ReferenceId":"716420896","Spot":0.35,"SideOfStreet":"right","CountryId":"20624059","StateId":"20628466","CountyId":"20628521","CityId":"20692069","DistrictId":"20692070","AddressId":"210183347","RoadLinkId":"145957705"}}},{"Relevance":1.0,"Distance":109.0,"MatchLevel":"street","MatchQuality":{"Country":1.0,"State":1.0,"County":1.0,"City":1.0,"District":1.0,"PostalCode":1.0},"Location":{"LocationId":"NT_pU3VuwvLnNC-8SA9RlpLYA_l_1156570679_R","LocationType":"point","DisplayPosition":{"Latitude":52.74093,"Longitude":22.84038},"MapView":{"TopLeft":{"Latitude":52.74151,"Longitude":22.83962},"BottomRight":{"Latitude":52.74093,"Longitude":22.84038}},"Address":{"Label":"17-120 Brańsk, Polska","Country":"POL","State":"Woj. Podlaskie","County":"Powiat Bielski","City":"Brańsk","District":"Brańsk","PostalCode":"17-120","AdditionalData":[{"value":"Polska","key":"CountryName"},{"value":"Woj. Podlaskie","key":"StateName"},{"value":"Powiat Bielski","key":"CountyName"}]},"MapReference":{"ReferenceId":"1156570679","Spot":0.0,"SideOfStreet":"right","CountryId":"20624059","StateId":"20628466","CountyId":"20628521","CityId":"20692069","DistrictId":"20692070"}}},{"Relevance":1.0,"Distance":109.6,"MatchLevel":"street","MatchQuality":{"Country":1.0,"State":1.0,"County":1.0,"City":1.0,"PostalCode":1.0},"Location":{"LocationId":"NT_wg.b0y-Mx9l5xT40e6GcLA_l_1156570678_R","LocationType":"point","DisplayPosition":{"Latitude":52.7409208,"Longitude":22.8403918},"MapView":{"TopLeft":{"Latitude":52.74093,"Longitude":22.84038},"BottomRight":{"Latitude":52.74061,"Longitude":22.84079}},"Address":{"Label":"17-120, Polska","Country":"POL","State":"Woj. Podlaskie","County":"Powiat Bielski","City":"Brańsk (Gmina)","PostalCode":"17-120","AdditionalData":[{"value":"Polska","key":"CountryName"},{"value":"Woj. Podlaskie","key":"StateName"},{"value":"Powiat Bielski","key":"CountyName"}]},"MapReference":{"ReferenceId":"1156570678","Spot":0.97,"SideOfStreet":"right","CountryId":"20624059","StateId":"20628466","CountyId":"20628521","CityId":"20628526"}}},{"Relevance":1.0,"Distance":111.9,"MatchLevel":"houseNumber","MatchQuality":{"Country":1.0,"State":1.0,"County":1.0,"City":1.0,"District":1.0,"Street":[1.0],"HouseNumber":1.0,"PostalCode":1.0},"MatchType":"interpolated","Location":{"LocationId":"NT_GDxhtqt-FAv0iXWrAfWRJD_xUD","LocationType":"point","DisplayPosition":{"Latitude":52.7414,"Longitude":22.83943},"MapView":{"TopLeft":{"Latitude":52.7425242,"Longitude":22.8375732},"BottomRight":{"Latitude":52.7402758,"Longitude":22.8412868}},"Address":{"Label":"ulica Kościelna 15, 17-120 Brańsk, Polska","Country":"POL","State":"Woj. Podlaskie","County":"Powiat Bielski","City":"Brańsk","District":"Brańsk","Street":"ulica Kościelna","HouseNumber":"15","PostalCode":"17-120","AdditionalData":[{"value":"Polska","key":"CountryName"},{"value":"Woj. Podlaskie","key":"StateName"},{"value":"Powiat Bielski","key":"CountyName"}]},"MapReference":{"ReferenceId":"596088388","Spot":0.82,"SideOfStreet":"right","CountryId":"20624059","StateId":"20628466","CountyId":"20628521","CityId":"20692069","DistrictId":"20692070","AddressId":"701908769","RoadLinkId":"173814058"}}},{"Relevance":1.0,"Distance":119.3,"MatchLevel":"houseNumber","MatchQuality":{"Country":1.0,"State":1.0,"County":1.0,"City":1.0,"District":1.0,"Street":[1.0],"HouseNumber":1.0,"PostalCode":1.0},"MatchType":"interpolated","Location":{"LocationId":"NT_I25P5KWV9CsSrghONqFouB_1A","LocationType":"point","DisplayPosition":{"Latitude":52.7429,"Longitude":22.84037},"MapView":{"TopLeft":{"Latitude":52.7440242,"Longitude":22.8385131},"BottomRight":{"Latitude":52.7417758,"Longitude":22.8422269}},"Address":{"Label":"ulica Henryka Sienkiewicza 5, 17-120 Brańsk, Polska","Country":"POL","State":"Woj. Podlaskie","County":"Powiat Bielski","City":"Brańsk","District":"Brańsk","Street":"ulica Henryka Sienkiewicza","HouseNumber":"5","PostalCode":"17-120","AdditionalData":[{"value":"Polska","key":"CountryName"},{"value":"Woj. Podlaskie","key":"StateName"},{"value":"Powiat Bielski","key":"CountyName"}]},"MapReference":{"ReferenceId":"596088274","Spot":0.64,"SideOfStreet":"right","CountryId":"20624059","StateId":"20628466","CountyId":"20628521","CityId":"20692069","DistrictId":"20692070","AddressId":"211284313","RoadLinkId":"121358495"}}},{"Relevance":1.0,"Distance":124.4,"MatchLevel":"houseNumber","MatchQuality":{"Country":1.0,"State":1.0,"County":1.0,"City":1.0,"District":1.0,"Street":[1.0],"HouseNumber":1.0,"PostalCode":1.0},"MatchType":"interpolated","Location":{"LocationId":"NT_I25P5KWV9CsSrghONqFouB_zA","LocationType":"point","DisplayPosition":{"Latitude":52.74292,"Longitude":22.84084},"MapView":{"TopLeft":{"Latitude":52.7440442,"Longitude":22.8389831},"BottomRight":{"Latitude":52.7417958,"Longitude":22.8426969}},"Address":{"Label":"ulica Henryka Sienkiewicza 3, 17-120 Brańsk, Polska","Country":"POL","State":"Woj. Podlaskie","County":"Powiat Bielski","City":"Brańsk","District":"Brańsk","Street":"ulica Henryka Sienkiewicza","HouseNumber":"3","PostalCode":"17-120","AdditionalData":[{"value":"Polska","key":"CountryName"},{"value":"Woj. Podlaskie","key":"StateName"},{"value":"Powiat Bielski","key":"CountyName"}]},"MapReference":{"ReferenceId":"596088279","Spot":0.66,"SideOfStreet":"left","CountryId":"20624059","StateId":"20628466","CountyId":"20628521","CityId":"20692069","DistrictId":"20692070","AddressId":"701908867","RoadLinkId":"173814935"}}}]}]}}