{"Response":{"MetaInfo":{"Timestamp":"2020-03-28T11:54:35.908+0000","NextPageInformation":"2"},"View":[{"_type":"SearchResultsViewType","ViewId":0,"Result":[{"Relevance":1.0,"Distance":0.0,"Direction":0.0,"MatchLevel":"district","MatchQuality":{"Country":1.0,"State":1.0,"County":1.0,"City":1.0,"District":1.0,"PostalCode":1.0},"Location":{"LocationId":"NT_Ntj6ACoJ0dz9GubvflS9-C","LocationType":"point","DisplayPosition":{"Latitude":52.7325999,"Longitude":-1.7494006},"MapView":{"TopLeft":{"Latitude":52.73741,"Longitude":-1.75655},"BottomRight":{"Latitude":52.72652,"Longitude":-1.7379}},"Address":{"Label":"Alrewas, Burton upon Trent, England, United Kingdom","Country":"GBR","State":"England","County":"Staffordshire","City":"Burton upon Trent","District":"Alrewas","PostalCode":"DE13 7","AdditionalData":[{"value":"United Kingdom","key":"CountryName"},{"value":"England","key":"StateName"},{"value":"Staffordshire","key":"CountyName"}]},"MapReference":{"ReferenceId":"737150694","SideOfStreet":"neither","StateId":"20248595","CountyId":"20345040","CityId":"20357932","DistrictId":"20357934"}}},{"Relevance":1.0,"Distance":18.0,"MatchLevel":"houseNumber","MatchQuality":{"Country":1.0,"State":1.0,"County":1.0,"City":1.0,"District":1.0,"Street":[1.0],"HouseNumber":1.0,"PostalCode":1.0},"MatchType":"interpolated","Location":{"LocationId":"NT_K1TUPYQp5ApmSLNBvsS5IA_l_737150695_R_xIDM","LocationType":"point","DisplayPosition":{"Latitude":52.73279,"Longitude":-1.74915},"MapView":{"TopLeft":{"Latitude":52.7339142,"Longitude":-1.7510064},"BottomRight":{"Latitude":52.7316658,"Longitude":-1.7472935}},"Address":{"Label":"120 Main Street, Burton upon Trent, DE13 7AE, United Kingdom","Country":"GBR","State":"England","County":"Staffordshire","City":"Burton upon Trent","District":"Alrewas","Street":"Main Street","HouseNumber":"120","PostalCode":"DE13 7AE","AdditionalData":[{"value":"United Kingdom","key":"CountryName"},{"value":"England","key":"StateName"},{"value":"Staffordshire","key":"CountyName"}]},"MapReference":{"ReferenceId":"737150695","Spot":0.43,"SideOfStreet":"right","StateId":"20248595","CountyId":"20345040","CityId":"20357932","DistrictId":"20357934"}}},{"Relevance":1.0,"Distance":20.1,"MatchLevel":"houseNumber","MatchQuality":{"Country":1.0,"State":1.0,"County":1.0,"City":1.0,"District":1.0,"Street":[1.0],"HouseNumber":1.0,"PostalCode":1.0},"MatchType":"interpolated","Location":{"LocationId":"NT_K1TUPYQp5ApmSLNBvsS5IA_l_26257219_L_xIjM","LocationType":"point","DisplayPosition":{"Latitude":52.7327955,"Longitude":-1.7496711},"MapView":{"TopLeft":{"Latitude":52.7339196,"Longitude":-1.7515275},"BottomRight":{"Latitude":52.7316713,"Longitude":-1.7478146}},"Address":{"Label":"122 Main Street, Burton upon Trent, DE13 7AE, United Kingdom","Country":"GBR","State":"England","County":"Staffordshire","City":"Burton upon Trent","District":"Alrewas","Street":"Main Street","HouseNumber":"122","PostalCode":"DE13 7AE","AdditionalData":[{"value":"United Kingdom","key":"CountryName"},{"value":"England","key":"StateName"},{"value":"Staffordshire","key":"CountyName"}]},"MapReference":{"ReferenceId":"26257219","Spot":0.5,"SideOfStreet":"left","StateId":"20248595","CountyId":"20345040","CityId":"20357932","DistrictId":"20357934"}}},{"Relevance":1.0,"Distance":21.2,"MatchLevel":"street","MatchQuality":{"Country":1.0,"State":1.0,"County":1.0,"City":1.0,"District":1.0,"PostalCode":1.0},"Location":{"LocationId":"NT_1gSGbqNpqhb02vo0HwuzhC_l_26257218_L","LocationType":"point","DisplayPosition":{"Latitude":52.73279,"Longitude":-1.74938},"MapView":{"TopLeft":{"Latitude":52.73313,"Longitude":-1.7495},"BottomRight":{"Latitude":52.73279,"Longitude":-1.74938}},"Address":{"Label":"Burton upon Trent, DE13 7, United Kingdom","Country":"GBR","State":"England","County":"Staffordshire","City":"Burton upon Trent","District":"Alrewas","PostalCode":"DE13 7","AdditionalData":[{"value":"United Kingdom","key":"CountryName"},{"value":"England","key":"StateName"},{"value":"Staffordshire","key":"CountyName"}]},"MapReference":{"ReferenceId":"26257218","Spot":0.0,"SideOfStreet":"left","StateId":"20248595","CountyId":"20345040","CityId":"20357932","DistrictId":"20357934"}}},{"Relevance":1.0,"Distance":37.6,"MatchLevel":"street","MatchQuality":{"Country":1.0,"State":1.0,"County":1.0,"City":1.0,"District":1.0,"Street":[1.0],"PostalCode":1.0},"Location":{"LocationId":"NT_fmBWV2lTionjgMAwnKgYRC_l_737150699_R","LocationType":"point","DisplayPosition":{"Latitude":52.7322619,"Longitude":-1.7494147},"MapView":{"TopLeft":{"Latitude":52.73235,"Longitude":-1.75012},"BottomRight":{"Latitude":52.73226,"Longitude":-1.74937}},"Address":{"Label":"Swallow Close, Burton upon Trent, DE13 7, United Kingdom","Country":"GBR","State":"England","County":"Staffordshire","City":"Burton upon Trent","District":"Alrewas","Street":"Swallow Close","PostalCode":"DE13 7","AdditionalData":[{"value":"United Kingdom","key":"CountryName"},{"value":"England","key":"StateName"},{"value":"Staffordshire","key":"CountyName"}]},"MapReference":{"ReferenceId":"737150699","Spot":0.06,"SideOfStreet":"right","StateId":"20248595","CountyId":"20345040","CityId":"20357932","DistrictId":"20357934"}}},{"Relevance":1.0,"Distance":42.7,"MatchLevel":"street","MatchQuality":{"Country":1.0,"State":1.0,"County":1.0,"City":1.0,"District":1.0,"Street":[1.0],"PostalCode":1.0},"Location":{"LocationId":"NT_C3S1aRoWnSm8UQpMY0LtnB_l_737150696_L","LocationType":"point","DisplayPosition":{"Latitude":52.73279,"Longitude":-1.74885},"MapView":{"TopLeft":{"Latitude":52.73279,"Longitude":-1.74885},"BottomRight":{"Latitude":52.73219,"Longitude":-1.7485}},"Address":{"Label":"White Hart Mews, Burton upon Trent, DE13 7, United Kingdom","Country":"GBR","State":"England","County":"Staffordshire","City":"Burton upon Trent","District":"Alrewas","Street":"White Hart Mews","PostalCode":"DE13 7","AdditionalData":[{"value":"United Kingdom","key":"CountryName"},{"value":"England","key":"StateName"},{"value":"Staffordshire","key":"CountyName"}]},"MapReference":{"ReferenceId":"737150696","Spot":1.0,"SideOfStreet":"left","StateId":"20248595","CountyId":"20345040","CityId":"20357932","DistrictId":"20357934"}}},{"Relevance":1.0,"Distance":43.6,"MatchLevel":"postalCode","MatchQuality":{"PostalCode":1.0},"Location":{"LocationId":"NT_fmBWV2lTionjgMAwnKgYRC_l_737150699_R","LocationType":"point","DisplayPosition":{"Latitude":52.73222,"Longitude":-1.74956},"MapView":{"TopLeft":{"Latitude":52.7412132,"Longitude":-1.7644115},"BottomRight":{"Latitude":52.7232268,"Longitude":-1.7347085}},"Address":{"Label":"DE13 7FB, Burton upon Trent, England, United Kingdom","Country":"GBR","State":"England","County":"Staffordshire","City":"Burton upon Trent","PostalCode":"DE13 7FB","AdditionalData":[{"value":"United Kingdom","key":"CountryName"},{"value":"England","key":"StateName"},{"value":"Staffordshire","key":"CountyName"}]},"MapReference":{"ReferenceId":"737150699","Spot":0.06,"SideOfStreet":"neither","StateId":"20248595","CountyId":"20345040","CityId":"20357932"}}},{"Relevance":1.0,"Distance":44.3,"MatchLevel":"street","MatchQuality":{"Country":1.0,"State":1.0,"County":1.0,"City":1.0,"District":1.0,"Street":[1.0],"PostalCode":1.0},"Location":{"LocationId":"NT_K1TUPYQp5ApmSLNBvsS5IA_l_26257217_L","LocationType":"point","DisplayPosition":{"Latitude":52.73281,"Longitude":-1.74996},"MapView":{"TopLeft":{"Latitude":52.73282,"Longitude":-1.75004},"BottomRight":{"Latitude":52.73281,"Longitude":-1.74996}},"Address":{"Label":"Main Street, Burton upon Trent, DE13 7, United Kingdom","Country":"GBR","State":"England","County":"Staffordshire","City":"Burton upon Trent","District":"Alrewas","Street":"Main Street","PostalCode":"DE13 7","AdditionalData":[{"value":"United Kingdom","key":"CountryName"},{"value":"England","key":"StateName"},{"value":"Staffordshire","key":"CountyName"}]},"MapReference":{"ReferenceId":"26257217","Spot":0.0,"SideOfStreet":"left","StateId":"20248595","CountyId":"20345040","CityId":"20357932","DistrictId":"20357934"}}},{"Relevance":1.0,"Distance":45.5,"MatchLevel":"street","MatchQuality":{"Country":1.0,"State":1.0,"County":1.0,"City":1.0,"District":1.0,"Street":[1.0],"PostalCode":1.0},"Location":{"LocationId":"NT_5vBM2g2N1LNdzImoexkddB_l_26257216_R","LocationType":"point","DisplayPosition":{"Latitude":52.7329688,"Longitude":-1.7496932},"MapView":{"TopLeft":{"Latitude":52.73313,"Longitude":-1.74996},"BottomRight":{"Latitude":52.73281,"Longitude":-1.74949}},"Address":{"Label":"Post Office Road, Burton upon Trent, DE13 7, United Kingdom","Country":"GBR","State":"England","County":"Staffordshire","City":"Burton upon Trent","District":"Alrewas","Street":"Post Office Road","PostalCode":"DE13 7","AdditionalData":[{"value":"United Kingdom","key":"CountryName"},{"value":"England","key":"StateName"},{"value":"Staffordshire","key":"CountyName"}]},"MapReference":{"ReferenceId":"26257216","Spot":0.55,"SideOfStreet":"right","StateId":"20248595","CountyId":"20345040","CityId":"20357932","DistrictId":"20357934"}}},{"Relevance":1.0,"Distance":54.9,"MatchLevel":"postalCode","MatchQuality":{"PostalCode":1.0},"Location":{"LocationId":"NT_C3S1aRoWnSm8UQpMY0LtnB_l_737150696_L","LocationType":"point","DisplayPosition":{"Latitude":52.73231,"Longitude":-1.74874},"MapView":{"TopLeft":{"Latitude":52.7413032,"Longitude":-1.7635916},"BottomRight":{"Latitude":52.7233168,"Longitude":-1.7338884}},"Address":{"Label":"DE13 7AD, Burton upon Trent, England, United Kingdom","Country":"GBR","State":"England","County":"Staffordshire","City":"Burton upon Trent","PostalCode":"DE13 7AD","AdditionalData":[{"value":"United Kingdom","key":"CountryName"},{"value":"England","key":"StateName"},{"value":"Staffordshire","key":"CountyName"}]},"MapReference":{"ReferenceId":"737150696","Spot":1.0,"SideOfStreet":"neither","StateId":"20248595","CountyId":"20345040","CityId":"20357932"}}}]}]}}