{"Response":{"MetaInfo":{"Timestamp":"2020-03-28T11:31:29.322+0000","NextPageInformation":"2"},"View":[{"_type":"SearchResultsViewType","ViewId":0,"Result":[{"Relevance":1.0,"Distance":0.0,"Direction":0.0,"MatchLevel":"district","MatchQuality":{"Country":1.0,"State":1.0,"County":1.0,"City":1.0,"District":1.0,"PostalCode":1.0},"Location":{"LocationId":"NT_zC6YzL4nIGZWXv.O14XkZC","LocationType":"point","DisplayPosition":{"Latitude":52.7989672,"Longitude":21.9120662},"MapView":{"TopLeft":{"Latitude":52.83476,"Longitude":21.84734},"BottomRight":{"Latitude":52.77976,"Longitude":21.92779}},"Address":{"Label":"Ostrów Mazowiecka, Woj. Mazowieckie, Polska","Country":"POL","State":"Woj. Mazowieckie","County":"Powiat Ostrowski","City":"Ostrów Mazowiecka","District":"Ostrów Mazowiecka","PostalCode":"07-300","AdditionalData":[{"value":"Polska","key":"CountryName"},{"value":"Woj. Mazowieckie","key":"StateName"},{"value":"Powiat Ostrowski","key":"CountyName"}]},"MapReference":{"ReferenceId":"973115214","SideOfStreet":"neither","CountryId":"20624059","StateId":"20627182","CountyId":"20627472","CityId":"20700251","DistrictId":"20700252"}}},{"Relevance":1.0,"Distance":51.2,"MatchLevel":"street","MatchQuality":{"Country":1.0,"State":1.0,"County":1.0,"City":1.0,"District":1.0,"PostalCode":1.0},"Location":{"LocationId":"NT_xTpTsQBbcRJ2IJwIDRZ5vD_l_1233538160_L","LocationType":"point","DisplayPosition":{"Latitude":52.79927,"Longitude":21.91264},"MapView":{"TopLeft":{"Latitude":52.79957,"Longitude":21.91264},"BottomRight":{"Latitude":52.7987,"Longitude":21.91391}},"Address":{"Label":"07-300 Ostrów Mazowiecka, Polska","Country":"POL","State":"Woj. Mazowieckie","County":"Powiat Ostrowski","City":"Ostrów Mazowiecka","District":"Ostrów Mazowiecka","PostalCode":"07-300","AdditionalData":[{"value":"Polska","key":"CountryName"},{"value":"Woj. Mazowieckie","key":"StateName"},{"value":"Powiat Ostrowski","key":"CountyName"}]},"MapReference":{"ReferenceId":"1233538160","Spot":0.81,"SideOfStreet":"left","CountryId":"20624059","StateId":"20627182","CountyId":"20627472","CityId":"20700251","DistrictId":"20700252"}}},{"Relevance":1.0,"Distance":52.9,"MatchLevel":"street","MatchQuality":{"Country":1.0,"State":1.0,"County":1.0,"City":1.0,"District":1.0,"PostalCode":1.0},"Location":{"LocationId":"NT_xTpTsQBbcRJ2IJwIDRZ5vD_l_1233538147_R","LocationType":"point","DisplayPosition":{"Latitude":52.7993663,"Longitude":21.9116386},"MapView":{"TopLeft":{"Latitude":52.79967,"Longitude":21.91153},"BottomRight":{"Latitude":52.79925,"Longitude":21.91187}},"Address":{"Label":"07-300 Ostrów Mazowiecka, Polska","Country":"POL","State":"Woj. Mazowieckie","County":"Powiat Ostrowski","City":"Ostrów Mazowiecka","District":"Ostrów Mazowiecka","PostalCode":"07-300","AdditionalData":[{"value":"Polska","key":"CountryName"},{"value":"Woj. Mazowieckie","key":"StateName"},{"value":"Powiat Ostrowski","key":"CountyName"}]},"MapReference":{"ReferenceId":"1233538147","Spot":0.29,"SideOfStreet":"right","CountryId":"20624059","StateId":"20627182","CountyId":"20627472","CityId":"20700251","DistrictId":"20700252"}}},{"Relevance":1.0,"Distance":61.8,"MatchLevel":"street","MatchQuality":{"Country":1.0,"State":1.0,"County":1.0,"City":1.0,"District":1.0,"PostalCode":1.0},"Location":{"LocationId":"NT_xTpTsQBbcRJ2IJwIDRZ5vD_l_1233538155_R","LocationType":"point","DisplayPosition":{"Latitude":52.79952,"Longitude":21.91216},"MapView":{"TopLeft":{"Latitude":52.79967,"Longitude":21.91216},"BottomRight":{"Latitude":52.79952,"Longitude":21.91225}},"Address":{"Label":"07-300 Ostrów Mazowiecka, Polska","Country":"POL","State":"Woj. Mazowieckie","County":"Powiat Ostrowski","City":"Ostrów Mazowiecka","District":"Ostrów Mazowiecka","PostalCode":"07-300","AdditionalData":[{"value":"Polska","key":"CountryName"},{"value":"Woj. Mazowieckie","key":"StateName"},{"value":"Powiat Ostrowski","key":"CountyName"}]},"MapReference":{"ReferenceId":"1233538155","Spot":0.0,"SideOfStreet":"right","CountryId":"20624059","StateId":"20627182","CountyId":"20627472","CityId":"20700251","DistrictId":"20700252"}}},{"Relevance":1.0,"Distance":67.5,"MatchLevel":"houseNumber","MatchQuality":{"Country":1.0,"State":1.0,"County":1.0,"City":1.0,"District":1.0,"Street":[1.0],"HouseNumber":1.0,"PostalCode":1.0},"MatchType":"interpolated","Location":{"LocationId":"NT_uprQrOTo0OLsYButi3NjJC_2gD","LocationType":"point","DisplayPosition":{"Latitude":52.79973,"Longitude":21.91249},"MapView":{"TopLeft":{"Latitude":52.8008542,"Longitude":21.9106307},"BottomRight":{"Latitude":52.7986058,"Longitude":21.9143493}},"Address":{"Label":"ulica Stanisława Duboisa 68, 07-300 Ostrów Mazowiecka, Polska","Country":"POL","State":"Woj. Mazowieckie","County":"Powiat Ostrowski","City":"Ostrów Mazowiecka","District":"Ostrów Mazowiecka","Street":"ulica Stanisława Duboisa","HouseNumber":"68","PostalCode":"07-300","AdditionalData":[{"value":"Polska","key":"CountryName"},{"value":"Woj. Mazowieckie","key":"StateName"},{"value":"Powiat Ostrowski","key":"CountyName"}]},"MapReference":{"ReferenceId":"1233538156","Spot":0.53,"SideOfStreet":"left","CountryId":"20624059","StateId":"20627182","CountyId":"20627472","CityId":"20700251","DistrictId":"20700252","AddressId":"732039959","RoadLinkId":"553755004"}}},{"Relevance":1.0,"Distance":79.1,"MatchLevel":"street","MatchQuality":{"Country":1.0,"State":1.0,"County":1.0,"City":1.0,"District":1.0,"PostalCode":1.0},"Location":{"LocationId":"NT_xTpTsQBbcRJ2IJwIDRZ5vD_l_1233538154_R","LocationType":"point","DisplayPosition":{"Latitude":52.79967,"Longitude":21.91225},"MapView":{"TopLeft":{"Latitude":52.79976,"Longitude":21.91225},"BottomRight":{"Latitude":52.79967,"Longitude":21.91231}},"Address":{"Label":"07-300 Ostrów Mazowiecka, Polska","Country":"POL","State":"Woj. Mazowieckie","County":"Powiat Ostrowski","City":"Ostrów Mazowiecka","District":"Ostrów Mazowiecka","PostalCode":"07-300","AdditionalData":[{"value":"Polska","key":"CountryName"},{"value":"Woj. Mazowieckie","key":"StateName"},{"value":"Powiat Ostrowski","key":"CountyName"}]},"MapReference":{"ReferenceId":"1233538154","Spot":0.0,"SideOfStreet":"right","CountryId":"20624059","StateId":"20627182","CountyId":"20627472","CityId":"20700251","DistrictId":"20700252"}}},{"Relevance":1.0,"Distance":79.1,"MatchLevel":"street","MatchQuality":{"Country":1.0,"State":1.0,"County":1.0,"City":1.0,"District":1.0,"PostalCode":1.0},"Location":{"LocationId":"NT_xTpTsQBbcRJ2IJwIDRZ5vD_l_1233538152_L","LocationType":"point","DisplayPosition":{"Latitude":52.79967,"Longitude":21.91225},"MapView":{"TopLeft":{"Latitude":52.79967,"Longitude":21.91225},"BottomRight":{"Latitude":52.79957,"Longitude":21.9128}},"Address":{"Label":"07-300 Ostrów Mazowiecka, Polska","Country":"POL","State":"Woj. Mazowieckie","County":"Powiat Ostrowski","City":"Ostrów Mazowiecka","District":"Ostrów Mazowiecka","PostalCode":"07-300","AdditionalData":[{"value":"Polska","key":"CountryName"},{"value":"Woj. Mazowieckie","key":"StateName"},{"value":"Powiat Ostrowski","key":"CountyName"}]},"MapReference":{"ReferenceId":"1233538152","Spot":1.0,"SideOfStreet":"left","CountryId":"20624059","StateId":"20627182","CountyId":"20627472","CityId":"20700251","DistrictId":"20700252"}}},{"Relevance":1.0,"Distance":79.3,"MatchLevel":"street","MatchQuality":{"Country":1.0,"State":1.0,"County":1.0,"City":1.0,"District":1.0,"PostalCode":1.0},"Location":{"LocationId":"NT_xTpTsQBbcRJ2IJwIDRZ5vD_l_1233538148_L","LocationType":"point","DisplayPosition":{"Latitude":52.79967,"Longitude":21.91187},"MapView":{"TopLeft":{"Latitude":52.79975,"Longitude":21.91184},"BottomRight":{"Latitude":52.79967,"Longitude":21.91187}},"Address":{"Label":"07-300 Ostrów Mazowiecka, Polska","Country":"POL","State":"Woj. Mazowieckie","County":"Powiat Ostrowski","City":"Ostrów Mazowiecka","District":"Ostrów Mazowiecka","PostalCode":"07-300","AdditionalData":[{"value":"Polska","key":"CountryName"},{"value":"Woj. Mazowieckie","key":"StateName"},{"value":"Powiat Ostrowski","key":"CountyName"}]},"MapReference":{"ReferenceId":"1233538148","Spot":0.0,"SideOfStreet":"left","CountryId":"20624059","StateId":"20627182","CountyId":"20627472","CityId":"20700251","DistrictId":"20700252"}}},{"Relevance":1.0,"Distance":79.7,"MatchLevel":"street","MatchQuality":{"Country":1.0,"State":1.0,"County":1.0,"City":1.0,"District":1.0,"PostalCode":1.0},"Location":{"LocationId":"NT_xTpTsQBbcRJ2IJwIDRZ5vD_l_1233538153_L","LocationType":"point","DisplayPosition":{"Latitude":52.7996788,"Longitude":21.912205},"MapView":{"TopLeft":{"Latitude":52.79975,"Longitude":21.91184},"BottomRight":{"Latitude":52.79967,"Longitude":21.91225}},"Address":{"Label":"07-300 Ostrów Mazowiecka, Polska","Country":"POL","State":"Woj. Mazowieckie","County":"Powiat Ostrowski","City":"Ostrów Mazowiecka","District":"Ostrów Mazowiecka","PostalCode":"07-300","AdditionalData":[{"value":"Polska","key":"CountryName"},{"value":"Woj. Mazowieckie","key":"StateName"},{"value":"Powiat Ostrowski","key":"CountyName"}]},"MapReference":{"ReferenceId":"1233538153","Spot":0.11,"SideOfStreet":"left","CountryId":"20624059","StateId":"20627182","CountyId":"20627472","CityId":"20700251","DistrictId":"20700252"}}},{"Relevance":1.0,"Distance":88.4,"MatchLevel":"street","MatchQuality":{"Country":1.0,"State":1.0,"County":1.0,"City":1.0,"District":1.0,"PostalCode":1.0},"Location":{"LocationId":"NT_xTpTsQBbcRJ2IJwIDRZ5vD_l_1233538149_L","LocationType":"point","DisplayPosition":{"Latitude":52.79975,"Longitude":21.91184},"MapView":{"TopLeft":{"Latitude":52.79986,"Longitude":21.9118},"BottomRight":{"Latitude":52.79975,"Longitude":21.91184}},"Address":{"Label":"07-300 Ostrów Mazowiecka, Polska","Country":"POL","State":"Woj. Mazowieckie","County":"Powiat Ostrowski","City":"Ostrów Mazowiecka","District":"Ostrów Mazowiecka","PostalCode":"07-300","AdditionalData":[{"value":"Polska","key":"CountryName"},{"value":"Woj. Mazowieckie","key":"StateName"},{"value":"Powiat Ostrowski","key":"CountyName"}]},"MapReference":{"ReferenceId":"1233538149","Spot":0.0,"SideOfStreet":"left","CountryId":"20624059","StateId":"20627182","CountyId":"20627472","CityId":"20700251","DistrictId":"20700252"}}}]}]}}