{"Response":{"MetaInfo":{"Timestamp":"2020-03-31T17:04:04.860+0000","NextPageInformation":"2"},"View":[{"_type":"SearchResultsViewType","ViewId":0,"Result":[{"Relevance":1.0,"Distance":0.0,"Direction":0.0,"MatchLevel":"district","MatchQuality":{"Country":1.0,"County":1.0,"City":1.0,"District":1.0,"PostalCode":1.0},"Location":{"LocationId":"NT_4LM5Pna2oyGtHbq4BNyVoB","LocationType":"point","DisplayPosition":{"Latitude":52.7931,"Longitude":-6.1414},"MapView":{"TopLeft":{"Latitude":52.81424,"Longitude":-6.18245},"BottomRight":{"Latitude":52.77875,"Longitude":-6.13025}},"Address":{"Label":"Arklow, Ireland","Country":"IRL","County":"County Wicklow","City":"Arklow","District":"Arklow","AdditionalData":[{"value":"Ireland","key":"CountryName"},{"value":"County Wicklow","key":"CountyName"}]},"MapReference":{"ReferenceId":"578678563","SideOfStreet":"neither","CountryId":"20403667","CountyId":"20411245","CityId":"20557469","DistrictId":"20611600"}}},{"Relevance":1.0,"Distance":20.3,"MatchLevel":"landmark","MatchQuality":{"Country":1.0,"County":1.0,"Name":1.0},"Location":{"LocationId":"NT_M--bOyzDfPifXsnKpDsouB","LocationType":"river","Name":"River Avoca","DisplayPosition":{"Latitude":52.82274,"Longitude":-6.20954},"MapView":{"TopLeft":{"Latitude":52.88511,"Longitude":-6.23248},"BottomRight":{"Latitude":52.79301,"Longitude":-6.13847}},"Address":{"Label":"County Wicklow, Ireland","Country":"IRL","County":"County Wicklow","AdditionalData":[{"value":"Ireland","key":"CountryName"},{"value":"County Wicklow","key":"CountyName"}]},"MapReference":{"CountryId":"20403667","CountyId":"20411245","PlaceId":"1236936563"}}},{"Relevance":1.0,"Distance":84.5,"MatchLevel":"street","MatchQuality":{"Country":1.0,"County":1.0,"City":1.0,"District":1.0,"Street":[1.0],"PostalCode":1.0},"Location":{"LocationId":"NT_--vDdgxaEaoahHHTxeYp9D_l_578678024_L","LocationType":"point","DisplayPosition":{"Latitude":52.7938,"Longitude":-6.14189},"MapView":{"TopLeft":{"Latitude":52.79558,"Longitude":-6.14489},"BottomRight":{"Latitude":52.7938,"Longitude":-6.14189}},"Address":{"Label":"North Quay, Arklow, County Wicklow, Y14, Ireland","Country":"IRL","County":"County Wicklow","City":"Arklow","District":"Arklow","Street":"North Quay","PostalCode":"Y14","AdditionalData":[{"value":"Ireland","key":"CountryName"},{"value":"County Wicklow","key":"CountyName"}]},"MapReference":{"ReferenceId":"578678024","Spot":0.0,"SideOfStreet":"left","CountryId":"20403667","CountyId":"20411245","CityId":"20557469","DistrictId":"20611600"}}},{"Relevance":1.0,"Distance":110.5,"MatchLevel":"street","MatchQuality":{"Country":1.0,"County":1.0,"City":1.0,"District":1.0,"Street":[1.0],"PostalCode":1.0},"Location":{"LocationId":"NT_C.ZNPmtbvMwOwsbqY-1dUB_l_578678513_R","LocationType":"point","DisplayPosition":{"Latitude":52.79316,"Longitude":-6.14304},"MapView":{"TopLeft":{"Latitude":52.79316,"Longitude":-6.14497},"BottomRight":{"Latitude":52.79171,"Longitude":-6.14304}},"Address":{"Label":"South Quay, Arklow, County Wicklow, Y14, Ireland","Country":"IRL","County":"County Wicklow","City":"Arklow","District":"Arklow","Street":"South Quay","PostalCode":"Y14","AdditionalData":[{"value":"Ireland","key":"CountryName"},{"value":"County Wicklow","key":"CountyName"}]},"MapReference":{"ReferenceId":"578678513","Spot":1.0,"SideOfStreet":"right","CountryId":"20403667","CountyId":"20411245","CityId":"20557469","DistrictId":"20611600"}}},{"Relevance":1.0,"Distance":144.2,"MatchLevel":"landmark","MatchQuality":{"Country":1.0,"County":1.0,"City":1.0,"District":1.0,"PostalCode":1.0,"Name":1.0},"Location":{"LocationId":"NT_ruGAgTJZi9vjAyG1kbtgcA_p_EG7okQDxsiuf.aKgHP3BJC","LocationType":"golfCourse","Name":"Arklow Golf Club","DisplayPosition":{"Latitude":52.78954,"Longitude":-6.14918},"MapView":{"TopLeft":{"Latitude":52.7935,"Longitude":-6.15062},"BottomRight":{"Latitude":52.78395,"Longitude":-6.13669}},"Address":{"Label":"Arklow, County Wicklow, Y14, Ireland","Country":"IRL","County":"County Wicklow","City":"Arklow","District":"Arklow","PostalCode":"Y14","AdditionalData":[{"value":"Ireland","key":"CountryName"},{"value":"County Wicklow","key":"CountyName"}]},"MapReference":{"CountryId":"20403667","CountyId":"20411245","CityId":"20557469","DistrictId":"20611600","PlaceId":"556991893"}}},{"Relevance":1.0,"Distance":185.6,"MatchLevel":"postalCode","MatchQuality":{"PostalCode":1.0},"Location":{"LocationId":"NT_C.ZNPmtbvMwOwsbqY-1dUB_l_578678513_R","LocationType":"point","DisplayPosition":{"Latitude":52.79232,"Longitude":-6.14384},"MapView":{"TopLeft":{"Latitude":52.8013132,"Longitude":-6.1587121},"BottomRight":{"Latitude":52.7833268,"Longitude":-6.1289679}},"Address":{"Label":"Y14 E395, Arklow, Ireland","Country":"IRL","County":"County Wicklow","City":"Arklow","PostalCode":"Y14 E395","AdditionalData":[{"value":"Ireland","key":"CountryName"},{"value":"County Wicklow","key":"CountyName"}]},"MapReference":{"ReferenceId":"578678513","Spot":1.0,"SideOfStreet":"neither","CountryId":"20403667","CountyId":"20411245","CityId":"20557469"}}},{"Relevance":1.0,"Distance":232.5,"MatchLevel":"postalCode","MatchQuality":{"PostalCode":1.0},"Location":{"LocationId":"NT_--vDdgxaEaoahHHTxeYp9D_l_578678024_L","LocationType":"point","DisplayPosition":{"Latitude":52.79445,"Longitude":-6.14404},"MapView":{"TopLeft":{"Latitude":52.8034432,"Longitude":-6.1589128},"BottomRight":{"Latitude":52.7854568,"Longitude":-6.1291672}},"Address":{"Label":"Y14 R156, Arklow, Ireland","Country":"IRL","County":"County Wicklow","City":"Arklow","PostalCode":"Y14 R156","AdditionalData":[{"value":"Ireland","key":"CountryName"},{"value":"County Wicklow","key":"CountyName"}]},"MapReference":{"ReferenceId":"578678024","Spot":0.0,"SideOfStreet":"neither","CountryId":"20403667","CountyId":"20411245","CityId":"20557469"}}},{"Relevance":1.0,"Distance":263.9,"MatchLevel":"street","MatchQuality":{"Country":1.0,"County":1.0,"City":1.0,"District":1.0,"Street":[1.0],"PostalCode":1.0},"Location":{"LocationId":"NT_C.ZNPmtbvMwOwsbqY-1dUB_l_590522992_R","LocationType":"point","DisplayPosition":{"Latitude":52.79082,"Longitude":-6.14249},"MapView":{"TopLeft":{"Latitude":52.79171,"Longitude":-6.14497},"BottomRight":{"Latitude":52.79075,"Longitude":-6.14235}},"Address":{"Label":"South Quay, Arklow, County Wicklow, Y14, Ireland","Country":"IRL","County":"County Wicklow","City":"Arklow","District":"Arklow","Street":"South Quay","PostalCode":"Y14","AdditionalData":[{"value":"Ireland","key":"CountryName"},{"value":"County Wicklow","key":"CountyName"}]},"MapReference":{"ReferenceId":"590522992","Spot":0.05,"SideOfStreet":"right","CountryId":"20403667","CountyId":"20411245","CityId":"20557469","DistrictId":"20611600"}}},{"Relevance":1.0,"Distance":269.0,"MatchLevel":"street","MatchQuality":{"Country":1.0,"County":1.0,"City":1.0,"District":1.0,"Street":[1.0],"PostalCode":1.0},"Location":{"LocationId":"NT_C.ZNPmtbvMwOwsbqY-1dUB_l_590522991_R","LocationType":"point","DisplayPosition":{"Latitude":52.79075,"Longitude":-6.14235},"MapView":{"TopLeft":{"Latitude":52.79075,"Longitude":-6.14264},"BottomRight":{"Latitude":52.79002,"Longitude":-6.14231}},"Address":{"Label":"South Quay, Arklow, County Wicklow, Y14, Ireland","Country":"IRL","County":"County Wicklow","City":"Arklow","District":"Arklow","Street":"South Quay","PostalCode":"Y14","AdditionalData":[{"value":"Ireland","key":"CountryName"},{"value":"County Wicklow","key":"CountyName"}]},"MapReference":{"ReferenceId":"590522991","Spot":1.0,"SideOfStreet":"right","CountryId":"20403667","CountyId":"20411245","CityId":"20557469","DistrictId":"20611600"}}},{"Relevance":1.0,"Distance":275.3,"MatchLevel":"postalCode","MatchQuality":{"PostalCode":1.0},"Location":{"LocationId":"NT_C.ZNPmtbvMwOwsbqY-1dUB_l_590522992_R","LocationType":"point","DisplayPosition":{"Latitude":52.79113,"Longitude":-6.14388},"MapView":{"TopLeft":{"Latitude":52.8001232,"Longitude":-6.1587516},"BottomRight":{"Latitude":52.7821368,"Longitude":-6.1290084}},"Address":{"Label":"Y14 H364, Arklow, Ireland","Country":"IRL","County":"County Wicklow","City":"Arklow","PostalCode":"Y14 H364","AdditionalData":[{"value":"Ireland","key":"CountryName"},{"value":"County Wicklow","key":"CountyName"}]},"MapReference":{"ReferenceId":"590522992","Spot":0.05,"SideOfStreet":"neither","CountryId":"20403667","CountyId":"20411245","CityId":"20557469"}}}]}]}}