{"Response":{"MetaInfo":{"Timestamp":"2020-03-28T10:48:38.147+0000","NextPageInformation":"2"},"View":[{"_type":"SearchResultsViewType","ViewId":0,"Result":[{"Relevance":1.0,"Distance":0.0,"Direction":0.0,"MatchLevel":"district","MatchQuality":{"Country":1.0,"State":1.0,"County":1.0,"City":1.0,"District":1.0,"PostalCode":1.0},"Location":{"LocationId":"NT_boMym-POnwSZEO.XIOQnTA","LocationType":"point","DisplayPosition":{"Latitude":52.7529551,"Longitude":15.2413899},"MapView":{"TopLeft":{"Latitude":52.76946,"Longitude":15.14335},"BottomRight":{"Latitude":52.68435,"Longitude":15.30207}},"Address":{"Label":"Gorzów Wielkopolski, Woj. Lubuskie, Polska","Country":"POL","State":"Woj. Lubuskie","County":"Gorzów Wielkopolski","City":"Gorzów Wielkopolski","District":"Gorzów Wielkopolski","PostalCode":"66-400","AdditionalData":[{"value":"Polska","key":"CountryName"},{"value":"Woj. Lubuskie","key":"StateName"},{"value":"Gorzów Wielkopolski","key":"CountyName"}]},"MapReference":{"ReferenceId":"1051772903","SideOfStreet":"neither","CountryId":"20624059","StateId":"20626579","CountyId":"20626580","CityId":"20626581","DistrictId":"20646703"}}},{"Relevance":1.0,"Distance":15.4,"MatchLevel":"houseNumber","MatchQuality":{"Country":1.0,"State":1.0,"County":1.0,"City":1.0,"District":1.0,"Street":[1.0],"HouseNumber":1.0,"PostalCode":1.0},"MatchType":"interpolated","Location":{"LocationId":"NT_n-G8I-M.1TYEtgMSO1YlyC_1cD","LocationType":"point","DisplayPosition":{"Latitude":52.75308,"Longitude":15.24149},"MapView":{"TopLeft":{"Latitude":52.7542042,"Longitude":15.2396327},"BottomRight":{"Latitude":52.7519558,"Longitude":15.2433473}},"Address":{"Label":"ulica gen. Walerego Wróblewskiego 57, 66-400 Gorzów Wielkopolski, Polska","Country":"POL","State":"Woj. Lubuskie","County":"Gorzów Wielkopolski","City":"Gorzów Wielkopolski","District":"Gorzów Wielkopolski","Street":"ulica gen. Walerego Wróblewskiego","HouseNumber":"57","PostalCode":"66-400","AdditionalData":[{"value":"Polska","key":"CountryName"},{"value":"Woj. Lubuskie","key":"StateName"},{"value":"Gorzów Wielkopolski","key":"CountyName"}]},"MapReference":{"ReferenceId":"594445624","Spot":0.51,"SideOfStreet":"left","CountryId":"20624059","StateId":"20626579","CountyId":"20626580","CityId":"20626581","DistrictId":"20646703","AddressId":"222274840","RoadLinkId":"96048228"}}},{"Relevance":1.0,"Distance":37.8,"MatchLevel":"houseNumber","MatchQuality":{"Country":1.0,"State":1.0,"County":1.0,"City":1.0,"District":1.0,"Street":[1.0],"HouseNumber":1.0,"PostalCode":1.0},"MatchType":"interpolated","Location":{"LocationId":"NT_x84AnoQ1OHhLfUPk0ij.MB_2ED","LocationType":"point","DisplayPosition":{"Latitude":52.75375,"Longitude":15.24114},"MapView":{"TopLeft":{"Latitude":52.7548742,"Longitude":15.2392826},"BottomRight":{"Latitude":52.7526258,"Longitude":15.2429974}},"Address":{"Label":"ulica Kazimierza Pułaskiego 61, 66-400 Gorzów Wielkopolski, Polska","Country":"POL","State":"Woj. Lubuskie","County":"Gorzów Wielkopolski","City":"Gorzów Wielkopolski","District":"Gorzów Wielkopolski","Street":"ulica Kazimierza Pułaskiego","HouseNumber":"61","PostalCode":"66-400","AdditionalData":[{"value":"Polska","key":"CountryName"},{"value":"Woj. Lubuskie","key":"StateName"},{"value":"Gorzów Wielkopolski","key":"CountyName"}]},"MapReference":{"ReferenceId":"1229225714","Spot":0.67,"SideOfStreet":"left","CountryId":"20624059","StateId":"20626579","CountyId":"20626580","CityId":"20626581","DistrictId":"20646703","AddressId":"732056296","RoadLinkId":"548362574"}}},{"Relevance":1.0,"Distance":41.2,"MatchLevel":"houseNumber","MatchQuality":{"Country":1.0,"State":1.0,"County":1.0,"City":1.0,"District":1.0,"Street":[1.0],"HouseNumber":1.0,"PostalCode":1.0},"MatchType":"interpolated","Location":{"LocationId":"NT_x84AnoQ1OHhLfUPk0ij.MB_zgD","LocationType":"point","DisplayPosition":{"Latitude":52.75258,"Longitude":15.2408},"MapView":{"TopLeft":{"Latitude":52.7537042,"Longitude":15.2389427},"BottomRight":{"Latitude":52.7514558,"Longitude":15.2426573}},"Address":{"Label":"ulica Kazimierza Pułaskiego 38, 66-400 Gorzów Wielkopolski, Polska","Country":"POL","State":"Woj. Lubuskie","County":"Gorzów Wielkopolski","City":"Gorzów Wielkopolski","District":"Gorzów Wielkopolski","Street":"ulica Kazimierza Pułaskiego","HouseNumber":"38","PostalCode":"66-400","AdditionalData":[{"value":"Polska","key":"CountryName"},{"value":"Woj. Lubuskie","key":"StateName"},{"value":"Gorzów Wielkopolski","key":"CountyName"}]},"MapReference":{"ReferenceId":"1229225713","Spot":0.48,"SideOfStreet":"right","CountryId":"20624059","StateId":"20626579","CountyId":"20626580","CityId":"20626581","DistrictId":"20646703","AddressId":"222267888","RoadLinkId":"548362573"}}},{"Relevance":1.0,"Distance":57.0,"MatchLevel":"street","MatchQuality":{"Country":1.0,"State":1.0,"County":1.0,"City":1.0,"District":1.0,"Street":[1.0],"PostalCode":1.0},"Location":{"LocationId":"NT_WXLoqDk1iotMQ.DaPo7UuD_l_1208066402_L","LocationType":"point","DisplayPosition":{"Latitude":52.75255,"Longitude":15.24191},"MapView":{"TopLeft":{"Latitude":52.75274,"Longitude":15.24191},"BottomRight":{"Latitude":52.75255,"Longitude":15.24307}},"Address":{"Label":"ulica Racławicka, 66-400 Gorzów Wielkopolski, Polska","Country":"POL","State":"Woj. Lubuskie","County":"Gorzów Wielkopolski","City":"Gorzów Wielkopolski","District":"Gorzów Wielkopolski","Street":"ulica Racławicka","PostalCode":"66-400","AdditionalData":[{"value":"Polska","key":"CountryName"},{"value":"Woj. Lubuskie","key":"StateName"},{"value":"Gorzów Wielkopolski","key":"CountyName"}]},"MapReference":{"ReferenceId":"1208066402","Spot":0.0,"SideOfStreet":"left","CountryId":"20624059","StateId":"20626579","CountyId":"20626580","CityId":"20626581","DistrictId":"20646703"}}},{"Relevance":1.0,"Distance":87.5,"MatchLevel":"houseNumber","MatchQuality":{"Country":1.0,"State":1.0,"County":1.0,"City":1.0,"District":1.0,"Street":[1.0],"HouseNumber":1.0,"PostalCode":1.0},"MatchType":"interpolated","Location":{"LocationId":"NT_n-G8I-M.1TYEtgMSO1YlyC_0cD","LocationType":"point","DisplayPosition":{"Latitude":52.75232,"Longitude":15.24213},"MapView":{"TopLeft":{"Latitude":52.7534442,"Longitude":15.2402727},"BottomRight":{"Latitude":52.7511958,"Longitude":15.2439873}},"Address":{"Label":"ulica gen. Walerego Wróblewskiego 47, 66-400 Gorzów Wielkopolski, Polska","Country":"POL","State":"Woj. Lubuskie","County":"Gorzów Wielkopolski","City":"Gorzów Wielkopolski","District":"Gorzów Wielkopolski","Street":"ulica gen. Walerego Wróblewskiego","HouseNumber":"47","PostalCode":"66-400","AdditionalData":[{"value":"Polska","key":"CountryName"},{"value":"Woj. Lubuskie","key":"StateName"},{"value":"Gorzów Wielkopolski","key":"CountyName"}]},"MapReference":{"ReferenceId":"719478503","Spot":0.78,"SideOfStreet":"left","CountryId":"20624059","StateId":"20626579","CountyId":"20626580","CityId":"20626581","DistrictId":"20646703","AddressId":"222267910","RoadLinkId":"124347617"}}},{"Relevance":1.0,"Distance":92.2,"MatchLevel":"street","MatchQuality":{"Country":1.0,"State":1.0,"County":1.0,"City":1.0,"District":1.0,"Street":[1.0],"PostalCode":1.0},"Location":{"LocationId":"NT_x84AnoQ1OHhLfUPk0ij.MB_l_1229965342_R","LocationType":"point","DisplayPosition":{"Latitude":52.75375,"Longitude":15.241},"MapView":{"TopLeft":{"Latitude":52.75421,"Longitude":15.241},"BottomRight":{"Latitude":52.75375,"Longitude":15.241}},"Address":{"Label":"ulica Kazimierza Pułaskiego, 66-400 Gorzów Wielkopolski, Polska","Country":"POL","State":"Woj. Lubuskie","County":"Gorzów Wielkopolski","City":"Gorzów Wielkopolski","District":"Gorzów Wielkopolski","Street":"ulica Kazimierza Pułaskiego","PostalCode":"66-400","AdditionalData":[{"value":"Polska","key":"CountryName"},{"value":"Woj. Lubuskie","key":"StateName"},{"value":"Gorzów Wielkopolski","key":"CountyName"}]},"MapReference":{"ReferenceId":"1229965342","Spot":0.0,"SideOfStreet":"right","CountryId":"20624059","StateId":"20626579","CountyId":"20626580","CityId":"20626581","DistrictId":"20646703"}}},{"Relevance":1.0,"Distance":111.7,"MatchLevel":"houseNumber","MatchQuality":{"Country":1.0,"State":1.0,"County":1.0,"City":1.0,"District":1.0,"Street":[1.0],"HouseNumber":1.0,"PostalCode":1.0},"MatchType":"interpolated","Location":{"LocationId":"NT_n-G8I-M.1TYEtgMSO1YlyC_2MTQ","LocationType":"point","DisplayPosition":{"Latitude":52.75396,"Longitude":15.24141},"MapView":{"TopLeft":{"Latitude":52.7550842,"Longitude":15.2395526},"BottomRight":{"Latitude":52.7528358,"Longitude":15.2432674}},"Address":{"Label":"ulica gen. Walerego Wróblewskiego 63A, 66-400 Gorzów Wielkopolski, Polska","Country":"POL","State":"Woj. Lubuskie","County":"Gorzów Wielkopolski","City":"Gorzów Wielkopolski","District":"Gorzów Wielkopolski","Street":"ulica gen. Walerego Wróblewskiego","HouseNumber":"63A","PostalCode":"66-400","AdditionalData":[{"value":"Polska","key":"CountryName"},{"value":"Woj. Lubuskie","key":"StateName"},{"value":"Gorzów Wielkopolski","key":"CountyName"}]},"MapReference":{"ReferenceId":"1229410493","Spot":0.25,"SideOfStreet":"left","CountryId":"20624059","StateId":"20626579","CountyId":"20626580","CityId":"20626581","DistrictId":"20646703","AddressId":"222268159","RoadLinkId":"548590911"}}},{"Relevance":1.0,"Distance":115.6,"MatchLevel":"street","MatchQuality":{"Country":1.0,"State":1.0,"County":1.0,"City":1.0,"District":1.0,"Street":[1.0],"PostalCode":1.0},"Location":{"LocationId":"NT_WXLoqDk1iotMQ.DaPo7UuD_l_1208066404_L","LocationType":"point","DisplayPosition":{"Latitude":52.75274,"Longitude":15.24307},"MapView":{"TopLeft":{"Latitude":52.75275,"Longitude":15.24307},"BottomRight":{"Latitude":52.75274,"Longitude":15.24349}},"Address":{"Label":"ulica Racławicka, 66-400 Gorzów Wielkopolski, Polska","Country":"POL","State":"Woj. Lubuskie","County":"Gorzów Wielkopolski","City":"Gorzów Wielkopolski","District":"Gorzów Wielkopolski","Street":"ulica Racławicka","PostalCode":"66-400","AdditionalData":[{"value":"Polska","key":"CountryName"},{"value":"Woj. Lubuskie","key":"StateName"},{"value":"Gorzów Wielkopolski","key":"CountyName"}]},"MapReference":{"ReferenceId":"1208066404","Spot":0.0,"SideOfStreet":"left","CountryId":"20624059","StateId":"20626579","CountyId":"20626580","CityId":"20626581","DistrictId":"20646703"}}},{"Relevance":1.0,"Distance":115.6,"MatchLevel":"street","MatchQuality":{"Country":1.0,"State":1.0,"County":1.0,"City":1.0,"District":1.0,"Street":[1.0],"PostalCode":1.0},"Location":{"LocationId":"NT_WXLoqDk1iotMQ.DaPo7UuD_l_1208066405_L","LocationType":"point","DisplayPosition":{"Latitude":52.75274,"Longitude":15.24307},"MapView":{"TopLeft":{"Latitude":52.75274,"Longitude":15.24307},"BottomRight":{"Latitude":52.75256,"Longitude":15.2431}},"Address":{"Label":"ulica Racławicka, 66-400 Gorzów Wielkopolski, Polska","Country":"POL","State":"Woj. Lubuskie","County":"Gorzów Wielkopolski","City":"Gorzów Wielkopolski","District":"Gorzów Wielkopolski","Street":"ulica Racławicka","PostalCode":"66-400","AdditionalData":[{"value":"Polska","key":"CountryName"},{"value":"Woj. Lubuskie","key":"StateName"},{"value":"Gorzów Wielkopolski","key":"CountyName"}]},"MapReference":{"ReferenceId":"1208066405","Spot":1.0,"SideOfStreet":"left","CountryId":"20624059","StateId":"20626579","CountyId":"20626580","CityId":"20626581","DistrictId":"20646703"}}}]}]}}