{"Response":{"MetaInfo":{"Timestamp":"2020-03-28T10:35:39.308+0000","NextPageInformation":"2"},"View":[{"_type":"SearchResultsViewType","ViewId":0,"Result":[{"Relevance":1.0,"Distance":0.0,"Direction":0.0,"MatchLevel":"district","MatchQuality":{"Country":1.0,"State":1.0,"County":1.0,"City":1.0,"District":1.0,"PostalCode":1.0},"Location":{"LocationId":"NT_vw0Sc-ci5WHkA5desFY1WC","LocationType":"point","DisplayPosition":{"Latitude":52.7179291,"Longitude":1.42202},"MapView":{"TopLeft":{"Latitude":52.7232,"Longitude":1.40293},"BottomRight":{"Latitude":52.70636,"Longitude":1.42932}},"Address":{"Label":"Hoveton, Norwich, England, United Kingdom","Country":"GBR","State":"England","County":"Norfolk","City":"Norwich","District":"Hoveton","PostalCode":"NR12 8","AdditionalData":[{"value":"United Kingdom","key":"CountryName"},{"value":"England","key":"StateName"},{"value":"Norfolk","key":"CountyName"}]},"MapReference":{"ReferenceId":"781670135","SideOfStreet":"neither","StateId":"20248595","CountyId":"20355986","CityId":"20356363","DistrictId":"20356482"}}},{"Relevance":1.0,"Distance":42.6,"MatchLevel":"street","MatchQuality":{"Country":1.0,"State":1.0,"County":1.0,"City":1.0,"District":1.0,"Street":[1.0],"PostalCode":1.0},"Location":{"LocationId":"NT_j2cfvn4o3BNjJTY7XBuTKA_l_1198103838_R","LocationType":"point","DisplayPosition":{"Latitude":52.7183032,"Longitude":1.421886},"MapView":{"TopLeft":{"Latitude":52.71879,"Longitude":1.42104},"BottomRight":{"Latitude":52.71817,"Longitude":1.42231}},"Address":{"Label":"Burnt Fen Way, Norwich, NR12 8, United Kingdom","Country":"GBR","State":"England","County":"Norfolk","City":"Norwich","District":"Hoveton","Street":"Burnt Fen Way","PostalCode":"NR12 8","AdditionalData":[{"value":"United Kingdom","key":"CountryName"},{"value":"England","key":"StateName"},{"value":"Norfolk","key":"CountyName"}]},"MapReference":{"ReferenceId":"1198103838","Spot":0.53,"SideOfStreet":"right","StateId":"20248595","CountyId":"20355986","CityId":"20356363","DistrictId":"20356482"}}},{"Relevance":1.0,"Distance":50.4,"MatchLevel":"postalCode","MatchQuality":{"PostalCode":1.0},"Location":{"LocationId":"NT_j2cfvn4o3BNjJTY7XBuTKA_l_1198103838_R","LocationType":"point","DisplayPosition":{"Latitude":52.71813,"Longitude":1.42135},"MapView":{"TopLeft":{"Latitude":52.7271232,"Longitude":1.4065033},"BottomRight":{"Latitude":52.7091368,"Longitude":1.4361967}},"Address":{"Label":"NR12 8GR, Norwich, England, United Kingdom","Country":"GBR","State":"England","County":"Norfolk","City":"Norwich","PostalCode":"NR12 8GR","AdditionalData":[{"value":"United Kingdom","key":"CountryName"},{"value":"England","key":"StateName"},{"value":"Norfolk","key":"CountyName"}]},"MapReference":{"ReferenceId":"1198103838","Spot":0.53,"SideOfStreet":"neither","StateId":"20248595","CountyId":"20355986","CityId":"20356363"}}},{"Relevance":1.0,"Distance":56.8,"MatchLevel":"houseNumber","MatchQuality":{"Country":1.0,"State":1.0,"County":1.0,"City":1.0,"District":1.0,"Street":[1.0],"HouseNumber":1.0,"PostalCode":1.0},"MatchType":"interpolated","Location":{"LocationId":"NT_anhXsQKfxD6POaJDeST6oA_l_980079395_R_3QD","LocationType":"point","DisplayPosition":{"Latitude":52.7174879,"Longitude":1.422446},"MapView":{"TopLeft":{"Latitude":52.718612,"Longitude":1.4205902},"BottomRight":{"Latitude":52.7163637,"Longitude":1.4243018}},"Address":{"Label":"74 Stalham Road, Norwich, NR12 8DU, United Kingdom","Country":"GBR","State":"England","County":"Norfolk","City":"Norwich","District":"Hoveton","Street":"Stalham Road","HouseNumber":"74","PostalCode":"NR12 8DU","AdditionalData":[{"value":"United Kingdom","key":"CountryName"},{"value":"England","key":"StateName"},{"value":"Norfolk","key":"CountyName"}]},"MapReference":{"ReferenceId":"980079395","Spot":0.24,"SideOfStreet":"right","StateId":"20248595","CountyId":"20355986","CityId":"20356363","DistrictId":"20356482"}}},{"Relevance":1.0,"Distance":66.7,"MatchLevel":"street","MatchQuality":{"Country":1.0,"State":1.0,"County":1.0,"City":1.0,"District":1.0,"Street":[1.0],"PostalCode":1.0},"Location":{"LocationId":"NT_lWNyh9F3Lvm42LT3qI0pHA_l_1070923033_R","LocationType":"point","DisplayPosition":{"Latitude":52.71733,"Longitude":1.42197},"MapView":{"TopLeft":{"Latitude":52.71733,"Longitude":1.42197},"BottomRight":{"Latitude":52.71719,"Longitude":1.42215}},"Address":{"Label":"Littlewoods Lane, Norwich, NR12 8, United Kingdom","Country":"GBR","State":"England","County":"Norfolk","City":"Norwich","District":"Hoveton","Street":"Littlewoods Lane","PostalCode":"NR12 8","AdditionalData":[{"value":"United Kingdom","key":"CountryName"},{"value":"England","key":"StateName"},{"value":"Norfolk","key":"CountyName"}]},"MapReference":{"ReferenceId":"1070923033","Spot":1.0,"SideOfStreet":"right","StateId":"20248595","CountyId":"20355986","CityId":"20356363","DistrictId":"20356482"}}},{"Relevance":1.0,"Distance":73.0,"MatchLevel":"street","MatchQuality":{"Country":1.0,"State":1.0,"County":1.0,"City":1.0,"District":1.0,"Street":[1.0],"PostalCode":1.0},"Location":{"LocationId":"NT_j2cfvn4o3BNjJTY7XBuTKA_l_1198103840_R","LocationType":"point","DisplayPosition":{"Latitude":52.71821,"Longitude":1.42104},"MapView":{"TopLeft":{"Latitude":52.71821,"Longitude":1.42048},"BottomRight":{"Latitude":52.718,"Longitude":1.42104}},"Address":{"Label":"Burnt Fen Way, Norwich, NR12 8, United Kingdom","Country":"GBR","State":"England","County":"Norfolk","City":"Norwich","District":"Hoveton","Street":"Burnt Fen Way","PostalCode":"NR12 8","AdditionalData":[{"value":"United Kingdom","key":"CountryName"},{"value":"England","key":"StateName"},{"value":"Norfolk","key":"CountyName"}]},"MapReference":{"ReferenceId":"1198103840","Spot":1.0,"SideOfStreet":"right","StateId":"20248595","CountyId":"20355986","CityId":"20356363","DistrictId":"20356482"}}},{"Relevance":1.0,"Distance":75.2,"MatchLevel":"postalCode","MatchQuality":{"PostalCode":1.0},"Location":{"LocationId":"NT_an-uQ-fApUOCoJVOB9QWxC_l_1198103847_R","LocationType":"point","DisplayPosition":{"Latitude":52.71843,"Longitude":1.42127},"MapView":{"TopLeft":{"Latitude":52.7274232,"Longitude":1.4064232},"BottomRight":{"Latitude":52.7094368,"Longitude":1.4361168}},"Address":{"Label":"NR12 8GG, Norwich, England, United Kingdom","Country":"GBR","State":"England","County":"Norfolk","City":"Norwich","PostalCode":"NR12 8GG","AdditionalData":[{"value":"United Kingdom","key":"CountryName"},{"value":"England","key":"StateName"},{"value":"Norfolk","key":"CountyName"}]},"MapReference":{"ReferenceId":"1198103847","Spot":1.0,"SideOfStreet":"neither","StateId":"20248595","CountyId":"20355986","CityId":"20356363"}}},{"Relevance":1.0,"Distance":75.3,"MatchLevel":"houseNumber","MatchQuality":{"Country":1.0,"State":1.0,"County":1.0,"City":1.0,"District":1.0,"Street":[1.0],"HouseNumber":1.0,"PostalCode":1.0},"MatchType":"interpolated","Location":{"LocationId":"NT_fCY8zmYN9NjmUTW9A-NzsD_l_26464812_L_1kD","LocationType":"point","DisplayPosition":{"Latitude":52.7172026,"Longitude":1.421518},"MapView":{"TopLeft":{"Latitude":52.7183267,"Longitude":1.4196622},"BottomRight":{"Latitude":52.7160784,"Longitude":1.4233738}},"Address":{"Label":"59 Stalham Road, Norwich, NR12 8, United Kingdom","Country":"GBR","State":"England","County":"Norfolk","City":"Norwich","District":"Hoveton","Street":"Stalham Road","HouseNumber":"59","PostalCode":"NR12 8","AdditionalData":[{"value":"United Kingdom","key":"CountryName"},{"value":"England","key":"StateName"},{"value":"Norfolk","key":"CountyName"}]},"MapReference":{"ReferenceId":"26464812","Spot":0.78,"SideOfStreet":"left","StateId":"20248595","CountyId":"20355986","CityId":"20356363","DistrictId":"20356482"}}},{"Relevance":1.0,"Distance":81.4,"MatchLevel":"street","MatchQuality":{"Country":1.0,"State":1.0,"County":1.0,"City":1.0,"District":1.0,"PostalCode":1.0},"Location":{"LocationId":"NT_TOioZaqFhwn6BOvtfLNGLC_l_1070923034_R","LocationType":"point","DisplayPosition":{"Latitude":52.7172067,"Longitude":1.4222126},"MapView":{"TopLeft":{"Latitude":52.71723,"Longitude":1.42215},"BottomRight":{"Latitude":52.71689,"Longitude":1.42773}},"Address":{"Label":"Norwich, NR12 8, United Kingdom","Country":"GBR","State":"England","County":"Norfolk","City":"Norwich","District":"Hoveton","PostalCode":"NR12 8","AdditionalData":[{"value":"United Kingdom","key":"CountryName"},{"value":"England","key":"StateName"},{"value":"Norfolk","key":"CountyName"}]},"MapReference":{"ReferenceId":"1070923034","Spot":0.99,"SideOfStreet":"right","StateId":"20248595","CountyId":"20355986","CityId":"20356363","DistrictId":"20356482"}}},{"Relevance":1.0,"Distance":82.6,"MatchLevel":"street","MatchQuality":{"Country":1.0,"State":1.0,"County":1.0,"City":1.0,"District":1.0,"Street":[1.0],"PostalCode":1.0},"Location":{"LocationId":"NT_lWNyh9F3Lvm42LT3qI0pHA_l_1158454433_L","LocationType":"point","DisplayPosition":{"Latitude":52.71719,"Longitude":1.42215},"MapView":{"TopLeft":{"Latitude":52.71719,"Longitude":1.42087},"BottomRight":{"Latitude":52.71529,"Longitude":1.42216}},"Address":{"Label":"Littlewoods Lane, Norwich, NR12 8, United Kingdom","Country":"GBR","State":"England","County":"Norfolk","City":"Norwich","District":"Hoveton","Street":"Littlewoods Lane","PostalCode":"NR12 8","AdditionalData":[{"value":"United Kingdom","key":"CountryName"},{"value":"England","key":"StateName"},{"value":"Norfolk","key":"CountyName"}]},"MapReference":{"ReferenceId":"1158454433","Spot":1.0,"SideOfStreet":"left","StateId":"20248595","CountyId":"20355986","CityId":"20356363","DistrictId":"20356482"}}}]}]}}