{"Response":{"MetaInfo":{"Timestamp":"2020-03-28T10:32:56.007+0000","NextPageInformation":"2"},"View":[{"_type":"SearchResultsViewType","ViewId":0,"Result":[{"Relevance":1.0,"Distance":0.0,"Direction":0.0,"MatchLevel":"district","MatchQuality":{"Country":1.0,"State":1.0,"County":1.0,"City":1.0,"District":1.0,"PostalCode":1.0},"Location":{"LocationId":"NT_0SunTa7hbkEU4GVa0D2gqB","LocationType":"point","DisplayPosition":{"Latitude":52.8427413,"Longitude":-1.3375793},"MapView":{"TopLeft":{"Latitude":52.85615,"Longitude":-1.36815},"BottomRight":{"Latitude":52.83229,"Longitude":-1.32927}},"Address":{"Label":"Castle Donington, Derby, England, United Kingdom","Country":"GBR","State":"England","County":"Derbyshire","City":"Derby","District":"Castle Donington","PostalCode":"DE74 2","AdditionalData":[{"value":"United Kingdom","key":"CountryName"},{"value":"England","key":"StateName"},{"value":"Derbyshire","key":"CountyName"}]},"MapReference":{"ReferenceId":"757356126","SideOfStreet":"neither","StateId":"20248595","CountyId":"20343933","CityId":"20353727","DistrictId":"20353741"}}},{"Relevance":1.0,"Distance":6.9,"MatchLevel":"houseNumber","MatchQuality":{"Country":1.0,"State":1.0,"County":1.0,"City":1.0,"District":1.0,"Street":[1.0],"HouseNumber":1.0,"PostalCode":1.0},"MatchType":"interpolated","Location":{"LocationId":"NT_-GiE-DpT-VM0O9.SVaX28B_l_26080143_L_0gD","LocationType":"point","DisplayPosition":{"Latitude":52.8425793,"Longitude":-1.337414},"MapView":{"TopLeft":{"Latitude":52.8437034,"Longitude":-1.3392751},"BottomRight":{"Latitude":52.8414551,"Longitude":-1.3355528}},"Address":{"Label":"48 Borough Street, Derby, DE74 2LB, United Kingdom","Country":"GBR","State":"England","County":"Derbyshire","City":"Derby","District":"Castle Donington","Street":"Borough Street","HouseNumber":"48","PostalCode":"DE74 2LB","AdditionalData":[{"value":"United Kingdom","key":"CountryName"},{"value":"England","key":"StateName"},{"value":"Derbyshire","key":"CountyName"}]},"MapReference":{"ReferenceId":"26080143","Spot":0.31,"SideOfStreet":"left","StateId":"20248595","CountyId":"20343933","CityId":"20353727","DistrictId":"20353741"}}},{"Relevance":1.0,"Distance":16.4,"MatchLevel":"postalCode","MatchQuality":{"PostalCode":1.0},"MatchType":"interpolated","Location":{"LocationId":"NT_-GiE-DpT-VM0O9.SVaX28B_l_26080143_L_0gD","LocationType":"point","DisplayPosition":{"Latitude":52.84269,"Longitude":-1.33735},"MapView":{"TopLeft":{"Latitude":52.8516832,"Longitude":-1.3522393},"BottomRight":{"Latitude":52.8336968,"Longitude":-1.3224607}},"Address":{"Label":"DE74 2LB, Derby, England, United Kingdom","Country":"GBR","State":"England","County":"Derbyshire","City":"Derby","PostalCode":"DE74 2LB","AdditionalData":[{"value":"United Kingdom","key":"CountryName"},{"value":"England","key":"StateName"},{"value":"Derbyshire","key":"CountyName"}]},"MapReference":{"ReferenceId":"26080143","Spot":0.31,"SideOfStreet":"neither","StateId":"20248595","CountyId":"20343933","CityId":"20353727"}}},{"Relevance":1.0,"Distance":45.1,"MatchLevel":"houseNumber","MatchQuality":{"Country":1.0,"State":1.0,"County":1.0,"City":1.0,"District":1.0,"Street":[1.0],"HouseNumber":1.0,"PostalCode":1.0},"MatchType":"interpolated","Location":{"LocationId":"NT_jE6Po9l79NiEStoMZA5QpA_l_26080155_R_xA","LocationType":"point","DisplayPosition":{"Latitude":52.842233,"Longitude":-1.3374959},"MapView":{"TopLeft":{"Latitude":52.8433572,"Longitude":-1.3393571},"BottomRight":{"Latitude":52.8411089,"Longitude":-1.3356348}},"Address":{"Label":"1 Church Lane, Derby, DE74 2LG, United Kingdom","Country":"GBR","State":"England","County":"Derbyshire","City":"Derby","District":"Castle Donington","Street":"Church Lane","HouseNumber":"1","PostalCode":"DE74 2LG","AdditionalData":[{"value":"United Kingdom","key":"CountryName"},{"value":"England","key":"StateName"},{"value":"Derbyshire","key":"CountyName"}]},"MapReference":{"ReferenceId":"26080155","Spot":0.71,"SideOfStreet":"right","StateId":"20248595","CountyId":"20343933","CityId":"20353727","DistrictId":"20353741"}}},{"Relevance":1.0,"Distance":45.4,"MatchLevel":"houseNumber","MatchQuality":{"Country":1.0,"State":1.0,"County":1.0,"City":1.0,"District":1.0,"Street":[1.0],"HouseNumber":1.0,"PostalCode":1.0},"MatchType":"interpolated","Location":{"LocationId":"NT_-GiE-DpT-VM0O9.SVaX28B_l_26080161_L_zkD","LocationType":"point","DisplayPosition":{"Latitude":52.8422858,"Longitude":-1.3379163},"MapView":{"TopLeft":{"Latitude":52.8434099,"Longitude":-1.3397774},"BottomRight":{"Latitude":52.8411616,"Longitude":-1.3360552}},"Address":{"Label":"39 Borough Street, Derby, DE74 2, United Kingdom","Country":"GBR","State":"England","County":"Derbyshire","City":"Derby","District":"Castle Donington","Street":"Borough Street","HouseNumber":"39","PostalCode":"DE74 2","AdditionalData":[{"value":"United Kingdom","key":"CountryName"},{"value":"England","key":"StateName"},{"value":"Derbyshire","key":"CountyName"}]},"MapReference":{"ReferenceId":"26080161","Spot":0.83,"SideOfStreet":"left","StateId":"20248595","CountyId":"20343933","CityId":"20353727","DistrictId":"20353741"}}},{"Relevance":1.0,"Distance":53.5,"MatchLevel":"postalCode","MatchQuality":{"PostalCode":1.0},"MatchType":"interpolated","Location":{"LocationId":"NT_-GiE-DpT-VM0O9.SVaX28B_l_26080161_L_zkD","LocationType":"point","DisplayPosition":{"Latitude":52.84226,"Longitude":-1.3376},"MapView":{"TopLeft":{"Latitude":52.8512532,"Longitude":-1.3524891},"BottomRight":{"Latitude":52.8332668,"Longitude":-1.3227109}},"Address":{"Label":"DE74 2LA, Derby, England, United Kingdom","Country":"GBR","State":"England","County":"Derbyshire","City":"Derby","PostalCode":"DE74 2LA","AdditionalData":[{"value":"United Kingdom","key":"CountryName"},{"value":"England","key":"StateName"},{"value":"Derbyshire","key":"CountyName"}]},"MapReference":{"ReferenceId":"26080161","Spot":0.83,"SideOfStreet":"neither","StateId":"20248595","CountyId":"20343933","CityId":"20353727"}}},{"Relevance":1.0,"Distance":61.2,"MatchLevel":"street","MatchQuality":{"Country":1.0,"State":1.0,"County":1.0,"City":1.0,"District":1.0,"Street":[1.0],"PostalCode":1.0},"Location":{"LocationId":"NT_YZxGGMk0OKZian3r3ytp6B_l_26080123_L","LocationType":"point","DisplayPosition":{"Latitude":52.84315,"Longitude":-1.33697},"MapView":{"TopLeft":{"Latitude":52.84508,"Longitude":-1.33727},"BottomRight":{"Latitude":52.84301,"Longitude":-1.33676}},"Address":{"Label":"The Hollow, Derby, DE74 2, United Kingdom","Country":"GBR","State":"England","County":"Derbyshire","City":"Derby","District":"Castle Donington","Street":"The Hollow","PostalCode":"DE74 2","AdditionalData":[{"value":"United Kingdom","key":"CountryName"},{"value":"England","key":"StateName"},{"value":"Derbyshire","key":"CountyName"}]},"MapReference":{"ReferenceId":"26080123","Spot":0.11,"SideOfStreet":"left","StateId":"20248595","CountyId":"20343933","CityId":"20353727","DistrictId":"20353741"}}},{"Relevance":1.0,"Distance":72.5,"MatchLevel":"houseNumber","MatchQuality":{"Country":1.0,"State":1.0,"County":1.0,"City":1.0,"District":1.0,"Street":[1.0],"HouseNumber":1.0,"PostalCode":1.0},"MatchType":"interpolated","Location":{"LocationId":"NT_oyuddauaONfzrDYQaUi.dC_l_1198850844_R_3QD","LocationType":"point","DisplayPosition":{"Latitude":52.8434001,"Longitude":-1.3382899},"MapView":{"TopLeft":{"Latitude":52.8445243,"Longitude":-1.3401511},"BottomRight":{"Latitude":52.8422759,"Longitude":-1.3364287}},"Address":{"Label":"74 Bondgate, Derby, DE74 2NR, United Kingdom","Country":"GBR","State":"England","County":"Derbyshire","City":"Derby","District":"Castle Donington","Street":"Bondgate","HouseNumber":"74","PostalCode":"DE74 2NR","AdditionalData":[{"value":"United Kingdom","key":"CountryName"},{"value":"England","key":"StateName"},{"value":"Derbyshire","key":"CountyName"}]},"MapReference":{"ReferenceId":"1198850844","Spot":0.13,"SideOfStreet":"right","StateId":"20248595","CountyId":"20343933","CityId":"20353727","DistrictId":"20353741"}}},{"Relevance":1.0,"Distance":73.2,"MatchLevel":"postalCode","MatchQuality":{"PostalCode":1.0},"MatchType":"interpolated","Location":{"LocationId":"NT_jE6Po9l79NiEStoMZA5QpA_l_26080155_R_xA","LocationType":"point","DisplayPosition":{"Latitude":52.84212,"Longitude":-1.33722},"MapView":{"TopLeft":{"Latitude":52.8511132,"Longitude":-1.3521091},"BottomRight":{"Latitude":52.8331268,"Longitude":-1.3223309}},"Address":{"Label":"DE74 2LG, Derby, England, United Kingdom","Country":"GBR","State":"England","County":"Derbyshire","City":"Derby","PostalCode":"DE74 2LG","AdditionalData":[{"value":"United Kingdom","key":"CountryName"},{"value":"England","key":"StateName"},{"value":"Derbyshire","key":"CountyName"}]},"MapReference":{"ReferenceId":"26080155","Spot":0.71,"SideOfStreet":"neither","StateId":"20248595","CountyId":"20343933","CityId":"20353727"}}},{"Relevance":1.0,"Distance":73.3,"MatchLevel":"houseNumber","MatchQuality":{"Country":1.0,"State":1.0,"County":1.0,"City":1.0,"District":1.0,"Street":[1.0],"HouseNumber":1.0,"PostalCode":1.0},"MatchType":"interpolated","Location":{"LocationId":"NT_YZxGGMk0OKZian3r3ytp6B_l_577337753_R_xA","LocationType":"point","DisplayPosition":{"Latitude":52.842929,"Longitude":-1.336533},"MapView":{"TopLeft":{"Latitude":52.8440532,"Longitude":-1.3383942},"BottomRight":{"Latitude":52.8418049,"Longitude":-1.3346718}},"Address":{"Label":"1 The Hollow, Derby, DE74 2PA, United Kingdom","Country":"GBR","State":"England","County":"Derbyshire","City":"Derby","District":"Castle Donington","Street":"The Hollow","HouseNumber":"1","PostalCode":"DE74 2PA","AdditionalData":[{"value":"United Kingdom","key":"CountryName"},{"value":"England","key":"StateName"},{"value":"Derbyshire","key":"CountyName"}]},"MapReference":{"ReferenceId":"577337753","Spot":0.66,"SideOfStreet":"right","StateId":"20248595","CountyId":"20343933","CityId":"20353727","DistrictId":"20353741"}}}]}]}}