{"Response":{"MetaInfo":{"Timestamp":"2020-03-28T10:47:44.722+0000","NextPageInformation":"2"},"View":[{"_type":"SearchResultsViewType","ViewId":0,"Result":[{"Relevance":1.0,"Distance":0.0,"Direction":0.0,"MatchLevel":"district","MatchQuality":{"Country":1.0,"State":1.0,"County":1.0,"City":1.0,"District":1.0,"PostalCode":1.0},"Location":{"LocationId":"NT_QoNBcuIUGaH6.QR44yKWpD","LocationType":"point","DisplayPosition":{"Latitude":52.8628427,"Longitude":22.3482178},"MapView":{"TopLeft":{"Latitude":52.86762,"Longitude":22.34507},"BottomRight":{"Latitude":52.85935,"Longitude":22.36517}},"Address":{"Label":"Rosochate Kościelne, Czyżew, Woj. Podlaskie, Polska","Country":"POL","State":"Woj. Podlaskie","County":"Powiat Wysokomazowiecki","City":"Czyżew","District":"Rosochate Kościelne","PostalCode":"18-220","AdditionalData":[{"value":"Polska","key":"CountryName"},{"value":"Woj. Podlaskie","key":"StateName"},{"value":"Powiat Wysokomazowiecki","key":"CountyName"}]},"MapReference":{"ReferenceId":"907191139","SideOfStreet":"neither","CountryId":"20624059","StateId":"20628466","CountyId":"20628693","CityId":"20628696","DistrictId":"20692298"}}},{"Relevance":1.0,"Distance":8.3,"MatchLevel":"houseNumber","MatchQuality":{"Country":1.0,"State":1.0,"County":1.0,"City":1.0,"District":1.0,"Street":[1.0],"HouseNumber":1.0,"PostalCode":1.0},"MatchType":"interpolated","Location":{"LocationId":"NT_CeFHH3RYAPaPUBwOrCJm.C_xAD","LocationType":"point","DisplayPosition":{"Latitude":52.86263,"Longitude":22.34859},"MapView":{"TopLeft":{"Latitude":52.8637542,"Longitude":22.346728},"BottomRight":{"Latitude":52.8615058,"Longitude":22.350452}},"Address":{"Label":"ulica Wierzbowa 10, 18-220 Rosochate Kościelne, Polska","Country":"POL","State":"Woj. Podlaskie","County":"Powiat Wysokomazowiecki","City":"Czyżew","District":"Rosochate Kościelne","Street":"ulica Wierzbowa","HouseNumber":"10","PostalCode":"18-220","AdditionalData":[{"value":"Polska","key":"CountryName"},{"value":"Woj. Podlaskie","key":"StateName"},{"value":"Powiat Wysokomazowiecki","key":"CountyName"}]},"MapReference":{"ReferenceId":"907191134","Spot":0.76,"SideOfStreet":"left","CountryId":"20624059","StateId":"20628466","CountyId":"20628693","CityId":"20628696","DistrictId":"20692298","AddressId":"366928305","RoadLinkId":"267868954"}}},{"Relevance":1.0,"Distance":104.8,"MatchLevel":"street","MatchQuality":{"Country":1.0,"State":1.0,"County":1.0,"City":1.0,"District":1.0,"PostalCode":1.0},"Location":{"LocationId":"NT_p9n7K6S90c3CgDIxciGOsA_l_907286641_L","LocationType":"point","DisplayPosition":{"Latitude":52.86314,"Longitude":22.3497},"MapView":{"TopLeft":{"Latitude":52.86314,"Longitude":22.3497},"BottomRight":{"Latitude":52.86191,"Longitude":22.35046}},"Address":{"Label":"18-220 Rosochate Kościelne, Polska","Country":"POL","State":"Woj. Podlaskie","County":"Powiat Wysokomazowiecki","City":"Czyżew","District":"Rosochate Kościelne","PostalCode":"18-220","AdditionalData":[{"value":"Polska","key":"CountryName"},{"value":"Woj. Podlaskie","key":"StateName"},{"value":"Powiat Wysokomazowiecki","key":"CountyName"}]},"MapReference":{"ReferenceId":"907286641","Spot":1.0,"SideOfStreet":"left","CountryId":"20624059","StateId":"20628466","CountyId":"20628693","CityId":"20628696","DistrictId":"20692298"}}},{"Relevance":1.0,"Distance":107.5,"MatchLevel":"street","MatchQuality":{"Country":1.0,"State":1.0,"County":1.0,"City":1.0,"District":1.0,"PostalCode":1.0},"Location":{"LocationId":"NT_p9n7K6S90c3CgDIxciGOsA_l_907191137_L","LocationType":"point","DisplayPosition":{"Latitude":52.86331,"Longitude":22.34962},"MapView":{"TopLeft":{"Latitude":52.86331,"Longitude":22.34962},"BottomRight":{"Latitude":52.86314,"Longitude":22.3497}},"Address":{"Label":"18-220 Rosochate Kościelne, Polska","Country":"POL","State":"Woj. Podlaskie","County":"Powiat Wysokomazowiecki","City":"Czyżew","District":"Rosochate Kościelne","PostalCode":"18-220","AdditionalData":[{"value":"Polska","key":"CountryName"},{"value":"Woj. Podlaskie","key":"StateName"},{"value":"Powiat Wysokomazowiecki","key":"CountyName"}]},"MapReference":{"ReferenceId":"907191137","Spot":1.0,"SideOfStreet":"left","CountryId":"20624059","StateId":"20628466","CountyId":"20628693","CityId":"20628696","DistrictId":"20692298"}}},{"Relevance":1.0,"Distance":109.5,"MatchLevel":"street","MatchQuality":{"Country":1.0,"State":1.0,"County":1.0,"City":1.0,"District":1.0,"PostalCode":1.0},"Location":{"LocationId":"NT_p9n7K6S90c3CgDIxciGOsA_l_907191132_L","LocationType":"point","DisplayPosition":{"Latitude":52.86342,"Longitude":22.34954},"MapView":{"TopLeft":{"Latitude":52.86342,"Longitude":22.34954},"BottomRight":{"Latitude":52.86331,"Longitude":22.34962}},"Address":{"Label":"18-220 Rosochate Kościelne, Polska","Country":"POL","State":"Woj. Podlaskie","County":"Powiat Wysokomazowiecki","City":"Czyżew","District":"Rosochate Kościelne","PostalCode":"18-220","AdditionalData":[{"value":"Polska","key":"CountryName"},{"value":"Woj. Podlaskie","key":"StateName"},{"value":"Powiat Wysokomazowiecki","key":"CountyName"}]},"MapReference":{"ReferenceId":"907191132","Spot":1.0,"SideOfStreet":"left","CountryId":"20624059","StateId":"20628466","CountyId":"20628693","CityId":"20628696","DistrictId":"20692298"}}},{"Relevance":1.0,"Distance":111.2,"MatchLevel":"houseNumber","MatchQuality":{"Country":1.0,"State":1.0,"County":1.0,"City":1.0,"District":1.0,"Street":[1.0],"HouseNumber":1.0,"PostalCode":1.0},"MatchType":"interpolated","Location":{"LocationId":"NT_CeFHH3RYAPaPUBwOrCJm.C_yA","LocationType":"point","DisplayPosition":{"Latitude":52.86331,"Longitude":22.34962},"MapView":{"TopLeft":{"Latitude":52.8644342,"Longitude":22.347758},"BottomRight":{"Latitude":52.8621858,"Longitude":22.351482}},"Address":{"Label":"ulica Wierzbowa 2, 18-220 Rosochate Kościelne, Polska","Country":"POL","State":"Woj. Podlaskie","County":"Powiat Wysokomazowiecki","City":"Czyżew","District":"Rosochate Kościelne","Street":"ulica Wierzbowa","HouseNumber":"2","PostalCode":"18-220","AdditionalData":[{"value":"Polska","key":"CountryName"},{"value":"Woj. Podlaskie","key":"StateName"},{"value":"Powiat Wysokomazowiecki","key":"CountyName"}]},"MapReference":{"ReferenceId":"907191135","Spot":1.0,"SideOfStreet":"left","CountryId":"20624059","StateId":"20628466","CountyId":"20628693","CityId":"20628696","DistrictId":"20692298","AddressId":"366935911","RoadLinkId":"267868955"}}},{"Relevance":1.0,"Distance":118.1,"MatchLevel":"houseNumber","MatchQuality":{"Country":1.0,"State":1.0,"County":1.0,"City":1.0,"District":1.0,"Street":[1.0],"HouseNumber":1.0,"PostalCode":1.0},"MatchType":"interpolated","Location":{"LocationId":"NT_fltWFbaCQhJ9rvrnygtnGB_l_907195643_L_xA","LocationType":"point","DisplayPosition":{"Latitude":52.8633697,"Longitude":22.3497449},"MapView":{"TopLeft":{"Latitude":52.8644939,"Longitude":22.3478829},"BottomRight":{"Latitude":52.8622456,"Longitude":22.351607}},"Address":{"Label":"ulica Mazowiecka 1, 18-220 Rosochate Kościelne, Polska","Country":"POL","State":"Woj. Podlaskie","County":"Powiat Wysokomazowiecki","City":"Czyżew","District":"Rosochate Kościelne","Street":"ulica Mazowiecka","HouseNumber":"1","PostalCode":"18-220","AdditionalData":[{"value":"Polska","key":"CountryName"},{"value":"Woj. Podlaskie","key":"StateName"},{"value":"Powiat Wysokomazowiecki","key":"CountyName"}]},"MapReference":{"ReferenceId":"907195643","Spot":0.54,"SideOfStreet":"left","CountryId":"20624059","StateId":"20628466","CountyId":"20628693","CityId":"20628696","DistrictId":"20692298"}}},{"Relevance":1.0,"Distance":124.9,"MatchLevel":"houseNumber","MatchQuality":{"Country":1.0,"State":1.0,"County":1.0,"City":1.0,"District":1.0,"Street":[1.0],"HouseNumber":1.0,"PostalCode":1.0},"MatchType":"interpolated","Location":{"LocationId":"NT_fltWFbaCQhJ9rvrnygtnGB_1A","LocationType":"point","DisplayPosition":{"Latitude":52.8638,"Longitude":22.34919},"MapView":{"TopLeft":{"Latitude":52.8649242,"Longitude":22.3473279},"BottomRight":{"Latitude":52.8626758,"Longitude":22.3510521}},"Address":{"Label":"ulica Mazowiecka 5, 18-220 Rosochate Kościelne, Polska","Country":"POL","State":"Woj. Podlaskie","County":"Powiat Wysokomazowiecki","City":"Czyżew","District":"Rosochate Kościelne","Street":"ulica Mazowiecka","HouseNumber":"5","PostalCode":"18-220","AdditionalData":[{"value":"Polska","key":"CountryName"},{"value":"Woj. Podlaskie","key":"StateName"},{"value":"Powiat Wysokomazowiecki","key":"CountyName"}]},"MapReference":{"ReferenceId":"907191133","Spot":0.59,"SideOfStreet":"right","CountryId":"20624059","StateId":"20628466","CountyId":"20628693","CityId":"20628696","DistrictId":"20692298","AddressId":"403648982","RoadLinkId":"267868953"}}},{"Relevance":1.0,"Distance":133.0,"MatchLevel":"houseNumber","MatchQuality":{"Country":1.0,"State":1.0,"County":1.0,"City":1.0,"District":1.0,"Street":[1.0],"HouseNumber":1.0,"PostalCode":1.0},"MatchType":"interpolated","Location":{"LocationId":"NT_fltWFbaCQhJ9rvrnygtnGB_zA","LocationType":"point","DisplayPosition":{"Latitude":52.86346,"Longitude":22.34993},"MapView":{"TopLeft":{"Latitude":52.8645842,"Longitude":22.3480679},"BottomRight":{"Latitude":52.8623358,"Longitude":22.3517921}},"Address":{"Label":"ulica Mazowiecka 3, 18-220 Rosochate Kościelne, Polska","Country":"POL","State":"Woj. Podlaskie","County":"Powiat Wysokomazowiecki","City":"Czyżew","District":"Rosochate Kościelne","Street":"ulica Mazowiecka","HouseNumber":"3","PostalCode":"18-220","AdditionalData":[{"value":"Polska","key":"CountryName"},{"value":"Woj. Podlaskie","key":"StateName"},{"value":"Powiat Wysokomazowiecki","key":"CountyName"}]},"MapReference":{"ReferenceId":"907284661","Spot":0.05,"SideOfStreet":"left","CountryId":"20624059","StateId":"20628466","CountyId":"20628693","CityId":"20628696","DistrictId":"20692298","AddressId":"366930934","RoadLinkId":"267970166"}}},{"Relevance":1.0,"Distance":147.6,"MatchLevel":"street","MatchQuality":{"Country":1.0,"State":1.0,"County":1.0,"City":1.0,"Street":[1.0],"PostalCode":1.0},"Location":{"LocationId":"NT_IIbbZr.0NpwgchsFOtN47D_l_596082789_L","LocationType":"point","DisplayPosition":{"Latitude":52.86409,"Longitude":22.34897},"MapView":{"TopLeft":{"Latitude":52.86462,"Longitude":22.34879},"BottomRight":{"Latitude":52.86409,"Longitude":22.34897}},"Address":{"Label":"ulica Mazowiecka, 18-220, Polska","Country":"POL","State":"Woj. Podlaskie","County":"Powiat Wysokomazowiecki","City":"Czyżew","Street":"ulica Mazowiecka","PostalCode":"18-220","AdditionalData":[{"value":"Polska","key":"CountryName"},{"value":"Woj. Podlaskie","key":"StateName"},{"value":"Powiat Wysokomazowiecki","key":"CountyName"}]},"MapReference":{"ReferenceId":"596082789","Spot":0.0,"SideOfStreet":"left","CountryId":"20624059","StateId":"20628466","CountyId":"20628693","CityId":"20628696"}}}]}]}}