{"Response":{"MetaInfo":{"Timestamp":"2020-03-28T10:10:04.290+0000","NextPageInformation":"2"},"View":[{"_type":"SearchResultsViewType","ViewId":0,"Result":[{"Relevance":1.0,"Distance":0.0,"Direction":0.0,"MatchLevel":"district","MatchQuality":{"Country":1.0,"State":1.0,"County":1.0,"City":1.0,"District":1.0,"PostalCode":1.0},"Location":{"LocationId":"NT_BKCn291ddllx7XMgJ4llBD","LocationType":"point","DisplayPosition":{"Latitude":52.8989474,"Longitude":-1.2723261},"MapView":{"TopLeft":{"Latitude":52.94311,"Longitude":-1.31532},"BottomRight":{"Latitude":52.87702,"Longitude":-1.25033}},"Address":{"Label":"Long Eaton, Nottingham, England, United Kingdom","Country":"GBR","State":"England","County":"Nottinghamshire","City":"Nottingham","District":"Long Eaton","PostalCode":"NG10 4","AdditionalData":[{"value":"United Kingdom","key":"CountryName"},{"value":"England","key":"StateName"},{"value":"Nottinghamshire","key":"CountyName"}]},"MapReference":{"ReferenceId":"764586565","SideOfStreet":"neither","StateId":"20248595","CountyId":"20344764","CityId":"20356833","DistrictId":"20356909"}}},{"Relevance":1.0,"Distance":4.3,"MatchLevel":"houseNumber","MatchQuality":{"Country":1.0,"State":1.0,"County":1.0,"City":1.0,"District":1.0,"Street":[1.0],"HouseNumber":1.0,"PostalCode":1.0},"MatchType":"interpolated","Location":{"LocationId":"NT_qcdbQUFYdWiIzhMr9VaF-C_l_26075589_R_2A","LocationType":"point","DisplayPosition":{"Latitude":52.89878,"Longitude":-1.2723701},"MapView":{"TopLeft":{"Latitude":52.8999042,"Longitude":-1.2742337},"BottomRight":{"Latitude":52.8976559,"Longitude":-1.2705065}},"Address":{"Label":"6 Regent Street, Nottingham, NG10 1JX, United Kingdom","Country":"GBR","State":"England","County":"Nottinghamshire","City":"Nottingham","District":"Long Eaton","Street":"Regent Street","HouseNumber":"6","PostalCode":"NG10 1JX","AdditionalData":[{"value":"United Kingdom","key":"CountryName"},{"value":"England","key":"StateName"},{"value":"Nottinghamshire","key":"CountyName"}]},"MapReference":{"ReferenceId":"26075589","Spot":0.1,"SideOfStreet":"right","StateId":"20248595","CountyId":"20344764","CityId":"20356833","DistrictId":"20356909"}}},{"Relevance":1.0,"Distance":23.0,"MatchLevel":"street","MatchQuality":{"Country":1.0,"State":1.0,"County":1.0,"City":1.0,"District":1.0,"Street":[1.0],"PostalCode":1.0},"Location":{"LocationId":"NT_qcdbQUFYdWiIzhMr9VaF-C_l_26075596_R","LocationType":"point","DisplayPosition":{"Latitude":52.89877,"Longitude":-1.27215},"MapView":{"TopLeft":{"Latitude":52.89877,"Longitude":-1.27215},"BottomRight":{"Latitude":52.89871,"Longitude":-1.27135}},"Address":{"Label":"Regent Street, Nottingham, NG10 1, United Kingdom","Country":"GBR","State":"England","County":"Nottinghamshire","City":"Nottingham","District":"Long Eaton","Street":"Regent Street","PostalCode":"NG10 1","AdditionalData":[{"value":"United Kingdom","key":"CountryName"},{"value":"England","key":"StateName"},{"value":"Nottinghamshire","key":"CountyName"}]},"MapReference":{"ReferenceId":"26075596","Spot":1.0,"SideOfStreet":"right","StateId":"20248595","CountyId":"20344764","CityId":"20356833","DistrictId":"20356909"}}},{"Relevance":1.0,"Distance":25.5,"MatchLevel":"postalCode","MatchQuality":{"PostalCode":1.0},"MatchType":"interpolated","Location":{"LocationId":"NT_qcdbQUFYdWiIzhMr9VaF-C_l_26075589_R_2A","LocationType":"point","DisplayPosition":{"Latitude":52.89875,"Longitude":-1.27252},"MapView":{"TopLeft":{"Latitude":52.9077432,"Longitude":-1.2874286},"BottomRight":{"Latitude":52.8897568,"Longitude":-1.2576114}},"Address":{"Label":"NG10 1QQ, Nottingham, England, United Kingdom","Country":"GBR","State":"England","County":"Nottinghamshire","City":"Nottingham","PostalCode":"NG10 1QQ","AdditionalData":[{"value":"United Kingdom","key":"CountryName"},{"value":"England","key":"StateName"},{"value":"Nottinghamshire","key":"CountyName"}]},"MapReference":{"ReferenceId":"26075589","Spot":0.1,"SideOfStreet":"neither","StateId":"20248595","CountyId":"20344764","CityId":"20356833"}}},{"Relevance":1.0,"Distance":29.0,"MatchLevel":"houseNumber","MatchQuality":{"Country":1.0,"State":1.0,"County":1.0,"City":1.0,"District":1.0,"Street":[1.0],"HouseNumber":1.0,"PostalCode":1.0},"MatchType":"interpolated","Location":{"LocationId":"NT_s8SrvfXArVuenj8IXYolFB_l_769281322_L_3A","LocationType":"point","DisplayPosition":{"Latitude":52.8993433,"Longitude":-1.2723234},"MapView":{"TopLeft":{"Latitude":52.9004675,"Longitude":-1.274187},"BottomRight":{"Latitude":52.8982192,"Longitude":-1.2704598}},"Address":{"Label":"7 Oxford Street, Nottingham, NG10 1JR, United Kingdom","Country":"GBR","State":"England","County":"Nottinghamshire","City":"Nottingham","District":"Long Eaton","Street":"Oxford Street","HouseNumber":"7","PostalCode":"NG10 1JR","AdditionalData":[{"value":"United Kingdom","key":"CountryName"},{"value":"England","key":"StateName"},{"value":"Nottinghamshire","key":"CountyName"}]},"MapReference":{"ReferenceId":"769281322","Spot":0.36,"SideOfStreet":"left","StateId":"20248595","CountyId":"20344764","CityId":"20356833","DistrictId":"20356909"}}},{"Relevance":1.0,"Distance":37.6,"MatchLevel":"houseNumber","MatchQuality":{"Country":1.0,"State":1.0,"County":1.0,"City":1.0,"District":1.0,"Street":[1.0],"HouseNumber":1.0,"PostalCode":1.0},"MatchType":"interpolated","Location":{"LocationId":"NT_pB.BVWwyId.6IZBFG7OtcD_l_26075680_L_yA","LocationType":"point","DisplayPosition":{"Latitude":52.8985635,"Longitude":-1.2721853},"MapView":{"TopLeft":{"Latitude":52.8996877,"Longitude":-1.2740489},"BottomRight":{"Latitude":52.8974394,"Longitude":-1.2703218}},"Address":{"Label":"2 Lawrence Street, Nottingham, NG10 1JY, United Kingdom","Country":"GBR","State":"England","County":"Nottinghamshire","City":"Nottingham","District":"Long Eaton","Street":"Lawrence Street","HouseNumber":"2","PostalCode":"NG10 1JY","AdditionalData":[{"value":"United Kingdom","key":"CountryName"},{"value":"England","key":"StateName"},{"value":"Nottinghamshire","key":"CountyName"}]},"MapReference":{"ReferenceId":"26075680","Spot":0.84,"SideOfStreet":"left","StateId":"20248595","CountyId":"20344764","CityId":"20356833","DistrictId":"20356909"}}},{"Relevance":1.0,"Distance":44.6,"MatchLevel":"postalCode","MatchQuality":{"PostalCode":1.0},"MatchType":"interpolated","Location":{"LocationId":"NT_s8SrvfXArVuenj8IXYolFB_l_769281322_L_3A","LocationType":"point","DisplayPosition":{"Latitude":52.89927,"Longitude":-1.27193},"MapView":{"TopLeft":{"Latitude":52.9082632,"Longitude":-1.2868387},"BottomRight":{"Latitude":52.8902768,"Longitude":-1.2570213}},"Address":{"Label":"NG10 1EH, Nottingham, England, United Kingdom","Country":"GBR","State":"England","County":"Nottinghamshire","City":"Nottingham","PostalCode":"NG10 1EH","AdditionalData":[{"value":"United Kingdom","key":"CountryName"},{"value":"England","key":"StateName"},{"value":"Nottinghamshire","key":"CountyName"}]},"MapReference":{"ReferenceId":"769281322","Spot":0.36,"SideOfStreet":"neither","StateId":"20248595","CountyId":"20344764","CityId":"20356833"}}},{"Relevance":1.0,"Distance":45.5,"MatchLevel":"postalCode","MatchQuality":{"PostalCode":1.0},"MatchType":"interpolated","Location":{"LocationId":"NT_daRiaGI9fe0DMFnLUHjkgC_l_1062478674_L_2kD","LocationType":"point","DisplayPosition":{"Latitude":52.89879,"Longitude":-1.2717},"MapView":{"TopLeft":{"Latitude":52.9077832,"Longitude":-1.2866086},"BottomRight":{"Latitude":52.8897968,"Longitude":-1.2567914}},"Address":{"Label":"NG10 1JT, Nottingham, England, United Kingdom","Country":"GBR","State":"England","County":"Nottinghamshire","City":"Nottingham","PostalCode":"NG10 1JT","AdditionalData":[{"value":"United Kingdom","key":"CountryName"},{"value":"England","key":"StateName"},{"value":"Nottinghamshire","key":"CountyName"}]},"MapReference":{"ReferenceId":"1062478674","Spot":0.63,"SideOfStreet":"neither","StateId":"20248595","CountyId":"20344764","CityId":"20356833"}}},{"Relevance":1.0,"Distance":46.1,"MatchLevel":"houseNumber","MatchQuality":{"Country":1.0,"State":1.0,"County":1.0,"City":1.0,"District":1.0,"Street":[1.0],"HouseNumber":1.0,"PostalCode":1.0},"MatchType":"interpolated","Location":{"LocationId":"NT_daRiaGI9fe0DMFnLUHjkgC_l_1062478674_L_2kD","LocationType":"point","DisplayPosition":{"Latitude":52.8989732,"Longitude":-1.2714266},"MapView":{"TopLeft":{"Latitude":52.9000974,"Longitude":-1.2732902},"BottomRight":{"Latitude":52.8978491,"Longitude":-1.2695631}},"Address":{"Label":"69 Market Place, Nottingham, NG10 1JQ, United Kingdom","Country":"GBR","State":"England","County":"Nottinghamshire","City":"Nottingham","District":"Long Eaton","Street":"Market Place","HouseNumber":"69","PostalCode":"NG10 1JQ","AdditionalData":[{"value":"United Kingdom","key":"CountryName"},{"value":"England","key":"StateName"},{"value":"Nottinghamshire","key":"CountyName"}]},"MapReference":{"ReferenceId":"1062478674","Spot":0.63,"SideOfStreet":"left","StateId":"20248595","CountyId":"20344764","CityId":"20356833","DistrictId":"20356909"}}},{"Relevance":1.0,"Distance":53.7,"MatchLevel":"houseNumber","MatchQuality":{"Country":1.0,"State":1.0,"County":1.0,"City":1.0,"District":1.0,"Street":[1.0],"HouseNumber":1.0,"PostalCode":1.0},"MatchType":"interpolated","Location":{"LocationId":"NT_daRiaGI9fe0DMFnLUHjkgC_l_1062478675_L_3ED","LocationType":"point","DisplayPosition":{"Latitude":52.89913,"Longitude":-1.27145},"MapView":{"TopLeft":{"Latitude":52.9002542,"Longitude":-1.2733136},"BottomRight":{"Latitude":52.8980059,"Longitude":-1.2695864}},"Address":{"Label":"71 Market Place, Nottingham, NG10 1JQ, United Kingdom","Country":"GBR","State":"England","County":"Nottinghamshire","City":"Nottingham","District":"Long Eaton","Street":"Market Place","HouseNumber":"71","PostalCode":"NG10 1JQ","AdditionalData":[{"value":"United Kingdom","key":"CountryName"},{"value":"England","key":"StateName"},{"value":"Nottinghamshire","key":"CountyName"}]},"MapReference":{"ReferenceId":"1062478675","Spot":0.0,"SideOfStreet":"left","StateId":"20248595","CountyId":"20344764","CityId":"20356833","DistrictId":"20356909"}}}]}]}}