{"Response":{"MetaInfo":{"Timestamp":"2020-03-28T12:03:12.587+0000","NextPageInformation":"2"},"View":[{"_type":"SearchResultsViewType","ViewId":0,"Result":[{"Relevance":1.0,"Distance":0.0,"Direction":0.0,"MatchLevel":"district","MatchQuality":{"Country":1.0,"County":1.0,"City":1.0,"District":1.0,"PostalCode":1.0},"Location":{"LocationId":"NT_eyjrE7eH09YJVJzKax4ANB","LocationType":"point","DisplayPosition":{"Latitude":52.8632263,"Longitude":-8.1987933},"MapView":{"TopLeft":{"Latitude":52.877,"Longitude":-8.24216},"BottomRight":{"Latitude":52.848,"Longitude":-8.1798}},"Address":{"Label":"Nenagh, Ireland","Country":"IRL","County":"County Tipperary","City":"Nenagh","District":"Nenagh","AdditionalData":[{"value":"Ireland","key":"CountryName"},{"value":"County Tipperary","key":"CountyName"}]},"MapReference":{"ReferenceId":"781539576","SideOfStreet":"neither","CountryId":"20403667","CountyId":"20411233","CityId":"20549713","DistrictId":"20550283"}}},{"Relevance":1.0,"Distance":7.2,"MatchLevel":"houseNumber","MatchQuality":{"Country":1.0,"County":1.0,"City":1.0,"District":1.0,"Street":[1.0],"HouseNumber":1.0,"PostalCode":1.0},"MatchType":"interpolated","Location":{"LocationId":"NT_.-5jGGwjN9NPyyUwBwQX.D_xETLxMD","LocationType":"point","DisplayPosition":{"Latitude":52.8633,"Longitude":-8.19888},"MapView":{"TopLeft":{"Latitude":52.8644242,"Longitude":-8.200742},"BottomRight":{"Latitude":52.8621758,"Longitude":-8.197018}},"Address":{"Label":"11-13 Pearse Street, Nenagh, County Tipperary, E45 DX26, Ireland","Country":"IRL","County":"County Tipperary","City":"Nenagh","District":"Nenagh","Street":"Pearse Street","HouseNumber":"11-13","PostalCode":"E45 DX26","AdditionalData":[{"value":"Ireland","key":"CountryName"},{"value":"County Tipperary","key":"CountyName"}]},"MapReference":{"ReferenceId":"870228837","Spot":0.06,"SideOfStreet":"right","CountryId":"20403667","CountyId":"20411233","CityId":"20549713","DistrictId":"20550283","AddressId":"743561486","RoadLinkId":"242587246"}}},{"Relevance":1.0,"Distance":7.4,"MatchLevel":"houseNumber","MatchQuality":{"Country":1.0,"County":1.0,"City":1.0,"District":1.0,"Street":[1.0],"HouseNumber":1.0,"PostalCode":1.0},"MatchType":"interpolated","Location":{"LocationId":"NT_.-5jGGwjN9NPyyUwBwQX.D_xAD","LocationType":"point","DisplayPosition":{"Latitude":52.86326,"Longitude":-8.19893},"MapView":{"TopLeft":{"Latitude":52.8643842,"Longitude":-8.200792},"BottomRight":{"Latitude":52.8621358,"Longitude":-8.197068}},"Address":{"Label":"10 Pearse Street, Nenagh, County Tipperary, E45 XV18, Ireland","Country":"IRL","County":"County Tipperary","City":"Nenagh","District":"Nenagh","Street":"Pearse Street","HouseNumber":"10","PostalCode":"E45 XV18","AdditionalData":[{"value":"Ireland","key":"CountryName"},{"value":"County Tipperary","key":"CountyName"}]},"MapReference":{"ReferenceId":"870228836","Spot":1.0,"SideOfStreet":"right","CountryId":"20403667","CountyId":"20411233","CityId":"20549713","DistrictId":"20550283","AddressId":"214288172","RoadLinkId":"242587245"}}},{"Relevance":1.0,"Distance":9.9,"MatchLevel":"street","MatchQuality":{"Country":1.0,"County":1.0,"City":1.0,"District":1.0,"Street":[1.0],"PostalCode":1.0},"Location":{"LocationId":"NT_k0dwVln-EmEw4VuG9tKrJD_l_870228838_R","LocationType":"point","DisplayPosition":{"Latitude":52.86326,"Longitude":-8.19893},"MapView":{"TopLeft":{"Latitude":52.8634,"Longitude":-8.19924},"BottomRight":{"Latitude":52.86326,"Longitude":-8.19893}},"Address":{"Label":"Doheny Palce, Nenagh, County Tipperary, E45, Ireland","Country":"IRL","County":"County Tipperary","City":"Nenagh","District":"Nenagh","Street":"Doheny Palce","PostalCode":"E45","AdditionalData":[{"value":"Ireland","key":"CountryName"},{"value":"County Tipperary","key":"CountyName"}]},"MapReference":{"ReferenceId":"870228838","Spot":0.0,"SideOfStreet":"right","CountryId":"20403667","CountyId":"20411233","CityId":"20549713","DistrictId":"20550283"}}},{"Relevance":1.0,"Distance":12.0,"MatchLevel":"postalCode","MatchQuality":{"PostalCode":1.0},"MatchType":"interpolated","Location":{"LocationId":"NT_.-5jGGwjN9NPyyUwBwQX.D_xAD","LocationType":"point","DisplayPosition":{"Latitude":52.86312,"Longitude":-8.19882},"MapView":{"TopLeft":{"Latitude":52.8721132,"Longitude":-8.2137163},"BottomRight":{"Latitude":52.8541268,"Longitude":-8.1839237}},"Address":{"Label":"E45 C998, Nenagh, Ireland","Country":"IRL","County":"County Tipperary","City":"Nenagh","PostalCode":"E45 C998","AdditionalData":[{"value":"Ireland","key":"CountryName"},{"value":"County Tipperary","key":"CountyName"}]},"MapReference":{"ReferenceId":"870228836","Spot":1.0,"SideOfStreet":"neither","CountryId":"20403667","CountyId":"20411233","CityId":"20549713"}}},{"Relevance":1.0,"Distance":22.4,"MatchLevel":"postalCode","MatchQuality":{"PostalCode":1.0},"Location":{"LocationId":"NT_k0dwVln-EmEw4VuG9tKrJD_l_870228838_R","LocationType":"point","DisplayPosition":{"Latitude":52.86333,"Longitude":-8.19908},"MapView":{"TopLeft":{"Latitude":52.8723232,"Longitude":-8.2139764},"BottomRight":{"Latitude":52.8543368,"Longitude":-8.1841836}},"Address":{"Label":"E45 YE13, Nenagh, Ireland","Country":"IRL","County":"County Tipperary","City":"Nenagh","PostalCode":"E45 YE13","AdditionalData":[{"value":"Ireland","key":"CountryName"},{"value":"County Tipperary","key":"CountyName"}]},"MapReference":{"ReferenceId":"870228838","Spot":0.0,"SideOfStreet":"neither","CountryId":"20403667","CountyId":"20411233","CityId":"20549713"}}},{"Relevance":1.0,"Distance":27.2,"MatchLevel":"postalCode","MatchQuality":{"PostalCode":1.0},"MatchType":"interpolated","Location":{"LocationId":"NT_.-5jGGwjN9NPyyUwBwQX.D_xETLxMD","LocationType":"point","DisplayPosition":{"Latitude":52.86341,"Longitude":-8.19906},"MapView":{"TopLeft":{"Latitude":52.8724032,"Longitude":-8.2139564},"BottomRight":{"Latitude":52.8544168,"Longitude":-8.1841636}},"Address":{"Label":"E45 XN50, Nenagh, Ireland","Country":"IRL","County":"County Tipperary","City":"Nenagh","PostalCode":"E45 XN50","AdditionalData":[{"value":"Ireland","key":"CountryName"},{"value":"County Tipperary","key":"CountyName"}]},"MapReference":{"ReferenceId":"870228837","Spot":0.06,"SideOfStreet":"neither","CountryId":"20403667","CountyId":"20411233","CityId":"20549713"}}},{"Relevance":1.0,"Distance":57.9,"MatchLevel":"houseNumber","MatchQuality":{"Country":1.0,"County":1.0,"City":1.0,"District":1.0,"Street":[1.0],"PostalCode":1.0},"MatchType":"interpolated","Location":{"LocationId":"NT_yPvIHL85J-JAZRHGdeOytA","LocationType":"point","DisplayPosition":{"Latitude":52.86268,"Longitude":-8.19837},"MapView":{"TopLeft":{"Latitude":52.8638042,"Longitude":-8.200232},"BottomRight":{"Latitude":52.8615558,"Longitude":-8.196508}},"Address":{"Label":"\"Abbey View House\" Abbey Street, Nenagh, County Tipperary, E45 CK24, Ireland","Country":"IRL","County":"County Tipperary","City":"Nenagh","District":"Nenagh","Street":"Abbey Street","PostalCode":"E45 CK24","AdditionalData":[{"value":"Ireland","key":"CountryName"},{"value":"County Tipperary","key":"CountyName"}],"Building":"Abbey View House"},"MapReference":{"ReferenceId":"589609151","Spot":0.74,"SideOfStreet":"left","CountryId":"20403667","CountyId":"20411233","CityId":"20549713","DistrictId":"20550283","AddressId":"358855921","RoadLinkId":"86657383"}}},{"Relevance":1.0,"Distance":57.9,"MatchLevel":"postalCode","MatchQuality":{"PostalCode":1.0},"MatchType":"interpolated","Location":{"LocationId":"NT_yPvIHL85J-JAZRHGdeOytA","LocationType":"point","DisplayPosition":{"Latitude":52.86276,"Longitude":-8.19841},"MapView":{"TopLeft":{"Latitude":52.8717532,"Longitude":-8.2133062},"BottomRight":{"Latitude":52.8537668,"Longitude":-8.1835138}},"Address":{"Label":"E45 E635, Nenagh, Ireland","Country":"IRL","County":"County Tipperary","City":"Nenagh","PostalCode":"E45 E635","AdditionalData":[{"value":"Ireland","key":"CountryName"},{"value":"County Tipperary","key":"CountyName"}]},"MapReference":{"ReferenceId":"589609151","Spot":0.74,"SideOfStreet":"neither","CountryId":"20403667","CountyId":"20411233","CityId":"20549713"}}},{"Relevance":1.0,"Distance":61.3,"MatchLevel":"houseNumber","MatchQuality":{"Country":1.0,"County":1.0,"City":1.0,"District":1.0,"Street":[1.0],"PostalCode":1.0},"MatchType":"interpolated","Location":{"LocationId":"NT_87XgdfBiHIK0emNUXBbbFB","LocationType":"point","DisplayPosition":{"Latitude":52.86295,"Longitude":-8.19968},"MapView":{"TopLeft":{"Latitude":52.8640742,"Longitude":-8.201542},"BottomRight":{"Latitude":52.8618258,"Longitude":-8.197818}},"Address":{"Label":"\"Nationwide House\" Mitchel Street, Nenagh, County Tipperary, E45 XN75, Ireland","Country":"IRL","County":"County Tipperary","City":"Nenagh","District":"Nenagh","Street":"Mitchel Street","PostalCode":"E45 XN75","AdditionalData":[{"value":"Ireland","key":"CountryName"},{"value":"County Tipperary","key":"CountyName"}],"Building":"Nationwide House"},"MapReference":{"ReferenceId":"781539575","Spot":0.4,"SideOfStreet":"right","CountryId":"20403667","CountyId":"20411233","CityId":"20549713","DistrictId":"20550283","AddressId":"359989372","RoadLinkId":"241685703"}}}]}]}}