{"Response":{"MetaInfo":{"Timestamp":"2020-03-28T10:37:57.161+0000","NextPageInformation":"2"},"View":[{"_type":"SearchResultsViewType","ViewId":0,"Result":[{"Relevance":1.0,"Distance":0.0,"Direction":0.0,"MatchLevel":"district","MatchQuality":{"Country":1.0,"State":1.0,"County":1.0,"City":1.0,"District":1.0,"PostalCode":1.0},"Location":{"LocationId":"NT_JgdQGclokF-gRryEVkjJpD","LocationType":"point","DisplayPosition":{"Latitude":52.8982408,"Longitude":-1.4325876},"MapView":{"TopLeft":{"Latitude":52.96024,"Longitude":-1.56094},"BottomRight":{"Latitude":52.86043,"Longitude":-1.38459}},"Address":{"Label":"Derby, England, United Kingdom","Country":"GBR","State":"England","County":"Derbyshire","City":"Derby","District":"Derby","PostalCode":"DE1 1","AdditionalData":[{"value":"United Kingdom","key":"CountryName"},{"value":"England","key":"StateName"},{"value":"Derbyshire","key":"CountyName"}]},"MapReference":{"ReferenceId":"839529538","SideOfStreet":"neither","StateId":"20248595","CountyId":"20343933","CityId":"20353727","DistrictId":"20353728"}}},{"Relevance":1.0,"Distance":5.2,"MatchLevel":"houseNumber","MatchQuality":{"Country":1.0,"State":1.0,"County":1.0,"City":1.0,"District":1.0,"Street":[1.0],"HouseNumber":1.0,"PostalCode":1.0},"MatchType":"interpolated","Location":{"LocationId":"NT_pstLfH30JSO4plHlpU7HnA_l_26075862_R_xITM3A","LocationType":"point","DisplayPosition":{"Latitude":52.89816,"Longitude":-1.4326501},"MapView":{"TopLeft":{"Latitude":52.8992842,"Longitude":-1.4345136},"BottomRight":{"Latitude":52.8970359,"Longitude":-1.4307865}},"Address":{"Label":"1217 London Road, Derby, DE24 8QJ, United Kingdom","Country":"GBR","State":"England","County":"Derbyshire","City":"Derby","District":"Derby","Street":"London Road","HouseNumber":"1217","PostalCode":"DE24 8QJ","AdditionalData":[{"value":"United Kingdom","key":"CountryName"},{"value":"England","key":"StateName"},{"value":"Derbyshire","key":"CountyName"}]},"MapReference":{"ReferenceId":"26075862","Spot":0.0,"SideOfStreet":"right","StateId":"20248595","CountyId":"20343933","CityId":"20353727","DistrictId":"20353728"}}},{"Relevance":1.0,"Distance":9.9,"MatchLevel":"street","MatchQuality":{"Country":1.0,"State":1.0,"County":1.0,"City":1.0,"District":1.0,"Street":[1.0],"PostalCode":1.0},"Location":{"LocationId":"NT_FUMiaEfex45jPJhpdoOjpD_l_26075871_L","LocationType":"point","DisplayPosition":{"Latitude":52.89816,"Longitude":-1.43265},"MapView":{"TopLeft":{"Latitude":52.89816,"Longitude":-1.43296},"BottomRight":{"Latitude":52.89811,"Longitude":-1.43265}},"Address":{"Label":"Brighton Road, Derby, DE24 8, United Kingdom","Country":"GBR","State":"England","County":"Derbyshire","City":"Derby","District":"Derby","Street":"Brighton Road","PostalCode":"DE24 8","AdditionalData":[{"value":"United Kingdom","key":"CountryName"},{"value":"England","key":"StateName"},{"value":"Derbyshire","key":"CountyName"}]},"MapReference":{"ReferenceId":"26075871","Spot":1.0,"SideOfStreet":"left","StateId":"20248595","CountyId":"20343933","CityId":"20353727","DistrictId":"20353728"}}},{"Relevance":1.0,"Distance":12.1,"MatchLevel":"houseNumber","MatchQuality":{"Country":1.0,"State":1.0,"County":1.0,"City":1.0,"District":1.0,"Street":[1.0],"HouseNumber":1.0,"PostalCode":1.0},"MatchType":"interpolated","Location":{"LocationId":"NT_gG41dWnP9DFeA1gSntzaaC_l_26075882_L_xETO4A","LocationType":"point","DisplayPosition":{"Latitude":52.8981325,"Longitude":-1.4326},"MapView":{"TopLeft":{"Latitude":52.8992567,"Longitude":-1.4344636},"BottomRight":{"Latitude":52.8970084,"Longitude":-1.4307365}},"Address":{"Label":"1198 London Road, Derby, DE24 8, United Kingdom","Country":"GBR","State":"England","County":"Derbyshire","City":"Derby","District":"Derby","Street":"London Road","HouseNumber":"1198","PostalCode":"DE24 8","AdditionalData":[{"value":"United Kingdom","key":"CountryName"},{"value":"England","key":"StateName"},{"value":"Derbyshire","key":"CountyName"}]},"MapReference":{"ReferenceId":"26075882","Spot":0.75,"SideOfStreet":"left","StateId":"20248595","CountyId":"20343933","CityId":"20353727","DistrictId":"20353728"}}},{"Relevance":1.0,"Distance":15.6,"MatchLevel":"houseNumber","MatchQuality":{"Country":1.0,"State":1.0,"County":1.0,"City":1.0,"District":1.0,"Street":[1.0],"HouseNumber":1.0,"PostalCode":1.0},"MatchType":"interpolated","Location":{"LocationId":"NT_v3AFTF6N1SrRJeZRtCNDKA_l_26075821_R_yA","LocationType":"point","DisplayPosition":{"Latitude":52.8984702,"Longitude":-1.4328398},"MapView":{"TopLeft":{"Latitude":52.8995944,"Longitude":-1.4347033},"BottomRight":{"Latitude":52.8973461,"Longitude":-1.4309762}},"Address":{"Label":"2 Lincoln Avenue, Derby, DE24 8QX, United Kingdom","Country":"GBR","State":"England","County":"Derbyshire","City":"Derby","District":"Derby","Street":"Lincoln Avenue","HouseNumber":"2","PostalCode":"DE24 8QX","AdditionalData":[{"value":"United Kingdom","key":"CountryName"},{"value":"England","key":"StateName"},{"value":"Derbyshire","key":"CountyName"}]},"MapReference":{"ReferenceId":"26075821","Spot":0.06,"SideOfStreet":"right","StateId":"20248595","CountyId":"20343933","CityId":"20353727","DistrictId":"20353728"}}},{"Relevance":1.0,"Distance":21.5,"MatchLevel":"postalCode","MatchQuality":{"PostalCode":1.0},"MatchType":"interpolated","Location":{"LocationId":"NT_pstLfH30JSO4plHlpU7HnA_l_26075862_R_xITM3A","LocationType":"point","DisplayPosition":{"Latitude":52.89827,"Longitude":-1.43227},"MapView":{"TopLeft":{"Latitude":52.9072632,"Longitude":-1.4471784},"BottomRight":{"Latitude":52.8892768,"Longitude":-1.4173616}},"Address":{"Label":"DE24 8QJ, Derby, England, United Kingdom","Country":"GBR","State":"England","County":"Derbyshire","City":"Derby","PostalCode":"DE24 8QJ","AdditionalData":[{"value":"United Kingdom","key":"CountryName"},{"value":"England","key":"StateName"},{"value":"Derbyshire","key":"CountyName"}]},"MapReference":{"ReferenceId":"26075862","Spot":0.0,"SideOfStreet":"neither","StateId":"20248595","CountyId":"20343933","CityId":"20353727"}}},{"Relevance":1.0,"Distance":23.1,"MatchLevel":"street","MatchQuality":{"Country":1.0,"State":1.0,"County":1.0,"City":1.0,"District":1.0,"Street":[1.0],"PostalCode":1.0},"Location":{"LocationId":"NT_oj8VwimpLuryOTPzshnItD_l_26075881_L","LocationType":"point","DisplayPosition":{"Latitude":52.89805,"Longitude":-1.43245},"MapView":{"TopLeft":{"Latitude":52.89845,"Longitude":-1.43245},"BottomRight":{"Latitude":52.89805,"Longitude":-1.43173}},"Address":{"Label":"Beckitt Close, Derby, DE24 8, United Kingdom","Country":"GBR","State":"England","County":"Derbyshire","City":"Derby","District":"Derby","Street":"Beckitt Close","PostalCode":"DE24 8","AdditionalData":[{"value":"United Kingdom","key":"CountryName"},{"value":"England","key":"StateName"},{"value":"Derbyshire","key":"CountyName"}]},"MapReference":{"ReferenceId":"26075881","Spot":0.0,"SideOfStreet":"left","StateId":"20248595","CountyId":"20343933","CityId":"20353727","DistrictId":"20353728"}}},{"Relevance":1.0,"Distance":31.6,"MatchLevel":"postalCode","MatchQuality":{"PostalCode":1.0},"Location":{"LocationId":"NT_oj8VwimpLuryOTPzshnItD_l_26075881_L","LocationType":"point","DisplayPosition":{"Latitude":52.89833,"Longitude":-1.43214},"MapView":{"TopLeft":{"Latitude":52.9073232,"Longitude":-1.4470484},"BottomRight":{"Latitude":52.8893368,"Longitude":-1.4172316}},"Address":{"Label":"DE24 8XZ, Derby, England, United Kingdom","Country":"GBR","State":"England","County":"Derbyshire","City":"Derby","PostalCode":"DE24 8XZ","AdditionalData":[{"value":"United Kingdom","key":"CountryName"},{"value":"England","key":"StateName"},{"value":"Derbyshire","key":"CountyName"}]},"MapReference":{"ReferenceId":"26075881","Spot":0.0,"SideOfStreet":"neither","StateId":"20248595","CountyId":"20343933","CityId":"20353727"}}},{"Relevance":1.0,"Distance":38.0,"MatchLevel":"houseNumber","MatchQuality":{"Country":1.0,"State":1.0,"County":1.0,"City":1.0,"District":1.0,"Street":[1.0],"HouseNumber":1.0,"PostalCode":1.0},"MatchType":"interpolated","Location":{"LocationId":"NT_FUMiaEfex45jPJhpdoOjpD_l_26075872_R_zgTO","LocationType":"point","DisplayPosition":{"Latitude":52.89813,"Longitude":-1.4331702},"MapView":{"TopLeft":{"Latitude":52.8992542,"Longitude":-1.4350337},"BottomRight":{"Latitude":52.8970059,"Longitude":-1.4313066}},"Address":{"Label":"389 Brighton Road, Derby, DE24 8TG, United Kingdom","Country":"GBR","State":"England","County":"Derbyshire","City":"Derby","District":"Derby","Street":"Brighton Road","HouseNumber":"389","PostalCode":"DE24 8TG","AdditionalData":[{"value":"United Kingdom","key":"CountryName"},{"value":"England","key":"StateName"},{"value":"Derbyshire","key":"CountyName"}]},"MapReference":{"ReferenceId":"26075872","Spot":0.17,"SideOfStreet":"right","StateId":"20248595","CountyId":"20343933","CityId":"20353727","DistrictId":"20353728"}}},{"Relevance":1.0,"Distance":38.2,"MatchLevel":"houseNumber","MatchQuality":{"Country":1.0,"State":1.0,"County":1.0,"City":1.0,"District":1.0,"Street":[1.0],"HouseNumber":1.0,"PostalCode":1.0},"MatchType":"interpolated","Location":{"LocationId":"NT_pstLfH30JSO4plHlpU7HnA_l_26075906_L_xIDM4A","LocationType":"point","DisplayPosition":{"Latitude":52.897965,"Longitude":-1.4322483},"MapView":{"TopLeft":{"Latitude":52.8990892,"Longitude":-1.4341119},"BottomRight":{"Latitude":52.8968409,"Longitude":-1.4303848}},"Address":{"Label":"1208 London Road, Derby, DE24 8, United Kingdom","Country":"GBR","State":"England","County":"Derbyshire","City":"Derby","District":"Derby","Street":"London Road","HouseNumber":"1208","PostalCode":"DE24 8","AdditionalData":[{"value":"United Kingdom","key":"CountryName"},{"value":"England","key":"StateName"},{"value":"Derbyshire","key":"CountyName"}]},"MapReference":{"ReferenceId":"26075906","Spot":0.55,"SideOfStreet":"left","StateId":"20248595","CountyId":"20343933","CityId":"20353727","DistrictId":"20353728"}}}]}]}}