{"Response":{"MetaInfo":{"Timestamp":"2020-03-28T11:02:36.085+0000","NextPageInformation":"2"},"View":[{"_type":"SearchResultsViewType","ViewId":0,"Result":[{"Relevance":1.0,"Distance":-11.2,"MatchLevel":"landmark","MatchQuality":{"Country":1.0,"State":1.0,"County":1.0,"City":1.0,"District":1.0,"Street":[1.0],"HouseNumber":1.0,"PostalCode":1.0,"Name":1.0},"Location":{"LocationId":"NT_U2fKcYJphwhQpoN4GtbQaB_p_uUtNcKkHCcZdOZ1udapLBC","LocationType":"hospital","Name":"Werner-Forßmann-Krankenhaus","DisplayPosition":{"Latitude":52.82758,"Longitude":13.79078},"MapView":{"TopLeft":{"Latitude":52.8287042,"Longitude":13.7889195},"BottomRight":{"Latitude":52.8264558,"Longitude":13.7926405}},"Address":{"Label":"Rudolf-Breitscheid-Straße 100, 16225 Eberswalde, Deutschland","Country":"DEU","State":"Brandenburg","County":"Barnim","City":"Eberswalde","District":"Eberswalde","Street":"Rudolf-Breitscheid-Straße","HouseNumber":"100","PostalCode":"16225","AdditionalData":[{"value":"Deutschland","key":"CountryName"},{"value":"Brandenburg","key":"StateName"},{"value":"Barnim","key":"CountyName"}]},"MapReference":{"CountryId":"20147700","StateId":"20187428","CountyId":"20187485","CityId":"20211770","DistrictId":"20211771","PlaceId":"56109326"}}},{"Relevance":1.0,"Distance":0.0,"Direction":0.0,"MatchLevel":"district","MatchQuality":{"Country":1.0,"State":1.0,"County":1.0,"City":1.0,"District":1.0,"PostalCode":1.0},"Location":{"LocationId":"NT_j2wZlvdHnIJNX0BRjJLlCB","LocationType":"point","DisplayPosition":{"Latitude":52.8272334,"Longitude":13.7885651},"MapView":{"TopLeft":{"Latitude":52.85652,"Longitude":13.7135},"BottomRight":{"Latitude":52.82225,"Longitude":13.8519}},"Address":{"Label":"Eberswalde, Brandenburg, Deutschland","Country":"DEU","State":"Brandenburg","County":"Barnim","City":"Eberswalde","District":"Eberswalde","PostalCode":"16225","AdditionalData":[{"value":"Deutschland","key":"CountryName"},{"value":"Brandenburg","key":"StateName"},{"value":"Barnim","key":"CountyName"}]},"MapReference":{"ReferenceId":"77330880","SideOfStreet":"neither","CountryId":"20147700","StateId":"20187428","CountyId":"20187485","CityId":"20211770","DistrictId":"20211771"}}},{"Relevance":1.0,"Distance":11.3,"MatchLevel":"street","MatchQuality":{"Country":1.0,"State":1.0,"County":1.0,"City":1.0,"District":1.0,"Street":[1.0],"PostalCode":1.0},"Location":{"LocationId":"NT_dzCJcfljANBaGflav8Yj9D_l_592183649_L","LocationType":"point","DisplayPosition":{"Latitude":52.8271324,"Longitude":13.7885766},"MapView":{"TopLeft":{"Latitude":52.82728,"Longitude":13.78838},"BottomRight":{"Latitude":52.82711,"Longitude":13.78987}},"Address":{"Label":"Rudolf-Breitscheid-Straße, 16225 Eberswalde, Deutschland","Country":"DEU","State":"Brandenburg","County":"Barnim","City":"Eberswalde","District":"Eberswalde","Street":"Rudolf-Breitscheid-Straße","PostalCode":"16225","AdditionalData":[{"value":"Deutschland","key":"CountryName"},{"value":"Brandenburg","key":"StateName"},{"value":"Barnim","key":"CountyName"}]},"MapReference":{"ReferenceId":"592183649","Spot":0.13,"SideOfStreet":"left","CountryId":"20147700","StateId":"20187428","CountyId":"20187485","CityId":"20211770","DistrictId":"20211771"}}},{"Relevance":1.0,"Distance":18.5,"MatchLevel":"street","MatchQuality":{"Country":1.0,"State":1.0,"County":1.0,"City":1.0,"District":1.0,"Street":[1.0],"PostalCode":1.0},"Location":{"LocationId":"NT_dzCJcfljANBaGflav8Yj9D_l_711386520_L","LocationType":"point","DisplayPosition":{"Latitude":52.82711,"Longitude":13.78838},"MapView":{"TopLeft":{"Latitude":52.82711,"Longitude":13.78678},"BottomRight":{"Latitude":52.82692,"Longitude":13.78838}},"Address":{"Label":"Rudolf-Breitscheid-Straße, 16225 Eberswalde, Deutschland","Country":"DEU","State":"Brandenburg","County":"Barnim","City":"Eberswalde","District":"Eberswalde","Street":"Rudolf-Breitscheid-Straße","PostalCode":"16225","AdditionalData":[{"value":"Deutschland","key":"CountryName"},{"value":"Brandenburg","key":"StateName"},{"value":"Barnim","key":"CountyName"}]},"MapReference":{"ReferenceId":"711386520","Spot":1.0,"SideOfStreet":"left","CountryId":"20147700","StateId":"20187428","CountyId":"20187485","CityId":"20211770","DistrictId":"20211771"}}},{"Relevance":1.0,"Distance":87.8,"MatchLevel":"street","MatchQuality":{"Country":1.0,"State":1.0,"County":1.0,"City":1.0,"District":1.0,"Street":[1.0],"PostalCode":1.0},"Location":{"LocationId":"NT_dzCJcfljANBaGflav8Yj9D_l_592183644_L","LocationType":"point","DisplayPosition":{"Latitude":52.82728,"Longitude":13.78987},"MapView":{"TopLeft":{"Latitude":52.82739,"Longitude":13.78987},"BottomRight":{"Latitude":52.82728,"Longitude":13.79079}},"Address":{"Label":"Rudolf-Breitscheid-Straße, 16225 Eberswalde, Deutschland","Country":"DEU","State":"Brandenburg","County":"Barnim","City":"Eberswalde","District":"Eberswalde","Street":"Rudolf-Breitscheid-Straße","PostalCode":"16225","AdditionalData":[{"value":"Deutschland","key":"CountryName"},{"value":"Brandenburg","key":"StateName"},{"value":"Barnim","key":"CountyName"}]},"MapReference":{"ReferenceId":"592183644","Spot":0.0,"SideOfStreet":"left","CountryId":"20147700","StateId":"20187428","CountyId":"20187485","CityId":"20211770","DistrictId":"20211771"}}},{"Relevance":1.0,"Distance":117.5,"MatchLevel":"houseNumber","MatchQuality":{"Country":1.0,"State":1.0,"County":1.0,"City":1.0,"Street":[1.0],"HouseNumber":1.0,"PostalCode":1.0},"MatchType":"interpolated","Location":{"LocationId":"NT_I3oIaJiykm1O5z1LwcmvbA_0A","LocationType":"point","DisplayPosition":{"Latitude":52.82658,"Longitude":13.78994},"MapView":{"TopLeft":{"Latitude":52.8277042,"Longitude":13.7880795},"BottomRight":{"Latitude":52.8254558,"Longitude":13.7918005}},"Address":{"Label":"Am Zainhammer 4, 16225 Eberswalde, Deutschland","Country":"DEU","State":"Brandenburg","County":"Barnim","City":"Eberswalde","Street":"Am Zainhammer","HouseNumber":"4","PostalCode":"16225","AdditionalData":[{"value":"Deutschland","key":"CountryName"},{"value":"Brandenburg","key":"StateName"},{"value":"Barnim","key":"CountyName"}]},"MapReference":{"ReferenceId":"1167899652","Spot":0.52,"SideOfStreet":"right","CountryId":"20147700","StateId":"20187428","CountyId":"20187485","CityId":"20211770","AddressId":"182532833","RoadLinkId":"474569222"}}},{"Relevance":1.0,"Distance":124.9,"MatchLevel":"street","MatchQuality":{"Country":1.0,"State":1.0,"County":1.0,"City":1.0,"District":1.0,"Street":[1.0],"PostalCode":1.0},"Location":{"LocationId":"NT_dzCJcfljANBaGflav8Yj9D_l_711386519_L","LocationType":"point","DisplayPosition":{"Latitude":52.82692,"Longitude":13.78678},"MapView":{"TopLeft":{"Latitude":52.82692,"Longitude":13.78563},"BottomRight":{"Latitude":52.82678,"Longitude":13.78678}},"Address":{"Label":"Rudolf-Breitscheid-Straße, 16225 Eberswalde, Deutschland","Country":"DEU","State":"Brandenburg","County":"Barnim","City":"Eberswalde","District":"Eberswalde","Street":"Rudolf-Breitscheid-Straße","PostalCode":"16225","AdditionalData":[{"value":"Deutschland","key":"CountryName"},{"value":"Brandenburg","key":"StateName"},{"value":"Barnim","key":"CountyName"}]},"MapReference":{"ReferenceId":"711386519","Spot":1.0,"SideOfStreet":"left","CountryId":"20147700","StateId":"20187428","CountyId":"20187485","CityId":"20211770","DistrictId":"20211771"}}},{"Relevance":1.0,"Distance":146.2,"MatchLevel":"street","MatchQuality":{"Country":1.0,"State":1.0,"County":1.0,"City":1.0,"PostalCode":1.0},"Location":{"LocationId":"NT_DfY6ElaPxh21vwjHnPcPqB_l_1167899653_L","LocationType":"point","DisplayPosition":{"Latitude":52.82593,"Longitude":13.78885},"MapView":{"TopLeft":{"Latitude":52.82593,"Longitude":13.78331},"BottomRight":{"Latitude":52.82436,"Longitude":13.78885}},"Address":{"Label":"16225 Eberswalde, Deutschland","Country":"DEU","State":"Brandenburg","County":"Barnim","City":"Eberswalde","PostalCode":"16225","AdditionalData":[{"value":"Deutschland","key":"CountryName"},{"value":"Brandenburg","key":"StateName"},{"value":"Barnim","key":"CountyName"}]},"MapReference":{"ReferenceId":"1167899653","Spot":1.0,"SideOfStreet":"left","CountryId":"20147700","StateId":"20187428","CountyId":"20187485","CityId":"20211770"}}},{"Relevance":1.0,"Distance":147.4,"MatchLevel":"houseNumber","MatchQuality":{"Country":1.0,"State":1.0,"County":1.0,"City":1.0,"District":1.0,"Street":[1.0],"HouseNumber":1.0,"PostalCode":1.0},"MatchType":"interpolated","Location":{"LocationId":"NT_dzCJcfljANBaGflav8Yj9D_xADM","LocationType":"point","DisplayPosition":{"Latitude":52.82757,"Longitude":13.79065},"MapView":{"TopLeft":{"Latitude":52.8286942,"Longitude":13.7887895},"BottomRight":{"Latitude":52.8264458,"Longitude":13.7925105}},"Address":{"Label":"Rudolf-Breitscheid-Straße 100, 16225 Eberswalde, Deutschland","Country":"DEU","State":"Brandenburg","County":"Barnim","City":"Eberswalde","District":"Eberswalde","Street":"Rudolf-Breitscheid-Straße","HouseNumber":"100","PostalCode":"16225","AdditionalData":[{"value":"Deutschland","key":"CountryName"},{"value":"Brandenburg","key":"StateName"},{"value":"Barnim","key":"CountyName"}]},"MapReference":{"ReferenceId":"592183647","Spot":0.43,"SideOfStreet":"left","CountryId":"20147700","StateId":"20187428","CountyId":"20187485","CityId":"20211770","DistrictId":"20211771","AddressId":"183372917","RoadLinkId":"37899680"}}},{"Relevance":1.0,"Distance":150.5,"MatchLevel":"street","MatchQuality":{"Country":1.0,"State":1.0,"County":1.0,"City":1.0,"District":1.0,"Street":[1.0],"PostalCode":1.0},"Location":{"LocationId":"NT_dzCJcfljANBaGflav8Yj9D_l_592183645_L","LocationType":"point","DisplayPosition":{"Latitude":52.82739,"Longitude":13.79079},"MapView":{"TopLeft":{"Latitude":52.82752,"Longitude":13.79079},"BottomRight":{"Latitude":52.82739,"Longitude":13.7919}},"Address":{"Label":"Rudolf-Breitscheid-Straße, 16225 Eberswalde, Deutschland","Country":"DEU","State":"Brandenburg","County":"Barnim","City":"Eberswalde","District":"Eberswalde","Street":"Rudolf-Breitscheid-Straße","PostalCode":"16225","AdditionalData":[{"value":"Deutschland","key":"CountryName"},{"value":"Brandenburg","key":"StateName"},{"value":"Barnim","key":"CountyName"}]},"MapReference":{"ReferenceId":"592183645","Spot":0.0,"SideOfStreet":"left","CountryId":"20147700","StateId":"20187428","CountyId":"20187485","CityId":"20211770","DistrictId":"20211771"}}}]}]}}