{"Response":{"MetaInfo":{"Timestamp":"2020-03-28T11:57:40.585+0000","NextPageInformation":"2"},"View":[{"_type":"SearchResultsViewType","ViewId":0,"Result":[{"Relevance":1.0,"Distance":0.0,"Direction":0.0,"MatchLevel":"district","MatchQuality":{"Country":1.0,"State":1.0,"County":1.0,"City":1.0,"District":1.0,"PostalCode":1.0},"Location":{"LocationId":"NT_A5zta5ckKJIaf0lafpsQTD","LocationType":"point","DisplayPosition":{"Latitude":52.8914538,"Longitude":-1.1503763},"MapView":{"TopLeft":{"Latitude":52.90099,"Longitude":-1.16894},"BottomRight":{"Latitude":52.87901,"Longitude":-1.1356}},"Address":{"Label":"Ruddington, Nottingham, England, United Kingdom","Country":"GBR","State":"England","County":"Nottinghamshire","City":"Nottingham","District":"Ruddington","PostalCode":"NG11 6","AdditionalData":[{"value":"United Kingdom","key":"CountryName"},{"value":"England","key":"StateName"},{"value":"Nottinghamshire","key":"CountyName"}]},"MapReference":{"ReferenceId":"762622192","SideOfStreet":"neither","StateId":"20248595","CountyId":"20344764","CityId":"20356833","DistrictId":"20356932"}}},{"Relevance":1.0,"Distance":9.0,"MatchLevel":"houseNumber","MatchQuality":{"Country":1.0,"State":1.0,"County":1.0,"City":1.0,"District":1.0,"Street":[1.0],"HouseNumber":1.0,"PostalCode":1.0},"MatchType":"interpolated","Location":{"LocationId":"NT_oSRasZV6cLECpo8b74RsBB_l_26297933_L_2A","LocationType":"point","DisplayPosition":{"Latitude":52.8913725,"Longitude":-1.1504725},"MapView":{"TopLeft":{"Latitude":52.8924967,"Longitude":-1.1523357},"BottomRight":{"Latitude":52.8902483,"Longitude":-1.1486092}},"Address":{"Label":"6 Parkyns Street, Nottingham, NG11 6ED, United Kingdom","Country":"GBR","State":"England","County":"Nottinghamshire","City":"Nottingham","District":"Ruddington","Street":"Parkyns Street","HouseNumber":"6","PostalCode":"NG11 6ED","AdditionalData":[{"value":"United Kingdom","key":"CountryName"},{"value":"England","key":"StateName"},{"value":"Nottinghamshire","key":"CountyName"}]},"MapReference":{"ReferenceId":"26297933","Spot":0.31,"SideOfStreet":"left","StateId":"20248595","CountyId":"20344764","CityId":"20356833","DistrictId":"20356932"}}},{"Relevance":1.0,"Distance":9.2,"MatchLevel":"houseNumber","MatchQuality":{"Country":1.0,"State":1.0,"County":1.0,"City":1.0,"District":1.0,"Street":[1.0],"HouseNumber":1.0,"PostalCode":1.0},"MatchType":"interpolated","Location":{"LocationId":"NT_ku7BGxmzE5fMPX9mly.sLC_l_26297918_R_3A","LocationType":"point","DisplayPosition":{"Latitude":52.891666,"Longitude":-1.15033},"MapView":{"TopLeft":{"Latitude":52.8927902,"Longitude":-1.1521932},"BottomRight":{"Latitude":52.8905418,"Longitude":-1.1484667}},"Address":{"Label":"7 Charles Street, Nottingham, NG11 6, United Kingdom","Country":"GBR","State":"England","County":"Nottinghamshire","City":"Nottingham","District":"Ruddington","Street":"Charles Street","HouseNumber":"7","PostalCode":"NG11 6","AdditionalData":[{"value":"United Kingdom","key":"CountryName"},{"value":"England","key":"StateName"},{"value":"Nottinghamshire","key":"CountyName"}]},"MapReference":{"ReferenceId":"26297918","Spot":0.43,"SideOfStreet":"right","StateId":"20248595","CountyId":"20344764","CityId":"20356833","DistrictId":"20356932"}}},{"Relevance":1.0,"Distance":32.8,"MatchLevel":"houseNumber","MatchQuality":{"Country":1.0,"State":1.0,"County":1.0,"City":1.0,"District":1.0,"Street":[1.0],"HouseNumber":1.0,"PostalCode":1.0},"MatchType":"interpolated","Location":{"LocationId":"NT_wNLwiEdLQDzcyh3CZ6kCrB_l_26297944_R_zkD","LocationType":"point","DisplayPosition":{"Latitude":52.8912667,"Longitude":-1.1510133},"MapView":{"TopLeft":{"Latitude":52.8923908,"Longitude":-1.1528766},"BottomRight":{"Latitude":52.8901425,"Longitude":-1.1491501}},"Address":{"Label":"39 Church Street, Nottingham, NG11 6HD, United Kingdom","Country":"GBR","State":"England","County":"Nottinghamshire","City":"Nottingham","District":"Ruddington","Street":"Church Street","HouseNumber":"39","PostalCode":"NG11 6HD","AdditionalData":[{"value":"United Kingdom","key":"CountryName"},{"value":"England","key":"StateName"},{"value":"Nottinghamshire","key":"CountyName"}]},"MapReference":{"ReferenceId":"26297944","Spot":0.67,"SideOfStreet":"right","StateId":"20248595","CountyId":"20344764","CityId":"20356833","DistrictId":"20356932"}}},{"Relevance":1.0,"Distance":35.9,"MatchLevel":"postalCode","MatchQuality":{"PostalCode":1.0},"MatchType":"interpolated","Location":{"LocationId":"NT_oSRasZV6cLECpo8b74RsBB_l_26297933_L_2A","LocationType":"point","DisplayPosition":{"Latitude":52.89135,"Longitude":-1.14987},"MapView":{"TopLeft":{"Latitude":52.9003432,"Longitude":-1.164776},"BottomRight":{"Latitude":52.8823568,"Longitude":-1.134964}},"Address":{"Label":"NG11 6ED, Nottingham, England, United Kingdom","Country":"GBR","State":"England","County":"Nottinghamshire","City":"Nottingham","PostalCode":"NG11 6ED","AdditionalData":[{"value":"United Kingdom","key":"CountryName"},{"value":"England","key":"StateName"},{"value":"Nottinghamshire","key":"CountyName"}]},"MapReference":{"ReferenceId":"26297933","Spot":0.31,"SideOfStreet":"neither","StateId":"20248595","CountyId":"20344764","CityId":"20356833"}}},{"Relevance":1.0,"Distance":42.4,"MatchLevel":"postalCode","MatchQuality":{"PostalCode":1.0},"MatchType":"interpolated","Location":{"LocationId":"NT_ku7BGxmzE5fMPX9mly.sLC_l_26297918_R_3A","LocationType":"point","DisplayPosition":{"Latitude":52.89173,"Longitude":-1.14994},"MapView":{"TopLeft":{"Latitude":52.9007232,"Longitude":-1.1648461},"BottomRight":{"Latitude":52.8827368,"Longitude":-1.1350339}},"Address":{"Label":"NG11 6EF, Nottingham, England, United Kingdom","Country":"GBR","State":"England","County":"Nottinghamshire","City":"Nottingham","PostalCode":"NG11 6EF","AdditionalData":[{"value":"United Kingdom","key":"CountryName"},{"value":"England","key":"StateName"},{"value":"Nottinghamshire","key":"CountyName"}]},"MapReference":{"ReferenceId":"26297918","Spot":0.43,"SideOfStreet":"neither","StateId":"20248595","CountyId":"20344764","CityId":"20356833"}}},{"Relevance":1.0,"Distance":46.6,"MatchLevel":"houseNumber","MatchQuality":{"Country":1.0,"State":1.0,"County":1.0,"City":1.0,"District":1.0,"Street":[1.0],"HouseNumber":1.0,"PostalCode":1.0},"MatchType":"interpolated","Location":{"LocationId":"NT_wNLwiEdLQDzcyh3CZ6kCrB_l_26297931_L_1ID","LocationType":"point","DisplayPosition":{"Latitude":52.8913801,"Longitude":-1.15106},"MapView":{"TopLeft":{"Latitude":52.8925042,"Longitude":-1.1529233},"BottomRight":{"Latitude":52.8902559,"Longitude":-1.1491968}},"Address":{"Label":"52 Church Street, Nottingham, NG11 6HD, United Kingdom","Country":"GBR","State":"England","County":"Nottinghamshire","City":"Nottingham","District":"Ruddington","Street":"Church Street","HouseNumber":"52","PostalCode":"NG11 6HD","AdditionalData":[{"value":"United Kingdom","key":"CountryName"},{"value":"England","key":"StateName"},{"value":"Nottinghamshire","key":"CountyName"}]},"MapReference":{"ReferenceId":"26297931","Spot":0.0,"SideOfStreet":"left","StateId":"20248595","CountyId":"20344764","CityId":"20356833","DistrictId":"20356932"}}},{"Relevance":1.0,"Distance":46.6,"MatchLevel":"street","MatchQuality":{"Country":1.0,"State":1.0,"County":1.0,"City":1.0,"District":1.0,"Street":[1.0],"PostalCode":1.0},"Location":{"LocationId":"NT_wNLwiEdLQDzcyh3CZ6kCrB_l_26297934_R","LocationType":"point","DisplayPosition":{"Latitude":52.89133,"Longitude":-1.15104},"MapView":{"TopLeft":{"Latitude":52.89138,"Longitude":-1.15106},"BottomRight":{"Latitude":52.89133,"Longitude":-1.15104}},"Address":{"Label":"Church Street, Nottingham, NG11 6, United Kingdom","Country":"GBR","State":"England","County":"Nottinghamshire","City":"Nottingham","District":"Ruddington","Street":"Church Street","PostalCode":"NG11 6","AdditionalData":[{"value":"United Kingdom","key":"CountryName"},{"value":"England","key":"StateName"},{"value":"Nottinghamshire","key":"CountyName"}]},"MapReference":{"ReferenceId":"26297934","Spot":0.0,"SideOfStreet":"right","StateId":"20248595","CountyId":"20344764","CityId":"20356833","DistrictId":"20356932"}}},{"Relevance":1.0,"Distance":55.1,"MatchLevel":"houseNumber","MatchQuality":{"Country":1.0,"State":1.0,"County":1.0,"City":1.0,"District":1.0,"Street":[1.0],"HouseNumber":1.0,"PostalCode":1.0},"MatchType":"interpolated","Location":{"LocationId":"NT_wNLwiEdLQDzcyh3CZ6kCrB_l_26297919_R_ykD","LocationType":"point","DisplayPosition":{"Latitude":52.89178,"Longitude":-1.15113},"MapView":{"TopLeft":{"Latitude":52.8929042,"Longitude":-1.1529933},"BottomRight":{"Latitude":52.8906559,"Longitude":-1.1492667}},"Address":{"Label":"29 Church Street, Nottingham, NG11 6HA, United Kingdom","Country":"GBR","State":"England","County":"Nottinghamshire","City":"Nottingham","District":"Ruddington","Street":"Church Street","HouseNumber":"29","PostalCode":"NG11 6HA","AdditionalData":[{"value":"United Kingdom","key":"CountryName"},{"value":"England","key":"StateName"},{"value":"Nottinghamshire","key":"CountyName"}]},"MapReference":{"ReferenceId":"26297919","Spot":0.2,"SideOfStreet":"right","StateId":"20248595","CountyId":"20344764","CityId":"20356833","DistrictId":"20356932"}}},{"Relevance":1.0,"Distance":56.0,"MatchLevel":"postalCode","MatchQuality":{"PostalCode":1.0},"MatchType":"interpolated","Location":{"LocationId":"NT_wNLwiEdLQDzcyh3CZ6kCrB_l_26297931_L_1ID","LocationType":"point","DisplayPosition":{"Latitude":52.89161,"Longitude":-1.15117},"MapView":{"TopLeft":{"Latitude":52.9006032,"Longitude":-1.1660761},"BottomRight":{"Latitude":52.8826168,"Longitude":-1.1362639}},"Address":{"Label":"NG11 6HD, Nottingham, England, United Kingdom","Country":"GBR","State":"England","County":"Nottinghamshire","City":"Nottingham","PostalCode":"NG11 6HD","AdditionalData":[{"value":"United Kingdom","key":"CountryName"},{"value":"England","key":"StateName"},{"value":"Nottinghamshire","key":"CountyName"}]},"MapReference":{"ReferenceId":"26297931","Spot":0.0,"SideOfStreet":"neither","StateId":"20248595","CountyId":"20344764","CityId":"20356833"}}}]}]}}