{"Response":{"MetaInfo":{"Timestamp":"2020-03-28T10:05:47.557+0000","NextPageInformation":"2"},"View":[{"_type":"SearchResultsViewType","ViewId":0,"Result":[{"Relevance":1.0,"Distance":0.0,"Direction":0.0,"MatchLevel":"district","MatchQuality":{"Country":1.0,"State":1.0,"County":1.0,"City":1.0,"District":1.0,"PostalCode":1.0},"Location":{"LocationId":"NT_vZ36jkp3k8Ehuqyy.mmC8D","LocationType":"point","DisplayPosition":{"Latitude":52.8538411,"Longitude":11.1540267},"MapView":{"TopLeft":{"Latitude":52.86855,"Longitude":11.1168},"BottomRight":{"Latitude":52.83587,"Longitude":11.1944}},"Address":{"Label":"Salzwedel, Sachsen-Anhalt, Deutschland","Country":"DEU","State":"Sachsen-Anhalt","County":"Altmarkkreis Salzwedel","City":"Salzwedel","District":"Salzwedel","PostalCode":"29410","AdditionalData":[{"value":"Deutschland","key":"CountryName"},{"value":"Sachsen-Anhalt","key":"StateName"},{"value":"Altmarkkreis Salzwedel","key":"CountyName"}]},"MapReference":{"ReferenceId":"1255991878","SideOfStreet":"neither","CountryId":"20147700","StateId":"20194537","CountyId":"20196830","CityId":"20196930","DistrictId":"20196932"}}},{"Relevance":1.0,"Distance":11.5,"MatchLevel":"houseNumber","MatchQuality":{"Country":1.0,"State":1.0,"County":1.0,"City":1.0,"District":1.0,"Street":[1.0],"HouseNumber":1.0,"PostalCode":1.0},"MatchType":"interpolated","Location":{"LocationId":"NT_36-S.mRDcckPKGGno7y1IB_xUD","LocationType":"point","DisplayPosition":{"Latitude":52.8538,"Longitude":11.15429},"MapView":{"TopLeft":{"Latitude":52.8549242,"Longitude":11.1524284},"BottomRight":{"Latitude":52.8526758,"Longitude":11.1561516}},"Address":{"Label":"Breite Straße 15, 29410 Salzwedel, Deutschland","Country":"DEU","State":"Sachsen-Anhalt","County":"Altmarkkreis Salzwedel","City":"Salzwedel","District":"Salzwedel","Street":"Breite Straße","HouseNumber":"15","PostalCode":"29410","AdditionalData":[{"value":"Deutschland","key":"CountryName"},{"value":"Sachsen-Anhalt","key":"StateName"},{"value":"Altmarkkreis Salzwedel","key":"CountyName"}]},"MapReference":{"ReferenceId":"541235674","Spot":0.17,"SideOfStreet":"left","CountryId":"20147700","StateId":"20194537","CountyId":"20196830","CityId":"20196930","DistrictId":"20196932","AddressId":"185614998","RoadLinkId":"37525861"}}},{"Relevance":1.0,"Distance":19.2,"MatchLevel":"houseNumber","MatchQuality":{"Country":1.0,"State":1.0,"County":1.0,"City":1.0,"District":1.0,"Street":[1.0],"HouseNumber":1.0,"PostalCode":1.0},"MatchType":"interpolated","Location":{"LocationId":"NT_36-S.mRDcckPKGGno7y1IB_xED","LocationType":"point","DisplayPosition":{"Latitude":52.85366,"Longitude":11.15422},"MapView":{"TopLeft":{"Latitude":52.8547842,"Longitude":11.1523584},"BottomRight":{"Latitude":52.8525358,"Longitude":11.1560816}},"Address":{"Label":"Breite Straße 11, 29410 Salzwedel, Deutschland","Country":"DEU","State":"Sachsen-Anhalt","County":"Altmarkkreis Salzwedel","City":"Salzwedel","District":"Salzwedel","Street":"Breite Straße","HouseNumber":"11","PostalCode":"29410","AdditionalData":[{"value":"Deutschland","key":"CountryName"},{"value":"Sachsen-Anhalt","key":"StateName"},{"value":"Altmarkkreis Salzwedel","key":"CountyName"}]},"MapReference":{"ReferenceId":"541235993","Spot":0.97,"SideOfStreet":"left","CountryId":"20147700","StateId":"20194537","CountyId":"20196830","CityId":"20196930","DistrictId":"20196932","AddressId":"185592979","RoadLinkId":"37771743"}}},{"Relevance":1.0,"Distance":49.2,"MatchLevel":"houseNumber","MatchQuality":{"Country":1.0,"State":1.0,"County":1.0,"City":1.0,"District":1.0,"Street":[1.0],"HouseNumber":1.0,"PostalCode":1.0},"MatchType":"interpolated","Location":{"LocationId":"NT_iFi.oDx5FNBYI8exkp4k0B_xQD","LocationType":"point","DisplayPosition":{"Latitude":52.8541,"Longitude":11.15333},"MapView":{"TopLeft":{"Latitude":52.8552242,"Longitude":11.1514683},"BottomRight":{"Latitude":52.8529758,"Longitude":11.1551917}},"Address":{"Label":"Reichestraße 14, 29410 Salzwedel, Deutschland","Country":"DEU","State":"Sachsen-Anhalt","County":"Altmarkkreis Salzwedel","City":"Salzwedel","District":"Salzwedel","Street":"Reichestraße","HouseNumber":"14","PostalCode":"29410","AdditionalData":[{"value":"Deutschland","key":"CountryName"},{"value":"Sachsen-Anhalt","key":"StateName"},{"value":"Altmarkkreis Salzwedel","key":"CountyName"}]},"MapReference":{"ReferenceId":"541235758","Spot":0.73,"SideOfStreet":"right","CountryId":"20147700","StateId":"20194537","CountyId":"20196830","CityId":"20196930","DistrictId":"20196932","AddressId":"185530900","RoadLinkId":"37742888"}}},{"Relevance":1.0,"Distance":53.2,"MatchLevel":"houseNumber","MatchQuality":{"Country":1.0,"State":1.0,"County":1.0,"City":1.0,"District":1.0,"Street":[1.0],"HouseNumber":1.0,"PostalCode":1.0},"MatchType":"interpolated","Location":{"LocationId":"NT_3sKZ6x8zr3LiYImblUDsBD_zA","LocationType":"point","DisplayPosition":{"Latitude":52.85357,"Longitude":11.15468},"MapView":{"TopLeft":{"Latitude":52.8546942,"Longitude":11.1528184},"BottomRight":{"Latitude":52.8524458,"Longitude":11.1565416}},"Address":{"Label":"Kleine Straße 3, 29410 Salzwedel, Deutschland","Country":"DEU","State":"Sachsen-Anhalt","County":"Altmarkkreis Salzwedel","City":"Salzwedel","District":"Salzwedel","Street":"Kleine Straße","HouseNumber":"3","PostalCode":"29410","AdditionalData":[{"value":"Deutschland","key":"CountryName"},{"value":"Sachsen-Anhalt","key":"StateName"},{"value":"Altmarkkreis Salzwedel","key":"CountyName"}]},"MapReference":{"ReferenceId":"541235994","Spot":0.71,"SideOfStreet":"right","CountryId":"20147700","StateId":"20194537","CountyId":"20196830","CityId":"20196930","DistrictId":"20196932","AddressId":"185657495","RoadLinkId":"37971632"}}},{"Relevance":1.0,"Distance":62.7,"MatchLevel":"houseNumber","MatchQuality":{"Country":1.0,"State":1.0,"County":1.0,"City":1.0,"District":1.0,"Street":[1.0],"HouseNumber":1.0,"PostalCode":1.0},"MatchType":"interpolated","Location":{"LocationId":"NT_MtEsWkceeBRYNZwt2z.AdD_xYD","LocationType":"point","DisplayPosition":{"Latitude":52.8544,"Longitude":11.15415},"MapView":{"TopLeft":{"Latitude":52.8555242,"Longitude":11.1522883},"BottomRight":{"Latitude":52.8532758,"Longitude":11.1560117}},"Address":{"Label":"Mittelstraße 16, 29410 Salzwedel, Deutschland","Country":"DEU","State":"Sachsen-Anhalt","County":"Altmarkkreis Salzwedel","City":"Salzwedel","District":"Salzwedel","Street":"Mittelstraße","HouseNumber":"16","PostalCode":"29410","AdditionalData":[{"value":"Deutschland","key":"CountryName"},{"value":"Sachsen-Anhalt","key":"StateName"},{"value":"Altmarkkreis Salzwedel","key":"CountyName"}]},"MapReference":{"ReferenceId":"541235676","Spot":0.43,"SideOfStreet":"right","CountryId":"20147700","StateId":"20194537","CountyId":"20196830","CityId":"20196930","DistrictId":"20196932","AddressId":"186236213","RoadLinkId":"37341166"}}},{"Relevance":1.0,"Distance":73.3,"MatchLevel":"houseNumber","MatchQuality":{"Country":1.0,"State":1.0,"County":1.0,"City":1.0,"District":1.0,"Street":[1.0],"HouseNumber":1.0,"PostalCode":1.0},"MatchType":"interpolated","Location":{"LocationId":"NT_36-S.mRDcckPKGGno7y1IB_ycD","LocationType":"point","DisplayPosition":{"Latitude":52.85441,"Longitude":11.15463},"MapView":{"TopLeft":{"Latitude":52.8555342,"Longitude":11.1527683},"BottomRight":{"Latitude":52.8532858,"Longitude":11.1564917}},"Address":{"Label":"Breite Straße 27, 29410 Salzwedel, Deutschland","Country":"DEU","State":"Sachsen-Anhalt","County":"Altmarkkreis Salzwedel","City":"Salzwedel","District":"Salzwedel","Street":"Breite Straße","HouseNumber":"27","PostalCode":"29410","AdditionalData":[{"value":"Deutschland","key":"CountryName"},{"value":"Sachsen-Anhalt","key":"StateName"},{"value":"Altmarkkreis Salzwedel","key":"CountyName"}]},"MapReference":{"ReferenceId":"541235635","Spot":0.11,"SideOfStreet":"left","CountryId":"20147700","StateId":"20194537","CountyId":"20196830","CityId":"20196930","DistrictId":"20196932","AddressId":"185522816","RoadLinkId":"37920340"}}},{"Relevance":1.0,"Distance":76.7,"MatchLevel":"houseNumber","MatchQuality":{"Country":1.0,"State":1.0,"County":1.0,"City":1.0,"District":1.0,"Street":[1.0],"HouseNumber":1.0,"PostalCode":1.0},"MatchType":"interpolated","Location":{"LocationId":"NT_MtEsWkceeBRYNZwt2z.AdD_xED","LocationType":"point","DisplayPosition":{"Latitude":52.85421,"Longitude":11.15507},"MapView":{"TopLeft":{"Latitude":52.8553342,"Longitude":11.1532083},"BottomRight":{"Latitude":52.8530858,"Longitude":11.1569317}},"Address":{"Label":"Mittelstraße 11, 29410 Salzwedel, Deutschland","Country":"DEU","State":"Sachsen-Anhalt","County":"Altmarkkreis Salzwedel","City":"Salzwedel","District":"Salzwedel","Street":"Mittelstraße","HouseNumber":"11","PostalCode":"29410","AdditionalData":[{"value":"Deutschland","key":"CountryName"},{"value":"Sachsen-Anhalt","key":"StateName"},{"value":"Altmarkkreis Salzwedel","key":"CountyName"}]},"MapReference":{"ReferenceId":"541236172","Spot":0.52,"SideOfStreet":"left","CountryId":"20147700","StateId":"20194537","CountyId":"20196830","CityId":"20196930","DistrictId":"20196932","AddressId":"185671510","RoadLinkId":"37565354"}}},{"Relevance":1.0,"Distance":80.5,"MatchLevel":"street","MatchQuality":{"Country":1.0,"State":1.0,"County":1.0,"City":1.0,"District":1.0,"Street":[1.0],"PostalCode":1.0},"Location":{"LocationId":"NT_8m0RdLLQdr1RNNlRg8kl6C_l_541235951_L","LocationType":"point","DisplayPosition":{"Latitude":52.85451,"Longitude":11.15357},"MapView":{"TopLeft":{"Latitude":52.85452,"Longitude":11.15349},"BottomRight":{"Latitude":52.85451,"Longitude":11.15357}},"Address":{"Label":"Steintorstraße, 29410 Salzwedel, Deutschland","Country":"DEU","State":"Sachsen-Anhalt","County":"Altmarkkreis Salzwedel","City":"Salzwedel","District":"Salzwedel","Street":"Steintorstraße","PostalCode":"29410","AdditionalData":[{"value":"Deutschland","key":"CountryName"},{"value":"Sachsen-Anhalt","key":"StateName"},{"value":"Altmarkkreis Salzwedel","key":"CountyName"}]},"MapReference":{"ReferenceId":"541235951","Spot":0.0,"SideOfStreet":"left","CountryId":"20147700","StateId":"20194537","CountyId":"20196830","CityId":"20196930","DistrictId":"20196932"}}},{"Relevance":1.0,"Distance":86.6,"MatchLevel":"houseNumber","MatchQuality":{"Country":1.0,"State":1.0,"County":1.0,"City":1.0,"District":1.0,"Street":[1.0],"HouseNumber":1.0,"PostalCode":1.0},"MatchType":"interpolated","Location":{"LocationId":"NT_8m0RdLLQdr1RNNlRg8kl6C_xA","LocationType":"point","DisplayPosition":{"Latitude":52.85455,"Longitude":11.15332},"MapView":{"TopLeft":{"Latitude":52.8556742,"Longitude":11.1514583},"BottomRight":{"Latitude":52.8534258,"Longitude":11.1551817}},"Address":{"Label":"Steintorstraße 1, 29410 Salzwedel, Deutschland","Country":"DEU","State":"Sachsen-Anhalt","County":"Altmarkkreis Salzwedel","City":"Salzwedel","District":"Salzwedel","Street":"Steintorstraße","HouseNumber":"1","PostalCode":"29410","AdditionalData":[{"value":"Deutschland","key":"CountryName"},{"value":"Sachsen-Anhalt","key":"StateName"},{"value":"Altmarkkreis Salzwedel","key":"CountyName"}]},"MapReference":{"ReferenceId":"541235857","Spot":0.09,"SideOfStreet":"left","CountryId":"20147700","StateId":"20194537","CountyId":"20196830","CityId":"20196930","DistrictId":"20196932","AddressId":"185151048","RoadLinkId":"37954892"}}}]}]}}