{"Response":{"MetaInfo":{"Timestamp":"2020-03-28T12:06:15.103+0000","NextPageInformation":"2"},"View":[{"_type":"SearchResultsViewType","ViewId":0,"Result":[{"Relevance":1.0,"Distance":-2452.9,"MatchLevel":"landmark","MatchQuality":{"Country":1.0,"State":1.0,"Name":1.0},"Location":{"LocationId":"NT_RhGPbEGj9Lh1j25V29.V9B","LocationType":"woodland","Name":"Puszcza Bydgoska","DisplayPosition":{"Latitude":52.94539,"Longitude":18.60639},"MapView":{"TopLeft":{"Latitude":53.13644,"Longitude":17.68596},"BottomRight":{"Latitude":52.75433,"Longitude":19.13817}},"Address":{"Label":"Polska","Country":"POL","State":"Woj. Kujawsko-Pomorskie","AdditionalData":[{"value":"Polska","key":"CountryName"},{"value":"Woj. Kujawsko-Pomorskie","key":"StateName"}]},"MapReference":{"CountryId":"20624059","StateId":"20625395","PlaceId":"561252277"}}},{"Relevance":1.0,"Distance":0.0,"Direction":0.0,"MatchLevel":"district","MatchQuality":{"Country":1.0,"State":1.0,"County":1.0,"City":1.0,"District":1.0,"PostalCode":1.0},"Location":{"LocationId":"NT_39GriW8VM0AvwDTEIoGhQD","LocationType":"point","DisplayPosition":{"Latitude":52.8761675,"Longitude":18.69199},"MapView":{"TopLeft":{"Latitude":52.89722,"Longitude":18.67736},"BottomRight":{"Latitude":52.8593,"Longitude":18.72571}},"Address":{"Label":"Aleksandrów Kujawski, Woj. Kujawsko-Pomorskie, Polska","Country":"POL","State":"Woj. Kujawsko-Pomorskie","County":"Powiat Aleksandrowski","City":"Aleksandrów Kujawski","District":"Aleksandrów Kujawski","PostalCode":"87-700","AdditionalData":[{"value":"Polska","key":"CountryName"},{"value":"Woj. Kujawsko-Pomorskie","key":"StateName"},{"value":"Powiat Aleksandrowski","key":"CountyName"}]},"MapReference":{"ReferenceId":"948873146","SideOfStreet":"neither","CountryId":"20624059","StateId":"20625395","CountyId":"20625402","CityId":"20681356","DistrictId":"20681357"}}},{"Relevance":1.0,"Distance":4.2,"MatchLevel":"houseNumber","MatchQuality":{"Country":1.0,"State":1.0,"County":1.0,"City":1.0,"District":1.0,"Street":[1.0],"HouseNumber":1.0,"PostalCode":1.0},"MatchType":"interpolated","Location":{"LocationId":"NT_Z9LoQxY7b9KsPW.HY5u9uA_xQD","LocationType":"point","DisplayPosition":{"Latitude":52.87606,"Longitude":18.69201},"MapView":{"TopLeft":{"Latitude":52.8771842,"Longitude":18.6901474},"BottomRight":{"Latitude":52.8749358,"Longitude":18.6938726}},"Address":{"Label":"ulica Fryderyka Chopina 14, 87-700 Aleksandrów Kujawski, Polska","Country":"POL","State":"Woj. Kujawsko-Pomorskie","County":"Powiat Aleksandrowski","City":"Aleksandrów Kujawski","District":"Aleksandrów Kujawski","Street":"ulica Fryderyka Chopina","HouseNumber":"14","PostalCode":"87-700","AdditionalData":[{"value":"Polska","key":"CountryName"},{"value":"Woj. Kujawsko-Pomorskie","key":"StateName"},{"value":"Powiat Aleksandrowski","key":"CountyName"}]},"MapReference":{"ReferenceId":"948873145","Spot":0.0,"SideOfStreet":"left","CountryId":"20624059","StateId":"20625395","CountyId":"20625402","CityId":"20681356","DistrictId":"20681357","AddressId":"210803091","RoadLinkId":"295930157"}}},{"Relevance":1.0,"Distance":11.0,"MatchLevel":"houseNumber","MatchQuality":{"Country":1.0,"State":1.0,"County":1.0,"City":1.0,"District":1.0,"Street":[1.0],"HouseNumber":1.0,"PostalCode":1.0},"MatchType":"interpolated","Location":{"LocationId":"NT_Z9LoQxY7b9KsPW.HY5u9uA_xITQ","LocationType":"point","DisplayPosition":{"Latitude":52.87611,"Longitude":18.69217},"MapView":{"TopLeft":{"Latitude":52.8772342,"Longitude":18.6903074},"BottomRight":{"Latitude":52.8749858,"Longitude":18.6940326}},"Address":{"Label":"ulica Fryderyka Chopina 12A, 87-700 Aleksandrów Kujawski, Polska","Country":"POL","State":"Woj. Kujawsko-Pomorskie","County":"Powiat Aleksandrowski","City":"Aleksandrów Kujawski","District":"Aleksandrów Kujawski","Street":"ulica Fryderyka Chopina","HouseNumber":"12A","PostalCode":"87-700","AdditionalData":[{"value":"Polska","key":"CountryName"},{"value":"Woj. Kujawsko-Pomorskie","key":"StateName"},{"value":"Powiat Aleksandrowski","key":"CountyName"}]},"MapReference":{"ReferenceId":"948873146","Spot":0.03,"SideOfStreet":"left","CountryId":"20624059","StateId":"20625395","CountyId":"20625402","CityId":"20681356","DistrictId":"20681357","AddressId":"209749707","RoadLinkId":"295930158"}}},{"Relevance":1.0,"Distance":19.7,"MatchLevel":"houseNumber","MatchQuality":{"Country":1.0,"State":1.0,"County":1.0,"City":1.0,"District":1.0,"Street":[1.0],"HouseNumber":1.0,"PostalCode":1.0},"MatchType":"interpolated","Location":{"LocationId":"NT_Z9LoQxY7b9KsPW.HY5u9uA_xQTQ","LocationType":"point","DisplayPosition":{"Latitude":52.87597,"Longitude":18.69175},"MapView":{"TopLeft":{"Latitude":52.8770942,"Longitude":18.6898874},"BottomRight":{"Latitude":52.8748458,"Longitude":18.6936126}},"Address":{"Label":"ulica Fryderyka Chopina 14A, 87-700 Aleksandrów Kujawski, Polska","Country":"POL","State":"Woj. Kujawsko-Pomorskie","County":"Powiat Aleksandrowski","City":"Aleksandrów Kujawski","District":"Aleksandrów Kujawski","Street":"ulica Fryderyka Chopina","HouseNumber":"14A","PostalCode":"87-700","AdditionalData":[{"value":"Polska","key":"CountryName"},{"value":"Woj. Kujawsko-Pomorskie","key":"StateName"},{"value":"Powiat Aleksandrowski","key":"CountyName"}]},"MapReference":{"ReferenceId":"595220591","Spot":0.13,"SideOfStreet":"left","CountryId":"20624059","StateId":"20625395","CountyId":"20625402","CityId":"20681356","DistrictId":"20681357","AddressId":"582399557","RoadLinkId":"95120567"}}},{"Relevance":1.0,"Distance":30.3,"MatchLevel":"houseNumber","MatchQuality":{"Country":1.0,"State":1.0,"County":1.0,"City":1.0,"District":1.0,"Street":[1.0],"HouseNumber":1.0,"PostalCode":1.0},"MatchType":"interpolated","Location":{"LocationId":"NT_Tt0UTiTlahmAy3mr6NyhAC_yEE","LocationType":"point","DisplayPosition":{"Latitude":52.87621,"Longitude":18.69145},"MapView":{"TopLeft":{"Latitude":52.8773342,"Longitude":18.6895874},"BottomRight":{"Latitude":52.8750858,"Longitude":18.6933126}},"Address":{"Label":"ulica Szeroka 2A, 87-700 Aleksandrów Kujawski, Polska","Country":"POL","State":"Woj. Kujawsko-Pomorskie","County":"Powiat Aleksandrowski","City":"Aleksandrów Kujawski","District":"Aleksandrów Kujawski","Street":"ulica Szeroka","HouseNumber":"2A","PostalCode":"87-700","AdditionalData":[{"value":"Polska","key":"CountryName"},{"value":"Woj. Kujawsko-Pomorskie","key":"StateName"},{"value":"Powiat Aleksandrowski","key":"CountyName"}]},"MapReference":{"ReferenceId":"595220592","Spot":0.35,"SideOfStreet":"right","CountryId":"20624059","StateId":"20625395","CountyId":"20625402","CityId":"20681356","DistrictId":"20681357","AddressId":"731953890","RoadLinkId":"94984490"}}},{"Relevance":1.0,"Distance":40.4,"MatchLevel":"houseNumber","MatchQuality":{"Country":1.0,"State":1.0,"County":1.0,"City":1.0,"District":1.0,"Street":[1.0],"HouseNumber":1.0,"PostalCode":1.0},"MatchType":"interpolated","Location":{"LocationId":"NT_vsaDsvwivlMaetTu3PWPyC_xA","LocationType":"point","DisplayPosition":{"Latitude":52.87578,"Longitude":18.69216},"MapView":{"TopLeft":{"Latitude":52.8769042,"Longitude":18.6902974},"BottomRight":{"Latitude":52.8746558,"Longitude":18.6940226}},"Address":{"Label":"ulica Stefana Okrzei 1, 87-700 Aleksandrów Kujawski, Polska","Country":"POL","State":"Woj. Kujawsko-Pomorskie","County":"Powiat Aleksandrowski","City":"Aleksandrów Kujawski","District":"Aleksandrów Kujawski","Street":"ulica Stefana Okrzei","HouseNumber":"1","PostalCode":"87-700","AdditionalData":[{"value":"Polska","key":"CountryName"},{"value":"Woj. Kujawsko-Pomorskie","key":"StateName"},{"value":"Powiat Aleksandrowski","key":"CountyName"}]},"MapReference":{"ReferenceId":"595220857","Spot":0.87,"SideOfStreet":"right","CountryId":"20624059","StateId":"20625395","CountyId":"20625402","CityId":"20681356","DistrictId":"20681357","AddressId":"582433175","RoadLinkId":"95176644"}}},{"Relevance":1.0,"Distance":47.6,"MatchLevel":"houseNumber","MatchQuality":{"Country":1.0,"State":1.0,"County":1.0,"City":1.0,"District":1.0,"Street":[1.0],"HouseNumber":1.0,"PostalCode":1.0},"MatchType":"interpolated","Location":{"LocationId":"NT_Z9LoQxY7b9KsPW.HY5u9uA_xYD","LocationType":"point","DisplayPosition":{"Latitude":52.87587,"Longitude":18.69139},"MapView":{"TopLeft":{"Latitude":52.8769942,"Longitude":18.6895274},"BottomRight":{"Latitude":52.8747458,"Longitude":18.6932526}},"Address":{"Label":"ulica Fryderyka Chopina 16, 87-700 Aleksandrów Kujawski, Polska","Country":"POL","State":"Woj. Kujawsko-Pomorskie","County":"Powiat Aleksandrowski","City":"Aleksandrów Kujawski","District":"Aleksandrów Kujawski","Street":"ulica Fryderyka Chopina","HouseNumber":"16","PostalCode":"87-700","AdditionalData":[{"value":"Polska","key":"CountryName"},{"value":"Woj. Kujawsko-Pomorskie","key":"StateName"},{"value":"Powiat Aleksandrowski","key":"CountyName"}]},"MapReference":{"ReferenceId":"595220612","Spot":0.42,"SideOfStreet":"left","CountryId":"20624059","StateId":"20625395","CountyId":"20625402","CityId":"20681356","DistrictId":"20681357","AddressId":"210695852","RoadLinkId":"95110550"}}},{"Relevance":1.0,"Distance":53.1,"MatchLevel":"houseNumber","MatchQuality":{"Country":1.0,"State":1.0,"County":1.0,"City":1.0,"District":1.0,"Street":[1.0],"HouseNumber":1.0,"PostalCode":1.0},"MatchType":"interpolated","Location":{"LocationId":"NT_Z9LoQxY7b9KsPW.HY5u9uA_2A","LocationType":"point","DisplayPosition":{"Latitude":52.87632,"Longitude":18.69274},"MapView":{"TopLeft":{"Latitude":52.8774442,"Longitude":18.6908774},"BottomRight":{"Latitude":52.8751958,"Longitude":18.6946026}},"Address":{"Label":"ulica Fryderyka Chopina 6, 87-700 Aleksandrów Kujawski, Polska","Country":"POL","State":"Woj. Kujawsko-Pomorskie","County":"Powiat Aleksandrowski","City":"Aleksandrów Kujawski","District":"Aleksandrów Kujawski","Street":"ulica Fryderyka Chopina","HouseNumber":"6","PostalCode":"87-700","AdditionalData":[{"value":"Polska","key":"CountryName"},{"value":"Woj. Kujawsko-Pomorskie","key":"StateName"},{"value":"Powiat Aleksandrowski","key":"CountyName"}]},"MapReference":{"ReferenceId":"948873147","Spot":0.04,"SideOfStreet":"left","CountryId":"20624059","StateId":"20625395","CountyId":"20625402","CityId":"20681356","DistrictId":"20681357","AddressId":"211269450","RoadLinkId":"295930161"}}},{"Relevance":1.0,"Distance":63.5,"MatchLevel":"houseNumber","MatchQuality":{"Country":1.0,"State":1.0,"County":1.0,"City":1.0,"District":1.0,"Street":[1.0],"HouseNumber":1.0,"PostalCode":1.0},"MatchType":"interpolated","Location":{"LocationId":"NT_F.x2NnQy6utCgz-WgjAhhA_yA","LocationType":"point","DisplayPosition":{"Latitude":52.87597,"Longitude":18.69299},"MapView":{"TopLeft":{"Latitude":52.8770942,"Longitude":18.6911274},"BottomRight":{"Latitude":52.8748458,"Longitude":18.6948526}},"Address":{"Label":"ulica Ogrodowa 2, 87-700 Aleksandrów Kujawski, Polska","Country":"POL","State":"Woj. Kujawsko-Pomorskie","County":"Powiat Aleksandrowski","City":"Aleksandrów Kujawski","District":"Aleksandrów Kujawski","Street":"ulica Ogrodowa","HouseNumber":"2","PostalCode":"87-700","AdditionalData":[{"value":"Polska","key":"CountryName"},{"value":"Woj. Kujawsko-Pomorskie","key":"StateName"},{"value":"Powiat Aleksandrowski","key":"CountyName"}]},"MapReference":{"ReferenceId":"595220816","Spot":0.83,"SideOfStreet":"left","CountryId":"20624059","StateId":"20625395","CountyId":"20625402","CityId":"20681356","DistrictId":"20681357","AddressId":"210249549","RoadLinkId":"95015115"}}}]}]}}