{"Response":{"MetaInfo":{"Timestamp":"2020-03-28T12:00:11.753+0000","NextPageInformation":"2"},"View":[{"_type":"SearchResultsViewType","ViewId":0,"Result":[{"Relevance":1.0,"Distance":-216.4,"MatchLevel":"landmark","MatchQuality":{"Country":1.0,"State":1.0,"County":1.0,"City":1.0,"District":1.0,"Street":[1.0],"PostalCode":1.0,"Name":1.0},"Location":{"LocationId":"NT_qTfo-YLYVbOdBxQV.6.JkA_p_q5JfWiT-d6TuXVXNICv4DB","LocationType":"park","Name":"Snowdonia National Park","DisplayPosition":{"Latitude":52.91254,"Longitude":-3.59475},"MapView":{"TopLeft":{"Latitude":53.28927,"Longitude":-4.27878},"BottomRight":{"Latitude":52.53453,"Longitude":-3.47358}},"Address":{"Label":"A494, Bala, LL23 7, United Kingdom","Country":"GBR","State":"Wales","County":"Gwynedd","City":"Bala","District":"Bala","Street":"A494","PostalCode":"LL23 7","AdditionalData":[{"value":"United Kingdom","key":"CountryName"},{"value":"Wales","key":"StateName"},{"value":"Gwynedd","key":"CountyName"}]},"MapReference":{"StateId":"20287683","CountyId":"20341884","CityId":"20341903","DistrictId":"20341904","PlaceId":"19728596"}}},{"Relevance":1.0,"Distance":0.0,"Direction":0.0,"MatchLevel":"district","MatchQuality":{"Country":1.0,"State":1.0,"County":1.0,"City":1.0,"District":1.0,"PostalCode":1.0},"Location":{"LocationId":"NT_bA11q7JCX1tR3hLg6vCgaB","LocationType":"point","DisplayPosition":{"Latitude":52.9109795,"Longitude":-3.5975172},"MapView":{"TopLeft":{"Latitude":52.91766,"Longitude":-3.60789},"BottomRight":{"Latitude":52.90554,"Longitude":-3.58843}},"Address":{"Label":"Bala, Wales, United Kingdom","Country":"GBR","State":"Wales","County":"Gwynedd","City":"Bala","District":"Bala","PostalCode":"LL23 7","AdditionalData":[{"value":"United Kingdom","key":"CountryName"},{"value":"Wales","key":"StateName"},{"value":"Gwynedd","key":"CountyName"}]},"MapReference":{"ReferenceId":"17452182","SideOfStreet":"neither","StateId":"20287683","CountyId":"20341884","CityId":"20341903","DistrictId":"20341904"}}},{"Relevance":1.0,"Distance":6.2,"MatchLevel":"street","MatchQuality":{"Country":1.0,"State":1.0,"County":1.0,"City":1.0,"District":1.0,"Street":[1.0],"PostalCode":1.0},"Location":{"LocationId":"NT_SiKAxuA58Kpe21cN9hatrB_l_813276001_R","LocationType":"point","DisplayPosition":{"Latitude":52.9110323,"Longitude":-3.5975464},"MapView":{"TopLeft":{"Latitude":52.91108,"Longitude":-3.59842},"BottomRight":{"Latitude":52.91055,"Longitude":-3.59746}},"Address":{"Label":"High Street, Bala, LL23 7, United Kingdom","Country":"GBR","State":"Wales","County":"Gwynedd","City":"Bala","District":"Bala","Street":"High Street","PostalCode":"LL23 7","AdditionalData":[{"value":"United Kingdom","key":"CountryName"},{"value":"Wales","key":"StateName"},{"value":"Gwynedd","key":"CountyName"}]},"MapReference":{"ReferenceId":"813276001","Spot":0.91,"SideOfStreet":"right","StateId":"20287683","CountyId":"20341884","CityId":"20341903","DistrictId":"20341904"}}},{"Relevance":1.0,"Distance":9.4,"MatchLevel":"postalCode","MatchQuality":{"PostalCode":1.0},"Location":{"LocationId":"NT_SiKAxuA58Kpe21cN9hatrB_l_813276001_R","LocationType":"point","DisplayPosition":{"Latitude":52.91093,"Longitude":-3.59763},"MapView":{"TopLeft":{"Latitude":52.9199232,"Longitude":-3.6125427},"BottomRight":{"Latitude":52.9019368,"Longitude":-3.5827173}},"Address":{"Label":"LL23 7NE, Bala, Wales, United Kingdom","Country":"GBR","State":"Wales","County":"Gwynedd","City":"Bala","PostalCode":"LL23 7NE","AdditionalData":[{"value":"United Kingdom","key":"CountryName"},{"value":"Wales","key":"StateName"},{"value":"Gwynedd","key":"CountyName"}]},"MapReference":{"ReferenceId":"813276001","Spot":0.91,"SideOfStreet":"neither","StateId":"20287683","CountyId":"20341884","CityId":"20341903"}}},{"Relevance":1.0,"Distance":11.8,"MatchLevel":"street","MatchQuality":{"Country":1.0,"State":1.0,"County":1.0,"City":1.0,"District":1.0,"Street":[1.0],"PostalCode":1.0},"Location":{"LocationId":"NT_2ngZiCR1Ow9aUsyW35J5IC_l_17452190_L","LocationType":"point","DisplayPosition":{"Latitude":52.91108,"Longitude":-3.59746},"MapView":{"TopLeft":{"Latitude":52.91155,"Longitude":-3.59811},"BottomRight":{"Latitude":52.91108,"Longitude":-3.59746}},"Address":{"Label":"Church Street, Bala, LL23 7, United Kingdom","Country":"GBR","State":"Wales","County":"Gwynedd","City":"Bala","District":"Bala","Street":"Church Street","PostalCode":"LL23 7","AdditionalData":[{"value":"United Kingdom","key":"CountryName"},{"value":"Wales","key":"StateName"},{"value":"Gwynedd","key":"CountyName"}]},"MapReference":{"ReferenceId":"17452190","Spot":0.0,"SideOfStreet":"left","StateId":"20287683","CountyId":"20341884","CityId":"20341903","DistrictId":"20341904"}}},{"Relevance":1.0,"Distance":11.8,"MatchLevel":"street","MatchQuality":{"Country":1.0,"State":1.0,"County":1.0,"City":1.0,"District":1.0,"Street":[1.0],"PostalCode":1.0},"Location":{"LocationId":"NT_z-9Jg3BRwFGYr02QzbnecA_l_17452189_R","LocationType":"point","DisplayPosition":{"Latitude":52.91108,"Longitude":-3.59746},"MapView":{"TopLeft":{"Latitude":52.91117,"Longitude":-3.59746},"BottomRight":{"Latitude":52.91108,"Longitude":-3.59729}},"Address":{"Label":"High Street, Bala, LL23 7, United Kingdom","Country":"GBR","State":"Wales","County":"Gwynedd","City":"Bala","District":"Bala","Street":"High Street","PostalCode":"LL23 7","AdditionalData":[{"value":"United Kingdom","key":"CountryName"},{"value":"Wales","key":"StateName"},{"value":"Gwynedd","key":"CountyName"}]},"MapReference":{"ReferenceId":"17452189","Spot":0.0,"SideOfStreet":"right","StateId":"20287683","CountyId":"20341884","CityId":"20341903","DistrictId":"20341904"}}},{"Relevance":1.0,"Distance":26.1,"MatchLevel":"street","MatchQuality":{"Country":1.0,"State":1.0,"County":1.0,"City":1.0,"District":1.0,"Street":[1.0],"PostalCode":1.0},"Location":{"LocationId":"NT_yAnju-013opevv90ppCBwC_l_17452198_L","LocationType":"point","DisplayPosition":{"Latitude":52.91117,"Longitude":-3.59729},"MapView":{"TopLeft":{"Latitude":52.91117,"Longitude":-3.59729},"BottomRight":{"Latitude":52.91081,"Longitude":-3.59671}},"Address":{"Label":"Berwyn Street, Bala, LL23 7, United Kingdom","Country":"GBR","State":"Wales","County":"Gwynedd","City":"Bala","District":"Bala","Street":"Berwyn Street","PostalCode":"LL23 7","AdditionalData":[{"value":"United Kingdom","key":"CountryName"},{"value":"Wales","key":"StateName"},{"value":"Gwynedd","key":"CountyName"}]},"MapReference":{"ReferenceId":"17452198","Spot":1.0,"SideOfStreet":"left","StateId":"20287683","CountyId":"20341884","CityId":"20341903","DistrictId":"20341904"}}},{"Relevance":1.0,"Distance":26.1,"MatchLevel":"street","MatchQuality":{"Country":1.0,"State":1.0,"County":1.0,"City":1.0,"District":1.0,"Street":[1.0],"PostalCode":1.0},"Location":{"LocationId":"NT_j4FIukc67tj.Dcv6ivNu5B_l_961106107_R","LocationType":"point","DisplayPosition":{"Latitude":52.91117,"Longitude":-3.59729},"MapView":{"TopLeft":{"Latitude":52.91187,"Longitude":-3.59729},"BottomRight":{"Latitude":52.91117,"Longitude":-3.59599}},"Address":{"Label":"High Street, Bala, LL23 7, United Kingdom","Country":"GBR","State":"Wales","County":"Gwynedd","City":"Bala","District":"Bala","Street":"High Street","PostalCode":"LL23 7","AdditionalData":[{"value":"United Kingdom","key":"CountryName"},{"value":"Wales","key":"StateName"},{"value":"Gwynedd","key":"CountyName"}]},"MapReference":{"ReferenceId":"961106107","Spot":0.0,"SideOfStreet":"right","StateId":"20287683","CountyId":"20341884","CityId":"20341903","DistrictId":"20341904"}}},{"Relevance":1.0,"Distance":40.8,"MatchLevel":"postalCode","MatchQuality":{"PostalCode":1.0},"Location":{"LocationId":"NT_yAnju-013opevv90ppCBwC_l_17452198_L","LocationType":"point","DisplayPosition":{"Latitude":52.911,"Longitude":-3.59691},"MapView":{"TopLeft":{"Latitude":52.9199932,"Longitude":-3.6118228},"BottomRight":{"Latitude":52.9020068,"Longitude":-3.5819972}},"Address":{"Label":"LL23 7AA, Bala, Wales, United Kingdom","Country":"GBR","State":"Wales","County":"Gwynedd","City":"Bala","PostalCode":"LL23 7AA","AdditionalData":[{"value":"United Kingdom","key":"CountryName"},{"value":"Wales","key":"StateName"},{"value":"Gwynedd","key":"CountyName"}]},"MapReference":{"ReferenceId":"17452198","Spot":1.0,"SideOfStreet":"neither","StateId":"20287683","CountyId":"20341884","CityId":"20341903"}}},{"Relevance":1.0,"Distance":57.3,"MatchLevel":"street","MatchQuality":{"Country":1.0,"State":1.0,"County":1.0,"City":1.0,"District":1.0,"Street":[1.0],"PostalCode":1.0},"Location":{"LocationId":"NT_nZ0v9PzdZMvKuIasLw55.C_l_17452197_L","LocationType":"point","DisplayPosition":{"Latitude":52.91081,"Longitude":-3.59671},"MapView":{"TopLeft":{"Latitude":52.91133,"Longitude":-3.59671},"BottomRight":{"Latitude":52.91081,"Longitude":-3.59602}},"Address":{"Label":"Mount Street, Bala, LL23 7, United Kingdom","Country":"GBR","State":"Wales","County":"Gwynedd","City":"Bala","District":"Bala","Street":"Mount Street","PostalCode":"LL23 7","AdditionalData":[{"value":"United Kingdom","key":"CountryName"},{"value":"Wales","key":"StateName"},{"value":"Gwynedd","key":"CountyName"}]},"MapReference":{"ReferenceId":"17452197","Spot":0.0,"SideOfStreet":"left","StateId":"20287683","CountyId":"20341884","CityId":"20341903","DistrictId":"20341904"}}}]}]}}