{"Response":{"MetaInfo":{"Timestamp":"2020-03-28T11:19:18.033+0000","NextPageInformation":"2"},"View":[{"_type":"SearchResultsViewType","ViewId":0,"Result":[{"Relevance":1.0,"Distance":0.0,"Direction":0.0,"MatchLevel":"postalCode","MatchQuality":{"Country":1.0,"State":1.0,"PostalCode":1.0},"Location":{"LocationId":"NT_-443ur.8QWjsGe4qfmqKMD","LocationType":"point","DisplayPosition":{"Latitude":52.9845118,"Longitude":-3.3044479},"MapView":{"TopLeft":{"Latitude":53.43583,"Longitude":-5.41386},"BottomRight":{"Latitude":51.38116,"Longitude":-2.64983}},"Address":{"Label":"LL21 9, Wales, United Kingdom","Country":"GBR","State":"Wales","PostalCode":"LL21 9","AdditionalData":[{"value":"United Kingdom","key":"CountryName"},{"value":"Wales","key":"StateName"}]},"MapReference":{"ReferenceId":"811292273","SideOfStreet":"neither","StateId":"20287683"}}},{"Relevance":1.0,"Distance":114.0,"MatchLevel":"postalCode","MatchQuality":{"PostalCode":1.0},"Location":{"LocationId":"NT_AjuzkRUasN0Votu9JoTKVA_l_17451490_R","LocationType":"point","DisplayPosition":{"Latitude":52.98383,"Longitude":-3.30572},"MapView":{"TopLeft":{"Latitude":52.9928232,"Longitude":-3.3206579},"BottomRight":{"Latitude":52.9748368,"Longitude":-3.2907821}},"Address":{"Label":"LL21 9BG, Corwen, Wales, United Kingdom","Country":"GBR","State":"Wales","County":"Clwyd","City":"Corwen","PostalCode":"LL21 9BG","AdditionalData":[{"value":"United Kingdom","key":"CountryName"},{"value":"Wales","key":"StateName"},{"value":"Clwyd","key":"CountyName"}]},"MapReference":{"ReferenceId":"17451490","Spot":0.6,"SideOfStreet":"neither","StateId":"20287683","CountyId":"20340689","CityId":"20340746"}}},{"Relevance":1.0,"Distance":128.3,"MatchLevel":"street","MatchQuality":{"Country":1.0,"State":1.0,"County":1.0,"City":1.0,"District":1.0,"PostalCode":1.0},"Location":{"LocationId":"NT_AjuzkRUasN0Votu9JoTKVA_l_17451490_R","LocationType":"point","DisplayPosition":{"Latitude":52.9835922,"Longitude":-3.3056048},"MapView":{"TopLeft":{"Latitude":52.9847,"Longitude":-3.31935},"BottomRight":{"Latitude":52.9798,"Longitude":-3.28505}},"Address":{"Label":"Corwen, LL21 9, United Kingdom","Country":"GBR","State":"Wales","County":"Clwyd","City":"Corwen","District":"Llidiart-Y-Parc","PostalCode":"LL21 9","AdditionalData":[{"value":"United Kingdom","key":"CountryName"},{"value":"Wales","key":"StateName"},{"value":"Clwyd","key":"CountyName"}]},"MapReference":{"ReferenceId":"17451490","Spot":0.6,"SideOfStreet":"right","StateId":"20287683","CountyId":"20340689","CityId":"20340746","DistrictId":"20340762"}}},{"Relevance":1.0,"Distance":232.9,"MatchLevel":"landmark","MatchQuality":{"Country":1.0,"State":1.0,"County":1.0,"Name":1.0},"Location":{"LocationId":"NT_ClaXEOQ3tmV7VlMjF2By0C","LocationType":"river","Name":"River Dee","DisplayPosition":{"Latitude":52.97577,"Longitude":-3.21968},"MapView":{"TopLeft":{"Latitude":53.21811,"Longitude":-3.7619},"BottomRight":{"Latitude":52.82286,"Longitude":-2.85898}},"Address":{"Label":"United Kingdom","Country":"GBR","State":"England","County":"Shropshire","AdditionalData":[{"value":"United Kingdom","key":"CountryName"},{"value":"England","key":"StateName"},{"value":"Shropshire","key":"CountyName"}]},"MapReference":{"StateId":"20248595","CountyId":"20343211","PlaceId":"720399047"}}},{"Relevance":1.0,"Distance":625.4,"MatchLevel":"street","MatchQuality":{"Country":1.0,"State":1.0,"County":1.0,"City":1.0,"District":1.0,"Street":[1.0],"PostalCode":1.0},"Location":{"LocationId":"NT_u36dVfIwEeYPKe00X4NhUA_l_1020255438_R","LocationType":"point","DisplayPosition":{"Latitude":52.9790328,"Longitude":-3.3065552},"MapView":{"TopLeft":{"Latitude":52.97989,"Longitude":-3.31102},"BottomRight":{"Latitude":52.97682,"Longitude":-3.29639}},"Address":{"Label":"A5, Corwen, LL21 9, United Kingdom","Country":"GBR","State":"Wales","County":"Clwyd","City":"Corwen","District":"Llidiart-Y-Parc","Street":"A5","PostalCode":"LL21 9","AdditionalData":[{"value":"United Kingdom","key":"CountryName"},{"value":"Wales","key":"StateName"},{"value":"Clwyd","key":"CountyName"}]},"MapReference":{"ReferenceId":"1020255438","Spot":0.7,"SideOfStreet":"right","StateId":"20287683","CountyId":"20340689","CityId":"20340746","DistrictId":"20340762"}}},{"Relevance":1.0,"Distance":676.5,"MatchLevel":"street","MatchQuality":{"Country":1.0,"State":1.0,"County":1.0,"City":1.0,"District":1.0,"Street":[1.0],"PostalCode":1.0},"Location":{"LocationId":"NT_u36dVfIwEeYPKe00X4NhUA_l_565726208_R","LocationType":"point","DisplayPosition":{"Latitude":52.97989,"Longitude":-3.31102},"MapView":{"TopLeft":{"Latitude":52.98005,"Longitude":-3.31222},"BottomRight":{"Latitude":52.97989,"Longitude":-3.31102}},"Address":{"Label":"A5, Corwen, LL21 9, United Kingdom","Country":"GBR","State":"Wales","County":"Clwyd","City":"Corwen","District":"Llidiart-Y-Parc","Street":"A5","PostalCode":"LL21 9","AdditionalData":[{"value":"United Kingdom","key":"CountryName"},{"value":"Wales","key":"StateName"},{"value":"Clwyd","key":"CountyName"}]},"MapReference":{"ReferenceId":"565726208","Spot":0.0,"SideOfStreet":"right","StateId":"20287683","CountyId":"20340689","CityId":"20340746","DistrictId":"20340762"}}},{"Relevance":1.0,"Distance":691.7,"MatchLevel":"street","MatchQuality":{"Country":1.0,"State":1.0,"County":1.0,"City":1.0,"District":1.0,"PostalCode":1.0},"Location":{"LocationId":"NT_AjuzkRUasN0Votu9JoTKVA_l_1067800361_R","LocationType":"point","DisplayPosition":{"Latitude":52.98192,"Longitude":-3.31384},"MapView":{"TopLeft":{"Latitude":52.98211,"Longitude":-3.31635},"BottomRight":{"Latitude":52.98192,"Longitude":-3.31384}},"Address":{"Label":"Corwen, LL21 9, United Kingdom","Country":"GBR","State":"Wales","County":"Clwyd","City":"Corwen","District":"Llidiart-Y-Parc","PostalCode":"LL21 9","AdditionalData":[{"value":"United Kingdom","key":"CountryName"},{"value":"Wales","key":"StateName"},{"value":"Clwyd","key":"CountyName"}]},"MapReference":{"ReferenceId":"1067800361","Spot":0.0,"SideOfStreet":"right","StateId":"20287683","CountyId":"20340689","CityId":"20340746","DistrictId":"20340762"}}},{"Relevance":1.0,"Distance":718.9,"MatchLevel":"street","MatchQuality":{"Country":1.0,"State":1.0,"County":1.0,"City":1.0,"District":1.0,"Street":[1.0],"PostalCode":1.0},"Location":{"LocationId":"NT_u36dVfIwEeYPKe00X4NhUA_l_79173994_R","LocationType":"point","DisplayPosition":{"Latitude":52.98005,"Longitude":-3.31222},"MapView":{"TopLeft":{"Latitude":52.98011,"Longitude":-3.31382},"BottomRight":{"Latitude":52.98005,"Longitude":-3.31222}},"Address":{"Label":"A5, Corwen, LL21 9, United Kingdom","Country":"GBR","State":"Wales","County":"Clwyd","City":"Corwen","District":"Llidiart-Y-Parc","Street":"A5","PostalCode":"LL21 9","AdditionalData":[{"value":"United Kingdom","key":"CountryName"},{"value":"Wales","key":"StateName"},{"value":"Clwyd","key":"CountyName"}]},"MapReference":{"ReferenceId":"79173994","Spot":0.0,"SideOfStreet":"right","StateId":"20287683","CountyId":"20340689","CityId":"20340746","DistrictId":"20340762"}}},{"Relevance":1.0,"Distance":773.6,"MatchLevel":"postalCode","MatchQuality":{"PostalCode":1.0},"Location":{"LocationId":"NT_u36dVfIwEeYPKe00X4NhUA_l_79173994_R","LocationType":"point","DisplayPosition":{"Latitude":52.98015,"Longitude":-3.31345},"MapView":{"TopLeft":{"Latitude":52.9891432,"Longitude":-3.3283866},"BottomRight":{"Latitude":52.9711568,"Longitude":-3.2985134}},"Address":{"Label":"LL21 9ER, Corwen, Wales, United Kingdom","Country":"GBR","State":"Wales","County":"Clwyd","City":"Corwen","PostalCode":"LL21 9ER","AdditionalData":[{"value":"United Kingdom","key":"CountryName"},{"value":"Wales","key":"StateName"},{"value":"Clwyd","key":"CountyName"}]},"MapReference":{"ReferenceId":"79173994","Spot":0.0,"SideOfStreet":"neither","StateId":"20287683","CountyId":"20340689","CityId":"20340746"}}},{"Relevance":1.0,"Distance":795.8,"MatchLevel":"street","MatchQuality":{"Country":1.0,"State":1.0,"County":1.0,"City":1.0,"District":1.0,"Street":[1.0],"PostalCode":1.0},"Location":{"LocationId":"NT_u36dVfIwEeYPKe00X4NhUA_l_17451476_L","LocationType":"point","DisplayPosition":{"Latitude":52.98011,"Longitude":-3.31382},"MapView":{"TopLeft":{"Latitude":52.98011,"Longitude":-3.31393},"BottomRight":{"Latitude":52.9801,"Longitude":-3.31382}},"Address":{"Label":"A5, Corwen, LL21 9, United Kingdom","Country":"GBR","State":"Wales","County":"Clwyd","City":"Corwen","District":"Llidiart-Y-Parc","Street":"A5","PostalCode":"LL21 9","AdditionalData":[{"value":"United Kingdom","key":"CountryName"},{"value":"Wales","key":"StateName"},{"value":"Clwyd","key":"CountyName"}]},"MapReference":{"ReferenceId":"17451476","Spot":1.0,"SideOfStreet":"left","StateId":"20287683","CountyId":"20340689","CityId":"20340746","DistrictId":"20340762"}}}]}]}}