{"Response":{"MetaInfo":{"Timestamp":"2020-03-28T09:50:05.908+0000","NextPageInformation":"2"},"View":[{"_type":"SearchResultsViewType","ViewId":0,"Result":[{"Relevance":1.0,"Distance":0.0,"Direction":0.0,"MatchLevel":"district","MatchQuality":{"Country":1.0,"State":1.0,"County":1.0,"City":1.0,"District":1.0,"PostalCode":1.0},"Location":{"LocationId":"NT_l5c7mxNOfL78m6N2YoN5aC","LocationType":"point","DisplayPosition":{"Latitude":52.9554157,"Longitude":-1.4786408},"MapView":{"TopLeft":{"Latitude":52.96848,"Longitude":-1.51255},"BottomRight":{"Latitude":52.9325,"Longitude":-1.46034}},"Address":{"Label":"Allestree, Derby, England, United Kingdom","Country":"GBR","State":"England","County":"Derbyshire","City":"Derby","District":"Allestree","PostalCode":"DE22 2","AdditionalData":[{"value":"United Kingdom","key":"CountryName"},{"value":"England","key":"StateName"},{"value":"Derbyshire","key":"CountyName"}]},"MapReference":{"ReferenceId":"754728293","SideOfStreet":"neither","StateId":"20248595","CountyId":"20343933","CityId":"20353727","DistrictId":"20353730"}}},{"Relevance":1.0,"Distance":4.5,"MatchLevel":"houseNumber","MatchQuality":{"Country":1.0,"State":1.0,"County":1.0,"City":1.0,"District":1.0,"Street":[1.0],"HouseNumber":1.0,"PostalCode":1.0},"MatchType":"interpolated","Location":{"LocationId":"NT_gGCn5aWvs5GLxmnleXmgsA_l_1148153270_R_1AjN","LocationType":"point","DisplayPosition":{"Latitude":52.9555388,"Longitude":-1.4787724},"MapView":{"TopLeft":{"Latitude":52.9566629,"Longitude":-1.4806384},"BottomRight":{"Latitude":52.9544146,"Longitude":-1.4769064}},"Address":{"Label":"506 Duffield Road, Derby, DE22 2DL, United Kingdom","Country":"GBR","State":"England","County":"Derbyshire","City":"Derby","District":"Allestree","Street":"Duffield Road","HouseNumber":"506","PostalCode":"DE22 2DL","AdditionalData":[{"value":"United Kingdom","key":"CountryName"},{"value":"England","key":"StateName"},{"value":"Derbyshire","key":"CountyName"}]},"MapReference":{"ReferenceId":"1148153270","Spot":0.65,"SideOfStreet":"right","StateId":"20248595","CountyId":"20343933","CityId":"20353727","DistrictId":"20353730"}}},{"Relevance":1.0,"Distance":16.0,"MatchLevel":"houseNumber","MatchQuality":{"Country":1.0,"State":1.0,"County":1.0,"City":1.0,"District":1.0,"Street":[1.0],"HouseNumber":1.0,"PostalCode":1.0},"MatchType":"interpolated","Location":{"LocationId":"NT_y0YYR5ludQrrJ.V-P8pyAA_l_26067952_R_xA","LocationType":"point","DisplayPosition":{"Latitude":52.9551424,"Longitude":-1.4786998},"MapView":{"TopLeft":{"Latitude":52.9562665,"Longitude":-1.4805658},"BottomRight":{"Latitude":52.9540182,"Longitude":-1.4768338}},"Address":{"Label":"1 Derwent Avenue, Derby, DE22 2, United Kingdom","Country":"GBR","State":"England","County":"Derbyshire","City":"Derby","District":"Allestree","Street":"Derwent Avenue","HouseNumber":"1","PostalCode":"DE22 2","AdditionalData":[{"value":"United Kingdom","key":"CountryName"},{"value":"England","key":"StateName"},{"value":"Derbyshire","key":"CountyName"}]},"MapReference":{"ReferenceId":"26067952","Spot":0.93,"SideOfStreet":"right","StateId":"20248595","CountyId":"20343933","CityId":"20353727","DistrictId":"20353730"}}},{"Relevance":1.0,"Distance":22.2,"MatchLevel":"street","MatchQuality":{"Country":1.0,"State":1.0,"County":1.0,"City":1.0,"District":1.0,"Street":[1.0],"PostalCode":1.0},"Location":{"LocationId":"NT_y1VJvWML5sbqQ9CZHzgDjD_l_26067924_R","LocationType":"point","DisplayPosition":{"Latitude":52.95539,"Longitude":-1.47897},"MapView":{"TopLeft":{"Latitude":52.95541,"Longitude":-1.47917},"BottomRight":{"Latitude":52.95539,"Longitude":-1.47897}},"Address":{"Label":"Park Lane, Derby, DE22 2, United Kingdom","Country":"GBR","State":"England","County":"Derbyshire","City":"Derby","District":"Allestree","Street":"Park Lane","PostalCode":"DE22 2","AdditionalData":[{"value":"United Kingdom","key":"CountryName"},{"value":"England","key":"StateName"},{"value":"Derbyshire","key":"CountyName"}]},"MapReference":{"ReferenceId":"26067924","Spot":0.0,"SideOfStreet":"right","StateId":"20248595","CountyId":"20343933","CityId":"20353727","DistrictId":"20353730"}}},{"Relevance":1.0,"Distance":22.5,"MatchLevel":"houseNumber","MatchQuality":{"Country":1.0,"State":1.0,"County":1.0,"City":1.0,"District":1.0,"Street":[1.0],"HouseNumber":1.0,"PostalCode":1.0},"MatchType":"interpolated","Location":{"LocationId":"NT_gGCn5aWvs5GLxmnleXmgsA_l_1148153271_R_1ADO","LocationType":"point","DisplayPosition":{"Latitude":52.95568,"Longitude":-1.47847},"MapView":{"TopLeft":{"Latitude":52.9568042,"Longitude":-1.480336},"BottomRight":{"Latitude":52.9545559,"Longitude":-1.4766039}},"Address":{"Label":"508 Duffield Road, Derby, DE22 2DL, United Kingdom","Country":"GBR","State":"England","County":"Derbyshire","City":"Derby","District":"Allestree","Street":"Duffield Road","HouseNumber":"508","PostalCode":"DE22 2DL","AdditionalData":[{"value":"United Kingdom","key":"CountryName"},{"value":"England","key":"StateName"},{"value":"Derbyshire","key":"CountyName"}]},"MapReference":{"ReferenceId":"1148153271","Spot":0.27,"SideOfStreet":"right","StateId":"20248595","CountyId":"20343933","CityId":"20353727","DistrictId":"20353730"}}},{"Relevance":1.0,"Distance":29.2,"MatchLevel":"houseNumber","MatchQuality":{"Country":1.0,"State":1.0,"County":1.0,"City":1.0,"District":1.0,"Street":[1.0],"HouseNumber":1.0,"PostalCode":1.0},"MatchType":"interpolated","Location":{"LocationId":"NT_gGCn5aWvs5GLxmnleXmgsA_l_26067940_L_zYTM","LocationType":"point","DisplayPosition":{"Latitude":52.9553059,"Longitude":-1.4790372},"MapView":{"TopLeft":{"Latitude":52.9564301,"Longitude":-1.4809032},"BottomRight":{"Latitude":52.9541818,"Longitude":-1.4771712}},"Address":{"Label":"361 Duffield Road, Derby, DE22 2DG, United Kingdom","Country":"GBR","State":"England","County":"Derbyshire","City":"Derby","District":"Allestree","Street":"Duffield Road","HouseNumber":"361","PostalCode":"DE22 2DG","AdditionalData":[{"value":"United Kingdom","key":"CountryName"},{"value":"England","key":"StateName"},{"value":"Derbyshire","key":"CountyName"}]},"MapReference":{"ReferenceId":"26067940","Spot":0.65,"SideOfStreet":"left","StateId":"20248595","CountyId":"20343933","CityId":"20353727","DistrictId":"20353730"}}},{"Relevance":1.0,"Distance":42.8,"MatchLevel":"houseNumber","MatchQuality":{"Country":1.0,"State":1.0,"County":1.0,"City":1.0,"District":1.0,"Street":[1.0],"HouseNumber":1.0,"PostalCode":1.0},"MatchType":"interpolated","Location":{"LocationId":"NT_LTveD1C9Rneh2WQGZ8huMD_l_26067920_R_yA","LocationType":"point","DisplayPosition":{"Latitude":52.95552,"Longitude":-1.47928},"MapView":{"TopLeft":{"Latitude":52.9566442,"Longitude":-1.481146},"BottomRight":{"Latitude":52.9543959,"Longitude":-1.477414}},"Address":{"Label":"2 Main Avenue, Derby, DE22 2EF, United Kingdom","Country":"GBR","State":"England","County":"Derbyshire","City":"Derby","District":"Allestree","Street":"Main Avenue","HouseNumber":"2","PostalCode":"DE22 2EF","AdditionalData":[{"value":"United Kingdom","key":"CountryName"},{"value":"England","key":"StateName"},{"value":"Derbyshire","key":"CountyName"}]},"MapReference":{"ReferenceId":"26067920","Spot":0.11,"SideOfStreet":"right","StateId":"20248595","CountyId":"20343933","CityId":"20353727","DistrictId":"20353730"}}},{"Relevance":1.0,"Distance":44.6,"MatchLevel":"houseNumber","MatchQuality":{"Country":1.0,"State":1.0,"County":1.0,"City":1.0,"District":1.0,"Street":[1.0],"HouseNumber":1.0,"PostalCode":1.0},"MatchType":"interpolated","Location":{"LocationId":"NT_gGCn5aWvs5GLxmnleXmgsA_l_813580536_R_1ADM","LocationType":"point","DisplayPosition":{"Latitude":52.9550726,"Longitude":-1.4791452},"MapView":{"TopLeft":{"Latitude":52.9561967,"Longitude":-1.4810112},"BottomRight":{"Latitude":52.9539484,"Longitude":-1.4772792}},"Address":{"Label":"500 Duffield Road, Derby, DE22 2DJ, United Kingdom","Country":"GBR","State":"England","County":"Derbyshire","City":"Derby","District":"Allestree","Street":"Duffield Road","HouseNumber":"500","PostalCode":"DE22 2DJ","AdditionalData":[{"value":"United Kingdom","key":"CountryName"},{"value":"England","key":"StateName"},{"value":"Derbyshire","key":"CountyName"}]},"MapReference":{"ReferenceId":"813580536","Spot":0.75,"SideOfStreet":"right","StateId":"20248595","CountyId":"20343933","CityId":"20353727","DistrictId":"20353730"}}},{"Relevance":1.0,"Distance":71.7,"MatchLevel":"houseNumber","MatchQuality":{"Country":1.0,"State":1.0,"County":1.0,"City":1.0,"District":1.0,"Street":[1.0],"HouseNumber":1.0,"PostalCode":1.0},"MatchType":"interpolated","Location":{"LocationId":"NT_y1VJvWML5sbqQ9CZHzgDjD_l_26084333_R_xA","LocationType":"point","DisplayPosition":{"Latitude":52.9553514,"Longitude":-1.4797051},"MapView":{"TopLeft":{"Latitude":52.9564755,"Longitude":-1.4815711},"BottomRight":{"Latitude":52.9542272,"Longitude":-1.4778391}},"Address":{"Label":"1 Park Lane, Derby, DE22 2, United Kingdom","Country":"GBR","State":"England","County":"Derbyshire","City":"Derby","District":"Allestree","Street":"Park Lane","HouseNumber":"1","PostalCode":"DE22 2","AdditionalData":[{"value":"United Kingdom","key":"CountryName"},{"value":"England","key":"StateName"},{"value":"Derbyshire","key":"CountyName"}]},"MapReference":{"ReferenceId":"26084333","Spot":0.62,"SideOfStreet":"right","StateId":"20248595","CountyId":"20343933","CityId":"20353727","DistrictId":"20353730"}}},{"Relevance":1.0,"Distance":74.7,"MatchLevel":"street","MatchQuality":{"Country":1.0,"State":1.0,"County":1.0,"City":1.0,"District":1.0,"Street":[1.0],"PostalCode":1.0},"Location":{"LocationId":"NT_gGCn5aWvs5GLxmnleXmgsA_l_864755276_L","LocationType":"point","DisplayPosition":{"Latitude":52.95597,"Longitude":-1.47801},"MapView":{"TopLeft":{"Latitude":52.95597,"Longitude":-1.47801},"BottomRight":{"Latitude":52.95558,"Longitude":-1.4772}},"Address":{"Label":"Duffield Road, Derby, DE22 2, United Kingdom","Country":"GBR","State":"England","County":"Derbyshire","City":"Derby","District":"Allestree","Street":"Duffield Road","PostalCode":"DE22 2","AdditionalData":[{"value":"United Kingdom","key":"CountryName"},{"value":"England","key":"StateName"},{"value":"Derbyshire","key":"CountyName"}]},"MapReference":{"ReferenceId":"864755276","Spot":1.0,"SideOfStreet":"left","StateId":"20248595","CountyId":"20343933","CityId":"20353727","DistrictId":"20353730"}}}]}]}}