{"Response":{"MetaInfo":{"Timestamp":"2020-03-28T10:36:23.752+0000","NextPageInformation":"2"},"View":[{"_type":"SearchResultsViewType","ViewId":0,"Result":[{"Relevance":1.0,"Distance":0.0,"Direction":0.0,"MatchLevel":"district","MatchQuality":{"Country":1.0,"State":1.0,"County":1.0,"City":1.0,"District":1.0,"PostalCode":1.0},"Location":{"LocationId":"NT_2NL69rFIi3CNm1Soh6kabD","LocationType":"point","DisplayPosition":{"Latitude":52.9663134,"Longitude":-1.3046162},"MapView":{"TopLeft":{"Latitude":52.99732,"Longitude":-1.33457},"BottomRight":{"Latitude":52.94188,"Longitude":-1.28407}},"Address":{"Label":"Ilkeston, England, United Kingdom","Country":"GBR","State":"England","County":"Derbyshire","City":"Ilkeston","District":"Ilkeston","PostalCode":"DE7 8","AdditionalData":[{"value":"United Kingdom","key":"CountryName"},{"value":"England","key":"StateName"},{"value":"Derbyshire","key":"CountyName"}]},"MapReference":{"ReferenceId":"1225217008","SideOfStreet":"neither","StateId":"20248595","CountyId":"20343933","CityId":"20353819","DistrictId":"20353820"}}},{"Relevance":1.0,"Distance":1.7,"MatchLevel":"houseNumber","MatchQuality":{"Country":1.0,"State":1.0,"County":1.0,"City":1.0,"District":1.0,"Street":[1.0],"HouseNumber":1.0,"PostalCode":1.0},"MatchType":"interpolated","Location":{"LocationId":"NT_vYedVv0IJreETE67Lu2LcC_l_1225481738_R_1YD","LocationType":"point","DisplayPosition":{"Latitude":52.96618,"Longitude":-1.3046501},"MapView":{"TopLeft":{"Latitude":52.9673042,"Longitude":-1.3065166},"BottomRight":{"Latitude":52.9650559,"Longitude":-1.3027836}},"Address":{"Label":"56 Nottingham Road, Ilkeston, DE7 5, United Kingdom","Country":"GBR","State":"England","County":"Derbyshire","City":"Ilkeston","District":"Ilkeston","Street":"Nottingham Road","HouseNumber":"56","PostalCode":"DE7 5","AdditionalData":[{"value":"United Kingdom","key":"CountryName"},{"value":"England","key":"StateName"},{"value":"Derbyshire","key":"CountyName"}]},"MapReference":{"ReferenceId":"1225481738","Spot":0.15,"SideOfStreet":"right","StateId":"20248595","CountyId":"20343933","CityId":"20353819","DistrictId":"20353820"}}},{"Relevance":1.0,"Distance":24.5,"MatchLevel":"postalCode","MatchQuality":{"PostalCode":1.0},"MatchType":"interpolated","Location":{"LocationId":"NT_vYedVv0IJreETE67Lu2LcC_l_1225481738_R_1YD","LocationType":"point","DisplayPosition":{"Latitude":52.96639,"Longitude":-1.30496},"MapView":{"TopLeft":{"Latitude":52.9753832,"Longitude":-1.3198919},"BottomRight":{"Latitude":52.9573968,"Longitude":-1.2900281}},"Address":{"Label":"DE7 5PR, Ilkeston, England, United Kingdom","Country":"GBR","State":"England","County":"Derbyshire","City":"Ilkeston","PostalCode":"DE7 5PR","AdditionalData":[{"value":"United Kingdom","key":"CountryName"},{"value":"England","key":"StateName"},{"value":"Derbyshire","key":"CountyName"}]},"MapReference":{"ReferenceId":"1225481738","Spot":0.15,"SideOfStreet":"neither","StateId":"20248595","CountyId":"20343933","CityId":"20353819"}}},{"Relevance":1.0,"Distance":31.4,"MatchLevel":"houseNumber","MatchQuality":{"Country":1.0,"State":1.0,"County":1.0,"City":1.0,"District":1.0,"Street":[1.0],"HouseNumber":1.0,"PostalCode":1.0},"MatchType":"interpolated","Location":{"LocationId":"NT_sc4OBzoe.u7Qcrq9hYwbzB_l_26067348_L_xA","LocationType":"point","DisplayPosition":{"Latitude":52.96621,"Longitude":-1.30402},"MapView":{"TopLeft":{"Latitude":52.9673342,"Longitude":-1.3058865},"BottomRight":{"Latitude":52.9650859,"Longitude":-1.3021535}},"Address":{"Label":"1 Dale Street, Ilkeston, DE7 5NQ, United Kingdom","Country":"GBR","State":"England","County":"Derbyshire","City":"Ilkeston","District":"Ilkeston","Street":"Dale Street","HouseNumber":"1","PostalCode":"DE7 5NQ","AdditionalData":[{"value":"United Kingdom","key":"CountryName"},{"value":"England","key":"StateName"},{"value":"Derbyshire","key":"CountyName"}]},"MapReference":{"ReferenceId":"26067348","Spot":0.37,"SideOfStreet":"left","StateId":"20248595","CountyId":"20343933","CityId":"20353819","DistrictId":"20353820"}}},{"Relevance":1.0,"Distance":36.4,"MatchLevel":"houseNumber","MatchQuality":{"Country":1.0,"State":1.0,"County":1.0,"City":1.0,"District":1.0,"Street":[1.0],"HouseNumber":1.0,"PostalCode":1.0},"MatchType":"interpolated","Location":{"LocationId":"NT_vYedVv0IJreETE67Lu2LcC_l_1225481737_R_1gD","LocationType":"point","DisplayPosition":{"Latitude":52.9660136,"Longitude":-1.3041961},"MapView":{"TopLeft":{"Latitude":52.9671378,"Longitude":-1.3060626},"BottomRight":{"Latitude":52.9648895,"Longitude":-1.3023297}},"Address":{"Label":"58 Nottingham Road, Ilkeston, DE7 5, United Kingdom","Country":"GBR","State":"England","County":"Derbyshire","City":"Ilkeston","District":"Ilkeston","Street":"Nottingham Road","HouseNumber":"58","PostalCode":"DE7 5","AdditionalData":[{"value":"United Kingdom","key":"CountryName"},{"value":"England","key":"StateName"},{"value":"Derbyshire","key":"CountyName"}]},"MapReference":{"ReferenceId":"1225481737","Spot":0.66,"SideOfStreet":"right","StateId":"20248595","CountyId":"20343933","CityId":"20353819","DistrictId":"20353820"}}},{"Relevance":1.0,"Distance":44.1,"MatchLevel":"postalCode","MatchQuality":{"PostalCode":1.0},"MatchType":"interpolated","Location":{"LocationId":"NT_vYedVv0IJreETE67Lu2LcC_l_1225481737_R_1gD","LocationType":"point","DisplayPosition":{"Latitude":52.96598,"Longitude":-1.30426},"MapView":{"TopLeft":{"Latitude":52.9749732,"Longitude":-1.3191917},"BottomRight":{"Latitude":52.9569868,"Longitude":-1.2893283}},"Address":{"Label":"DE7 5NN, Ilkeston, England, United Kingdom","Country":"GBR","State":"England","County":"Derbyshire","City":"Ilkeston","PostalCode":"DE7 5NN","AdditionalData":[{"value":"United Kingdom","key":"CountryName"},{"value":"England","key":"StateName"},{"value":"Derbyshire","key":"CountyName"}]},"MapReference":{"ReferenceId":"1225481737","Spot":0.66,"SideOfStreet":"neither","StateId":"20248595","CountyId":"20343933","CityId":"20353819"}}},{"Relevance":1.0,"Distance":61.1,"MatchLevel":"houseNumber","MatchQuality":{"Country":1.0,"State":1.0,"County":1.0,"City":1.0,"District":1.0,"Street":[1.0],"HouseNumber":1.0,"PostalCode":1.0},"MatchType":"interpolated","Location":{"LocationId":"NT_sc4OBzoe.u7Qcrq9hYwbzB_l_26067332_L_0A","LocationType":"point","DisplayPosition":{"Latitude":52.9665402,"Longitude":-1.3037599},"MapView":{"TopLeft":{"Latitude":52.9676643,"Longitude":-1.3056263},"BottomRight":{"Latitude":52.965416,"Longitude":-1.3018934}},"Address":{"Label":"4 Dale Street, Ilkeston, DE7 5NQ, United Kingdom","Country":"GBR","State":"England","County":"Derbyshire","City":"Ilkeston","District":"Ilkeston","Street":"Dale Street","HouseNumber":"4","PostalCode":"DE7 5NQ","AdditionalData":[{"value":"United Kingdom","key":"CountryName"},{"value":"England","key":"StateName"},{"value":"Derbyshire","key":"CountyName"}]},"MapReference":{"ReferenceId":"26067332","Spot":0.1,"SideOfStreet":"left","StateId":"20248595","CountyId":"20343933","CityId":"20353819","DistrictId":"20353820"}}},{"Relevance":1.0,"Distance":66.1,"MatchLevel":"street","MatchQuality":{"Country":1.0,"State":1.0,"County":1.0,"City":1.0,"District":1.0,"Street":[1.0],"PostalCode":1.0},"Location":{"LocationId":"NT_8tIje.nX7gi9L-TE8EVT0A_l_26067347_R","LocationType":"point","DisplayPosition":{"Latitude":52.9662933,"Longitude":-1.3056031},"MapView":{"TopLeft":{"Latitude":52.96663,"Longitude":-1.30561},"BottomRight":{"Latitude":52.96614,"Longitude":-1.3056}},"Address":{"Label":"Field Road, Ilkeston, DE7 5, United Kingdom","Country":"GBR","State":"England","County":"Derbyshire","City":"Ilkeston","District":"Ilkeston","Street":"Field Road","PostalCode":"DE7 5","AdditionalData":[{"value":"United Kingdom","key":"CountryName"},{"value":"England","key":"StateName"},{"value":"Derbyshire","key":"CountyName"}]},"MapReference":{"ReferenceId":"26067347","Spot":0.31,"SideOfStreet":"right","StateId":"20248595","CountyId":"20343933","CityId":"20353819","DistrictId":"20353820"}}},{"Relevance":1.0,"Distance":69.0,"MatchLevel":"postalCode","MatchQuality":{"PostalCode":1.0},"MatchType":"interpolated","Location":{"LocationId":"NT_8WQ55e6LTF5fgFXa0zxeuB_l_26067351_L_xA","LocationType":"point","DisplayPosition":{"Latitude":52.96624,"Longitude":-1.30564},"MapView":{"TopLeft":{"Latitude":52.9752332,"Longitude":-1.3205718},"BottomRight":{"Latitude":52.9572468,"Longitude":-1.2907082}},"Address":{"Label":"DE7 5RJ, Ilkeston, England, United Kingdom","Country":"GBR","State":"England","County":"Derbyshire","City":"Ilkeston","PostalCode":"DE7 5RJ","AdditionalData":[{"value":"United Kingdom","key":"CountryName"},{"value":"England","key":"StateName"},{"value":"Derbyshire","key":"CountyName"}]},"MapReference":{"ReferenceId":"26067351","Spot":0.68,"SideOfStreet":"neither","StateId":"20248595","CountyId":"20343933","CityId":"20353819"}}},{"Relevance":1.0,"Distance":73.1,"MatchLevel":"houseNumber","MatchQuality":{"Country":1.0,"State":1.0,"County":1.0,"City":1.0,"District":1.0,"Street":[1.0],"HouseNumber":1.0,"PostalCode":1.0},"MatchType":"interpolated","Location":{"LocationId":"NT_4NFEMKqGdaGVuGFfb3IWoD_l_26067341_L_xA","LocationType":"point","DisplayPosition":{"Latitude":52.966404,"Longitude":-1.30352},"MapView":{"TopLeft":{"Latitude":52.9675282,"Longitude":-1.3053865},"BottomRight":{"Latitude":52.9652798,"Longitude":-1.3016535}},"Address":{"Label":"1 Percy Street, Ilkeston, DE7 5NT, United Kingdom","Country":"GBR","State":"England","County":"Derbyshire","City":"Ilkeston","District":"Ilkeston","Street":"Percy Street","HouseNumber":"1","PostalCode":"DE7 5NT","AdditionalData":[{"value":"United Kingdom","key":"CountryName"},{"value":"England","key":"StateName"},{"value":"Derbyshire","key":"CountyName"}]},"MapReference":{"ReferenceId":"26067341","Spot":0.66,"SideOfStreet":"left","StateId":"20248595","CountyId":"20343933","CityId":"20353819","DistrictId":"20353820"}}}]}]}}