{"Response":{"MetaInfo":{"Timestamp":"2020-03-28T11:15:58.502+0000","NextPageInformation":"2"},"View":[{"_type":"SearchResultsViewType","ViewId":0,"Result":[{"Relevance":1.0,"Distance":0.0,"Direction":0.0,"MatchLevel":"district","MatchQuality":{"Country":1.0,"State":1.0,"County":1.0,"City":1.0,"District":1.0,"PostalCode":1.0},"Location":{"LocationId":"NT_mghZtenygJbKhELq0OeD0C","LocationType":"point","DisplayPosition":{"Latitude":52.9847728,"Longitude":-1.9904579},"MapView":{"TopLeft":{"Latitude":53.00112,"Longitude":-2.01838},"BottomRight":{"Latitude":52.97205,"Longitude":-1.97272}},"Address":{"Label":"Cheadle, Stoke-on-Trent, England, United Kingdom","Country":"GBR","State":"England","County":"Staffordshire","City":"Stoke-on-Trent","District":"Cheadle","PostalCode":"ST10 1","AdditionalData":[{"value":"United Kingdom","key":"CountryName"},{"value":"England","key":"StateName"},{"value":"Staffordshire","key":"CountyName"}]},"MapReference":{"ReferenceId":"836328906","SideOfStreet":"neither","StateId":"20248595","CountyId":"20345040","CityId":"20345043","DistrictId":"20358185"}}},{"Relevance":1.0,"Distance":23.2,"MatchLevel":"houseNumber","MatchQuality":{"Country":1.0,"State":1.0,"County":1.0,"City":1.0,"District":1.0,"Street":[1.0],"HouseNumber":1.0,"PostalCode":1.0},"MatchType":"interpolated","Location":{"LocationId":"NT_V4EpYrR7NLLdfS-DAi7MgA_l_26242990_L_xQD","LocationType":"point","DisplayPosition":{"Latitude":52.9850354,"Longitude":-1.9901016},"MapView":{"TopLeft":{"Latitude":52.9861596,"Longitude":-1.9919689},"BottomRight":{"Latitude":52.9839113,"Longitude":-1.9882343}},"Address":{"Label":"14 Meadow Drive, Stoke-on-Trent, ST10 1, United Kingdom","Country":"GBR","State":"England","County":"Staffordshire","City":"Stoke-on-Trent","District":"Cheadle","Street":"Meadow Drive","HouseNumber":"14","PostalCode":"ST10 1","AdditionalData":[{"value":"United Kingdom","key":"CountryName"},{"value":"England","key":"StateName"},{"value":"Staffordshire","key":"CountyName"}]},"MapReference":{"ReferenceId":"26242990","Spot":0.72,"SideOfStreet":"left","StateId":"20248595","CountyId":"20345040","CityId":"20345043","DistrictId":"20358185"}}},{"Relevance":1.0,"Distance":43.7,"MatchLevel":"postalCode","MatchQuality":{"PostalCode":1.0},"MatchType":"interpolated","Location":{"LocationId":"NT_V4EpYrR7NLLdfS-DAi7MgA_l_26242990_L_xQD","LocationType":"point","DisplayPosition":{"Latitude":52.98488,"Longitude":-1.98983},"MapView":{"TopLeft":{"Latitude":52.9938732,"Longitude":-2.0047683},"BottomRight":{"Latitude":52.9758868,"Longitude":-1.9748917}},"Address":{"Label":"ST10 1WH, Stoke-on-Trent, England, United Kingdom","Country":"GBR","State":"England","County":"Staffordshire","City":"Stoke-on-Trent","PostalCode":"ST10 1WH","AdditionalData":[{"value":"United Kingdom","key":"CountryName"},{"value":"England","key":"StateName"},{"value":"Staffordshire","key":"CountyName"}]},"MapReference":{"ReferenceId":"26242990","Spot":0.72,"SideOfStreet":"neither","StateId":"20248595","CountyId":"20345040","CityId":"20345043"}}},{"Relevance":1.0,"Distance":71.5,"MatchLevel":"street","MatchQuality":{"Country":1.0,"State":1.0,"County":1.0,"City":1.0,"District":1.0,"Street":[1.0],"PostalCode":1.0},"Location":{"LocationId":"NT_IDCNIEexFUV9pcPRWH9N4A_l_26243003_R","LocationType":"point","DisplayPosition":{"Latitude":52.9842265,"Longitude":-1.9910207},"MapView":{"TopLeft":{"Latitude":52.98519,"Longitude":-1.99198},"BottomRight":{"Latitude":52.98394,"Longitude":-1.99078}},"Address":{"Label":"Royal Walk, Stoke-on-Trent, ST10 1, United Kingdom","Country":"GBR","State":"England","County":"Staffordshire","City":"Stoke-on-Trent","District":"Cheadle","Street":"Royal Walk","PostalCode":"ST10 1","AdditionalData":[{"value":"United Kingdom","key":"CountryName"},{"value":"England","key":"StateName"},{"value":"Staffordshire","key":"CountyName"}]},"MapReference":{"ReferenceId":"26243003","Spot":0.21,"SideOfStreet":"right","StateId":"20248595","CountyId":"20345040","CityId":"20345043","DistrictId":"20358185"}}},{"Relevance":1.0,"Distance":83.2,"MatchLevel":"postalCode","MatchQuality":{"PostalCode":1.0},"MatchType":"interpolated","Location":{"LocationId":"NT_SVdqFrqih6Azzgru8jWZTA_l_999937248_R_zMD","LocationType":"point","DisplayPosition":{"Latitude":52.98405,"Longitude":-1.99078},"MapView":{"TopLeft":{"Latitude":52.9930432,"Longitude":-2.005718},"BottomRight":{"Latitude":52.9750568,"Longitude":-1.975842}},"Address":{"Label":"ST10 1NS, Stoke-on-Trent, England, United Kingdom","Country":"GBR","State":"England","County":"Staffordshire","City":"Stoke-on-Trent","PostalCode":"ST10 1NS","AdditionalData":[{"value":"United Kingdom","key":"CountryName"},{"value":"England","key":"StateName"},{"value":"Staffordshire","key":"CountyName"}]},"MapReference":{"ReferenceId":"999937248","Spot":0.72,"SideOfStreet":"neither","StateId":"20248595","CountyId":"20345040","CityId":"20345043"}}},{"Relevance":1.0,"Distance":94.2,"MatchLevel":"houseNumber","MatchQuality":{"Country":1.0,"State":1.0,"County":1.0,"City":1.0,"District":1.0,"Street":[1.0],"HouseNumber":1.0,"PostalCode":1.0},"MatchType":"interpolated","Location":{"LocationId":"NT_SVdqFrqih6Azzgru8jWZTA_l_999937248_R_zMD","LocationType":"point","DisplayPosition":{"Latitude":52.985691,"Longitude":-1.9910242},"MapView":{"TopLeft":{"Latitude":52.9868152,"Longitude":-1.9928915},"BottomRight":{"Latitude":52.9845669,"Longitude":-1.9891569}},"Address":{"Label":"33 Bank Street, Stoke-on-Trent, ST10 1, United Kingdom","Country":"GBR","State":"England","County":"Staffordshire","City":"Stoke-on-Trent","District":"Cheadle","Street":"Bank Street","HouseNumber":"33","PostalCode":"ST10 1","AdditionalData":[{"value":"United Kingdom","key":"CountryName"},{"value":"England","key":"StateName"},{"value":"Staffordshire","key":"CountyName"}]},"MapReference":{"ReferenceId":"999937248","Spot":0.72,"SideOfStreet":"right","StateId":"20248595","CountyId":"20345040","CityId":"20345043","DistrictId":"20358185"}}},{"Relevance":1.0,"Distance":95.0,"MatchLevel":"houseNumber","MatchQuality":{"Country":1.0,"State":1.0,"County":1.0,"City":1.0,"District":1.0,"Street":[1.0],"HouseNumber":1.0,"PostalCode":1.0},"MatchType":"interpolated","Location":{"LocationId":"NT_SVdqFrqih6Azzgru8jWZTA_l_999937249_R_ykD","LocationType":"point","DisplayPosition":{"Latitude":52.98572,"Longitude":-1.9909299},"MapView":{"TopLeft":{"Latitude":52.9868442,"Longitude":-1.9927972},"BottomRight":{"Latitude":52.9845959,"Longitude":-1.9890626}},"Address":{"Label":"29 Bank Street, Stoke-on-Trent, ST10 1, United Kingdom","Country":"GBR","State":"England","County":"Staffordshire","City":"Stoke-on-Trent","District":"Cheadle","Street":"Bank Street","HouseNumber":"29","PostalCode":"ST10 1","AdditionalData":[{"value":"United Kingdom","key":"CountryName"},{"value":"England","key":"StateName"},{"value":"Staffordshire","key":"CountyName"}]},"MapReference":{"ReferenceId":"999937249","Spot":0.0,"SideOfStreet":"right","StateId":"20248595","CountyId":"20345040","CityId":"20345043","DistrictId":"20358185"}}},{"Relevance":1.0,"Distance":98.8,"MatchLevel":"postalCode","MatchQuality":{"PostalCode":1.0},"Location":{"LocationId":"NT_IDCNIEexFUV9pcPRWH9N4A_l_26243003_R","LocationType":"point","DisplayPosition":{"Latitude":52.98391,"Longitude":-1.99081},"MapView":{"TopLeft":{"Latitude":52.9929032,"Longitude":-2.0057479},"BottomRight":{"Latitude":52.9749168,"Longitude":-1.9758721}},"Address":{"Label":"ST10 1EL, Stoke-on-Trent, England, United Kingdom","Country":"GBR","State":"England","County":"Staffordshire","City":"Stoke-on-Trent","PostalCode":"ST10 1EL","AdditionalData":[{"value":"United Kingdom","key":"CountryName"},{"value":"England","key":"StateName"},{"value":"Staffordshire","key":"CountyName"}]},"MapReference":{"ReferenceId":"26243003","Spot":0.21,"SideOfStreet":"neither","StateId":"20248595","CountyId":"20345040","CityId":"20345043"}}},{"Relevance":1.0,"Distance":101.6,"MatchLevel":"houseNumber","MatchQuality":{"Country":1.0,"State":1.0,"County":1.0,"City":1.0,"District":1.0,"Street":[1.0],"HouseNumber":1.0,"PostalCode":1.0},"MatchType":"interpolated","Location":{"LocationId":"NT_SVdqFrqih6Azzgru8jWZTA_l_999937250_R_xcD","LocationType":"point","DisplayPosition":{"Latitude":52.98581,"Longitude":-1.9907099},"MapView":{"TopLeft":{"Latitude":52.9869342,"Longitude":-1.9925773},"BottomRight":{"Latitude":52.9846859,"Longitude":-1.9888426}},"Address":{"Label":"17 Bank Street, Stoke-on-Trent, ST10 1NR, United Kingdom","Country":"GBR","State":"England","County":"Staffordshire","City":"Stoke-on-Trent","District":"Cheadle","Street":"Bank Street","HouseNumber":"17","PostalCode":"ST10 1NR","AdditionalData":[{"value":"United Kingdom","key":"CountryName"},{"value":"England","key":"StateName"},{"value":"Staffordshire","key":"CountyName"}]},"MapReference":{"ReferenceId":"999937250","Spot":0.0,"SideOfStreet":"right","StateId":"20248595","CountyId":"20345040","CityId":"20345043","DistrictId":"20358185"}}},{"Relevance":1.0,"Distance":107.4,"MatchLevel":"postalCode","MatchQuality":{"PostalCode":1.0},"MatchType":"interpolated","Location":{"LocationId":"NT_SVdqFrqih6Azzgru8jWZTA_l_999937249_R_ykD","LocationType":"point","DisplayPosition":{"Latitude":52.98572,"Longitude":-1.99077},"MapView":{"TopLeft":{"Latitude":52.9947132,"Longitude":-2.0057085},"BottomRight":{"Latitude":52.9767268,"Longitude":-1.9758315}},"Address":{"Label":"ST10 1NR, Stoke-on-Trent, England, United Kingdom","Country":"GBR","State":"England","County":"Staffordshire","City":"Stoke-on-Trent","PostalCode":"ST10 1NR","AdditionalData":[{"value":"United Kingdom","key":"CountryName"},{"value":"England","key":"StateName"},{"value":"Staffordshire","key":"CountyName"}]},"MapReference":{"ReferenceId":"999937249","Spot":0.0,"SideOfStreet":"neither","StateId":"20248595","CountyId":"20345040","CityId":"20345043"}}}]}]}}