{"Response":{"MetaInfo":{"Timestamp":"2020-03-28T12:01:47.154+0000","NextPageInformation":"2"},"View":[{"_type":"SearchResultsViewType","ViewId":0,"Result":[{"Relevance":1.0,"Distance":0.0,"Direction":0.0,"MatchLevel":"district","MatchQuality":{"Country":1.0,"State":1.0,"County":1.0,"City":1.0,"District":1.0,"PostalCode":1.0},"Location":{"LocationId":"NT_WvuHrGobV-epPyNaKC1VTB","LocationType":"point","DisplayPosition":{"Latitude":52.9136399,"Longitude":-1.23688},"MapView":{"TopLeft":{"Latitude":52.9536,"Longitude":-1.2721},"BottomRight":{"Latitude":52.90199,"Longitude":-1.1789}},"Address":{"Label":"Beeston, Nottingham, England, United Kingdom","Country":"GBR","State":"England","County":"Nottinghamshire","City":"Nottingham","District":"Beeston","PostalCode":"NG9 1","AdditionalData":[{"value":"United Kingdom","key":"CountryName"},{"value":"England","key":"StateName"},{"value":"Nottinghamshire","key":"CountyName"}]},"MapReference":{"ReferenceId":"1131315428","SideOfStreet":"neither","StateId":"20248595","CountyId":"20344764","CityId":"20356833","DistrictId":"20356845"}}},{"Relevance":1.0,"Distance":8.9,"MatchLevel":"houseNumber","MatchQuality":{"Country":1.0,"State":1.0,"County":1.0,"City":1.0,"District":1.0,"Street":[1.0],"HouseNumber":1.0,"PostalCode":1.0},"MatchType":"interpolated","Location":{"LocationId":"NT_Ns5Amq18sYzI76iej8XFzC_l_26296256_R_0MTN","LocationType":"point","DisplayPosition":{"Latitude":52.91384,"Longitude":-1.237},"MapView":{"TopLeft":{"Latitude":52.9149642,"Longitude":-1.2388642},"BottomRight":{"Latitude":52.9127159,"Longitude":-1.2351358}},"Address":{"Label":"435 High Road, Nottingham, NG9 5EA, United Kingdom","Country":"GBR","State":"England","County":"Nottinghamshire","City":"Nottingham","District":"Beeston","Street":"High Road","HouseNumber":"435","PostalCode":"NG9 5EA","AdditionalData":[{"value":"United Kingdom","key":"CountryName"},{"value":"England","key":"StateName"},{"value":"Nottinghamshire","key":"CountyName"}]},"MapReference":{"ReferenceId":"26296256","Spot":0.71,"SideOfStreet":"right","StateId":"20248595","CountyId":"20344764","CityId":"20356833","DistrictId":"20356845"}}},{"Relevance":1.0,"Distance":17.7,"MatchLevel":"houseNumber","MatchQuality":{"Country":1.0,"State":1.0,"County":1.0,"City":1.0,"District":1.0,"Street":[1.0],"HouseNumber":1.0,"PostalCode":1.0},"MatchType":"interpolated","Location":{"LocationId":"NT_ZwjPPtSVjec-gj2QGZhvoC_l_26296390_L_2kD","LocationType":"point","DisplayPosition":{"Latitude":52.9137503,"Longitude":-1.2365053},"MapView":{"TopLeft":{"Latitude":52.9148744,"Longitude":-1.2383695},"BottomRight":{"Latitude":52.9126261,"Longitude":-1.2346411}},"Address":{"Label":"69 Charles Avenue, Nottingham, NG9 5ED, United Kingdom","Country":"GBR","State":"England","County":"Nottinghamshire","City":"Nottingham","District":"Beeston","Street":"Charles Avenue","HouseNumber":"69","PostalCode":"NG9 5ED","AdditionalData":[{"value":"United Kingdom","key":"CountryName"},{"value":"England","key":"StateName"},{"value":"Nottinghamshire","key":"CountyName"}]},"MapReference":{"ReferenceId":"26296390","Spot":0.85,"SideOfStreet":"left","StateId":"20248595","CountyId":"20344764","CityId":"20356833","DistrictId":"20356845"}}},{"Relevance":1.0,"Distance":36.0,"MatchLevel":"postalCode","MatchQuality":{"PostalCode":1.0},"MatchType":"interpolated","Location":{"LocationId":"NT_Ns5Amq18sYzI76iej8XFzC_l_26296256_R_0MTN","LocationType":"point","DisplayPosition":{"Latitude":52.91374,"Longitude":-1.23739},"MapView":{"TopLeft":{"Latitude":52.9227332,"Longitude":-1.2523037},"BottomRight":{"Latitude":52.9047468,"Longitude":-1.2224763}},"Address":{"Label":"NG9 5EJ, Nottingham, England, United Kingdom","Country":"GBR","State":"England","County":"Nottinghamshire","City":"Nottingham","PostalCode":"NG9 5EJ","AdditionalData":[{"value":"United Kingdom","key":"CountryName"},{"value":"England","key":"StateName"},{"value":"Nottinghamshire","key":"CountyName"}]},"MapReference":{"ReferenceId":"26296256","Spot":0.71,"SideOfStreet":"neither","StateId":"20248595","CountyId":"20344764","CityId":"20356833"}}},{"Relevance":1.0,"Distance":39.5,"MatchLevel":"houseNumber","MatchQuality":{"Country":1.0,"State":1.0,"County":1.0,"City":1.0,"District":1.0,"Street":[1.0],"HouseNumber":1.0,"PostalCode":1.0},"MatchType":"interpolated","Location":{"LocationId":"NT_yv8wEoAyt3Fz1A8bdXKgCA_l_26296207_R_0MTM","LocationType":"point","DisplayPosition":{"Latitude":52.91403,"Longitude":-1.23653},"MapView":{"TopLeft":{"Latitude":52.9151542,"Longitude":-1.2383942},"BottomRight":{"Latitude":52.9129059,"Longitude":-1.2346657}},"Address":{"Label":"431 High Road, Nottingham, NG9 5EA, United Kingdom","Country":"GBR","State":"England","County":"Nottinghamshire","City":"Nottingham","District":"Beeston","Street":"High Road","HouseNumber":"431","PostalCode":"NG9 5EA","AdditionalData":[{"value":"United Kingdom","key":"CountryName"},{"value":"England","key":"StateName"},{"value":"Nottinghamshire","key":"CountyName"}]},"MapReference":{"ReferenceId":"26296207","Spot":0.45,"SideOfStreet":"right","StateId":"20248595","CountyId":"20344764","CityId":"20356833","DistrictId":"20356845"}}},{"Relevance":1.0,"Distance":54.4,"MatchLevel":"street","MatchQuality":{"Country":1.0,"State":1.0,"County":1.0,"City":1.0,"District":1.0,"Street":[1.0],"PostalCode":1.0},"Location":{"LocationId":"NT_XaaV2F9QU1GlDUY7kO9fQD_l_26296263_R","LocationType":"point","DisplayPosition":{"Latitude":52.91356,"Longitude":-1.23768},"MapView":{"TopLeft":{"Latitude":52.91356,"Longitude":-1.23811},"BottomRight":{"Latitude":52.91344,"Longitude":-1.23768}},"Address":{"Label":"Chetwynd Road, Nottingham, NG9 5, United Kingdom","Country":"GBR","State":"England","County":"Nottinghamshire","City":"Nottingham","District":"Beeston","Street":"Chetwynd Road","PostalCode":"NG9 5","AdditionalData":[{"value":"United Kingdom","key":"CountryName"},{"value":"England","key":"StateName"},{"value":"Nottinghamshire","key":"CountyName"}]},"MapReference":{"ReferenceId":"26296263","Spot":1.0,"SideOfStreet":"right","StateId":"20248595","CountyId":"20344764","CityId":"20356833","DistrictId":"20356845"}}},{"Relevance":1.0,"Distance":58.0,"MatchLevel":"houseNumber","MatchQuality":{"Country":1.0,"State":1.0,"County":1.0,"City":1.0,"District":1.0,"Street":[1.0],"HouseNumber":1.0,"PostalCode":1.0},"MatchType":"interpolated","Location":{"LocationId":"NT_Z-MqiIXjGia52DHcDYQR.D_l_26296346_R_zA","LocationType":"point","DisplayPosition":{"Latitude":52.9132377,"Longitude":-1.2377331},"MapView":{"TopLeft":{"Latitude":52.9143619,"Longitude":-1.2395973},"BottomRight":{"Latitude":52.9121136,"Longitude":-1.235869}},"Address":{"Label":"3 Attenborough Lane, Nottingham, NG9 5JN, United Kingdom","Country":"GBR","State":"England","County":"Nottinghamshire","City":"Nottingham","District":"Beeston","Street":"Attenborough Lane","HouseNumber":"3","PostalCode":"NG9 5JN","AdditionalData":[{"value":"United Kingdom","key":"CountryName"},{"value":"England","key":"StateName"},{"value":"Nottinghamshire","key":"CountyName"}]},"MapReference":{"ReferenceId":"26296346","Spot":0.61,"SideOfStreet":"right","StateId":"20248595","CountyId":"20344764","CityId":"20356833","DistrictId":"20356845"}}},{"Relevance":1.0,"Distance":60.8,"MatchLevel":"houseNumber","MatchQuality":{"Country":1.0,"State":1.0,"County":1.0,"City":1.0,"District":1.0,"Street":[1.0],"HouseNumber":1.0,"PostalCode":1.0},"MatchType":"interpolated","Location":{"LocationId":"NT_dMMM5P28ZGMNpa9idh0cfC_l_26296179_L_4ID","LocationType":"point","DisplayPosition":{"Latitude":52.9142501,"Longitude":-1.2363901},"MapView":{"TopLeft":{"Latitude":52.9153742,"Longitude":-1.2382543},"BottomRight":{"Latitude":52.9131259,"Longitude":-1.2345258}},"Address":{"Label":"82 Redland Drive, Nottingham, NG9 5LE, United Kingdom","Country":"GBR","State":"England","County":"Nottinghamshire","City":"Nottingham","District":"Beeston","Street":"Redland Drive","HouseNumber":"82","PostalCode":"NG9 5LE","AdditionalData":[{"value":"United Kingdom","key":"CountryName"},{"value":"England","key":"StateName"},{"value":"Nottinghamshire","key":"CountyName"}]},"MapReference":{"ReferenceId":"26296179","Spot":0.12,"SideOfStreet":"left","StateId":"20248595","CountyId":"20344764","CityId":"20356833","DistrictId":"20356845"}}},{"Relevance":1.0,"Distance":64.6,"MatchLevel":"postalCode","MatchQuality":{"PostalCode":1.0},"MatchType":"interpolated","Location":{"LocationId":"NT_Z-MqiIXjGia52DHcDYQR.D_l_26296346_R_zA","LocationType":"point","DisplayPosition":{"Latitude":52.9132,"Longitude":-1.23625},"MapView":{"TopLeft":{"Latitude":52.9221932,"Longitude":-1.2511635},"BottomRight":{"Latitude":52.9042068,"Longitude":-1.2213365}},"Address":{"Label":"NG9 5JN, Nottingham, England, United Kingdom","Country":"GBR","State":"England","County":"Nottinghamshire","City":"Nottingham","PostalCode":"NG9 5JN","AdditionalData":[{"value":"United Kingdom","key":"CountryName"},{"value":"England","key":"StateName"},{"value":"Nottinghamshire","key":"CountyName"}]},"MapReference":{"ReferenceId":"26296346","Spot":0.61,"SideOfStreet":"neither","StateId":"20248595","CountyId":"20344764","CityId":"20356833"}}},{"Relevance":1.0,"Distance":71.4,"MatchLevel":"houseNumber","MatchQuality":{"Country":1.0,"State":1.0,"County":1.0,"City":1.0,"District":1.0,"Street":[1.0],"HouseNumber":1.0,"PostalCode":1.0},"MatchType":"interpolated","Location":{"LocationId":"NT_yv8wEoAyt3Fz1A8bdXKgCA_l_26296178_R_0IzN","LocationType":"point","DisplayPosition":{"Latitude":52.9142,"Longitude":-1.23611},"MapView":{"TopLeft":{"Latitude":52.9153242,"Longitude":-1.2379742},"BottomRight":{"Latitude":52.9130759,"Longitude":-1.2342457}},"Address":{"Label":"427 High Road, Nottingham, NG9 5EA, United Kingdom","Country":"GBR","State":"England","County":"Nottinghamshire","City":"Nottingham","District":"Beeston","Street":"High Road","HouseNumber":"427","PostalCode":"NG9 5EA","AdditionalData":[{"value":"United Kingdom","key":"CountryName"},{"value":"England","key":"StateName"},{"value":"Nottinghamshire","key":"CountyName"}]},"MapReference":{"ReferenceId":"26296178","Spot":0.45,"SideOfStreet":"right","StateId":"20248595","CountyId":"20344764","CityId":"20356833","DistrictId":"20356845"}}}]}]}}