{"Response":{"MetaInfo":{"Timestamp":"2020-03-28T11:17:54.287+0000","NextPageInformation":"2"},"View":[{"_type":"SearchResultsViewType","ViewId":0,"Result":[{"Relevance":1.0,"Distance":-63.7,"MatchLevel":"landmark","MatchQuality":{"Country":1.0,"State":1.0,"County":1.0,"City":1.0,"District":1.0,"Street":[1.0],"PostalCode":1.0,"Name":1.0},"Location":{"LocationId":"NT_AdBRHtSq7YVIZJrCrM.WZA_p_OdIVMQ-6RSGNsgxRvuhOID","LocationType":"hospital","Name":"Queens Medical Centre","DisplayPosition":{"Latitude":52.94436,"Longitude":-1.18646},"MapView":{"TopLeft":{"Latitude":52.94704,"Longitude":-1.18983},"BottomRight":{"Latitude":52.94068,"Longitude":-1.18047}},"Address":{"Label":"North Road No 1, Nottingham, NG7 2, United Kingdom","Country":"GBR","State":"England","County":"Nottinghamshire","City":"Nottingham","District":"Lenton","Street":"North Road No 1","PostalCode":"NG7 2","AdditionalData":[{"value":"United Kingdom","key":"CountryName"},{"value":"England","key":"StateName"},{"value":"Nottinghamshire","key":"CountyName"}]},"MapReference":{"StateId":"20248595","CountyId":"20344764","CityId":"20356833","DistrictId":"20356906","PlaceId":"66194511"}}},{"Relevance":1.0,"Distance":0.0,"Direction":0.0,"MatchLevel":"district","MatchQuality":{"Country":1.0,"State":1.0,"County":1.0,"City":1.0,"District":1.0,"PostalCode":1.0},"Location":{"LocationId":"NT_yR4RVTawIczcsYKdLV7XOA","LocationType":"point","DisplayPosition":{"Latitude":52.9419925,"Longitude":-1.1819771},"MapView":{"TopLeft":{"Latitude":52.95616,"Longitude":-1.21199},"BottomRight":{"Latitude":52.9314,"Longitude":-1.15362}},"Address":{"Label":"Lenton, Nottingham, England, United Kingdom","Country":"GBR","State":"England","County":"Nottinghamshire","City":"Nottingham","District":"Lenton","PostalCode":"NG7 2","AdditionalData":[{"value":"United Kingdom","key":"CountryName"},{"value":"England","key":"StateName"},{"value":"Nottinghamshire","key":"CountyName"}]},"MapReference":{"ReferenceId":"26291773","SideOfStreet":"neither","StateId":"20248595","CountyId":"20344764","CityId":"20356833","DistrictId":"20356906"}}},{"Relevance":1.0,"Distance":16.4,"MatchLevel":"street","MatchQuality":{"Country":1.0,"State":1.0,"County":1.0,"City":1.0,"District":1.0,"PostalCode":1.0},"Location":{"LocationId":"NT_kf-9YskIJz8s2RuCLddm0B_l_1022484638_L","LocationType":"point","DisplayPosition":{"Latitude":52.9418449,"Longitude":-1.1819702},"MapView":{"TopLeft":{"Latitude":52.94188,"Longitude":-1.18229},"BottomRight":{"Latitude":52.94183,"Longitude":-1.18122}},"Address":{"Label":"Nottingham, NG7 2, United Kingdom","Country":"GBR","State":"England","County":"Nottinghamshire","City":"Nottingham","District":"Lenton","PostalCode":"NG7 2","AdditionalData":[{"value":"United Kingdom","key":"CountryName"},{"value":"England","key":"StateName"},{"value":"Nottinghamshire","key":"CountyName"}]},"MapReference":{"ReferenceId":"1022484638","Spot":0.3,"SideOfStreet":"left","StateId":"20248595","CountyId":"20344764","CityId":"20356833","DistrictId":"20356906"}}},{"Relevance":1.0,"Distance":50.9,"MatchLevel":"street","MatchQuality":{"Country":1.0,"State":1.0,"County":1.0,"City":1.0,"District":1.0,"Street":[1.0],"PostalCode":1.0},"Location":{"LocationId":"NT_Xi1znt.sKCESzyKsiwScAA_l_1022484637_L","LocationType":"point","DisplayPosition":{"Latitude":52.9424317,"Longitude":-1.1817633},"MapView":{"TopLeft":{"Latitude":52.94307,"Longitude":-1.18289},"BottomRight":{"Latitude":52.94188,"Longitude":-1.18121}},"Address":{"Label":"Lister Road, Nottingham, NG7 2, United Kingdom","Country":"GBR","State":"England","County":"Nottinghamshire","City":"Nottingham","District":"Lenton","Street":"Lister Road","PostalCode":"NG7 2","AdditionalData":[{"value":"United Kingdom","key":"CountryName"},{"value":"England","key":"StateName"},{"value":"Nottinghamshire","key":"CountyName"}]},"MapReference":{"ReferenceId":"1022484637","Spot":0.4,"SideOfStreet":"left","StateId":"20248595","CountyId":"20344764","CityId":"20356833","DistrictId":"20356906"}}},{"Relevance":1.0,"Distance":52.3,"MatchLevel":"street","MatchQuality":{"Country":1.0,"State":1.0,"County":1.0,"City":1.0,"District":1.0,"Street":[1.0],"PostalCode":1.0},"Location":{"LocationId":"NT_Xi1znt.sKCESzyKsiwScAA_l_1033278058_L","LocationType":"point","DisplayPosition":{"Latitude":52.94188,"Longitude":-1.18122},"MapView":{"TopLeft":{"Latitude":52.94188,"Longitude":-1.18122},"BottomRight":{"Latitude":52.94171,"Longitude":-1.18122}},"Address":{"Label":"Lister Road, Nottingham, NG7 2, United Kingdom","Country":"GBR","State":"England","County":"Nottinghamshire","City":"Nottingham","District":"Lenton","Street":"Lister Road","PostalCode":"NG7 2","AdditionalData":[{"value":"United Kingdom","key":"CountryName"},{"value":"England","key":"StateName"},{"value":"Nottinghamshire","key":"CountyName"}]},"MapReference":{"ReferenceId":"1033278058","Spot":1.0,"SideOfStreet":"left","StateId":"20248595","CountyId":"20344764","CityId":"20356833","DistrictId":"20356906"}}},{"Relevance":1.0,"Distance":59.7,"MatchLevel":"street","MatchQuality":{"Country":1.0,"State":1.0,"County":1.0,"City":1.0,"District":1.0,"Street":[1.0],"PostalCode":1.0},"Location":{"LocationId":"NT_Xi1znt.sKCESzyKsiwScAA_l_1033278057_R","LocationType":"point","DisplayPosition":{"Latitude":52.94171,"Longitude":-1.18122},"MapView":{"TopLeft":{"Latitude":52.94171,"Longitude":-1.18122},"BottomRight":{"Latitude":52.94158,"Longitude":-1.18078}},"Address":{"Label":"Lister Road, Nottingham, NG7 2, United Kingdom","Country":"GBR","State":"England","County":"Nottinghamshire","City":"Nottingham","District":"Lenton","Street":"Lister Road","PostalCode":"NG7 2","AdditionalData":[{"value":"United Kingdom","key":"CountryName"},{"value":"England","key":"StateName"},{"value":"Nottinghamshire","key":"CountyName"}]},"MapReference":{"ReferenceId":"1033278057","Spot":1.0,"SideOfStreet":"right","StateId":"20248595","CountyId":"20344764","CityId":"20356833","DistrictId":"20356906"}}},{"Relevance":1.0,"Distance":61.5,"MatchLevel":"postalCode","MatchQuality":{"PostalCode":1.0},"Location":{"LocationId":"NT_Xi1znt.sKCESzyKsiwScAA_l_1022484637_L","LocationType":"point","DisplayPosition":{"Latitude":52.94254,"Longitude":-1.18211},"MapView":{"TopLeft":{"Latitude":52.9515332,"Longitude":-1.1970336},"BottomRight":{"Latitude":52.9335468,"Longitude":-1.1671864}},"Address":{"Label":"NG7 2FT, Nottingham, England, United Kingdom","Country":"GBR","State":"England","County":"Nottinghamshire","City":"Nottingham","PostalCode":"NG7 2FT","AdditionalData":[{"value":"United Kingdom","key":"CountryName"},{"value":"England","key":"StateName"},{"value":"Nottinghamshire","key":"CountyName"}]},"MapReference":{"ReferenceId":"1022484637","Spot":0.4,"SideOfStreet":"neither","StateId":"20248595","CountyId":"20344764","CityId":"20356833"}}},{"Relevance":1.0,"Distance":63.8,"MatchLevel":"landmark","MatchQuality":{"Country":1.0,"State":1.0,"County":1.0,"City":1.0,"PostalCode":1.0,"Name":1.0},"Location":{"LocationId":"NT_CLpyv8-bUNDgRAuM0m-SgA","LocationType":"river","Name":"River Leen","DisplayPosition":{"Latitude":52.98036,"Longitude":-1.17775},"MapView":{"TopLeft":{"Latitude":53.01882,"Longitude":-1.19673},"BottomRight":{"Latitude":52.94189,"Longitude":-1.17562}},"Address":{"Label":"Nottingham, NG1 7, United Kingdom","Country":"GBR","State":"England","County":"Nottinghamshire","City":"Nottingham","PostalCode":"NG1 7","AdditionalData":[{"value":"United Kingdom","key":"CountryName"},{"value":"England","key":"StateName"},{"value":"Nottinghamshire","key":"CountyName"}]},"MapReference":{"StateId":"20248595","CountyId":"20344764","CityId":"20356833","PlaceId":"1466152405"}}},{"Relevance":1.0,"Distance":64.4,"MatchLevel":"street","MatchQuality":{"Country":1.0,"State":1.0,"County":1.0,"City":1.0,"District":1.0,"Street":[1.0],"PostalCode":1.0},"Location":{"LocationId":"NT_JehceyzWYewDo4m.df285C_l_1033278056_L","LocationType":"point","DisplayPosition":{"Latitude":52.94157,"Longitude":-1.18132},"MapView":{"TopLeft":{"Latitude":52.94171,"Longitude":-1.18132},"BottomRight":{"Latitude":52.94157,"Longitude":-1.18122}},"Address":{"Label":"Harvey Road, Nottingham, NG7 2, United Kingdom","Country":"GBR","State":"England","County":"Nottinghamshire","City":"Nottingham","District":"Lenton","Street":"Harvey Road","PostalCode":"NG7 2","AdditionalData":[{"value":"United Kingdom","key":"CountryName"},{"value":"England","key":"StateName"},{"value":"Nottinghamshire","key":"CountyName"}]},"MapReference":{"ReferenceId":"1033278056","Spot":0.0,"SideOfStreet":"left","StateId":"20248595","CountyId":"20344764","CityId":"20356833","DistrictId":"20356906"}}},{"Relevance":1.0,"Distance":78.6,"MatchLevel":"street","MatchQuality":{"Country":1.0,"State":1.0,"County":1.0,"City":1.0,"District":1.0,"PostalCode":1.0},"Location":{"LocationId":"NT_kf-9YskIJz8s2RuCLddm0B_l_1221670538_L","LocationType":"point","DisplayPosition":{"Latitude":52.9426693,"Longitude":-1.1816387},"MapView":{"TopLeft":{"Latitude":52.94457,"Longitude":-1.18313},"BottomRight":{"Latitude":52.94209,"Longitude":-1.18054}},"Address":{"Label":"Nottingham, NG7 2, United Kingdom","Country":"GBR","State":"England","County":"Nottinghamshire","City":"Nottingham","District":"Lenton","PostalCode":"NG7 2","AdditionalData":[{"value":"United Kingdom","key":"CountryName"},{"value":"England","key":"StateName"},{"value":"Nottinghamshire","key":"CountyName"}]},"MapReference":{"ReferenceId":"1221670538","Spot":0.37,"SideOfStreet":"left","StateId":"20248595","CountyId":"20344764","CityId":"20356833","DistrictId":"20356906"}}}]}]}}