{"Response":{"MetaInfo":{"Timestamp":"2020-03-28T10:20:19.801+0000","NextPageInformation":"2"},"View":[{"_type":"SearchResultsViewType","ViewId":0,"Result":[{"Relevance":1.0,"Distance":0.0,"Direction":0.0,"MatchLevel":"district","MatchQuality":{"Country":1.0,"State":1.0,"County":1.0,"City":1.0,"District":1.0,"PostalCode":1.0},"Location":{"LocationId":"NT_ebj2xh14NKqZt..uI5hQlB","LocationType":"point","DisplayPosition":{"Latitude":52.9236856,"Longitude":11.1233652},"MapView":{"TopLeft":{"Latitude":52.93005,"Longitude":11.11125},"BottomRight":{"Latitude":52.91815,"Longitude":11.1363}},"Address":{"Label":"Wustrow (Wendland), Niedersachsen, Deutschland","Country":"DEU","State":"Niedersachsen","County":"Lüchow-Dannenberg","City":"Wustrow (Wendland)","District":"Wustrow (Wendland)","PostalCode":"29462","AdditionalData":[{"value":"Deutschland","key":"CountryName"},{"value":"Niedersachsen","key":"StateName"},{"value":"Lüchow-Dannenberg","key":"CountyName"}]},"MapReference":{"ReferenceId":"79920625","SideOfStreet":"neither","CountryId":"20147700","StateId":"20151542","CountyId":"20154607","CityId":"20154739","DistrictId":"20154742"}}},{"Relevance":1.0,"Distance":5.8,"MatchLevel":"houseNumber","MatchQuality":{"Country":1.0,"State":1.0,"County":1.0,"City":1.0,"District":1.0,"Street":[1.0],"HouseNumber":1.0,"PostalCode":1.0},"MatchType":"interpolated","Location":{"LocationId":"NT_5EiIFfegj.39j6ObBKbDKD_0A","LocationType":"point","DisplayPosition":{"Latitude":52.92376,"Longitude":11.1233},"MapView":{"TopLeft":{"Latitude":52.9248842,"Longitude":11.1214354},"BottomRight":{"Latitude":52.9226358,"Longitude":11.1251646}},"Address":{"Label":"Marschstraße 4, 29462 Wustrow (Wendland), Deutschland","Country":"DEU","State":"Niedersachsen","County":"Lüchow-Dannenberg","City":"Wustrow (Wendland)","District":"Wustrow (Wendland)","Street":"Marschstraße","HouseNumber":"4","PostalCode":"29462","AdditionalData":[{"value":"Deutschland","key":"CountryName"},{"value":"Niedersachsen","key":"StateName"},{"value":"Lüchow-Dannenberg","key":"CountyName"}]},"MapReference":{"ReferenceId":"539222924","Spot":0.24,"SideOfStreet":"right","CountryId":"20147700","StateId":"20151542","CountyId":"20154607","CityId":"20154739","DistrictId":"20154742","AddressId":"177669179","RoadLinkId":"37208160"}}},{"Relevance":1.0,"Distance":31.6,"MatchLevel":"houseNumber","MatchQuality":{"Country":1.0,"State":1.0,"County":1.0,"City":1.0,"District":1.0,"Street":[1.0],"HouseNumber":1.0,"PostalCode":1.0},"MatchType":"interpolated","Location":{"LocationId":"NT_A7Ybde.Tk97F8ZJ-sooMaA_yA","LocationType":"point","DisplayPosition":{"Latitude":52.92369,"Longitude":11.12281},"MapView":{"TopLeft":{"Latitude":52.9248142,"Longitude":11.1209454},"BottomRight":{"Latitude":52.9225658,"Longitude":11.1246746}},"Address":{"Label":"Veilchenstraße 2, 29462 Wustrow (Wendland), Deutschland","Country":"DEU","State":"Niedersachsen","County":"Lüchow-Dannenberg","City":"Wustrow (Wendland)","District":"Wustrow (Wendland)","Street":"Veilchenstraße","HouseNumber":"2","PostalCode":"29462","AdditionalData":[{"value":"Deutschland","key":"CountryName"},{"value":"Niedersachsen","key":"StateName"},{"value":"Lüchow-Dannenberg","key":"CountyName"}]},"MapReference":{"ReferenceId":"539222926","Spot":0.28,"SideOfStreet":"right","CountryId":"20147700","StateId":"20151542","CountyId":"20154607","CityId":"20154739","DistrictId":"20154742","AddressId":"180650385","RoadLinkId":"36719112"}}},{"Relevance":1.0,"Distance":33.5,"MatchLevel":"houseNumber","MatchQuality":{"Country":1.0,"State":1.0,"County":1.0,"City":1.0,"District":1.0,"Street":[1.0],"HouseNumber":1.0,"PostalCode":1.0},"MatchType":"interpolated","Location":{"LocationId":"NT_5EiIFfegj.39j6ObBKbDKD_xkD","LocationType":"point","DisplayPosition":{"Latitude":52.92348,"Longitude":11.123},"MapView":{"TopLeft":{"Latitude":52.9246042,"Longitude":11.1211354},"BottomRight":{"Latitude":52.9223558,"Longitude":11.1248646}},"Address":{"Label":"Marschstraße 19, 29462 Wustrow (Wendland), Deutschland","Country":"DEU","State":"Niedersachsen","County":"Lüchow-Dannenberg","City":"Wustrow (Wendland)","District":"Wustrow (Wendland)","Street":"Marschstraße","HouseNumber":"19","PostalCode":"29462","AdditionalData":[{"value":"Deutschland","key":"CountryName"},{"value":"Niedersachsen","key":"StateName"},{"value":"Lüchow-Dannenberg","key":"CountyName"}]},"MapReference":{"ReferenceId":"539222925","Spot":0.67,"SideOfStreet":"left","CountryId":"20147700","StateId":"20151542","CountyId":"20154607","CityId":"20154739","DistrictId":"20154742","AddressId":"181705052","RoadLinkId":"36871815"}}},{"Relevance":1.0,"Distance":42.9,"MatchLevel":"houseNumber","MatchQuality":{"Country":1.0,"State":1.0,"County":1.0,"City":1.0,"District":1.0,"Street":[1.0],"HouseNumber":1.0,"PostalCode":1.0},"MatchType":"interpolated","Location":{"LocationId":"NT_ErdUYSm9xiuQ8HoRh6.7BD_yMD","LocationType":"point","DisplayPosition":{"Latitude":52.92326,"Longitude":11.12301},"MapView":{"TopLeft":{"Latitude":52.9243842,"Longitude":11.1211454},"BottomRight":{"Latitude":52.9221358,"Longitude":11.1248746}},"Address":{"Label":"Bahnhofstraße 23, 29462 Wustrow (Wendland), Deutschland","Country":"DEU","State":"Niedersachsen","County":"Lüchow-Dannenberg","City":"Wustrow (Wendland)","District":"Wustrow (Wendland)","Street":"Bahnhofstraße","HouseNumber":"23","PostalCode":"29462","AdditionalData":[{"value":"Deutschland","key":"CountryName"},{"value":"Niedersachsen","key":"StateName"},{"value":"Lüchow-Dannenberg","key":"CountyName"}]},"MapReference":{"ReferenceId":"79920616","Spot":0.92,"SideOfStreet":"right","CountryId":"20147700","StateId":"20151542","CountyId":"20154607","CityId":"20154739","DistrictId":"20154742","AddressId":"181537669","RoadLinkId":"36308074"}}},{"Relevance":1.0,"Distance":55.2,"MatchLevel":"street","MatchQuality":{"Country":1.0,"State":1.0,"County":1.0,"City":1.0,"District":1.0,"Street":[1.0],"PostalCode":1.0},"Location":{"LocationId":"NT_cynczSlQVs16A1ZeX2XjrD_l_586495441_R","LocationType":"point","DisplayPosition":{"Latitude":52.92333,"Longitude":11.12279},"MapView":{"TopLeft":{"Latitude":52.92333,"Longitude":11.12208},"BottomRight":{"Latitude":52.92207,"Longitude":11.12344}},"Address":{"Label":"Arendseer Weg, 29462 Wustrow (Wendland), Deutschland","Country":"DEU","State":"Niedersachsen","County":"Lüchow-Dannenberg","City":"Wustrow (Wendland)","District":"Wustrow (Wendland)","Street":"Arendseer Weg","PostalCode":"29462","AdditionalData":[{"value":"Deutschland","key":"CountryName"},{"value":"Niedersachsen","key":"StateName"},{"value":"Lüchow-Dannenberg","key":"CountyName"}]},"MapReference":{"ReferenceId":"586495441","Spot":1.0,"SideOfStreet":"right","CountryId":"20147700","StateId":"20151542","CountyId":"20154607","CityId":"20154739","DistrictId":"20154742"}}},{"Relevance":1.0,"Distance":60.3,"MatchLevel":"houseNumber","MatchQuality":{"Country":1.0,"State":1.0,"County":1.0,"City":1.0,"District":1.0,"Street":[1.0],"HouseNumber":1.0,"PostalCode":1.0},"MatchType":"interpolated","Location":{"LocationId":"NT_ErdUYSm9xiuQ8HoRh6.7BD_xkD","LocationType":"point","DisplayPosition":{"Latitude":52.92343,"Longitude":11.1225},"MapView":{"TopLeft":{"Latitude":52.9245542,"Longitude":11.1206354},"BottomRight":{"Latitude":52.9223058,"Longitude":11.1243646}},"Address":{"Label":"Bahnhofstraße 19, 29462 Wustrow (Wendland), Deutschland","Country":"DEU","State":"Niedersachsen","County":"Lüchow-Dannenberg","City":"Wustrow (Wendland)","District":"Wustrow (Wendland)","Street":"Bahnhofstraße","HouseNumber":"19","PostalCode":"29462","AdditionalData":[{"value":"Deutschland","key":"CountryName"},{"value":"Niedersachsen","key":"StateName"},{"value":"Lüchow-Dannenberg","key":"CountyName"}]},"MapReference":{"ReferenceId":"841566728","Spot":0.14,"SideOfStreet":"right","CountryId":"20147700","StateId":"20151542","CountyId":"20154607","CityId":"20154739","DistrictId":"20154742","AddressId":"181106408","RoadLinkId":"223394101"}}},{"Relevance":1.0,"Distance":86.9,"MatchLevel":"houseNumber","MatchQuality":{"Country":1.0,"State":1.0,"County":1.0,"City":1.0,"District":1.0,"Street":[1.0],"HouseNumber":1.0,"PostalCode":1.0},"MatchType":"interpolated","Location":{"LocationId":"NT_PsVLdZ1Hio4GLOLGSBL7LB_zA","LocationType":"point","DisplayPosition":{"Latitude":52.92443,"Longitude":11.12262},"MapView":{"TopLeft":{"Latitude":52.9255542,"Longitude":11.1207553},"BottomRight":{"Latitude":52.9233058,"Longitude":11.1244847}},"Address":{"Label":"Jeetzelgärten 3, 29462 Wustrow (Wendland), Deutschland","Country":"DEU","State":"Niedersachsen","County":"Lüchow-Dannenberg","City":"Wustrow (Wendland)","District":"Wustrow (Wendland)","Street":"Jeetzelgärten","HouseNumber":"3","PostalCode":"29462","AdditionalData":[{"value":"Deutschland","key":"CountryName"},{"value":"Niedersachsen","key":"StateName"},{"value":"Lüchow-Dannenberg","key":"CountyName"}]},"MapReference":{"ReferenceId":"79918654","Spot":0.44,"SideOfStreet":"right","CountryId":"20147700","StateId":"20151542","CountyId":"20154607","CityId":"20154739","DistrictId":"20154742","AddressId":"177204691","RoadLinkId":"36454944"}}},{"Relevance":1.0,"Distance":89.9,"MatchLevel":"street","MatchQuality":{"Country":1.0,"State":1.0,"County":1.0,"City":1.0,"District":1.0,"Street":[1.0],"PostalCode":1.0},"Location":{"LocationId":"NT_PsVLdZ1Hio4GLOLGSBL7LB_l_79918672_L","LocationType":"point","DisplayPosition":{"Latitude":52.9244822,"Longitude":11.1235939},"MapView":{"TopLeft":{"Latitude":52.92469,"Longitude":11.12287},"BottomRight":{"Latitude":52.92438,"Longitude":11.12395}},"Address":{"Label":"Jeetzelgärten, 29462 Wustrow (Wendland), Deutschland","Country":"DEU","State":"Niedersachsen","County":"Lüchow-Dannenberg","City":"Wustrow (Wendland)","District":"Wustrow (Wendland)","Street":"Jeetzelgärten","PostalCode":"29462","AdditionalData":[{"value":"Deutschland","key":"CountryName"},{"value":"Niedersachsen","key":"StateName"},{"value":"Lüchow-Dannenberg","key":"CountyName"}]},"MapReference":{"ReferenceId":"79918672","Spot":0.33,"SideOfStreet":"left","CountryId":"20147700","StateId":"20151542","CountyId":"20154607","CityId":"20154739","DistrictId":"20154742"}}},{"Relevance":1.0,"Distance":102.5,"MatchLevel":"houseNumber","MatchQuality":{"Country":1.0,"State":1.0,"County":1.0,"City":1.0,"District":1.0,"Street":[1.0],"HouseNumber":1.0,"PostalCode":1.0},"MatchType":"interpolated","Location":{"LocationId":"NT_5EiIFfegj.39j6ObBKbDKD_xYD","LocationType":"point","DisplayPosition":{"Latitude":52.92451,"Longitude":11.12405},"MapView":{"TopLeft":{"Latitude":52.9256342,"Longitude":11.1221853},"BottomRight":{"Latitude":52.9233858,"Longitude":11.1259147}},"Address":{"Label":"Marschstraße 16, 29462 Wustrow (Wendland), Deutschland","Country":"DEU","State":"Niedersachsen","County":"Lüchow-Dannenberg","City":"Wustrow (Wendland)","District":"Wustrow (Wendland)","Street":"Marschstraße","HouseNumber":"16","PostalCode":"29462","AdditionalData":[{"value":"Deutschland","key":"CountryName"},{"value":"Niedersachsen","key":"StateName"},{"value":"Lüchow-Dannenberg","key":"CountyName"}]},"MapReference":{"ReferenceId":"79918670","Spot":0.11,"SideOfStreet":"right","CountryId":"20147700","StateId":"20151542","CountyId":"20154607","CityId":"20154739","DistrictId":"20154742","AddressId":"180973594","RoadLinkId":"37113521"}}}]}]}}