{"Response":{"MetaInfo":{"Timestamp":"2020-03-28T10:36:48.421+0000","NextPageInformation":"2"},"View":[{"_type":"SearchResultsViewType","ViewId":0,"Result":[{"Relevance":1.0,"Distance":0.0,"Direction":0.0,"MatchLevel":"district","MatchQuality":{"Country":1.0,"State":1.0,"County":1.0,"City":1.0,"District":1.0,"PostalCode":1.0},"Location":{"LocationId":"NT_H1QQmahQxDpcc5c07-reqA","LocationType":"point","DisplayPosition":{"Latitude":52.9289903,"Longitude":-4.133139},"MapView":{"TopLeft":{"Latitude":52.93488,"Longitude":-4.14772},"BottomRight":{"Latitude":52.91316,"Longitude":-4.11903}},"Address":{"Label":"Porthmadog, Wales, United Kingdom","Country":"GBR","State":"Wales","County":"Gwynedd","City":"Porthmadog","District":"Porthmadog","PostalCode":"LL49 9","AdditionalData":[{"value":"United Kingdom","key":"CountryName"},{"value":"Wales","key":"StateName"},{"value":"Gwynedd","key":"CountyName"}]},"MapReference":{"ReferenceId":"17496025","SideOfStreet":"neither","StateId":"20287683","CountyId":"20341884","CityId":"20342204","DistrictId":"20342205"}}},{"Relevance":1.0,"Distance":38.6,"MatchLevel":"postalCode","MatchQuality":{"PostalCode":1.0},"Location":{"LocationId":"NT_pw.drVyAtM8K0k3.DrSD3D_l_909307607_R","LocationType":"point","DisplayPosition":{"Latitude":52.92889,"Longitude":-4.13369},"MapView":{"TopLeft":{"Latitude":52.9378832,"Longitude":-4.1486089},"BottomRight":{"Latitude":52.9198968,"Longitude":-4.1187711}},"Address":{"Label":"LL49 9HD, Porthmadog, Wales, United Kingdom","Country":"GBR","State":"Wales","County":"Gwynedd","City":"Porthmadog","PostalCode":"LL49 9HD","AdditionalData":[{"value":"United Kingdom","key":"CountryName"},{"value":"Wales","key":"StateName"},{"value":"Gwynedd","key":"CountyName"}]},"MapReference":{"ReferenceId":"909307607","Spot":0.34,"SideOfStreet":"neither","StateId":"20287683","CountyId":"20341884","CityId":"20342204"}}},{"Relevance":1.0,"Distance":38.8,"MatchLevel":"houseNumber","MatchQuality":{"Country":1.0,"State":1.0,"County":1.0,"City":1.0,"District":1.0,"Street":[1.0],"HouseNumber":1.0,"PostalCode":1.0},"MatchType":"interpolated","Location":{"LocationId":"NT_FWBFzI2x.kcXKg0gjRyCGC_l_852814958_L_xED","LocationType":"point","DisplayPosition":{"Latitude":52.9291601,"Longitude":-4.13239},"MapView":{"TopLeft":{"Latitude":52.9302842,"Longitude":-4.1342549},"BottomRight":{"Latitude":52.9280359,"Longitude":-4.1305252}},"Address":{"Label":"11 East Avenue, Porthmadog, LL49 9, United Kingdom","Country":"GBR","State":"Wales","County":"Gwynedd","City":"Porthmadog","District":"Porthmadog","Street":"East Avenue","HouseNumber":"11","PostalCode":"LL49 9","AdditionalData":[{"value":"United Kingdom","key":"CountryName"},{"value":"Wales","key":"StateName"},{"value":"Gwynedd","key":"CountyName"}]},"MapReference":{"ReferenceId":"852814958","Spot":0.18,"SideOfStreet":"left","StateId":"20287683","CountyId":"20341884","CityId":"20342204","DistrictId":"20342205"}}},{"Relevance":1.0,"Distance":42.4,"MatchLevel":"street","MatchQuality":{"Country":1.0,"State":1.0,"County":1.0,"City":1.0,"District":1.0,"Street":[1.0],"PostalCode":1.0},"Location":{"LocationId":"NT_k9g1DQT9WGpFLyqkcLGFAD_l_813208500_R","LocationType":"point","DisplayPosition":{"Latitude":52.92896,"Longitude":-4.13377},"MapView":{"TopLeft":{"Latitude":52.92957,"Longitude":-4.13389},"BottomRight":{"Latitude":52.92896,"Longitude":-4.13377}},"Address":{"Label":"High Street, Porthmadog, LL49 9, United Kingdom","Country":"GBR","State":"Wales","County":"Gwynedd","City":"Porthmadog","District":"Porthmadog","Street":"High Street","PostalCode":"LL49 9","AdditionalData":[{"value":"United Kingdom","key":"CountryName"},{"value":"Wales","key":"StateName"},{"value":"Gwynedd","key":"CountyName"}]},"MapReference":{"ReferenceId":"813208500","Spot":0.0,"SideOfStreet":"right","StateId":"20287683","CountyId":"20341884","CityId":"20342204","DistrictId":"20342205"}}},{"Relevance":1.0,"Distance":43.5,"MatchLevel":"street","MatchQuality":{"Country":1.0,"State":1.0,"County":1.0,"City":1.0,"District":1.0,"Street":[1.0],"PostalCode":1.0},"Location":{"LocationId":"NT_pw.drVyAtM8K0k3.DrSD3D_l_909307607_R","LocationType":"point","DisplayPosition":{"Latitude":52.928848,"Longitude":-4.1337437},"MapView":{"TopLeft":{"Latitude":52.92896,"Longitude":-4.13377},"BottomRight":{"Latitude":52.92879,"Longitude":-4.13373}},"Address":{"Label":"High Street, Porthmadog, LL49 9, United Kingdom","Country":"GBR","State":"Wales","County":"Gwynedd","City":"Porthmadog","District":"Porthmadog","Street":"High Street","PostalCode":"LL49 9","AdditionalData":[{"value":"United Kingdom","key":"CountryName"},{"value":"Wales","key":"StateName"},{"value":"Gwynedd","key":"CountyName"}]},"MapReference":{"ReferenceId":"909307607","Spot":0.34,"SideOfStreet":"right","StateId":"20287683","CountyId":"20341884","CityId":"20342204","DistrictId":"20342205"}}},{"Relevance":1.0,"Distance":45.4,"MatchLevel":"street","MatchQuality":{"Country":1.0,"State":1.0,"County":1.0,"City":1.0,"District":1.0,"Street":[1.0],"PostalCode":1.0},"Location":{"LocationId":"NT_k9g1DQT9WGpFLyqkcLGFAD_l_909307606_R","LocationType":"point","DisplayPosition":{"Latitude":52.92879,"Longitude":-4.13373},"MapView":{"TopLeft":{"Latitude":52.92879,"Longitude":-4.13373},"BottomRight":{"Latitude":52.92852,"Longitude":-4.13367}},"Address":{"Label":"High Street, Porthmadog, LL49 9, United Kingdom","Country":"GBR","State":"Wales","County":"Gwynedd","City":"Porthmadog","District":"Porthmadog","Street":"High Street","PostalCode":"LL49 9","AdditionalData":[{"value":"United Kingdom","key":"CountryName"},{"value":"Wales","key":"StateName"},{"value":"Gwynedd","key":"CountyName"}]},"MapReference":{"ReferenceId":"909307606","Spot":1.0,"SideOfStreet":"right","StateId":"20287683","CountyId":"20341884","CityId":"20342204","DistrictId":"20342205"}}},{"Relevance":1.0,"Distance":45.4,"MatchLevel":"street","MatchQuality":{"Country":1.0,"State":1.0,"County":1.0,"City":1.0,"District":1.0,"PostalCode":1.0},"Location":{"LocationId":"NT_wUm4ZHD1kzlXtO5J4lWeFA_l_909307605_L","LocationType":"point","DisplayPosition":{"Latitude":52.92879,"Longitude":-4.13373},"MapView":{"TopLeft":{"Latitude":52.92879,"Longitude":-4.13449},"BottomRight":{"Latitude":52.92872,"Longitude":-4.13373}},"Address":{"Label":"Porthmadog, LL49 9, United Kingdom","Country":"GBR","State":"Wales","County":"Gwynedd","City":"Porthmadog","District":"Porthmadog","PostalCode":"LL49 9","AdditionalData":[{"value":"United Kingdom","key":"CountryName"},{"value":"Wales","key":"StateName"},{"value":"Gwynedd","key":"CountyName"}]},"MapReference":{"ReferenceId":"909307605","Spot":1.0,"SideOfStreet":"left","StateId":"20287683","CountyId":"20341884","CityId":"20342204","DistrictId":"20342205"}}},{"Relevance":1.0,"Distance":49.6,"MatchLevel":"postalCode","MatchQuality":{"PostalCode":1.0},"MatchType":"interpolated","Location":{"LocationId":"NT_FWBFzI2x.kcXKg0gjRyCGC_l_852814958_L_xED","LocationType":"point","DisplayPosition":{"Latitude":52.92902,"Longitude":-4.1324},"MapView":{"TopLeft":{"Latitude":52.9380132,"Longitude":-4.147319},"BottomRight":{"Latitude":52.9200268,"Longitude":-4.117481}},"Address":{"Label":"LL49 9EQ, Porthmadog, Wales, United Kingdom","Country":"GBR","State":"Wales","County":"Gwynedd","City":"Porthmadog","PostalCode":"LL49 9EQ","AdditionalData":[{"value":"United Kingdom","key":"CountryName"},{"value":"Wales","key":"StateName"},{"value":"Gwynedd","key":"CountyName"}]},"MapReference":{"ReferenceId":"852814958","Spot":0.18,"SideOfStreet":"neither","StateId":"20287683","CountyId":"20341884","CityId":"20342204"}}},{"Relevance":1.0,"Distance":52.4,"MatchLevel":"street","MatchQuality":{"Country":1.0,"State":1.0,"County":1.0,"City":1.0,"District":1.0,"PostalCode":1.0},"Location":{"LocationId":"NT_wUm4ZHD1kzlXtO5J4lWeFA_l_852814959_L","LocationType":"point","DisplayPosition":{"Latitude":52.92903,"Longitude":-4.13236},"MapView":{"TopLeft":{"Latitude":52.9293,"Longitude":-4.13236},"BottomRight":{"Latitude":52.92903,"Longitude":-4.13185}},"Address":{"Label":"Porthmadog, LL49 9, United Kingdom","Country":"GBR","State":"Wales","County":"Gwynedd","City":"Porthmadog","District":"Porthmadog","PostalCode":"LL49 9","AdditionalData":[{"value":"United Kingdom","key":"CountryName"},{"value":"Wales","key":"StateName"},{"value":"Gwynedd","key":"CountyName"}]},"MapReference":{"ReferenceId":"852814959","Spot":0.0,"SideOfStreet":"left","StateId":"20287683","CountyId":"20341884","CityId":"20342204","DistrictId":"20342205"}}},{"Relevance":1.0,"Distance":63.3,"MatchLevel":"street","MatchQuality":{"Country":1.0,"State":1.0,"County":1.0,"City":1.0,"District":1.0,"Street":[1.0],"PostalCode":1.0},"Location":{"LocationId":"NT_k9g1DQT9WGpFLyqkcLGFAD_l_837344916_R","LocationType":"point","DisplayPosition":{"Latitude":52.92852,"Longitude":-4.13367},"MapView":{"TopLeft":{"Latitude":52.92852,"Longitude":-4.13367},"BottomRight":{"Latitude":52.92826,"Longitude":-4.13361}},"Address":{"Label":"High Street, Porthmadog, LL49 9, United Kingdom","Country":"GBR","State":"Wales","County":"Gwynedd","City":"Porthmadog","District":"Porthmadog","Street":"High Street","PostalCode":"LL49 9","AdditionalData":[{"value":"United Kingdom","key":"CountryName"},{"value":"Wales","key":"StateName"},{"value":"Gwynedd","key":"CountyName"}]},"MapReference":{"ReferenceId":"837344916","Spot":1.0,"SideOfStreet":"right","StateId":"20287683","CountyId":"20341884","CityId":"20342204","DistrictId":"20342205"}}}]}]}}