{"Response":{"MetaInfo":{"Timestamp":"2020-03-31T17:03:29.338+0000","NextPageInformation":"2"},"View":[{"_type":"SearchResultsViewType","ViewId":0,"Result":[{"Relevance":1.0,"Distance":0.0,"Direction":0.0,"MatchLevel":"district","MatchQuality":{"Country":1.0,"County":1.0,"City":1.0,"District":1.0,"PostalCode":1.0},"Location":{"LocationId":"NT_T5gnE8EMKvEkVuCn78b4NB","LocationType":"point","DisplayPosition":{"Latitude":52.975,"Longitude":-6.0494},"MapView":{"TopLeft":{"Latitude":52.99871,"Longitude":-6.07142},"BottomRight":{"Latitude":52.95976,"Longitude":-6.01115}},"Address":{"Label":"Wicklow, Ireland","Country":"IRL","County":"County Wicklow","City":"Wicklow","District":"Wicklow","AdditionalData":[{"value":"Ireland","key":"CountryName"},{"value":"County Wicklow","key":"CountyName"}]},"MapReference":{"ReferenceId":"939806655","SideOfStreet":"neither","CountryId":"20403667","CountyId":"20411245","CityId":"20558553","DistrictId":"20558877"}}},{"Relevance":1.0,"Distance":3.5,"MatchLevel":"houseNumber","MatchQuality":{"Country":1.0,"County":1.0,"City":1.0,"District":1.0,"Street":[1.0],"HouseNumber":1.0,"PostalCode":1.0},"MatchType":"interpolated","Location":{"LocationId":"NT_Bh4sorMpQQ59YW48KFHaLD_xkD","LocationType":"point","DisplayPosition":{"Latitude":52.97499,"Longitude":-6.04935},"MapView":{"TopLeft":{"Latitude":52.9761142,"Longitude":-6.0512169},"BottomRight":{"Latitude":52.9738658,"Longitude":-6.0474831}},"Address":{"Label":"19 Halpin Court, Wicklow, County Wicklow, A67 YC63, Ireland","Country":"IRL","County":"County Wicklow","City":"Wicklow","District":"Wicklow","Street":"Halpin Court","HouseNumber":"19","PostalCode":"A67 YC63","AdditionalData":[{"value":"Ireland","key":"CountryName"},{"value":"County Wicklow","key":"CountyName"}]},"MapReference":{"ReferenceId":"590516360","Spot":0.32,"SideOfStreet":"left","CountryId":"20403667","CountyId":"20411245","CityId":"20558553","DistrictId":"20558877","AddressId":"214640055","RoadLinkId":"86489867"}}},{"Relevance":1.0,"Distance":16.1,"MatchLevel":"postalCode","MatchQuality":{"PostalCode":1.0},"MatchType":"interpolated","Location":{"LocationId":"NT_Bh4sorMpQQ59YW48KFHaLD_xkD","LocationType":"point","DisplayPosition":{"Latitude":52.97501,"Longitude":-6.04964},"MapView":{"TopLeft":{"Latitude":52.9840032,"Longitude":-6.0645748},"BottomRight":{"Latitude":52.9660168,"Longitude":-6.0347052}},"Address":{"Label":"A67 KN88, Wicklow, Ireland","Country":"IRL","County":"County Wicklow","City":"Wicklow","PostalCode":"A67 KN88","AdditionalData":[{"value":"Ireland","key":"CountryName"},{"value":"County Wicklow","key":"CountyName"}]},"MapReference":{"ReferenceId":"590516360","Spot":0.32,"SideOfStreet":"neither","CountryId":"20403667","CountyId":"20411245","CityId":"20558553"}}},{"Relevance":1.0,"Distance":22.9,"MatchLevel":"houseNumber","MatchQuality":{"Country":1.0,"County":1.0,"City":1.0,"District":1.0,"Street":[1.0],"HouseNumber":1.0,"PostalCode":1.0},"MatchType":"interpolated","Location":{"LocationId":"NT_HrTfs5bTI5AT8E4G6B55AB_xATY","LocationType":"point","DisplayPosition":{"Latitude":52.97486,"Longitude":-6.04915},"MapView":{"TopLeft":{"Latitude":52.9759842,"Longitude":-6.0510168},"BottomRight":{"Latitude":52.9737358,"Longitude":-6.0472832}},"Address":{"Label":"10a Wicklow Heights, Wicklow, County Wicklow, A67 VX07, Ireland","Country":"IRL","County":"County Wicklow","City":"Wicklow","District":"Wicklow","Street":"Wicklow Heights","HouseNumber":"10a","PostalCode":"A67 VX07","AdditionalData":[{"value":"Ireland","key":"CountryName"},{"value":"County Wicklow","key":"CountyName"}]},"MapReference":{"ReferenceId":"590516363","Spot":0.0,"SideOfStreet":"right","CountryId":"20403667","CountyId":"20411245","CityId":"20558553","DistrictId":"20558877","AddressId":"743591854","RoadLinkId":"86622870"}}},{"Relevance":1.0,"Distance":38.8,"MatchLevel":"postalCode","MatchQuality":{"PostalCode":1.0},"MatchType":"interpolated","Location":{"LocationId":"NT_HrTfs5bTI5AT8E4G6B55AB_xATY","LocationType":"point","DisplayPosition":{"Latitude":52.97478,"Longitude":-6.04895},"MapView":{"TopLeft":{"Latitude":52.9837732,"Longitude":-6.0638848},"BottomRight":{"Latitude":52.9657868,"Longitude":-6.0340152}},"Address":{"Label":"A67 AV99, Wicklow, Ireland","Country":"IRL","County":"County Wicklow","City":"Wicklow","PostalCode":"A67 AV99","AdditionalData":[{"value":"Ireland","key":"CountryName"},{"value":"County Wicklow","key":"CountyName"}]},"MapReference":{"ReferenceId":"590516363","Spot":0.0,"SideOfStreet":"neither","CountryId":"20403667","CountyId":"20411245","CityId":"20558553"}}},{"Relevance":1.0,"Distance":40.9,"MatchLevel":"postalCode","MatchQuality":{"PostalCode":1.0},"MatchType":"interpolated","Location":{"LocationId":"NT_WzFuOSp-x4wIoT07w41LRB_xAjY","LocationType":"point","DisplayPosition":{"Latitude":52.97532,"Longitude":-6.0497},"MapView":{"TopLeft":{"Latitude":52.9843132,"Longitude":-6.064635},"BottomRight":{"Latitude":52.9663268,"Longitude":-6.034765}},"Address":{"Label":"A67 YT61, Wicklow, Ireland","Country":"IRL","County":"County Wicklow","City":"Wicklow","PostalCode":"A67 YT61","AdditionalData":[{"value":"Ireland","key":"CountryName"},{"value":"County Wicklow","key":"CountyName"}]},"MapReference":{"ReferenceId":"590516352","Spot":0.5,"SideOfStreet":"neither","CountryId":"20403667","CountyId":"20411245","CityId":"20558553"}}},{"Relevance":1.0,"Distance":42.4,"MatchLevel":"houseNumber","MatchQuality":{"Country":1.0,"County":1.0,"City":1.0,"District":1.0,"Street":[1.0],"HouseNumber":1.0,"PostalCode":1.0},"MatchType":"interpolated","Location":{"LocationId":"NT_WzFuOSp-x4wIoT07w41LRB_xAjY","LocationType":"point","DisplayPosition":{"Latitude":52.97547,"Longitude":-6.04977},"MapView":{"TopLeft":{"Latitude":52.9765942,"Longitude":-6.0516369},"BottomRight":{"Latitude":52.9743458,"Longitude":-6.0479031}},"Address":{"Label":"10b Lakeview Grove, Wicklow, County Wicklow, A67 V061, Ireland","Country":"IRL","County":"County Wicklow","City":"Wicklow","District":"Wicklow","Street":"Lakeview Grove","HouseNumber":"10b","PostalCode":"A67 V061","AdditionalData":[{"value":"Ireland","key":"CountryName"},{"value":"County Wicklow","key":"CountyName"}]},"MapReference":{"ReferenceId":"590516352","Spot":0.5,"SideOfStreet":"right","CountryId":"20403667","CountyId":"20411245","CityId":"20558553","DistrictId":"20558877","AddressId":"743558208","RoadLinkId":"86708677"}}},{"Relevance":1.0,"Distance":43.0,"MatchLevel":"houseNumber","MatchQuality":{"Country":1.0,"County":1.0,"City":1.0,"District":1.0,"Street":[1.0],"HouseNumber":1.0,"PostalCode":1.0},"MatchType":"interpolated","Location":{"LocationId":"NT_WzFuOSp-x4wIoT07w41LRB_4A","LocationType":"point","DisplayPosition":{"Latitude":52.9753,"Longitude":-6.05016},"MapView":{"TopLeft":{"Latitude":52.9764242,"Longitude":-6.0520269},"BottomRight":{"Latitude":52.9741758,"Longitude":-6.0482931}},"Address":{"Label":"8 Lakeview Grove, Wicklow, County Wicklow, A67 YK59, Ireland","Country":"IRL","County":"County Wicklow","City":"Wicklow","District":"Wicklow","Street":"Lakeview Grove","HouseNumber":"8","PostalCode":"A67 YK59","AdditionalData":[{"value":"Ireland","key":"CountryName"},{"value":"County Wicklow","key":"CountyName"}]},"MapReference":{"ReferenceId":"590516353","Spot":0.92,"SideOfStreet":"right","CountryId":"20403667","CountyId":"20411245","CityId":"20558553","DistrictId":"20558877","AddressId":"214696471","RoadLinkId":"86865816"}}},{"Relevance":1.0,"Distance":43.4,"MatchLevel":"houseNumber","MatchQuality":{"Country":1.0,"County":1.0,"City":1.0,"District":1.0,"Street":[1.0],"HouseNumber":1.0,"PostalCode":1.0},"MatchType":"interpolated","Location":{"LocationId":"NT_Bh4sorMpQQ59YW48KFHaLD_yA","LocationType":"point","DisplayPosition":{"Latitude":52.97448,"Longitude":-6.04944},"MapView":{"TopLeft":{"Latitude":52.9756042,"Longitude":-6.0513068},"BottomRight":{"Latitude":52.9733558,"Longitude":-6.0475732}},"Address":{"Label":"2 Halpin Court, Wicklow, County Wicklow, A67 P466, Ireland","Country":"IRL","County":"County Wicklow","City":"Wicklow","District":"Wicklow","Street":"Halpin Court","HouseNumber":"2","PostalCode":"A67 P466","AdditionalData":[{"value":"Ireland","key":"CountryName"},{"value":"County Wicklow","key":"CountyName"}]},"MapReference":{"ReferenceId":"590516362","Spot":0.16,"SideOfStreet":"right","CountryId":"20403667","CountyId":"20411245","CityId":"20558553","DistrictId":"20558877","AddressId":"214732863","RoadLinkId":"86813527"}}},{"Relevance":1.0,"Distance":43.7,"MatchLevel":"houseNumber","MatchQuality":{"Country":1.0,"County":1.0,"City":1.0,"District":1.0,"Street":[1.0],"HouseNumber":1.0,"PostalCode":1.0},"MatchType":"interpolated","Location":{"LocationId":"NT_Bh4sorMpQQ59YW48KFHaLD_xQD","LocationType":"point","DisplayPosition":{"Latitude":52.97465,"Longitude":-6.05003},"MapView":{"TopLeft":{"Latitude":52.9757742,"Longitude":-6.0518968},"BottomRight":{"Latitude":52.9735258,"Longitude":-6.0481632}},"Address":{"Label":"14 Halpin Court, Wicklow, County Wicklow, A67 A789, Ireland","Country":"IRL","County":"County Wicklow","City":"Wicklow","District":"Wicklow","Street":"Halpin Court","HouseNumber":"14","PostalCode":"A67 A789","AdditionalData":[{"value":"Ireland","key":"CountryName"},{"value":"County Wicklow","key":"CountyName"}]},"MapReference":{"ReferenceId":"590516361","Spot":0.69,"SideOfStreet":"right","CountryId":"20403667","CountyId":"20411245","CityId":"20558553","DistrictId":"20558877","AddressId":"214778580","RoadLinkId":"86684371"}}}]}]}}