{"Response":{"MetaInfo":{"Timestamp":"2020-03-28T10:35:11.960+0000","NextPageInformation":"2"},"View":[{"_type":"SearchResultsViewType","ViewId":0,"Result":[{"Relevance":1.0,"Distance":0.0,"Direction":0.0,"MatchLevel":"district","MatchQuality":{"Country":1.0,"State":1.0,"County":1.0,"City":1.0,"District":1.0,"PostalCode":1.0},"Location":{"LocationId":"NT_6tfPCJA8OXxVhrX0RF371C","LocationType":"point","DisplayPosition":{"Latitude":52.9204553,"Longitude":-0.6143321},"MapView":{"TopLeft":{"Latitude":52.93405,"Longitude":-0.676},"BottomRight":{"Latitude":52.89422,"Longitude":-0.6007}},"Address":{"Label":"Grantham, England, United Kingdom","Country":"GBR","State":"England","County":"Lincolnshire","City":"Grantham","District":"Grantham","PostalCode":"NG31 6","AdditionalData":[{"value":"United Kingdom","key":"CountryName"},{"value":"England","key":"StateName"},{"value":"Lincolnshire","key":"CountyName"}]},"MapReference":{"ReferenceId":"26046040","SideOfStreet":"neither","StateId":"20248595","CountyId":"20355210","CityId":"20355371","DistrictId":"20355372"}}},{"Relevance":1.0,"Distance":37.1,"MatchLevel":"houseNumber","MatchQuality":{"Country":1.0,"State":1.0,"County":1.0,"City":1.0,"District":1.0,"Street":[1.0],"HouseNumber":1.0,"PostalCode":1.0},"MatchType":"interpolated","Location":{"LocationId":"NT_O1ORNW6tmrEaOhJhxcCruC_l_781649716_L_xkTM","LocationType":"point","DisplayPosition":{"Latitude":52.920081,"Longitude":-0.6146993},"MapView":{"TopLeft":{"Latitude":52.9212051,"Longitude":-0.6165638},"BottomRight":{"Latitude":52.9189568,"Longitude":-0.6128349}},"Address":{"Label":"191 Harrowby Lane, Grantham, NG31 9NS, United Kingdom","Country":"GBR","State":"England","County":"Lincolnshire","City":"Grantham","District":"Grantham","Street":"Harrowby Lane","HouseNumber":"191","PostalCode":"NG31 9NS","AdditionalData":[{"value":"United Kingdom","key":"CountryName"},{"value":"England","key":"StateName"},{"value":"Lincolnshire","key":"CountyName"}]},"MapReference":{"ReferenceId":"781649716","Spot":0.51,"SideOfStreet":"left","StateId":"20248595","CountyId":"20355210","CityId":"20355371","DistrictId":"20355372"}}},{"Relevance":1.0,"Distance":79.5,"MatchLevel":"houseNumber","MatchQuality":{"Country":1.0,"State":1.0,"County":1.0,"City":1.0,"District":1.0,"Street":[1.0],"HouseNumber":1.0,"PostalCode":1.0},"MatchType":"interpolated","Location":{"LocationId":"NT_O1ORNW6tmrEaOhJhxcCruC_l_781649717_R_xkzM","LocationType":"point","DisplayPosition":{"Latitude":52.9201344,"Longitude":-0.613198},"MapView":{"TopLeft":{"Latitude":52.9212586,"Longitude":-0.6150625},"BottomRight":{"Latitude":52.9190103,"Longitude":-0.6113336}},"Address":{"Label":"193 Harrowby Lane, Grantham, NG31 9, United Kingdom","Country":"GBR","State":"England","County":"Lincolnshire","City":"Grantham","District":"Grantham","Street":"Harrowby Lane","HouseNumber":"193","PostalCode":"NG31 9","AdditionalData":[{"value":"United Kingdom","key":"CountryName"},{"value":"England","key":"StateName"},{"value":"Lincolnshire","key":"CountyName"}]},"MapReference":{"ReferenceId":"781649717","Spot":0.49,"SideOfStreet":"right","StateId":"20248595","CountyId":"20355210","CityId":"20355371","DistrictId":"20355372"}}},{"Relevance":1.0,"Distance":80.2,"MatchLevel":"houseNumber","MatchQuality":{"Country":1.0,"State":1.0,"County":1.0,"City":1.0,"District":1.0,"Street":[1.0],"HouseNumber":1.0,"PostalCode":1.0},"MatchType":"interpolated","Location":{"LocationId":"NT_NdhoF9sqxrq2MK-6woEEyC_l_26045444_R_yUD","LocationType":"point","DisplayPosition":{"Latitude":52.9206403,"Longitude":-0.61571},"MapView":{"TopLeft":{"Latitude":52.9217645,"Longitude":-0.6175745},"BottomRight":{"Latitude":52.9195162,"Longitude":-0.6138455}},"Address":{"Label":"25 Elliot Close, Grantham, NG31 9QX, United Kingdom","Country":"GBR","State":"England","County":"Lincolnshire","City":"Grantham","District":"Grantham","Street":"Elliot Close","HouseNumber":"25","PostalCode":"NG31 9QX","AdditionalData":[{"value":"United Kingdom","key":"CountryName"},{"value":"England","key":"StateName"},{"value":"Lincolnshire","key":"CountyName"}]},"MapReference":{"ReferenceId":"26045444","Spot":0.72,"SideOfStreet":"right","StateId":"20248595","CountyId":"20355210","CityId":"20355371","DistrictId":"20355372"}}},{"Relevance":1.0,"Distance":94.8,"MatchLevel":"houseNumber","MatchQuality":{"Country":1.0,"State":1.0,"County":1.0,"City":1.0,"District":1.0,"Street":[1.0],"HouseNumber":1.0,"PostalCode":1.0},"MatchType":"interpolated","Location":{"LocationId":"NT_O1ORNW6tmrEaOhJhxcCruC_l_26045502_L_xgTO","LocationType":"point","DisplayPosition":{"Latitude":52.9199622,"Longitude":-0.6155954},"MapView":{"TopLeft":{"Latitude":52.9210864,"Longitude":-0.6174599},"BottomRight":{"Latitude":52.9188381,"Longitude":-0.6137309}},"Address":{"Label":"189 Harrowby Lane, Grantham, NG31 9NS, United Kingdom","Country":"GBR","State":"England","County":"Lincolnshire","City":"Grantham","District":"Grantham","Street":"Harrowby Lane","HouseNumber":"189","PostalCode":"NG31 9NS","AdditionalData":[{"value":"United Kingdom","key":"CountryName"},{"value":"England","key":"StateName"},{"value":"Lincolnshire","key":"CountyName"}]},"MapReference":{"ReferenceId":"26045502","Spot":0.81,"SideOfStreet":"left","StateId":"20248595","CountyId":"20355210","CityId":"20355371","DistrictId":"20355372"}}},{"Relevance":1.0,"Distance":95.5,"MatchLevel":"houseNumber","MatchQuality":{"Country":1.0,"State":1.0,"County":1.0,"City":1.0,"District":1.0,"Street":[1.0],"HouseNumber":1.0,"PostalCode":1.0},"MatchType":"interpolated","Location":{"LocationId":"NT_OlnluJLTA7IMGFWccOtj9C_l_26045532_R_zA","LocationType":"point","DisplayPosition":{"Latitude":52.9196131,"Longitude":-0.6151159},"MapView":{"TopLeft":{"Latitude":52.9207372,"Longitude":-0.6169803},"BottomRight":{"Latitude":52.9184889,"Longitude":-0.6132514}},"Address":{"Label":"3 Keats Avenue, Grantham, NG31 9NN, United Kingdom","Country":"GBR","State":"England","County":"Lincolnshire","City":"Grantham","District":"Grantham","Street":"Keats Avenue","HouseNumber":"3","PostalCode":"NG31 9NN","AdditionalData":[{"value":"United Kingdom","key":"CountryName"},{"value":"England","key":"StateName"},{"value":"Lincolnshire","key":"CountyName"}]},"MapReference":{"ReferenceId":"26045532","Spot":0.5,"SideOfStreet":"right","StateId":"20248595","CountyId":"20355210","CityId":"20355371","DistrictId":"20355372"}}},{"Relevance":1.0,"Distance":107.1,"MatchLevel":"postalCode","MatchQuality":{"PostalCode":1.0},"MatchType":"interpolated","Location":{"LocationId":"NT_O1ORNW6tmrEaOhJhxcCruC_l_26045502_L_xgTO","LocationType":"point","DisplayPosition":{"Latitude":52.91999,"Longitude":-0.61573},"MapView":{"TopLeft":{"Latitude":52.9289832,"Longitude":-0.6306459},"BottomRight":{"Latitude":52.9109968,"Longitude":-0.6008141}},"Address":{"Label":"NG31 9NS, Grantham, England, United Kingdom","Country":"GBR","State":"England","County":"Lincolnshire","City":"Grantham","PostalCode":"NG31 9NS","AdditionalData":[{"value":"United Kingdom","key":"CountryName"},{"value":"England","key":"StateName"},{"value":"Lincolnshire","key":"CountyName"}]},"MapReference":{"ReferenceId":"26045502","Spot":0.81,"SideOfStreet":"neither","StateId":"20248595","CountyId":"20355210","CityId":"20355371"}}},{"Relevance":1.0,"Distance":110.4,"MatchLevel":"postalCode","MatchQuality":{"PostalCode":1.0},"MatchType":"interpolated","Location":{"LocationId":"NT_NdhoF9sqxrq2MK-6woEEyC_l_26045444_R_yUD","LocationType":"point","DisplayPosition":{"Latitude":52.92064,"Longitude":-0.61595},"MapView":{"TopLeft":{"Latitude":52.9296332,"Longitude":-0.6308661},"BottomRight":{"Latitude":52.9116468,"Longitude":-0.6010339}},"Address":{"Label":"NG31 9QX, Grantham, England, United Kingdom","Country":"GBR","State":"England","County":"Lincolnshire","City":"Grantham","PostalCode":"NG31 9QX","AdditionalData":[{"value":"United Kingdom","key":"CountryName"},{"value":"England","key":"StateName"},{"value":"Lincolnshire","key":"CountyName"}]},"MapReference":{"ReferenceId":"26045444","Spot":0.72,"SideOfStreet":"neither","StateId":"20248595","CountyId":"20355210","CityId":"20355371"}}},{"Relevance":1.0,"Distance":112.3,"MatchLevel":"houseNumber","MatchQuality":{"Country":1.0,"State":1.0,"County":1.0,"City":1.0,"District":1.0,"Street":[1.0],"HouseNumber":1.0,"PostalCode":1.0},"MatchType":"interpolated","Location":{"LocationId":"NT_PTjnyeC3sKFyjnnoeOxzDC_l_26045531_L_0kD","LocationType":"point","DisplayPosition":{"Latitude":52.9193379,"Longitude":-0.6139314},"MapView":{"TopLeft":{"Latitude":52.9204621,"Longitude":-0.6157959},"BottomRight":{"Latitude":52.9182138,"Longitude":-0.612067}},"Address":{"Label":"49 Shakespeare Avenue, Grantham, NG31 9NW, United Kingdom","Country":"GBR","State":"England","County":"Lincolnshire","City":"Grantham","District":"Grantham","Street":"Shakespeare Avenue","HouseNumber":"49","PostalCode":"NG31 9NW","AdditionalData":[{"value":"United Kingdom","key":"CountryName"},{"value":"England","key":"StateName"},{"value":"Lincolnshire","key":"CountyName"}]},"MapReference":{"ReferenceId":"26045531","Spot":0.4,"SideOfStreet":"left","StateId":"20248595","CountyId":"20355210","CityId":"20355371","DistrictId":"20355372"}}},{"Relevance":1.0,"Distance":132.4,"MatchLevel":"street","MatchQuality":{"Country":1.0,"State":1.0,"County":1.0,"City":1.0,"District":1.0,"PostalCode":1.0},"Location":{"LocationId":"NT_W64EcqXNZ68luHVIkHxWYA_l_901391085_R","LocationType":"point","DisplayPosition":{"Latitude":52.9215675,"Longitude":-0.6150365},"MapView":{"TopLeft":{"Latitude":52.92227,"Longitude":-0.61525},"BottomRight":{"Latitude":52.92154,"Longitude":-0.61478}},"Address":{"Label":"Grantham, NG31 9, United Kingdom","Country":"GBR","State":"England","County":"Lincolnshire","City":"Grantham","District":"Grantham","PostalCode":"NG31 9","AdditionalData":[{"value":"United Kingdom","key":"CountryName"},{"value":"England","key":"StateName"},{"value":"Lincolnshire","key":"CountyName"}]},"MapReference":{"ReferenceId":"901391085","Spot":0.18,"SideOfStreet":"right","StateId":"20248595","CountyId":"20355210","CityId":"20355371","DistrictId":"20355372"}}}]}]}}