{"Response":{"MetaInfo":{"Timestamp":"2020-03-28T11:59:29.189+0000","NextPageInformation":"2"},"View":[{"_type":"SearchResultsViewType","ViewId":0,"Result":[{"Relevance":1.0,"Distance":0.0,"Direction":0.0,"MatchLevel":"district","MatchQuality":{"Country":1.0,"State":1.0,"County":1.0,"City":1.0,"District":1.0,"PostalCode":1.0},"Location":{"LocationId":"NT_seVrfvVM4g-mxOfnd3ztsB","LocationType":"point","DisplayPosition":{"Latitude":52.9648127,"Longitude":-1.1701104},"MapView":{"TopLeft":{"Latitude":52.97179,"Longitude":-1.18369},"BottomRight":{"Latitude":52.95907,"Longitude":-1.16826}},"Address":{"Label":"Radford, Nottingham, England, United Kingdom","Country":"GBR","State":"England","County":"Nottinghamshire","City":"Nottingham","District":"Radford","PostalCode":"NG7 5","AdditionalData":[{"value":"United Kingdom","key":"CountryName"},{"value":"England","key":"StateName"},{"value":"Nottinghamshire","key":"CountyName"}]},"MapReference":{"ReferenceId":"871701775","SideOfStreet":"neither","StateId":"20248595","CountyId":"20344764","CityId":"20356833","DistrictId":"20356927"}}},{"Relevance":1.0,"Distance":7.6,"MatchLevel":"houseNumber","MatchQuality":{"Country":1.0,"State":1.0,"County":1.0,"City":1.0,"District":1.0,"Street":[1.0],"HouseNumber":1.0,"PostalCode":1.0},"MatchType":"interpolated","Location":{"LocationId":"NT_VodGrL1x0GuGcv9qP8FGAB_l_26287789_L_4MD","LocationType":"point","DisplayPosition":{"Latitude":52.96484,"Longitude":-1.1700067},"MapView":{"TopLeft":{"Latitude":52.9659642,"Longitude":-1.1718731},"BottomRight":{"Latitude":52.9637159,"Longitude":-1.1681403}},"Address":{"Label":"83 Radford Road, Nottingham, NG7 5, United Kingdom","Country":"GBR","State":"England","County":"Nottinghamshire","City":"Nottingham","District":"Radford","Street":"Radford Road","HouseNumber":"83","PostalCode":"NG7 5","AdditionalData":[{"value":"United Kingdom","key":"CountryName"},{"value":"England","key":"StateName"},{"value":"Nottinghamshire","key":"CountyName"}]},"MapReference":{"ReferenceId":"26287789","Spot":0.67,"SideOfStreet":"left","StateId":"20248595","CountyId":"20344764","CityId":"20356833","DistrictId":"20356927"}}},{"Relevance":1.0,"Distance":16.2,"MatchLevel":"street","MatchQuality":{"Country":1.0,"State":1.0,"County":1.0,"City":1.0,"District":1.0,"Street":[1.0],"PostalCode":1.0},"Location":{"LocationId":"NT_M8TAuqX7NSgTmhGLfA7r.C_l_26287818_L","LocationType":"point","DisplayPosition":{"Latitude":52.9646684,"Longitude":-1.1700771},"MapView":{"TopLeft":{"Latitude":52.9647,"Longitude":-1.17059},"BottomRight":{"Latitude":52.96455,"Longitude":-1.16994}},"Address":{"Label":"Court Street, Nottingham, NG7 5, United Kingdom","Country":"GBR","State":"England","County":"Nottinghamshire","City":"Nottingham","District":"Radford","Street":"Court Street","PostalCode":"NG7 5","AdditionalData":[{"value":"United Kingdom","key":"CountryName"},{"value":"England","key":"StateName"},{"value":"Nottinghamshire","key":"CountyName"}]},"MapReference":{"ReferenceId":"26287818","Spot":0.79,"SideOfStreet":"left","StateId":"20248595","CountyId":"20344764","CityId":"20356833","DistrictId":"20356927"}}},{"Relevance":1.0,"Distance":16.9,"MatchLevel":"houseNumber","MatchQuality":{"Country":1.0,"State":1.0,"County":1.0,"City":1.0,"District":1.0,"Street":[1.0],"HouseNumber":1.0,"PostalCode":1.0},"MatchType":"interpolated","Location":{"LocationId":"NT_VodGrL1x0GuGcv9qP8FGAB_l_26287726_L_4UD","LocationType":"point","DisplayPosition":{"Latitude":52.96503,"Longitude":-1.17011},"MapView":{"TopLeft":{"Latitude":52.9661542,"Longitude":-1.1719764},"BottomRight":{"Latitude":52.9639059,"Longitude":-1.1682436}},"Address":{"Label":"85 Radford Road, Nottingham, NG7 5DR, United Kingdom","Country":"GBR","State":"England","County":"Nottinghamshire","City":"Nottingham","District":"Radford","Street":"Radford Road","HouseNumber":"85","PostalCode":"NG7 5DR","AdditionalData":[{"value":"United Kingdom","key":"CountryName"},{"value":"England","key":"StateName"},{"value":"Nottinghamshire","key":"CountyName"}]},"MapReference":{"ReferenceId":"26287726","Spot":0.24,"SideOfStreet":"left","StateId":"20248595","CountyId":"20344764","CityId":"20356833","DistrictId":"20356927"}}},{"Relevance":1.0,"Distance":21.3,"MatchLevel":"houseNumber","MatchQuality":{"Country":1.0,"State":1.0,"County":1.0,"City":1.0,"District":1.0,"Street":[1.0],"HouseNumber":1.0,"PostalCode":1.0},"MatchType":"interpolated","Location":{"LocationId":"NT_pseQR7WzQFYUo1cwITi2HC_l_1171877786_R_yA","LocationType":"point","DisplayPosition":{"Latitude":52.96494,"Longitude":-1.16982},"MapView":{"TopLeft":{"Latitude":52.9660642,"Longitude":-1.1716864},"BottomRight":{"Latitude":52.9638159,"Longitude":-1.1679536}},"Address":{"Label":"2 Hawksley Road, Nottingham, NG7 6AN, United Kingdom","Country":"GBR","State":"England","County":"Nottinghamshire","City":"Nottingham","District":"Forest Fields","Street":"Hawksley Road","HouseNumber":"2","PostalCode":"NG7 6AN","AdditionalData":[{"value":"United Kingdom","key":"CountryName"},{"value":"England","key":"StateName"},{"value":"Nottinghamshire","key":"CountyName"}]},"MapReference":{"ReferenceId":"1171877786","Spot":0.3,"SideOfStreet":"right","StateId":"20248595","CountyId":"20344764","CityId":"20356833","DistrictId":"20356881"}}},{"Relevance":1.0,"Distance":21.4,"MatchLevel":"houseNumber","MatchQuality":{"Country":1.0,"State":1.0,"County":1.0,"City":1.0,"District":1.0,"Street":[1.0],"HouseNumber":1.0,"PostalCode":1.0},"MatchType":"interpolated","Location":{"LocationId":"NT_VodGrL1x0GuGcv9qP8FGAB_l_26287825_L_3cD","LocationType":"point","DisplayPosition":{"Latitude":52.96466,"Longitude":-1.169916},"MapView":{"TopLeft":{"Latitude":52.9657842,"Longitude":-1.1717824},"BottomRight":{"Latitude":52.9635359,"Longitude":-1.1680496}},"Address":{"Label":"77 Radford Road, Nottingham, NG7 5DR, United Kingdom","Country":"GBR","State":"England","County":"Nottinghamshire","City":"Nottingham","District":"Radford","Street":"Radford Road","HouseNumber":"77","PostalCode":"NG7 5DR","AdditionalData":[{"value":"United Kingdom","key":"CountryName"},{"value":"England","key":"StateName"},{"value":"Nottinghamshire","key":"CountyName"}]},"MapReference":{"ReferenceId":"26287825","Spot":0.8,"SideOfStreet":"left","StateId":"20248595","CountyId":"20344764","CityId":"20356833","DistrictId":"20356927"}}},{"Relevance":1.0,"Distance":24.6,"MatchLevel":"postalCode","MatchQuality":{"PostalCode":1.0},"MatchType":"interpolated","Location":{"LocationId":"NT_VodGrL1x0GuGcv9qP8FGAB_l_26287726_L_4UD","LocationType":"point","DisplayPosition":{"Latitude":52.96499,"Longitude":-1.16989},"MapView":{"TopLeft":{"Latitude":52.9739832,"Longitude":-1.1848214},"BottomRight":{"Latitude":52.9559968,"Longitude":-1.1549586}},"Address":{"Label":"NG7 5FU, Nottingham, England, United Kingdom","Country":"GBR","State":"England","County":"Nottinghamshire","City":"Nottingham","PostalCode":"NG7 5FU","AdditionalData":[{"value":"United Kingdom","key":"CountryName"},{"value":"England","key":"StateName"},{"value":"Nottinghamshire","key":"CountyName"}]},"MapReference":{"ReferenceId":"26287726","Spot":0.24,"SideOfStreet":"neither","StateId":"20248595","CountyId":"20344764","CityId":"20356833"}}},{"Relevance":1.0,"Distance":35.3,"MatchLevel":"postalCode","MatchQuality":{"PostalCode":1.0},"Location":{"LocationId":"NT_M8TAuqX7NSgTmhGLfA7r.C_l_26287818_L","LocationType":"point","DisplayPosition":{"Latitude":52.96454,"Longitude":-1.17038},"MapView":{"TopLeft":{"Latitude":52.9735332,"Longitude":-1.1853112},"BottomRight":{"Latitude":52.9555468,"Longitude":-1.1554488}},"Address":{"Label":"NG7 5DT, Nottingham, England, United Kingdom","Country":"GBR","State":"England","County":"Nottinghamshire","City":"Nottingham","PostalCode":"NG7 5DT","AdditionalData":[{"value":"United Kingdom","key":"CountryName"},{"value":"England","key":"StateName"},{"value":"Nottinghamshire","key":"CountyName"}]},"MapReference":{"ReferenceId":"26287818","Spot":0.79,"SideOfStreet":"neither","StateId":"20248595","CountyId":"20344764","CityId":"20356833"}}},{"Relevance":1.0,"Distance":36.0,"MatchLevel":"postalCode","MatchQuality":{"PostalCode":1.0},"MatchType":"interpolated","Location":{"LocationId":"NT_pseQR7WzQFYUo1cwITi2HC_l_1171877786_R_yA","LocationType":"point","DisplayPosition":{"Latitude":52.96493,"Longitude":-1.16961},"MapView":{"TopLeft":{"Latitude":52.9739232,"Longitude":-1.1845414},"BottomRight":{"Latitude":52.9559368,"Longitude":-1.1546786}},"Address":{"Label":"NG7 6AN, Nottingham, England, United Kingdom","Country":"GBR","State":"England","County":"Nottinghamshire","City":"Nottingham","PostalCode":"NG7 6AN","AdditionalData":[{"value":"United Kingdom","key":"CountryName"},{"value":"England","key":"StateName"},{"value":"Nottinghamshire","key":"CountyName"}]},"MapReference":{"ReferenceId":"1171877786","Spot":0.3,"SideOfStreet":"neither","StateId":"20248595","CountyId":"20344764","CityId":"20356833"}}},{"Relevance":1.0,"Distance":36.5,"MatchLevel":"houseNumber","MatchQuality":{"Country":1.0,"State":1.0,"County":1.0,"City":1.0,"District":1.0,"Street":[1.0],"HouseNumber":1.0,"PostalCode":1.0},"MatchType":"interpolated","Location":{"LocationId":"NT_.UPL5aGp21wG5xD1n.3D0D_l_26287824_L_1A","LocationType":"point","DisplayPosition":{"Latitude":52.96453,"Longitude":-1.1695998},"MapView":{"TopLeft":{"Latitude":52.9656542,"Longitude":-1.1714662},"BottomRight":{"Latitude":52.9634059,"Longitude":-1.1677334}},"Address":{"Label":"5 Patterson Road, Nottingham, NG7 6, United Kingdom","Country":"GBR","State":"England","County":"Nottinghamshire","City":"Nottingham","District":"Forest Fields","Street":"Patterson Road","HouseNumber":"5","PostalCode":"NG7 6","AdditionalData":[{"value":"United Kingdom","key":"CountryName"},{"value":"England","key":"StateName"},{"value":"Nottinghamshire","key":"CountyName"}]},"MapReference":{"ReferenceId":"26287824","Spot":0.27,"SideOfStreet":"left","StateId":"20248595","CountyId":"20344764","CityId":"20356833","DistrictId":"20356881"}}}]}]}}