{"Response":{"MetaInfo":{"Timestamp":"2020-03-28T10:33:33.939+0000","NextPageInformation":"2"},"View":[{"_type":"SearchResultsViewType","ViewId":0,"Result":[{"Relevance":1.0,"Distance":0.0,"Direction":0.0,"MatchLevel":"district","MatchQuality":{"Country":1.0,"State":1.0,"County":1.0,"City":1.0,"District":1.0,"PostalCode":1.0},"Location":{"LocationId":"NT_2NL69rFIi3CNm1Soh6kabD","LocationType":"point","DisplayPosition":{"Latitude":52.9910152,"Longitude":-1.3084444},"MapView":{"TopLeft":{"Latitude":52.99732,"Longitude":-1.33457},"BottomRight":{"Latitude":52.94188,"Longitude":-1.28407}},"Address":{"Label":"Ilkeston, England, United Kingdom","Country":"GBR","State":"England","County":"Derbyshire","City":"Ilkeston","District":"Ilkeston","PostalCode":"DE7 8","AdditionalData":[{"value":"United Kingdom","key":"CountryName"},{"value":"England","key":"StateName"},{"value":"Derbyshire","key":"CountyName"}]},"MapReference":{"ReferenceId":"1225217008","SideOfStreet":"neither","StateId":"20248595","CountyId":"20343933","CityId":"20353819","DistrictId":"20353820"}}},{"Relevance":1.0,"Distance":17.9,"MatchLevel":"houseNumber","MatchQuality":{"Country":1.0,"State":1.0,"County":1.0,"City":1.0,"District":1.0,"Street":[1.0],"HouseNumber":1.0,"PostalCode":1.0},"MatchType":"interpolated","Location":{"LocationId":"NT_vlqQ7KKz..avAsnwVTMmcB_l_1058029771_L_xAD","LocationType":"point","DisplayPosition":{"Latitude":52.9907231,"Longitude":-1.3084732},"MapView":{"TopLeft":{"Latitude":52.9918472,"Longitude":-1.3103407},"BottomRight":{"Latitude":52.9895989,"Longitude":-1.3066056}},"Address":{"Label":"10 Church Street, Ilkeston, DE7 8QJ, United Kingdom","Country":"GBR","State":"England","County":"Derbyshire","City":"Ilkeston","District":"Ilkeston","Street":"Church Street","HouseNumber":"10","PostalCode":"DE7 8QJ","AdditionalData":[{"value":"United Kingdom","key":"CountryName"},{"value":"England","key":"StateName"},{"value":"Derbyshire","key":"CountyName"}]},"MapReference":{"ReferenceId":"1058029771","Spot":0.7,"SideOfStreet":"left","StateId":"20248595","CountyId":"20343933","CityId":"20353819","DistrictId":"20353820"}}},{"Relevance":1.0,"Distance":23.5,"MatchLevel":"street","MatchQuality":{"Country":1.0,"State":1.0,"County":1.0,"City":1.0,"District":1.0,"PostalCode":1.0},"Location":{"LocationId":"NT_wcD7rAeG5lR7LIolhh.S2D_l_26065995_L","LocationType":"point","DisplayPosition":{"Latitude":52.9908804,"Longitude":-1.3081748},"MapView":{"TopLeft":{"Latitude":52.99096,"Longitude":-1.30819},"BottomRight":{"Latitude":52.9908,"Longitude":-1.30801}},"Address":{"Label":"Ilkeston, DE7 8, United Kingdom","Country":"GBR","State":"England","County":"Derbyshire","City":"Ilkeston","District":"Ilkeston","PostalCode":"DE7 8","AdditionalData":[{"value":"United Kingdom","key":"CountryName"},{"value":"England","key":"StateName"},{"value":"Derbyshire","key":"CountyName"}]},"MapReference":{"ReferenceId":"26065995","Spot":0.31,"SideOfStreet":"left","StateId":"20248595","CountyId":"20343933","CityId":"20353819","DistrictId":"20353820"}}},{"Relevance":1.0,"Distance":27.0,"MatchLevel":"street","MatchQuality":{"Country":1.0,"State":1.0,"County":1.0,"City":1.0,"District":1.0,"Street":[1.0],"PostalCode":1.0},"Location":{"LocationId":"NT_vnOa3OWs8k9wpRqCk-IjbD_l_26065981_L","LocationType":"point","DisplayPosition":{"Latitude":52.9912035,"Longitude":-1.3081906},"MapView":{"TopLeft":{"Latitude":52.99127,"Longitude":-1.30824},"BottomRight":{"Latitude":52.99096,"Longitude":-1.30801}},"Address":{"Label":"Skeavingtons Lane, Ilkeston, DE7 8, United Kingdom","Country":"GBR","State":"England","County":"Derbyshire","City":"Ilkeston","District":"Ilkeston","Street":"Skeavingtons Lane","PostalCode":"DE7 8","AdditionalData":[{"value":"United Kingdom","key":"CountryName"},{"value":"England","key":"StateName"},{"value":"Derbyshire","key":"CountyName"}]},"MapReference":{"ReferenceId":"26065981","Spot":0.79,"SideOfStreet":"left","StateId":"20248595","CountyId":"20343933","CityId":"20353819","DistrictId":"20353820"}}},{"Relevance":1.0,"Distance":29.7,"MatchLevel":"street","MatchQuality":{"Country":1.0,"State":1.0,"County":1.0,"City":1.0,"District":1.0,"PostalCode":1.0},"Location":{"LocationId":"NT_wcD7rAeG5lR7LIolhh.S2D_l_26065994_R","LocationType":"point","DisplayPosition":{"Latitude":52.99096,"Longitude":-1.30801},"MapView":{"TopLeft":{"Latitude":52.99096,"Longitude":-1.30801},"BottomRight":{"Latitude":52.99085,"Longitude":-1.30777}},"Address":{"Label":"Ilkeston, DE7 8, United Kingdom","Country":"GBR","State":"England","County":"Derbyshire","City":"Ilkeston","District":"Ilkeston","PostalCode":"DE7 8","AdditionalData":[{"value":"United Kingdom","key":"CountryName"},{"value":"England","key":"StateName"},{"value":"Derbyshire","key":"CountyName"}]},"MapReference":{"ReferenceId":"26065994","Spot":1.0,"SideOfStreet":"right","StateId":"20248595","CountyId":"20343933","CityId":"20353819","DistrictId":"20353820"}}},{"Relevance":1.0,"Distance":29.8,"MatchLevel":"street","MatchQuality":{"Country":1.0,"State":1.0,"County":1.0,"City":1.0,"District":1.0,"PostalCode":1.0},"Location":{"LocationId":"NT_wcD7rAeG5lR7LIolhh.S2D_l_26065997_L","LocationType":"point","DisplayPosition":{"Latitude":52.9908,"Longitude":-1.30818},"MapView":{"TopLeft":{"Latitude":52.9908,"Longitude":-1.30818},"BottomRight":{"Latitude":52.99071,"Longitude":-1.30786}},"Address":{"Label":"Ilkeston, DE7 8, United Kingdom","Country":"GBR","State":"England","County":"Derbyshire","City":"Ilkeston","District":"Ilkeston","PostalCode":"DE7 8","AdditionalData":[{"value":"United Kingdom","key":"CountryName"},{"value":"England","key":"StateName"},{"value":"Derbyshire","key":"CountyName"}]},"MapReference":{"ReferenceId":"26065997","Spot":1.0,"SideOfStreet":"left","StateId":"20248595","CountyId":"20343933","CityId":"20353819","DistrictId":"20353820"}}},{"Relevance":1.0,"Distance":31.5,"MatchLevel":"street","MatchQuality":{"Country":1.0,"State":1.0,"County":1.0,"City":1.0,"District":1.0,"Street":[1.0],"PostalCode":1.0},"Location":{"LocationId":"NT_vnOa3OWs8k9wpRqCk-IjbD_l_26065969_L","LocationType":"point","DisplayPosition":{"Latitude":52.99127,"Longitude":-1.30824},"MapView":{"TopLeft":{"Latitude":52.99193,"Longitude":-1.3086},"BottomRight":{"Latitude":52.99127,"Longitude":-1.30824}},"Address":{"Label":"Skeavingtons Lane, Ilkeston, DE7 8, United Kingdom","Country":"GBR","State":"England","County":"Derbyshire","City":"Ilkeston","District":"Ilkeston","Street":"Skeavingtons Lane","PostalCode":"DE7 8","AdditionalData":[{"value":"United Kingdom","key":"CountryName"},{"value":"England","key":"StateName"},{"value":"Derbyshire","key":"CountyName"}]},"MapReference":{"ReferenceId":"26065969","Spot":0.0,"SideOfStreet":"left","StateId":"20248595","CountyId":"20343933","CityId":"20353819","DistrictId":"20353820"}}},{"Relevance":1.0,"Distance":32.4,"MatchLevel":"street","MatchQuality":{"Country":1.0,"State":1.0,"County":1.0,"City":1.0,"District":1.0,"Street":[1.0],"PostalCode":1.0},"Location":{"LocationId":"NT_FYws9Ax7ysLdycuQiD383C_l_26065970_L","LocationType":"point","DisplayPosition":{"Latitude":52.991285,"Longitude":-1.3082621},"MapView":{"TopLeft":{"Latitude":52.99164,"Longitude":-1.30898},"BottomRight":{"Latitude":52.99127,"Longitude":-1.30824}},"Address":{"Label":"Beauvale Drive, Ilkeston, DE7 8, United Kingdom","Country":"GBR","State":"England","County":"Derbyshire","City":"Ilkeston","District":"Ilkeston","Street":"Beauvale Drive","PostalCode":"DE7 8","AdditionalData":[{"value":"United Kingdom","key":"CountryName"},{"value":"England","key":"StateName"},{"value":"Derbyshire","key":"CountyName"}]},"MapReference":{"ReferenceId":"26065970","Spot":0.03,"SideOfStreet":"left","StateId":"20248595","CountyId":"20343933","CityId":"20353819","DistrictId":"20353820"}}},{"Relevance":1.0,"Distance":50.4,"MatchLevel":"street","MatchQuality":{"Country":1.0,"State":1.0,"County":1.0,"City":1.0,"District":1.0,"PostalCode":1.0},"Location":{"LocationId":"NT_wcD7rAeG5lR7LIolhh.S2D_l_26065996_L","LocationType":"point","DisplayPosition":{"Latitude":52.99073,"Longitude":-1.30786},"MapView":{"TopLeft":{"Latitude":52.99085,"Longitude":-1.30786},"BottomRight":{"Latitude":52.99073,"Longitude":-1.30777}},"Address":{"Label":"Ilkeston, DE7 8, United Kingdom","Country":"GBR","State":"England","County":"Derbyshire","City":"Ilkeston","District":"Ilkeston","PostalCode":"DE7 8","AdditionalData":[{"value":"United Kingdom","key":"CountryName"},{"value":"England","key":"StateName"},{"value":"Derbyshire","key":"CountyName"}]},"MapReference":{"ReferenceId":"26065996","Spot":0.0,"SideOfStreet":"left","StateId":"20248595","CountyId":"20343933","CityId":"20353819","DistrictId":"20353820"}}},{"Relevance":1.0,"Distance":61.8,"MatchLevel":"street","MatchQuality":{"Country":1.0,"State":1.0,"County":1.0,"City":1.0,"District":1.0,"Street":[1.0],"PostalCode":1.0},"Location":{"LocationId":"NT_VRxJxmwVhKbVeMnwi7X1BC_l_769249013_R","LocationType":"point","DisplayPosition":{"Latitude":52.99146,"Longitude":-1.30789},"MapView":{"TopLeft":{"Latitude":52.99149,"Longitude":-1.30789},"BottomRight":{"Latitude":52.99146,"Longitude":-1.30712}},"Address":{"Label":"Foxley Road, Ilkeston, DE7 8, United Kingdom","Country":"GBR","State":"England","County":"Derbyshire","City":"Ilkeston","District":"Ilkeston","Street":"Foxley Road","PostalCode":"DE7 8","AdditionalData":[{"value":"United Kingdom","key":"CountryName"},{"value":"England","key":"StateName"},{"value":"Derbyshire","key":"CountyName"}]},"MapReference":{"ReferenceId":"769249013","Spot":0.0,"SideOfStreet":"right","StateId":"20248595","CountyId":"20343933","CityId":"20353819","DistrictId":"20353820"}}}]}]}}