{"Response":{"MetaInfo":{"Timestamp":"2020-03-28T10:07:53.737+0000","NextPageInformation":"2"},"View":[{"_type":"SearchResultsViewType","ViewId":0,"Result":[{"Relevance":1.0,"Distance":0.0,"Direction":0.0,"MatchLevel":"district","MatchQuality":{"Country":1.0,"State":1.0,"County":1.0,"City":1.0,"District":1.0,"PostalCode":1.0},"Location":{"LocationId":"NT_HNbGVCZBskWMXJwVqJgMoD","LocationType":"point","DisplayPosition":{"Latitude":52.9735831,"Longitude":-1.0738695},"MapView":{"TopLeft":{"Latitude":52.98011,"Longitude":-1.11964},"BottomRight":{"Latitude":52.95721,"Longitude":-1.05889}},"Address":{"Label":"Carlton, Nottingham, England, United Kingdom","Country":"GBR","State":"England","County":"Nottinghamshire","City":"Nottingham","District":"Carlton","PostalCode":"NG4 1","AdditionalData":[{"value":"United Kingdom","key":"CountryName"},{"value":"England","key":"StateName"},{"value":"Nottinghamshire","key":"CountyName"}]},"MapReference":{"ReferenceId":"1050437896","SideOfStreet":"neither","StateId":"20248595","CountyId":"20344764","CityId":"20356833","DistrictId":"20356861"}}},{"Relevance":1.0,"Distance":6.1,"MatchLevel":"houseNumber","MatchQuality":{"Country":1.0,"State":1.0,"County":1.0,"City":1.0,"District":1.0,"Street":[1.0],"HouseNumber":1.0,"PostalCode":1.0},"MatchType":"interpolated","Location":{"LocationId":"NT_IzBaVkZ4e2fCDUsk-UIFRC_l_26286017_R_yAD","LocationType":"point","DisplayPosition":{"Latitude":52.9736634,"Longitude":-1.0738832},"MapView":{"TopLeft":{"Latitude":52.9747875,"Longitude":-1.07575},"BottomRight":{"Latitude":52.9725392,"Longitude":-1.0720164}},"Address":{"Label":"20 Shearing Close, Nottingham, NG4 3GJ, United Kingdom","Country":"GBR","State":"England","County":"Nottinghamshire","City":"Nottingham","District":"Carlton","Street":"Shearing Close","HouseNumber":"20","PostalCode":"NG4 3GJ","AdditionalData":[{"value":"United Kingdom","key":"CountryName"},{"value":"England","key":"StateName"},{"value":"Nottinghamshire","key":"CountyName"}]},"MapReference":{"ReferenceId":"26286017","Spot":0.42,"SideOfStreet":"right","StateId":"20248595","CountyId":"20344764","CityId":"20356833","DistrictId":"20356861"}}},{"Relevance":1.0,"Distance":15.2,"MatchLevel":"postalCode","MatchQuality":{"PostalCode":1.0},"MatchType":"interpolated","Location":{"LocationId":"NT_jSS8-66TH5TDBnFcDVvfcD_l_26285868_R_xMD","LocationType":"point","DisplayPosition":{"Latitude":52.97368,"Longitude":-1.07403},"MapView":{"TopLeft":{"Latitude":52.9826732,"Longitude":-1.0889644},"BottomRight":{"Latitude":52.9646868,"Longitude":-1.0590956}},"Address":{"Label":"NG4 3GY, Nottingham, England, United Kingdom","Country":"GBR","State":"England","County":"Nottinghamshire","City":"Nottingham","PostalCode":"NG4 3GY","AdditionalData":[{"value":"United Kingdom","key":"CountryName"},{"value":"England","key":"StateName"},{"value":"Nottinghamshire","key":"CountyName"}]},"MapReference":{"ReferenceId":"26285868","Spot":0.27,"SideOfStreet":"neither","StateId":"20248595","CountyId":"20344764","CityId":"20356833"}}},{"Relevance":1.0,"Distance":22.9,"MatchLevel":"street","MatchQuality":{"Country":1.0,"State":1.0,"County":1.0,"City":1.0,"District":1.0,"Street":[1.0],"PostalCode":1.0},"Location":{"LocationId":"NT_jSS8-66TH5TDBnFcDVvfcD_l_26286028_R","LocationType":"point","DisplayPosition":{"Latitude":52.97351,"Longitude":-1.07419},"MapView":{"TopLeft":{"Latitude":52.97356,"Longitude":-1.07423},"BottomRight":{"Latitude":52.97351,"Longitude":-1.07419}},"Address":{"Label":"Shearing Hill, Nottingham, NG4 3, United Kingdom","Country":"GBR","State":"England","County":"Nottinghamshire","City":"Nottingham","District":"Carlton","Street":"Shearing Hill","PostalCode":"NG4 3","AdditionalData":[{"value":"United Kingdom","key":"CountryName"},{"value":"England","key":"StateName"},{"value":"Nottinghamshire","key":"CountyName"}]},"MapReference":{"ReferenceId":"26286028","Spot":0.0,"SideOfStreet":"right","StateId":"20248595","CountyId":"20344764","CityId":"20356833","DistrictId":"20356861"}}},{"Relevance":1.0,"Distance":28.5,"MatchLevel":"houseNumber","MatchQuality":{"Country":1.0,"State":1.0,"County":1.0,"City":1.0,"District":1.0,"Street":[1.0],"HouseNumber":1.0,"PostalCode":1.0},"MatchType":"interpolated","Location":{"LocationId":"NT_KD7a1vjy3-tTE6OiNIgh1A_l_755498986_R_zUD","LocationType":"point","DisplayPosition":{"Latitude":52.97368,"Longitude":-1.07431},"MapView":{"TopLeft":{"Latitude":52.9748042,"Longitude":-1.0761768},"BottomRight":{"Latitude":52.9725559,"Longitude":-1.0724432}},"Address":{"Label":"35 Shearing Hill, Nottingham, NG4 3GY, United Kingdom","Country":"GBR","State":"England","County":"Nottinghamshire","City":"Nottingham","District":"Carlton","Street":"Shearing Hill","HouseNumber":"35","PostalCode":"NG4 3GY","AdditionalData":[{"value":"United Kingdom","key":"CountryName"},{"value":"England","key":"StateName"},{"value":"Nottinghamshire","key":"CountyName"}]},"MapReference":{"ReferenceId":"755498986","Spot":0.41,"SideOfStreet":"right","StateId":"20248595","CountyId":"20344764","CityId":"20356833","DistrictId":"20356861"}}},{"Relevance":1.0,"Distance":31.0,"MatchLevel":"houseNumber","MatchQuality":{"Country":1.0,"State":1.0,"County":1.0,"City":1.0,"District":1.0,"Street":[1.0],"HouseNumber":1.0,"PostalCode":1.0},"MatchType":"interpolated","Location":{"LocationId":"NT_KD7a1vjy3-tTE6OiNIgh1A_l_1211837961_R_zcD","LocationType":"point","DisplayPosition":{"Latitude":52.973194,"Longitude":-1.0739143},"MapView":{"TopLeft":{"Latitude":52.9743182,"Longitude":-1.0757811},"BottomRight":{"Latitude":52.9720699,"Longitude":-1.0720476}},"Address":{"Label":"37 Shearing Hill, Nottingham, NG4 3GY, United Kingdom","Country":"GBR","State":"England","County":"Nottinghamshire","City":"Nottingham","District":"Carlton","Street":"Shearing Hill","HouseNumber":"37","PostalCode":"NG4 3GY","AdditionalData":[{"value":"United Kingdom","key":"CountryName"},{"value":"England","key":"StateName"},{"value":"Nottinghamshire","key":"CountyName"}]},"MapReference":{"ReferenceId":"1211837961","Spot":0.81,"SideOfStreet":"right","StateId":"20248595","CountyId":"20344764","CityId":"20356833","DistrictId":"20356861"}}},{"Relevance":1.0,"Distance":31.4,"MatchLevel":"postalCode","MatchQuality":{"PostalCode":1.0},"MatchType":"interpolated","Location":{"LocationId":"NT_IzBaVkZ4e2fCDUsk-UIFRC_l_26286017_R_yAD","LocationType":"point","DisplayPosition":{"Latitude":52.97374,"Longitude":-1.07348},"MapView":{"TopLeft":{"Latitude":52.9827332,"Longitude":-1.0884144},"BottomRight":{"Latitude":52.9647468,"Longitude":-1.0585456}},"Address":{"Label":"NG4 3GJ, Nottingham, England, United Kingdom","Country":"GBR","State":"England","County":"Nottinghamshire","City":"Nottingham","PostalCode":"NG4 3GJ","AdditionalData":[{"value":"United Kingdom","key":"CountryName"},{"value":"England","key":"StateName"},{"value":"Nottinghamshire","key":"CountyName"}]},"MapReference":{"ReferenceId":"26286017","Spot":0.42,"SideOfStreet":"neither","StateId":"20248595","CountyId":"20344764","CityId":"20356833"}}},{"Relevance":1.0,"Distance":38.3,"MatchLevel":"postalCode","MatchQuality":{"PostalCode":1.0},"MatchType":"interpolated","Location":{"LocationId":"NT_KD7a1vjy3-tTE6OiNIgh1A_l_755498984_R_yMD","LocationType":"point","DisplayPosition":{"Latitude":52.97349,"Longitude":-1.07442},"MapView":{"TopLeft":{"Latitude":52.9824832,"Longitude":-1.0893543},"BottomRight":{"Latitude":52.9644968,"Longitude":-1.0594857}},"Address":{"Label":"NG4 3GX, Nottingham, England, United Kingdom","Country":"GBR","State":"England","County":"Nottinghamshire","City":"Nottingham","PostalCode":"NG4 3GX","AdditionalData":[{"value":"United Kingdom","key":"CountryName"},{"value":"England","key":"StateName"},{"value":"Nottinghamshire","key":"CountyName"}]},"MapReference":{"ReferenceId":"755498984","Spot":0.27,"SideOfStreet":"neither","StateId":"20248595","CountyId":"20344764","CityId":"20356833"}}},{"Relevance":1.0,"Distance":45.1,"MatchLevel":"houseNumber","MatchQuality":{"Country":1.0,"State":1.0,"County":1.0,"City":1.0,"District":1.0,"Street":[1.0],"HouseNumber":1.0,"PostalCode":1.0},"MatchType":"interpolated","Location":{"LocationId":"NT_KD7a1vjy3-tTE6OiNIgh1A_l_755498987_R_ycD","LocationType":"point","DisplayPosition":{"Latitude":52.97386,"Longitude":-1.07441},"MapView":{"TopLeft":{"Latitude":52.9749842,"Longitude":-1.0762768},"BottomRight":{"Latitude":52.9727359,"Longitude":-1.0725432}},"Address":{"Label":"27 Shearing Hill, Nottingham, NG4 3GY, United Kingdom","Country":"GBR","State":"England","County":"Nottinghamshire","City":"Nottingham","District":"Carlton","Street":"Shearing Hill","HouseNumber":"27","PostalCode":"NG4 3GY","AdditionalData":[{"value":"United Kingdom","key":"CountryName"},{"value":"England","key":"StateName"},{"value":"Nottinghamshire","key":"CountyName"}]},"MapReference":{"ReferenceId":"755498987","Spot":0.0,"SideOfStreet":"right","StateId":"20248595","CountyId":"20344764","CityId":"20356833","DistrictId":"20356861"}}},{"Relevance":1.0,"Distance":47.5,"MatchLevel":"street","MatchQuality":{"Country":1.0,"State":1.0,"County":1.0,"City":1.0,"District":1.0,"Street":[1.0],"PostalCode":1.0},"Location":{"LocationId":"NT_WBLExrokPYVedqSVPcSFgD_l_755498988_R","LocationType":"point","DisplayPosition":{"Latitude":52.97386,"Longitude":-1.07441},"MapView":{"TopLeft":{"Latitude":52.97386,"Longitude":-1.07524},"BottomRight":{"Latitude":52.9736,"Longitude":-1.07441}},"Address":{"Label":"Hanselin Court, Nottingham, NG4 3, United Kingdom","Country":"GBR","State":"England","County":"Nottinghamshire","City":"Nottingham","District":"Carlton","Street":"Hanselin Court","PostalCode":"NG4 3","AdditionalData":[{"value":"United Kingdom","key":"CountryName"},{"value":"England","key":"StateName"},{"value":"Nottinghamshire","key":"CountyName"}]},"MapReference":{"ReferenceId":"755498988","Spot":1.0,"SideOfStreet":"right","StateId":"20248595","CountyId":"20344764","CityId":"20356833","DistrictId":"20356861"}}}]}]}}