{"Response":{"MetaInfo":{"Timestamp":"2020-03-28T10:22:30.543+0000","NextPageInformation":"2"},"View":[{"_type":"SearchResultsViewType","ViewId":0,"Result":[{"Relevance":1.0,"Distance":0.0,"Direction":0.0,"MatchLevel":"district","MatchQuality":{"Country":1.0,"State":1.0,"County":1.0,"City":1.0,"District":1.0,"PostalCode":1.0},"Location":{"LocationId":"NT_pwTCmLaCbyexLElb6U59NB","LocationType":"point","DisplayPosition":{"Latitude":52.9204434,"Longitude":12.7911103},"MapView":{"TopLeft":{"Latitude":52.95433,"Longitude":12.7759},"BottomRight":{"Latitude":52.90127,"Longitude":12.84146}},"Address":{"Label":"Neuruppin, Brandenburg, Deutschland","Country":"DEU","State":"Brandenburg","County":"Ostprignitz-Ruppin","City":"Neuruppin","District":"Neuruppin","PostalCode":"16816","AdditionalData":[{"value":"Deutschland","key":"CountryName"},{"value":"Brandenburg","key":"StateName"},{"value":"Ostprignitz-Ruppin","key":"CountyName"}]},"MapReference":{"ReferenceId":"77302648","SideOfStreet":"neither","CountryId":"20147700","StateId":"20187428","CountyId":"20188666","CityId":"20188733","DistrictId":"20188735"}}},{"Relevance":1.0,"Distance":28.3,"MatchLevel":"houseNumber","MatchQuality":{"Country":1.0,"State":1.0,"County":1.0,"City":1.0,"District":1.0,"Street":[1.0],"HouseNumber":1.0,"PostalCode":1.0},"MatchType":"interpolated","Location":{"LocationId":"NT_OY1YdWQG472QNbfaG-wblB_0MTQ","LocationType":"point","DisplayPosition":{"Latitude":52.92078,"Longitude":12.79034},"MapView":{"TopLeft":{"Latitude":52.9219042,"Longitude":12.7884755},"BottomRight":{"Latitude":52.9196558,"Longitude":12.7922045}},"Address":{"Label":"Neustädter Straße 43A, 16816 Neuruppin, Deutschland","Country":"DEU","State":"Brandenburg","County":"Ostprignitz-Ruppin","City":"Neuruppin","District":"Neuruppin","Street":"Neustädter Straße","HouseNumber":"43A","PostalCode":"16816","AdditionalData":[{"value":"Deutschland","key":"CountryName"},{"value":"Brandenburg","key":"StateName"},{"value":"Ostprignitz-Ruppin","key":"CountyName"}]},"MapReference":{"ReferenceId":"1266508860","Spot":0.68,"SideOfStreet":"right","CountryId":"20147700","StateId":"20187428","CountyId":"20188666","CityId":"20188733","DistrictId":"20188735","AddressId":"181835022","RoadLinkId":"593086198"}}},{"Relevance":1.0,"Distance":37.3,"MatchLevel":"houseNumber","MatchQuality":{"Country":1.0,"State":1.0,"County":1.0,"City":1.0,"District":1.0,"Street":[1.0],"HouseNumber":1.0,"PostalCode":1.0},"MatchType":"interpolated","Location":{"LocationId":"NT_OY1YdWQG472QNbfaG-wblB_0QD","LocationType":"point","DisplayPosition":{"Latitude":52.92105,"Longitude":12.79122},"MapView":{"TopLeft":{"Latitude":52.9221742,"Longitude":12.7893555},"BottomRight":{"Latitude":52.9199258,"Longitude":12.7930845}},"Address":{"Label":"Neustädter Straße 44, 16816 Neuruppin, Deutschland","Country":"DEU","State":"Brandenburg","County":"Ostprignitz-Ruppin","City":"Neuruppin","District":"Neuruppin","Street":"Neustädter Straße","HouseNumber":"44","PostalCode":"16816","AdditionalData":[{"value":"Deutschland","key":"CountryName"},{"value":"Brandenburg","key":"StateName"},{"value":"Ostprignitz-Ruppin","key":"CountyName"}]},"MapReference":{"ReferenceId":"1266508861","Spot":0.9,"SideOfStreet":"right","CountryId":"20147700","StateId":"20187428","CountyId":"20188666","CityId":"20188733","DistrictId":"20188735","AddressId":"181835020","RoadLinkId":"593086199"}}},{"Relevance":1.0,"Distance":106.6,"MatchLevel":"houseNumber","MatchQuality":{"Country":1.0,"State":1.0,"County":1.0,"City":1.0,"District":1.0,"Street":[1.0],"HouseNumber":1.0,"PostalCode":1.0},"MatchType":"interpolated","Location":{"LocationId":"NT_ypKyuU8uKqQW.lgTPXBWbB_0AD","LocationType":"point","DisplayPosition":{"Latitude":52.92022,"Longitude":12.7892},"MapView":{"TopLeft":{"Latitude":52.9213442,"Longitude":12.7873355},"BottomRight":{"Latitude":52.9190958,"Longitude":12.7910645}},"Address":{"Label":"Thomas-Mann-Straße 40, 16816 Neuruppin, Deutschland","Country":"DEU","State":"Brandenburg","County":"Ostprignitz-Ruppin","City":"Neuruppin","District":"Neuruppin","Street":"Thomas-Mann-Straße","HouseNumber":"40","PostalCode":"16816","AdditionalData":[{"value":"Deutschland","key":"CountryName"},{"value":"Brandenburg","key":"StateName"},{"value":"Ostprignitz-Ruppin","key":"CountyName"}]},"MapReference":{"ReferenceId":"544553904","Spot":0.89,"SideOfStreet":"right","CountryId":"20147700","StateId":"20187428","CountyId":"20188666","CityId":"20188733","DistrictId":"20188735","AddressId":"790060726","RoadLinkId":"37551128"}}},{"Relevance":1.0,"Distance":109.3,"MatchLevel":"houseNumber","MatchQuality":{"Country":1.0,"State":1.0,"County":1.0,"City":1.0,"District":1.0,"Street":[1.0],"HouseNumber":1.0,"PostalCode":1.0},"MatchType":"interpolated","Location":{"LocationId":"NT_AG04W9.2Go1w1N20Lv25WB_ygzQ","LocationType":"point","DisplayPosition":{"Latitude":52.91967,"Longitude":12.7928},"MapView":{"TopLeft":{"Latitude":52.9207942,"Longitude":12.7909355},"BottomRight":{"Latitude":52.9185458,"Longitude":12.7946645}},"Address":{"Label":"Franz-Maecker-Straße 28C, 16816 Neuruppin, Deutschland","Country":"DEU","State":"Brandenburg","County":"Ostprignitz-Ruppin","City":"Neuruppin","District":"Neuruppin","Street":"Franz-Maecker-Straße","HouseNumber":"28C","PostalCode":"16816","AdditionalData":[{"value":"Deutschland","key":"CountryName"},{"value":"Brandenburg","key":"StateName"},{"value":"Ostprignitz-Ruppin","key":"CountyName"}]},"MapReference":{"ReferenceId":"544552707","Spot":0.21,"SideOfStreet":"left","CountryId":"20147700","StateId":"20187428","CountyId":"20188666","CityId":"20188733","DistrictId":"20188735","AddressId":"182570785","RoadLinkId":"38000396"}}},{"Relevance":1.0,"Distance":111.5,"MatchLevel":"houseNumber","MatchQuality":{"Country":1.0,"State":1.0,"County":1.0,"City":1.0,"District":1.0,"Street":[1.0],"HouseNumber":1.0,"PostalCode":1.0},"MatchType":"interpolated","Location":{"LocationId":"NT_AG04W9.2Go1w1N20Lv25WB_zAzQ","LocationType":"point","DisplayPosition":{"Latitude":52.91947,"Longitude":12.79151},"MapView":{"TopLeft":{"Latitude":52.9205942,"Longitude":12.7896455},"BottomRight":{"Latitude":52.9183458,"Longitude":12.7933745}},"Address":{"Label":"Franz-Maecker-Straße 30C, 16816 Neuruppin, Deutschland","Country":"DEU","State":"Brandenburg","County":"Ostprignitz-Ruppin","City":"Neuruppin","District":"Neuruppin","Street":"Franz-Maecker-Straße","HouseNumber":"30C","PostalCode":"16816","AdditionalData":[{"value":"Deutschland","key":"CountryName"},{"value":"Brandenburg","key":"StateName"},{"value":"Ostprignitz-Ruppin","key":"CountyName"}]},"MapReference":{"ReferenceId":"544553902","Spot":0.54,"SideOfStreet":"right","CountryId":"20147700","StateId":"20187428","CountyId":"20188666","CityId":"20188733","DistrictId":"20188735","AddressId":"181717199","RoadLinkId":"37815593"}}},{"Relevance":1.0,"Distance":113.5,"MatchLevel":"houseNumber","MatchQuality":{"Country":1.0,"State":1.0,"County":1.0,"City":1.0,"District":1.0,"Street":[1.0],"HouseNumber":1.0,"PostalCode":1.0},"MatchType":"interpolated","Location":{"LocationId":"NT_OY1YdWQG472QNbfaG-wblB_0UD","LocationType":"point","DisplayPosition":{"Latitude":52.9213,"Longitude":12.79203},"MapView":{"TopLeft":{"Latitude":52.9224242,"Longitude":12.7901655},"BottomRight":{"Latitude":52.9201758,"Longitude":12.7938945}},"Address":{"Label":"Neustädter Straße 45, 16816 Neuruppin, Deutschland","Country":"DEU","State":"Brandenburg","County":"Ostprignitz-Ruppin","City":"Neuruppin","District":"Neuruppin","Street":"Neustädter Straße","HouseNumber":"45","PostalCode":"16816","AdditionalData":[{"value":"Deutschland","key":"CountryName"},{"value":"Brandenburg","key":"StateName"},{"value":"Ostprignitz-Ruppin","key":"CountyName"}]},"MapReference":{"ReferenceId":"916083192","Spot":0.53,"SideOfStreet":"right","CountryId":"20147700","StateId":"20187428","CountyId":"20188666","CityId":"20188733","DistrictId":"20188735","AddressId":"182610191","RoadLinkId":"273671129"}}},{"Relevance":1.0,"Distance":139.9,"MatchLevel":"houseNumber","MatchQuality":{"Country":1.0,"State":1.0,"County":1.0,"City":1.0,"District":1.0,"Street":[1.0],"HouseNumber":1.0,"PostalCode":1.0},"MatchType":"interpolated","Location":{"LocationId":"NT_MSMDzW80DecD18W-U6t-wD_2A","LocationType":"point","DisplayPosition":{"Latitude":52.92105,"Longitude":12.79315},"MapView":{"TopLeft":{"Latitude":52.9221742,"Longitude":12.7912855},"BottomRight":{"Latitude":52.9199258,"Longitude":12.7950145}},"Address":{"Label":"Damaschkeweg 6, 16816 Neuruppin, Deutschland","Country":"DEU","State":"Brandenburg","County":"Ostprignitz-Ruppin","City":"Neuruppin","District":"Neuruppin","Street":"Damaschkeweg","HouseNumber":"6","PostalCode":"16816","AdditionalData":[{"value":"Deutschland","key":"CountryName"},{"value":"Brandenburg","key":"StateName"},{"value":"Ostprignitz-Ruppin","key":"CountyName"}]},"MapReference":{"ReferenceId":"544553915","Spot":0.18,"SideOfStreet":"left","CountryId":"20147700","StateId":"20187428","CountyId":"20188666","CityId":"20188733","DistrictId":"20188735","AddressId":"181936835","RoadLinkId":"38004727"}}},{"Relevance":1.0,"Distance":142.3,"MatchLevel":"houseNumber","MatchQuality":{"Country":1.0,"State":1.0,"County":1.0,"City":1.0,"District":1.0,"Street":[1.0],"HouseNumber":1.0,"PostalCode":1.0},"MatchType":"interpolated","Location":{"LocationId":"NT_AG04W9.2Go1w1N20Lv25WB_ykjQ","LocationType":"point","DisplayPosition":{"Latitude":52.9192,"Longitude":12.79161},"MapView":{"TopLeft":{"Latitude":52.9203242,"Longitude":12.7897456},"BottomRight":{"Latitude":52.9180758,"Longitude":12.7934744}},"Address":{"Label":"Franz-Maecker-Straße 29B, 16816 Neuruppin, Deutschland","Country":"DEU","State":"Brandenburg","County":"Ostprignitz-Ruppin","City":"Neuruppin","District":"Neuruppin","Street":"Franz-Maecker-Straße","HouseNumber":"29B","PostalCode":"16816","AdditionalData":[{"value":"Deutschland","key":"CountryName"},{"value":"Brandenburg","key":"StateName"},{"value":"Ostprignitz-Ruppin","key":"CountyName"}]},"MapReference":{"ReferenceId":"544595322","Spot":0.48,"SideOfStreet":"right","CountryId":"20147700","StateId":"20187428","CountyId":"20188666","CityId":"20188733","DistrictId":"20188735","AddressId":"182678144","RoadLinkId":"37579116"}}},{"Relevance":1.0,"Distance":157.8,"MatchLevel":"houseNumber","MatchQuality":{"Country":1.0,"State":1.0,"County":1.0,"City":1.0,"District":1.0,"Street":[1.0],"HouseNumber":1.0,"PostalCode":1.0},"MatchType":"interpolated","Location":{"LocationId":"NT_AG04W9.2Go1w1N20Lv25WB_ycDR","LocationType":"point","DisplayPosition":{"Latitude":52.91931,"Longitude":12.79255},"MapView":{"TopLeft":{"Latitude":52.9204342,"Longitude":12.7906855},"BottomRight":{"Latitude":52.9181858,"Longitude":12.7944145}},"Address":{"Label":"Franz-Maecker-Straße 27D, 16816 Neuruppin, Deutschland","Country":"DEU","State":"Brandenburg","County":"Ostprignitz-Ruppin","City":"Neuruppin","District":"Neuruppin","Street":"Franz-Maecker-Straße","HouseNumber":"27D","PostalCode":"16816","AdditionalData":[{"value":"Deutschland","key":"CountryName"},{"value":"Brandenburg","key":"StateName"},{"value":"Ostprignitz-Ruppin","key":"CountyName"}]},"MapReference":{"ReferenceId":"544552708","Spot":0.77,"SideOfStreet":"left","CountryId":"20147700","StateId":"20187428","CountyId":"20188666","CityId":"20188733","DistrictId":"20188735","AddressId":"181952987","RoadLinkId":"37881671"}}}]}]}}