{"Response":{"MetaInfo":{"Timestamp":"2020-03-28T11:00:04.729+0000","NextPageInformation":"2"},"View":[{"_type":"SearchResultsViewType","ViewId":0,"Result":[{"Relevance":1.0,"Distance":0.0,"Direction":0.0,"MatchLevel":"district","MatchQuality":{"Country":1.0,"State":1.0,"County":1.0,"City":1.0,"District":1.0,"PostalCode":1.0},"Location":{"LocationId":"NT_u-4wcvQEsmVLLQNUMJTnaC","LocationType":"point","DisplayPosition":{"Latitude":52.9930542,"Longitude":9.8580778},"MapView":{"TopLeft":{"Latitude":53.00651,"Longitude":9.80894},"BottomRight":{"Latitude":52.9679,"Longitude":9.87777}},"Address":{"Label":"Soltau, Niedersachsen, Deutschland","Country":"DEU","State":"Niedersachsen","County":"Heidekreis","City":"Soltau","District":"Soltau","PostalCode":"29614","AdditionalData":[{"value":"Deutschland","key":"CountryName"},{"value":"Niedersachsen","key":"StateName"},{"value":"Heidekreis","key":"CountyName"}]},"MapReference":{"ReferenceId":"1058159443","SideOfStreet":"neither","CountryId":"20147700","StateId":"20151542","CountyId":"20155299","CityId":"20155405","DistrictId":"20155411"}}},{"Relevance":1.0,"Distance":55.4,"MatchLevel":"street","MatchQuality":{"Country":1.0,"State":1.0,"County":1.0,"City":1.0,"District":1.0,"Street":[1.0],"PostalCode":1.0},"Location":{"LocationId":"NT_SFZ0KWLaFZemQIoKNOWipD_l_80711437_L","LocationType":"point","DisplayPosition":{"Latitude":52.99267,"Longitude":9.85755},"MapView":{"TopLeft":{"Latitude":52.99267,"Longitude":9.85681},"BottomRight":{"Latitude":52.99221,"Longitude":9.85755}},"Address":{"Label":"Oeninger Weg, 29614 Soltau, Deutschland","Country":"DEU","State":"Niedersachsen","County":"Heidekreis","City":"Soltau","District":"Soltau","Street":"Oeninger Weg","PostalCode":"29614","AdditionalData":[{"value":"Deutschland","key":"CountryName"},{"value":"Niedersachsen","key":"StateName"},{"value":"Heidekreis","key":"CountyName"}]},"MapReference":{"ReferenceId":"80711437","Spot":1.0,"SideOfStreet":"left","CountryId":"20147700","StateId":"20151542","CountyId":"20155299","CityId":"20155405","DistrictId":"20155411"}}},{"Relevance":1.0,"Distance":103.7,"MatchLevel":"houseNumber","MatchQuality":{"Country":1.0,"State":1.0,"County":1.0,"City":1.0,"Street":[1.0],"HouseNumber":1.0,"PostalCode":1.0},"MatchType":"interpolated","Location":{"LocationId":"NT_xFBRJKvIcZqCcitactTAVB_1kD","LocationType":"point","DisplayPosition":{"Latitude":52.99362,"Longitude":9.85907},"MapView":{"TopLeft":{"Latitude":52.9947442,"Longitude":9.8572023},"BottomRight":{"Latitude":52.9924958,"Longitude":9.8609377}},"Address":{"Label":"Oeninger Weg 59, 29614 Soltau, Deutschland","Country":"DEU","State":"Niedersachsen","County":"Heidekreis","City":"Soltau","Street":"Oeninger Weg","HouseNumber":"59","PostalCode":"29614","AdditionalData":[{"value":"Deutschland","key":"CountryName"},{"value":"Niedersachsen","key":"StateName"},{"value":"Heidekreis","key":"CountyName"}]},"MapReference":{"ReferenceId":"80711426","Spot":0.56,"SideOfStreet":"left","CountryId":"20147700","StateId":"20151542","CountyId":"20155299","CityId":"20155405","AddressId":"181111061","RoadLinkId":"36557474"}}},{"Relevance":1.0,"Distance":104.8,"MatchLevel":"houseNumber","MatchQuality":{"Country":1.0,"State":1.0,"County":1.0,"City":1.0,"District":1.0,"Street":[1.0],"HouseNumber":1.0,"PostalCode":1.0},"MatchType":"interpolated","Location":{"LocationId":"NT_Kf.gYXETCb.BupFeLZ1gxC_1MD","LocationType":"point","DisplayPosition":{"Latitude":52.99228,"Longitude":9.8566},"MapView":{"TopLeft":{"Latitude":52.9934042,"Longitude":9.8547324},"BottomRight":{"Latitude":52.9911558,"Longitude":9.8584676}},"Address":{"Label":"Kantweg 53, 29614 Soltau, Deutschland","Country":"DEU","State":"Niedersachsen","County":"Heidekreis","City":"Soltau","District":"Soltau","Street":"Kantweg","HouseNumber":"53","PostalCode":"29614","AdditionalData":[{"value":"Deutschland","key":"CountryName"},{"value":"Niedersachsen","key":"StateName"},{"value":"Heidekreis","key":"CountyName"}]},"MapReference":{"ReferenceId":"80711429","Spot":0.22,"SideOfStreet":"right","CountryId":"20147700","StateId":"20151542","CountyId":"20155299","CityId":"20155405","DistrictId":"20155411","AddressId":"178297895","RoadLinkId":"36421999"}}},{"Relevance":1.0,"Distance":151.8,"MatchLevel":"houseNumber","MatchQuality":{"Country":1.0,"State":1.0,"County":1.0,"City":1.0,"District":1.0,"Street":[1.0],"HouseNumber":1.0,"PostalCode":1.0},"MatchType":"interpolated","Location":{"LocationId":"NT_Kf.gYXETCb.BupFeLZ1gxC_0cD","LocationType":"point","DisplayPosition":{"Latitude":52.99257,"Longitude":9.85568},"MapView":{"TopLeft":{"Latitude":52.9936942,"Longitude":9.8538124},"BottomRight":{"Latitude":52.9914458,"Longitude":9.8575476}},"Address":{"Label":"Kantweg 47, 29614 Soltau, Deutschland","Country":"DEU","State":"Niedersachsen","County":"Heidekreis","City":"Soltau","District":"Soltau","Street":"Kantweg","HouseNumber":"47","PostalCode":"29614","AdditionalData":[{"value":"Deutschland","key":"CountryName"},{"value":"Niedersachsen","key":"StateName"},{"value":"Heidekreis","key":"CountyName"}]},"MapReference":{"ReferenceId":"80711417","Spot":0.16,"SideOfStreet":"right","CountryId":"20147700","StateId":"20151542","CountyId":"20155299","CityId":"20155405","DistrictId":"20155411","AddressId":"177134952","RoadLinkId":"36850627"}}},{"Relevance":1.0,"Distance":162.8,"MatchLevel":"street","MatchQuality":{"Country":1.0,"State":1.0,"County":1.0,"City":1.0,"Street":[1.0],"PostalCode":1.0},"Location":{"LocationId":"NT_41pJSzN7jqhi9mBHpIlMCD_l_586482131_L","LocationType":"point","DisplayPosition":{"Latitude":52.9930542,"Longitude":9.86051},"MapView":{"TopLeft":{"Latitude":52.99396,"Longitude":9.86051},"BottomRight":{"Latitude":52.99223,"Longitude":9.86061}},"Address":{"Label":"Am Oeninger Moor, 29614 Soltau, Deutschland","Country":"DEU","State":"Niedersachsen","County":"Heidekreis","City":"Soltau","Street":"Am Oeninger Moor","PostalCode":"29614","AdditionalData":[{"value":"Deutschland","key":"CountryName"},{"value":"Niedersachsen","key":"StateName"},{"value":"Heidekreis","key":"CountyName"}]},"MapReference":{"ReferenceId":"586482131","Spot":0.47,"SideOfStreet":"left","CountryId":"20147700","StateId":"20151542","CountyId":"20155299","CityId":"20155405"}}},{"Relevance":1.0,"Distance":164.9,"MatchLevel":"houseNumber","MatchQuality":{"Country":1.0,"State":1.0,"County":1.0,"City":1.0,"District":1.0,"Street":[1.0],"HouseNumber":1.0,"PostalCode":1.0},"MatchType":"interpolated","Location":{"LocationId":"NT_v3j-Qdu.ca3K3lyAZFujHA_yAD","LocationType":"point","DisplayPosition":{"Latitude":52.99241,"Longitude":9.85576},"MapView":{"TopLeft":{"Latitude":52.9935342,"Longitude":9.8538924},"BottomRight":{"Latitude":52.9912858,"Longitude":9.8576276}},"Address":{"Label":"Fichteweg 20, 29614 Soltau, Deutschland","Country":"DEU","State":"Niedersachsen","County":"Heidekreis","City":"Soltau","District":"Soltau","Street":"Fichteweg","HouseNumber":"20","PostalCode":"29614","AdditionalData":[{"value":"Deutschland","key":"CountryName"},{"value":"Niedersachsen","key":"StateName"},{"value":"Heidekreis","key":"CountyName"}]},"MapReference":{"ReferenceId":"80711435","Spot":0.93,"SideOfStreet":"right","CountryId":"20147700","StateId":"20151542","CountyId":"20155299","CityId":"20155405","DistrictId":"20155411","AddressId":"181547701","RoadLinkId":"36497785"}}},{"Relevance":1.0,"Distance":187.0,"MatchLevel":"street","MatchQuality":{"Country":1.0,"State":1.0,"County":1.0,"City":1.0,"Street":[1.0],"PostalCode":1.0},"Location":{"LocationId":"NT_41pJSzN7jqhi9mBHpIlMCD_l_586482132_L","LocationType":"point","DisplayPosition":{"Latitude":52.99399,"Longitude":9.8604},"MapView":{"TopLeft":{"Latitude":52.99399,"Longitude":9.8604},"BottomRight":{"Latitude":52.99396,"Longitude":9.86056}},"Address":{"Label":"Am Oeninger Moor, 29614 Soltau, Deutschland","Country":"DEU","State":"Niedersachsen","County":"Heidekreis","City":"Soltau","Street":"Am Oeninger Moor","PostalCode":"29614","AdditionalData":[{"value":"Deutschland","key":"CountryName"},{"value":"Niedersachsen","key":"StateName"},{"value":"Heidekreis","key":"CountyName"}]},"MapReference":{"ReferenceId":"586482132","Spot":1.0,"SideOfStreet":"left","CountryId":"20147700","StateId":"20151542","CountyId":"20155299","CityId":"20155405"}}},{"Relevance":1.0,"Distance":194.3,"MatchLevel":"street","MatchQuality":{"Country":1.0,"State":1.0,"County":1.0,"City":1.0,"PostalCode":1.0},"Location":{"LocationId":"NT_vFlgYS5.Nqs5S08d4gkz6C_l_586482133_L","LocationType":"point","DisplayPosition":{"Latitude":52.99396,"Longitude":9.86056},"MapView":{"TopLeft":{"Latitude":52.99413,"Longitude":9.86056},"BottomRight":{"Latitude":52.99396,"Longitude":9.86071}},"Address":{"Label":"29614 Soltau, Deutschland","Country":"DEU","State":"Niedersachsen","County":"Heidekreis","City":"Soltau","PostalCode":"29614","AdditionalData":[{"value":"Deutschland","key":"CountryName"},{"value":"Niedersachsen","key":"StateName"},{"value":"Heidekreis","key":"CountyName"}]},"MapReference":{"ReferenceId":"586482133","Spot":0.0,"SideOfStreet":"left","CountryId":"20147700","StateId":"20151542","CountyId":"20155299","CityId":"20155405"}}},{"Relevance":1.0,"Distance":225.7,"MatchLevel":"houseNumber","MatchQuality":{"Country":1.0,"State":1.0,"County":1.0,"City":1.0,"District":1.0,"Street":[1.0],"HouseNumber":1.0,"PostalCode":1.0},"MatchType":"interpolated","Location":{"LocationId":"NT_SFZ0KWLaFZemQIoKNOWipD_zQD","LocationType":"point","DisplayPosition":{"Latitude":52.99151,"Longitude":9.85584},"MapView":{"TopLeft":{"Latitude":52.9926342,"Longitude":9.8539724},"BottomRight":{"Latitude":52.9903858,"Longitude":9.8577076}},"Address":{"Label":"Oeninger Weg 34, 29614 Soltau, Deutschland","Country":"DEU","State":"Niedersachsen","County":"Heidekreis","City":"Soltau","District":"Soltau","Street":"Oeninger Weg","HouseNumber":"34","PostalCode":"29614","AdditionalData":[{"value":"Deutschland","key":"CountryName"},{"value":"Niedersachsen","key":"StateName"},{"value":"Heidekreis","key":"CountyName"}]},"MapReference":{"ReferenceId":"80711428","Spot":0.48,"SideOfStreet":"right","CountryId":"20147700","StateId":"20151542","CountyId":"20155299","CityId":"20155405","DistrictId":"20155411","AddressId":"790181674","RoadLinkId":"37200014"}}}]}]}}