{"Response":{"MetaInfo":{"Timestamp":"2020-03-28T10:34:21.945+0000","NextPageInformation":"2"},"View":[{"_type":"SearchResultsViewType","ViewId":0,"Result":[{"Relevance":1.0,"Distance":0.0,"Direction":0.0,"MatchLevel":"district","MatchQuality":{"Country":1.0,"State":1.0,"County":1.0,"City":1.0,"District":1.0,"PostalCode":1.0},"Location":{"LocationId":"NT_2NL69rFIi3CNm1Soh6kabD","LocationType":"point","DisplayPosition":{"Latitude":52.9625443,"Longitude":-1.3024779},"MapView":{"TopLeft":{"Latitude":52.99732,"Longitude":-1.33457},"BottomRight":{"Latitude":52.94188,"Longitude":-1.28407}},"Address":{"Label":"Ilkeston, England, United Kingdom","Country":"GBR","State":"England","County":"Derbyshire","City":"Ilkeston","District":"Ilkeston","PostalCode":"DE7 8","AdditionalData":[{"value":"United Kingdom","key":"CountryName"},{"value":"England","key":"StateName"},{"value":"Derbyshire","key":"CountyName"}]},"MapReference":{"ReferenceId":"1225217008","SideOfStreet":"neither","StateId":"20248595","CountyId":"20343933","CityId":"20353819","DistrictId":"20353820"}}},{"Relevance":1.0,"Distance":27.8,"MatchLevel":"houseNumber","MatchQuality":{"Country":1.0,"State":1.0,"County":1.0,"City":1.0,"District":1.0,"Street":[1.0],"HouseNumber":1.0,"PostalCode":1.0},"MatchType":"interpolated","Location":{"LocationId":"NT_EdrPj-BN9J-NVGGseiSrkD_l_1205609536_L_zgD","LocationType":"point","DisplayPosition":{"Latitude":52.9624402,"Longitude":-1.3020532},"MapView":{"TopLeft":{"Latitude":52.9635643,"Longitude":-1.3039195},"BottomRight":{"Latitude":52.961316,"Longitude":-1.3001869}},"Address":{"Label":"38 Cavendish Road, Ilkeston, DE7 5AN, United Kingdom","Country":"GBR","State":"England","County":"Derbyshire","City":"Ilkeston","District":"Ilkeston","Street":"Cavendish Road","HouseNumber":"38","PostalCode":"DE7 5AN","AdditionalData":[{"value":"United Kingdom","key":"CountryName"},{"value":"England","key":"StateName"},{"value":"Derbyshire","key":"CountyName"}]},"MapReference":{"ReferenceId":"1205609536","Spot":0.51,"SideOfStreet":"left","StateId":"20248595","CountyId":"20343933","CityId":"20353819","DistrictId":"20353820"}}},{"Relevance":1.0,"Distance":28.9,"MatchLevel":"houseNumber","MatchQuality":{"Country":1.0,"State":1.0,"County":1.0,"City":1.0,"District":1.0,"Street":[1.0],"HouseNumber":1.0,"PostalCode":1.0},"MatchType":"interpolated","Location":{"LocationId":"NT_NBwV.CzrDRN2cnv4KIOAtC_l_762625195_L_0AD","LocationType":"point","DisplayPosition":{"Latitude":52.9623502,"Longitude":-1.302885},"MapView":{"TopLeft":{"Latitude":52.9634744,"Longitude":-1.3047514},"BottomRight":{"Latitude":52.9612261,"Longitude":-1.3010187}},"Address":{"Label":"40 Cavendish Road, Ilkeston, DE7 5AN, United Kingdom","Country":"GBR","State":"England","County":"Derbyshire","City":"Ilkeston","District":"Ilkeston","Street":"Cavendish Road","HouseNumber":"40","PostalCode":"DE7 5AN","AdditionalData":[{"value":"United Kingdom","key":"CountryName"},{"value":"England","key":"StateName"},{"value":"Derbyshire","key":"CountyName"}]},"MapReference":{"ReferenceId":"762625195","Spot":0.5,"SideOfStreet":"left","StateId":"20248595","CountyId":"20343933","CityId":"20353819","DistrictId":"20353820"}}},{"Relevance":1.0,"Distance":34.6,"MatchLevel":"street","MatchQuality":{"Country":1.0,"State":1.0,"County":1.0,"City":1.0,"District":1.0,"Street":[1.0],"PostalCode":1.0},"Location":{"LocationId":"NT_IoRFn0ehhk7WevpOe68GFA_l_1205609538_L","LocationType":"point","DisplayPosition":{"Latitude":52.962633,"Longitude":-1.3019828},"MapView":{"TopLeft":{"Latitude":52.96352,"Longitude":-1.30207},"BottomRight":{"Latitude":52.96245,"Longitude":-1.30122}},"Address":{"Label":"Nicholas Close, Ilkeston, DE7 5, United Kingdom","Country":"GBR","State":"England","County":"Derbyshire","City":"Ilkeston","District":"Ilkeston","Street":"Nicholas Close","PostalCode":"DE7 5","AdditionalData":[{"value":"United Kingdom","key":"CountryName"},{"value":"England","key":"StateName"},{"value":"Derbyshire","key":"CountyName"}]},"MapReference":{"ReferenceId":"1205609538","Spot":0.08,"SideOfStreet":"left","StateId":"20248595","CountyId":"20343933","CityId":"20353819","DistrictId":"20353820"}}},{"Relevance":1.0,"Distance":44.5,"MatchLevel":"houseNumber","MatchQuality":{"Country":1.0,"State":1.0,"County":1.0,"City":1.0,"District":1.0,"Street":[1.0],"HouseNumber":1.0,"PostalCode":1.0},"MatchType":"interpolated","Location":{"LocationId":"NT_AAbA2nUCCr8DAywj3GxNKC_l_26067536_R_zcD","LocationType":"point","DisplayPosition":{"Latitude":52.9620291,"Longitude":-1.3027083},"MapView":{"TopLeft":{"Latitude":52.9631533,"Longitude":-1.3045746},"BottomRight":{"Latitude":52.960905,"Longitude":-1.300842}},"Address":{"Label":"37 Inglefield Road, Ilkeston, DE7 5, United Kingdom","Country":"GBR","State":"England","County":"Derbyshire","City":"Ilkeston","District":"Ilkeston","Street":"Inglefield Road","HouseNumber":"37","PostalCode":"DE7 5","AdditionalData":[{"value":"United Kingdom","key":"CountryName"},{"value":"England","key":"StateName"},{"value":"Derbyshire","key":"CountyName"}]},"MapReference":{"ReferenceId":"26067536","Spot":0.67,"SideOfStreet":"right","StateId":"20248595","CountyId":"20343933","CityId":"20353819","DistrictId":"20353820"}}},{"Relevance":1.0,"Distance":62.2,"MatchLevel":"postalCode","MatchQuality":{"PostalCode":1.0},"MatchType":"interpolated","Location":{"LocationId":"NT_EdrPj-BN9J-NVGGseiSrkD_l_1205609537_L_zYD","LocationType":"point","DisplayPosition":{"Latitude":52.96253,"Longitude":-1.30155},"MapView":{"TopLeft":{"Latitude":52.9715232,"Longitude":-1.3164805},"BottomRight":{"Latitude":52.9535368,"Longitude":-1.2866195}},"Address":{"Label":"DE7 5AN, Ilkeston, England, United Kingdom","Country":"GBR","State":"England","County":"Derbyshire","City":"Ilkeston","PostalCode":"DE7 5AN","AdditionalData":[{"value":"United Kingdom","key":"CountryName"},{"value":"England","key":"StateName"},{"value":"Derbyshire","key":"CountyName"}]},"MapReference":{"ReferenceId":"1205609537","Spot":0.51,"SideOfStreet":"neither","StateId":"20248595","CountyId":"20343933","CityId":"20353819"}}},{"Relevance":1.0,"Distance":75.0,"MatchLevel":"houseNumber","MatchQuality":{"Country":1.0,"State":1.0,"County":1.0,"City":1.0,"District":1.0,"Street":[1.0],"HouseNumber":1.0,"PostalCode":1.0},"MatchType":"interpolated","Location":{"LocationId":"NT_EdrPj-BN9J-NVGGseiSrkD_l_1205609537_L_zYD","LocationType":"point","DisplayPosition":{"Latitude":52.9624956,"Longitude":-1.3013538},"MapView":{"TopLeft":{"Latitude":52.9636198,"Longitude":-1.3032201},"BottomRight":{"Latitude":52.9613715,"Longitude":-1.2994874}},"Address":{"Label":"36 Cavendish Road, Ilkeston, DE7 5AN, United Kingdom","Country":"GBR","State":"England","County":"Derbyshire","City":"Ilkeston","District":"Ilkeston","Street":"Cavendish Road","HouseNumber":"36","PostalCode":"DE7 5AN","AdditionalData":[{"value":"United Kingdom","key":"CountryName"},{"value":"England","key":"StateName"},{"value":"Derbyshire","key":"CountyName"}]},"MapReference":{"ReferenceId":"1205609537","Spot":0.51,"SideOfStreet":"left","StateId":"20248595","CountyId":"20343933","CityId":"20353819","DistrictId":"20353820"}}},{"Relevance":1.0,"Distance":80.0,"MatchLevel":"houseNumber","MatchQuality":{"Country":1.0,"State":1.0,"County":1.0,"City":1.0,"District":1.0,"Street":[1.0],"HouseNumber":1.0,"PostalCode":1.0},"MatchType":"interpolated","Location":{"LocationId":"NT_GYXzaOzQh138cPc7DTP3sC_l_1064258972_R_2cD","LocationType":"point","DisplayPosition":{"Latitude":52.9625331,"Longitude":-1.3038947},"MapView":{"TopLeft":{"Latitude":52.9636573,"Longitude":-1.305761},"BottomRight":{"Latitude":52.961409,"Longitude":-1.3020284}},"Address":{"Label":"67 Lower Whitworth Road, Ilkeston, DE7 4LT, United Kingdom","Country":"GBR","State":"England","County":"Derbyshire","City":"Ilkeston","District":"Ilkeston","Street":"Lower Whitworth Road","HouseNumber":"67","PostalCode":"DE7 4LT","AdditionalData":[{"value":"United Kingdom","key":"CountryName"},{"value":"England","key":"StateName"},{"value":"Derbyshire","key":"CountyName"}]},"MapReference":{"ReferenceId":"1064258972","Spot":0.51,"SideOfStreet":"right","StateId":"20248595","CountyId":"20343933","CityId":"20353819","DistrictId":"20353820"}}},{"Relevance":1.0,"Distance":81.6,"MatchLevel":"street","MatchQuality":{"Country":1.0,"State":1.0,"County":1.0,"City":1.0,"District":1.0,"Street":[1.0],"PostalCode":1.0},"Location":{"LocationId":"NT_NBwV.CzrDRN2cnv4KIOAtC_l_26067500_L","LocationType":"point","DisplayPosition":{"Latitude":52.96229,"Longitude":-1.30362},"MapView":{"TopLeft":{"Latitude":52.96229,"Longitude":-1.30391},"BottomRight":{"Latitude":52.96227,"Longitude":-1.30362}},"Address":{"Label":"Cavendish Road, Ilkeston, DE7 4, United Kingdom","Country":"GBR","State":"England","County":"Derbyshire","City":"Ilkeston","District":"Ilkeston","Street":"Cavendish Road","PostalCode":"DE7 4","AdditionalData":[{"value":"United Kingdom","key":"CountryName"},{"value":"England","key":"StateName"},{"value":"Derbyshire","key":"CountyName"}]},"MapReference":{"ReferenceId":"26067500","Spot":1.0,"SideOfStreet":"left","StateId":"20248595","CountyId":"20343933","CityId":"20353819","DistrictId":"20353820"}}},{"Relevance":1.0,"Distance":85.0,"MatchLevel":"houseNumber","MatchQuality":{"Country":1.0,"State":1.0,"County":1.0,"City":1.0,"District":1.0,"Street":[1.0],"HouseNumber":1.0,"PostalCode":1.0},"MatchType":"interpolated","Location":{"LocationId":"NT_GYXzaOzQh138cPc7DTP3sC_l_1064258973_R_2UD","LocationType":"point","DisplayPosition":{"Latitude":52.9628363,"Longitude":-1.303861},"MapView":{"TopLeft":{"Latitude":52.9639605,"Longitude":-1.3057274},"BottomRight":{"Latitude":52.9617122,"Longitude":-1.3019947}},"Address":{"Label":"65 Lower Whitworth Road, Ilkeston, DE7 4LT, United Kingdom","Country":"GBR","State":"England","County":"Derbyshire","City":"Ilkeston","District":"Ilkeston","Street":"Lower Whitworth Road","HouseNumber":"65","PostalCode":"DE7 4LT","AdditionalData":[{"value":"United Kingdom","key":"CountryName"},{"value":"England","key":"StateName"},{"value":"Derbyshire","key":"CountyName"}]},"MapReference":{"ReferenceId":"1064258973","Spot":0.58,"SideOfStreet":"right","StateId":"20248595","CountyId":"20343933","CityId":"20353819","DistrictId":"20353820"}}}]}]}}