{"Response":{"MetaInfo":{"Timestamp":"2020-03-28T10:39:03.019+0000","NextPageInformation":"2"},"View":[{"_type":"SearchResultsViewType","ViewId":0,"Result":[{"Relevance":1.0,"Distance":0.0,"Direction":0.0,"MatchLevel":"district","MatchQuality":{"Country":1.0,"State":1.0,"County":1.0,"City":1.0,"District":1.0,"PostalCode":1.0},"Location":{"LocationId":"NT_90jZtBNvuljh.ex9ll5DAB","LocationType":"point","DisplayPosition":{"Latitude":52.9742284,"Longitude":-1.1506242},"MapView":{"TopLeft":{"Latitude":53.0187,"Longitude":-1.27314},"BottomRight":{"Latitude":52.90184,"Longitude":-1.05453}},"Address":{"Label":"Nottingham, England, United Kingdom","Country":"GBR","State":"England","County":"Nottinghamshire","City":"Nottingham","District":"Nottingham","PostalCode":"NG1 7","AdditionalData":[{"value":"United Kingdom","key":"CountryName"},{"value":"England","key":"StateName"},{"value":"Nottinghamshire","key":"CountyName"}]},"MapReference":{"ReferenceId":"1239210936","SideOfStreet":"neither","StateId":"20248595","CountyId":"20344764","CityId":"20356833","DistrictId":"20356834"}}},{"Relevance":1.0,"Distance":17.6,"MatchLevel":"houseNumber","MatchQuality":{"Country":1.0,"State":1.0,"County":1.0,"City":1.0,"District":1.0,"Street":[1.0],"HouseNumber":1.0,"PostalCode":1.0},"MatchType":"interpolated","Location":{"LocationId":"NT_26Cc83-70bwUzEPazisD.D_l_867561299_R_0ADO","LocationType":"point","DisplayPosition":{"Latitude":52.974315,"Longitude":-1.151045},"MapView":{"TopLeft":{"Latitude":52.9754392,"Longitude":-1.1529118},"BottomRight":{"Latitude":52.9731909,"Longitude":-1.1491782}},"Address":{"Label":"408 Mansfield Road, Nottingham, NG5 2EJ, United Kingdom","Country":"GBR","State":"England","County":"Nottinghamshire","City":"Nottingham","District":"Carrington","Street":"Mansfield Road","HouseNumber":"408","PostalCode":"NG5 2EJ","AdditionalData":[{"value":"United Kingdom","key":"CountryName"},{"value":"England","key":"StateName"},{"value":"Nottinghamshire","key":"CountyName"}]},"MapReference":{"ReferenceId":"867561299","Spot":0.5,"SideOfStreet":"right","StateId":"20248595","CountyId":"20344764","CityId":"20356833","DistrictId":"20356862"}}},{"Relevance":1.0,"Distance":29.5,"MatchLevel":"houseNumber","MatchQuality":{"Country":1.0,"State":1.0,"County":1.0,"City":1.0,"District":1.0,"Street":[1.0],"HouseNumber":1.0,"PostalCode":1.0},"MatchType":"interpolated","Location":{"LocationId":"NT_26Cc83-70bwUzEPazisD.D_l_867561300_R_0EDM","LocationType":"point","DisplayPosition":{"Latitude":52.97459,"Longitude":-1.15086},"MapView":{"TopLeft":{"Latitude":52.9757142,"Longitude":-1.1527268},"BottomRight":{"Latitude":52.9734659,"Longitude":-1.1489932}},"Address":{"Label":"410 Mansfield Road, Nottingham, NG5 2EJ, United Kingdom","Country":"GBR","State":"England","County":"Nottinghamshire","City":"Nottingham","District":"Carrington","Street":"Mansfield Road","HouseNumber":"410","PostalCode":"NG5 2EJ","AdditionalData":[{"value":"United Kingdom","key":"CountryName"},{"value":"England","key":"StateName"},{"value":"Nottinghamshire","key":"CountyName"}]},"MapReference":{"ReferenceId":"867561300","Spot":0.17,"SideOfStreet":"right","StateId":"20248595","CountyId":"20344764","CityId":"20356833","DistrictId":"20356862"}}},{"Relevance":1.0,"Distance":34.6,"MatchLevel":"street","MatchQuality":{"Country":1.0,"State":1.0,"County":1.0,"City":1.0,"District":1.0,"Street":[1.0],"PostalCode":1.0},"Location":{"LocationId":"NT_gWrUaJAJL1cq0EjF0lxYtA_l_867561301_L","LocationType":"point","DisplayPosition":{"Latitude":52.97447,"Longitude":-1.15095},"MapView":{"TopLeft":{"Latitude":52.97463,"Longitude":-1.15179},"BottomRight":{"Latitude":52.97447,"Longitude":-1.15095}},"Address":{"Label":"Yew Tree Avenue, Nottingham, NG5 2, United Kingdom","Country":"GBR","State":"England","County":"Nottinghamshire","City":"Nottingham","District":"Carrington","Street":"Yew Tree Avenue","PostalCode":"NG5 2","AdditionalData":[{"value":"United Kingdom","key":"CountryName"},{"value":"England","key":"StateName"},{"value":"Nottinghamshire","key":"CountyName"}]},"MapReference":{"ReferenceId":"867561301","Spot":0.0,"SideOfStreet":"left","StateId":"20248595","CountyId":"20344764","CityId":"20356833","DistrictId":"20356862"}}},{"Relevance":1.0,"Distance":52.4,"MatchLevel":"houseNumber","MatchQuality":{"Country":1.0,"State":1.0,"County":1.0,"City":1.0,"District":1.0,"Street":[1.0],"HouseNumber":1.0,"PostalCode":1.0},"MatchType":"interpolated","Location":{"LocationId":"NT_26Cc83-70bwUzEPazisD.D_l_762506638_R_0ADN","LocationType":"point","DisplayPosition":{"Latitude":52.9739667,"Longitude":-1.1512783},"MapView":{"TopLeft":{"Latitude":52.9750908,"Longitude":-1.1531451},"BottomRight":{"Latitude":52.9728425,"Longitude":-1.1494115}},"Address":{"Label":"404 Mansfield Road, Nottingham, NG5 2EJ, United Kingdom","Country":"GBR","State":"England","County":"Nottinghamshire","City":"Nottingham","District":"Carrington","Street":"Mansfield Road","HouseNumber":"404","PostalCode":"NG5 2EJ","AdditionalData":[{"value":"United Kingdom","key":"CountryName"},{"value":"England","key":"StateName"},{"value":"Nottinghamshire","key":"CountyName"}]},"MapReference":{"ReferenceId":"762506638","Spot":0.71,"SideOfStreet":"right","StateId":"20248595","CountyId":"20344764","CityId":"20356833","DistrictId":"20356862"}}},{"Relevance":1.0,"Distance":57.3,"MatchLevel":"postalCode","MatchQuality":{"PostalCode":1.0},"MatchType":"interpolated","Location":{"LocationId":"NT_26Cc83-70bwUzEPazisD.D_l_867561300_R_0EDM","LocationType":"point","DisplayPosition":{"Latitude":52.97458,"Longitude":-1.15125},"MapView":{"TopLeft":{"Latitude":52.9835732,"Longitude":-1.1661847},"BottomRight":{"Latitude":52.9655868,"Longitude":-1.1363153}},"Address":{"Label":"NG5 2DG, Nottingham, England, United Kingdom","Country":"GBR","State":"England","County":"Nottinghamshire","City":"Nottingham","PostalCode":"NG5 2DG","AdditionalData":[{"value":"United Kingdom","key":"CountryName"},{"value":"England","key":"StateName"},{"value":"Nottinghamshire","key":"CountyName"}]},"MapReference":{"ReferenceId":"867561300","Spot":0.17,"SideOfStreet":"neither","StateId":"20248595","CountyId":"20344764","CityId":"20356833"}}},{"Relevance":1.0,"Distance":76.8,"MatchLevel":"postalCode","MatchQuality":{"PostalCode":1.0},"Location":{"LocationId":"NT_gWrUaJAJL1cq0EjF0lxYtA_l_867561301_L","LocationType":"point","DisplayPosition":{"Latitude":52.97455,"Longitude":-1.15164},"MapView":{"TopLeft":{"Latitude":52.9835432,"Longitude":-1.1665747},"BottomRight":{"Latitude":52.9655568,"Longitude":-1.1367053}},"Address":{"Label":"NG5 2DJ, Nottingham, England, United Kingdom","Country":"GBR","State":"England","County":"Nottinghamshire","City":"Nottingham","PostalCode":"NG5 2DJ","AdditionalData":[{"value":"United Kingdom","key":"CountryName"},{"value":"England","key":"StateName"},{"value":"Nottinghamshire","key":"CountyName"}]},"MapReference":{"ReferenceId":"867561301","Spot":0.0,"SideOfStreet":"neither","StateId":"20248595","CountyId":"20344764","CityId":"20356833"}}},{"Relevance":1.0,"Distance":79.5,"MatchLevel":"houseNumber","MatchQuality":{"Country":1.0,"State":1.0,"County":1.0,"City":1.0,"District":1.0,"Street":[1.0],"HouseNumber":1.0,"PostalCode":1.0},"MatchType":"interpolated","Location":{"LocationId":"NT_25a1gCf6QIwE.V9m8L.BvB_l_26286235_R_3A","LocationType":"point","DisplayPosition":{"Latitude":52.9733914,"Longitude":-1.1508624},"MapView":{"TopLeft":{"Latitude":52.9745156,"Longitude":-1.1527292},"BottomRight":{"Latitude":52.9722673,"Longitude":-1.1489956}},"Address":{"Label":"7 Tavistock Drive, Nottingham, NG3 5DU, United Kingdom","Country":"GBR","State":"England","County":"Nottinghamshire","City":"Nottingham","District":"Mapperley","Street":"Tavistock Drive","HouseNumber":"7","PostalCode":"NG3 5DU","AdditionalData":[{"value":"United Kingdom","key":"CountryName"},{"value":"England","key":"StateName"},{"value":"Nottinghamshire","key":"CountyName"}]},"MapReference":{"ReferenceId":"26286235","Spot":0.79,"SideOfStreet":"right","StateId":"20248595","CountyId":"20344764","CityId":"20356833","DistrictId":"20356911"}}},{"Relevance":1.0,"Distance":93.1,"MatchLevel":"houseNumber","MatchQuality":{"Country":1.0,"State":1.0,"County":1.0,"City":1.0,"District":1.0,"Street":[1.0],"HouseNumber":1.0,"PostalCode":1.0},"MatchType":"interpolated","Location":{"LocationId":"NT_0SlIGBbihMb.63.zogSEqC_l_26285848_L_xA","LocationType":"point","DisplayPosition":{"Latitude":52.9752,"Longitude":-1.1506701},"MapView":{"TopLeft":{"Latitude":52.9763242,"Longitude":-1.152537},"BottomRight":{"Latitude":52.9740759,"Longitude":-1.1488032}},"Address":{"Label":"1 Church Drive, Nottingham, NG5 2AS, United Kingdom","Country":"GBR","State":"England","County":"Nottinghamshire","City":"Nottingham","District":"Carrington","Street":"Church Drive","HouseNumber":"1","PostalCode":"NG5 2AS","AdditionalData":[{"value":"United Kingdom","key":"CountryName"},{"value":"England","key":"StateName"},{"value":"Nottinghamshire","key":"CountyName"}]},"MapReference":{"ReferenceId":"26285848","Spot":0.12,"SideOfStreet":"left","StateId":"20248595","CountyId":"20344764","CityId":"20356833","DistrictId":"20356862"}}},{"Relevance":1.0,"Distance":99.2,"MatchLevel":"houseNumber","MatchQuality":{"Country":1.0,"State":1.0,"County":1.0,"City":1.0,"District":1.0,"Street":[1.0],"HouseNumber":1.0,"PostalCode":1.0},"MatchType":"interpolated","Location":{"LocationId":"NT_26Cc83-70bwUzEPazisD.D_l_836609853_R_0EDO","LocationType":"point","DisplayPosition":{"Latitude":52.9752,"Longitude":-1.15045},"MapView":{"TopLeft":{"Latitude":52.9763242,"Longitude":-1.1523168},"BottomRight":{"Latitude":52.9740759,"Longitude":-1.1485831}},"Address":{"Label":"418 Mansfield Road, Nottingham, NG5 2EJ, United Kingdom","Country":"GBR","State":"England","County":"Nottinghamshire","City":"Nottingham","District":"Carrington","Street":"Mansfield Road","HouseNumber":"418","PostalCode":"NG5 2EJ","AdditionalData":[{"value":"United Kingdom","key":"CountryName"},{"value":"England","key":"StateName"},{"value":"Nottinghamshire","key":"CountyName"}]},"MapReference":{"ReferenceId":"836609853","Spot":0.0,"SideOfStreet":"right","StateId":"20248595","CountyId":"20344764","CityId":"20356833","DistrictId":"20356862"}}}]}]}}