{"Response":{"MetaInfo":{"Timestamp":"2020-03-28T10:36:54.961+0000","NextPageInformation":"2"},"View":[{"_type":"SearchResultsViewType","ViewId":0,"Result":[{"Relevance":1.0,"Distance":0.0,"Direction":0.0,"MatchLevel":"district","MatchQuality":{"Country":1.0,"State":1.0,"County":1.0,"City":1.0,"District":1.0,"PostalCode":1.0},"Location":{"LocationId":"NT_6nHHrh92FLQcj4jfDVKYaC","LocationType":"point","DisplayPosition":{"Latitude":52.9072244,"Longitude":-1.5366087},"MapView":{"TopLeft":{"Latitude":52.92408,"Longitude":-1.57019},"BottomRight":{"Latitude":52.88632,"Longitude":-1.5138}},"Address":{"Label":"Mickleover, Derby, England, United Kingdom","Country":"GBR","State":"England","County":"Derbyshire","City":"Derby","District":"Mickleover","PostalCode":"DE3 9","AdditionalData":[{"value":"United Kingdom","key":"CountryName"},{"value":"England","key":"StateName"},{"value":"Derbyshire","key":"CountyName"}]},"MapReference":{"ReferenceId":"26074029","SideOfStreet":"neither","StateId":"20248595","CountyId":"20343933","CityId":"20353727","DistrictId":"20353764"}}},{"Relevance":1.0,"Distance":16.0,"MatchLevel":"houseNumber","MatchQuality":{"Country":1.0,"State":1.0,"County":1.0,"City":1.0,"District":1.0,"Street":[1.0],"HouseNumber":1.0,"PostalCode":1.0},"MatchType":"interpolated","Location":{"LocationId":"NT_hdvREcjP8N4hNE-QH2K7qA_l_26074420_R_xAD","LocationType":"point","DisplayPosition":{"Latitude":52.9069573,"Longitude":-1.5366289},"MapView":{"TopLeft":{"Latitude":52.9080815,"Longitude":-1.5384928},"BottomRight":{"Latitude":52.9058332,"Longitude":-1.5347649}},"Address":{"Label":"10 Cavendish Way, Derby, DE3 9BJ, United Kingdom","Country":"GBR","State":"England","County":"Derbyshire","City":"Derby","District":"Mickleover","Street":"Cavendish Way","HouseNumber":"10","PostalCode":"DE3 9BJ","AdditionalData":[{"value":"United Kingdom","key":"CountryName"},{"value":"England","key":"StateName"},{"value":"Derbyshire","key":"CountyName"}]},"MapReference":{"ReferenceId":"26074420","Spot":0.47,"SideOfStreet":"right","StateId":"20248595","CountyId":"20343933","CityId":"20353727","DistrictId":"20353764"}}},{"Relevance":1.0,"Distance":21.5,"MatchLevel":"houseNumber","MatchQuality":{"Country":1.0,"State":1.0,"County":1.0,"City":1.0,"District":1.0,"Street":[1.0],"HouseNumber":1.0,"PostalCode":1.0},"MatchType":"interpolated","Location":{"LocationId":"NT_hdvREcjP8N4hNE-QH2K7qA_l_26074371_R_xID","LocationType":"point","DisplayPosition":{"Latitude":52.90715,"Longitude":-1.5369801},"MapView":{"TopLeft":{"Latitude":52.9082742,"Longitude":-1.538844},"BottomRight":{"Latitude":52.9060259,"Longitude":-1.5351162}},"Address":{"Label":"12 Cavendish Way, Derby, DE3 9, United Kingdom","Country":"GBR","State":"England","County":"Derbyshire","City":"Derby","District":"Mickleover","Street":"Cavendish Way","HouseNumber":"12","PostalCode":"DE3 9","AdditionalData":[{"value":"United Kingdom","key":"CountryName"},{"value":"England","key":"StateName"},{"value":"Derbyshire","key":"CountyName"}]},"MapReference":{"ReferenceId":"26074371","Spot":0.17,"SideOfStreet":"right","StateId":"20248595","CountyId":"20343933","CityId":"20353727","DistrictId":"20353764"}}},{"Relevance":1.0,"Distance":22.1,"MatchLevel":"houseNumber","MatchQuality":{"Country":1.0,"State":1.0,"County":1.0,"City":1.0,"District":1.0,"Street":[1.0],"HouseNumber":1.0,"PostalCode":1.0},"MatchType":"interpolated","Location":{"LocationId":"NT_93RvA-2-GUB4IqLeq1vWQC_l_1199763307_L_xYD","LocationType":"point","DisplayPosition":{"Latitude":52.907425,"Longitude":-1.536195},"MapView":{"TopLeft":{"Latitude":52.9085492,"Longitude":-1.5380589},"BottomRight":{"Latitude":52.9063009,"Longitude":-1.5343311}},"Address":{"Label":"16 Hardwick Drive, Derby, DE3 9BN, United Kingdom","Country":"GBR","State":"England","County":"Derbyshire","City":"Derby","District":"Mickleover","Street":"Hardwick Drive","HouseNumber":"16","PostalCode":"DE3 9BN","AdditionalData":[{"value":"United Kingdom","key":"CountryName"},{"value":"England","key":"StateName"},{"value":"Derbyshire","key":"CountyName"}]},"MapReference":{"ReferenceId":"1199763307","Spot":0.5,"SideOfStreet":"left","StateId":"20248595","CountyId":"20343933","CityId":"20353727","DistrictId":"20353764"}}},{"Relevance":1.0,"Distance":26.5,"MatchLevel":"houseNumber","MatchQuality":{"Country":1.0,"State":1.0,"County":1.0,"City":1.0,"District":1.0,"Street":[1.0],"HouseNumber":1.0,"PostalCode":1.0},"MatchType":"interpolated","Location":{"LocationId":"NT_93RvA-2-GUB4IqLeq1vWQC_l_1199763308_L_xQD","LocationType":"point","DisplayPosition":{"Latitude":52.9075601,"Longitude":-1.5363401},"MapView":{"TopLeft":{"Latitude":52.9086842,"Longitude":-1.538204},"BottomRight":{"Latitude":52.9064359,"Longitude":-1.5344761}},"Address":{"Label":"14 Hardwick Drive, Derby, DE3 9BN, United Kingdom","Country":"GBR","State":"England","County":"Derbyshire","City":"Derby","District":"Mickleover","Street":"Hardwick Drive","HouseNumber":"14","PostalCode":"DE3 9BN","AdditionalData":[{"value":"United Kingdom","key":"CountryName"},{"value":"England","key":"StateName"},{"value":"Derbyshire","key":"CountyName"}]},"MapReference":{"ReferenceId":"1199763308","Spot":0.08,"SideOfStreet":"left","StateId":"20248595","CountyId":"20343933","CityId":"20353727","DistrictId":"20353764"}}},{"Relevance":1.0,"Distance":36.2,"MatchLevel":"street","MatchQuality":{"Country":1.0,"State":1.0,"County":1.0,"City":1.0,"District":1.0,"Street":[1.0],"PostalCode":1.0},"Location":{"LocationId":"NT_93RvA-2-GUB4IqLeq1vWQC_l_1199763306_L","LocationType":"point","DisplayPosition":{"Latitude":52.90745,"Longitude":-1.53622},"MapView":{"TopLeft":{"Latitude":52.90745,"Longitude":-1.53622},"BottomRight":{"Latitude":52.90742,"Longitude":-1.53601}},"Address":{"Label":"Hardwick Drive, Derby, DE3 9, United Kingdom","Country":"GBR","State":"England","County":"Derbyshire","City":"Derby","District":"Mickleover","Street":"Hardwick Drive","PostalCode":"DE3 9","AdditionalData":[{"value":"United Kingdom","key":"CountryName"},{"value":"England","key":"StateName"},{"value":"Derbyshire","key":"CountyName"}]},"MapReference":{"ReferenceId":"1199763306","Spot":1.0,"SideOfStreet":"left","StateId":"20248595","CountyId":"20343933","CityId":"20353727","DistrictId":"20353764"}}},{"Relevance":1.0,"Distance":41.2,"MatchLevel":"houseNumber","MatchQuality":{"Country":1.0,"State":1.0,"County":1.0,"City":1.0,"District":1.0,"Street":[1.0],"HouseNumber":1.0,"PostalCode":1.0},"MatchType":"interpolated","Location":{"LocationId":"NT_HqYpyb0.wAPHV8GbE82rZD_l_26074423_R_1A","LocationType":"point","DisplayPosition":{"Latitude":52.906996,"Longitude":-1.537092},"MapView":{"TopLeft":{"Latitude":52.9081202,"Longitude":-1.5389559},"BottomRight":{"Latitude":52.9058719,"Longitude":-1.5352281}},"Address":{"Label":"5 Alma Heights, Derby, DE3 9BF, United Kingdom","Country":"GBR","State":"England","County":"Derbyshire","City":"Derby","District":"Mickleover","Street":"Alma Heights","HouseNumber":"5","PostalCode":"DE3 9BF","AdditionalData":[{"value":"United Kingdom","key":"CountryName"},{"value":"England","key":"StateName"},{"value":"Derbyshire","key":"CountyName"}]},"MapReference":{"ReferenceId":"26074423","Spot":0.66,"SideOfStreet":"right","StateId":"20248595","CountyId":"20343933","CityId":"20353727","DistrictId":"20353764"}}},{"Relevance":1.0,"Distance":43.3,"MatchLevel":"street","MatchQuality":{"Country":1.0,"State":1.0,"County":1.0,"City":1.0,"District":1.0,"Street":[1.0],"PostalCode":1.0},"Location":{"LocationId":"NT_nJLq-pM4eUdHGlYOE.ZBrA_l_1198972505_L","LocationType":"point","DisplayPosition":{"Latitude":52.90695,"Longitude":-1.53615},"MapView":{"TopLeft":{"Latitude":52.90719,"Longitude":-1.53615},"BottomRight":{"Latitude":52.90695,"Longitude":-1.53544}},"Address":{"Label":"Uttoxeter Road, Derby, DE3 9, United Kingdom","Country":"GBR","State":"England","County":"Derbyshire","City":"Derby","District":"Mickleover","Street":"Uttoxeter Road","PostalCode":"DE3 9","AdditionalData":[{"value":"United Kingdom","key":"CountryName"},{"value":"England","key":"StateName"},{"value":"Derbyshire","key":"CountyName"}]},"MapReference":{"ReferenceId":"1198972505","Spot":0.0,"SideOfStreet":"left","StateId":"20248595","CountyId":"20343933","CityId":"20353727","DistrictId":"20353764"}}},{"Relevance":1.0,"Distance":44.1,"MatchLevel":"street","MatchQuality":{"Country":1.0,"State":1.0,"County":1.0,"City":1.0,"District":1.0,"Street":[1.0],"PostalCode":1.0},"Location":{"LocationId":"NT_nJLq-pM4eUdHGlYOE.ZBrA_l_1198972504_L","LocationType":"point","DisplayPosition":{"Latitude":52.9068364,"Longitude":-1.5364718},"MapView":{"TopLeft":{"Latitude":52.90695,"Longitude":-1.53649},"BottomRight":{"Latitude":52.90683,"Longitude":-1.53615}},"Address":{"Label":"Uttoxeter Road, Derby, DE3 9, United Kingdom","Country":"GBR","State":"England","County":"Derbyshire","City":"Derby","District":"Mickleover","Street":"Uttoxeter Road","PostalCode":"DE3 9","AdditionalData":[{"value":"United Kingdom","key":"CountryName"},{"value":"England","key":"StateName"},{"value":"Derbyshire","key":"CountyName"}]},"MapReference":{"ReferenceId":"1198972504","Spot":0.05,"SideOfStreet":"left","StateId":"20248595","CountyId":"20343933","CityId":"20353727","DistrictId":"20353764"}}},{"Relevance":1.0,"Distance":46.8,"MatchLevel":"houseNumber","MatchQuality":{"Country":1.0,"State":1.0,"County":1.0,"City":1.0,"District":1.0,"Street":[1.0],"HouseNumber":1.0,"PostalCode":1.0},"MatchType":"interpolated","Location":{"LocationId":"NT_PbIQ3cauOV..00TAaGHLnC_l_1198972444_L_5AD","LocationType":"point","DisplayPosition":{"Latitude":52.9067057,"Longitude":-1.5368414},"MapView":{"TopLeft":{"Latitude":52.9078298,"Longitude":-1.5387053},"BottomRight":{"Latitude":52.9055815,"Longitude":-1.5349775}},"Address":{"Label":"90 Uttoxeter Road, Derby, DE3 9GE, United Kingdom","Country":"GBR","State":"England","County":"Derbyshire","City":"Derby","District":"Mickleover","Street":"Uttoxeter Road","HouseNumber":"90","PostalCode":"DE3 9GE","AdditionalData":[{"value":"United Kingdom","key":"CountryName"},{"value":"England","key":"StateName"},{"value":"Derbyshire","key":"CountyName"}]},"MapReference":{"ReferenceId":"1198972444","Spot":0.77,"SideOfStreet":"left","StateId":"20248595","CountyId":"20343933","CityId":"20353727","DistrictId":"20353764"}}}]}]}}