{"Response":{"MetaInfo":{"Timestamp":"2020-03-28T11:58:19.608+0000","NextPageInformation":"2"},"View":[{"_type":"SearchResultsViewType","ViewId":0,"Result":[{"Relevance":1.0,"Distance":0.0,"Direction":0.0,"MatchLevel":"district","MatchQuality":{"Country":1.0,"State":1.0,"County":1.0,"City":1.0,"District":1.0,"PostalCode":1.0},"Location":{"LocationId":"NT_r2ROsPOgTc4Pu6LDtuX27D","LocationType":"point","DisplayPosition":{"Latitude":52.9186704,"Longitude":-1.1530225},"MapView":{"TopLeft":{"Latitude":52.94533,"Longitude":-1.157},"BottomRight":{"Latitude":52.90721,"Longitude":-1.09122}},"Address":{"Label":"West Bridgford, Nottingham, England, United Kingdom","Country":"GBR","State":"England","County":"Nottinghamshire","City":"Nottingham","District":"West Bridgford","PostalCode":"NG2 6","AdditionalData":[{"value":"United Kingdom","key":"CountryName"},{"value":"England","key":"StateName"},{"value":"Nottinghamshire","key":"CountyName"}]},"MapReference":{"ReferenceId":"26294329","SideOfStreet":"neither","StateId":"20248595","CountyId":"20344764","CityId":"20356833","DistrictId":"20356953"}}},{"Relevance":1.0,"Distance":36.6,"MatchLevel":"postalCode","MatchQuality":{"PostalCode":1.0},"Location":{"LocationId":"NT_q74z3cV9rFJR90Z3zPlYXC_l_26295481_R","LocationType":"point","DisplayPosition":{"Latitude":52.91899,"Longitude":-1.15289},"MapView":{"TopLeft":{"Latitude":52.9279832,"Longitude":-1.1678055},"BottomRight":{"Latitude":52.9099968,"Longitude":-1.1379745}},"Address":{"Label":"NG2 7RS, Nottingham, England, United Kingdom","Country":"GBR","State":"England","County":"Nottinghamshire","City":"Nottingham","PostalCode":"NG2 7RS","AdditionalData":[{"value":"United Kingdom","key":"CountryName"},{"value":"England","key":"StateName"},{"value":"Nottinghamshire","key":"CountyName"}]},"MapReference":{"ReferenceId":"26295481","Spot":0.31,"SideOfStreet":"neither","StateId":"20248595","CountyId":"20344764","CityId":"20356833"}}},{"Relevance":1.0,"Distance":37.9,"MatchLevel":"street","MatchQuality":{"Country":1.0,"State":1.0,"County":1.0,"City":1.0,"District":1.0,"Street":[1.0],"PostalCode":1.0},"Location":{"LocationId":"NT_vnGPbfhuJ23QR5XIZ9MFiB_l_26295370_R","LocationType":"point","DisplayPosition":{"Latitude":52.9190096,"Longitude":-1.153082},"MapView":{"TopLeft":{"Latitude":52.91901,"Longitude":-1.15376},"BottomRight":{"Latitude":52.91889,"Longitude":-1.15308}},"Address":{"Label":"Rugby Road, Nottingham, NG2 7, United Kingdom","Country":"GBR","State":"England","County":"Nottinghamshire","City":"Nottingham","District":"West Bridgford","Street":"Rugby Road","PostalCode":"NG2 7","AdditionalData":[{"value":"United Kingdom","key":"CountryName"},{"value":"England","key":"StateName"},{"value":"Nottinghamshire","key":"CountyName"}]},"MapReference":{"ReferenceId":"26295370","Spot":1.0,"SideOfStreet":"right","StateId":"20248595","CountyId":"20344764","CityId":"20356833","DistrictId":"20356953"}}},{"Relevance":1.0,"Distance":38.0,"MatchLevel":"street","MatchQuality":{"Country":1.0,"State":1.0,"County":1.0,"City":1.0,"District":1.0,"Street":[1.0],"PostalCode":1.0},"Location":{"LocationId":"NT_vnGPbfhuJ23QR5XIZ9MFiB_l_26295358_R","LocationType":"point","DisplayPosition":{"Latitude":52.91901,"Longitude":-1.15308},"MapView":{"TopLeft":{"Latitude":52.91936,"Longitude":-1.15308},"BottomRight":{"Latitude":52.91901,"Longitude":-1.15129}},"Address":{"Label":"Rugby Road, Nottingham, NG2 7, United Kingdom","Country":"GBR","State":"England","County":"Nottinghamshire","City":"Nottingham","District":"West Bridgford","Street":"Rugby Road","PostalCode":"NG2 7","AdditionalData":[{"value":"United Kingdom","key":"CountryName"},{"value":"England","key":"StateName"},{"value":"Nottinghamshire","key":"CountyName"}]},"MapReference":{"ReferenceId":"26295358","Spot":0.0,"SideOfStreet":"right","StateId":"20248595","CountyId":"20344764","CityId":"20356833","DistrictId":"20356953"}}},{"Relevance":1.0,"Distance":41.3,"MatchLevel":"street","MatchQuality":{"Country":1.0,"State":1.0,"County":1.0,"City":1.0,"District":1.0,"Street":[1.0],"PostalCode":1.0},"Location":{"LocationId":"NT_QelfgEAyHmFtQVmHdfm7ZD_l_26295480_L","LocationType":"point","DisplayPosition":{"Latitude":52.9183,"Longitude":-1.15298},"MapView":{"TopLeft":{"Latitude":52.9183,"Longitude":-1.15344},"BottomRight":{"Latitude":52.91798,"Longitude":-1.15298}},"Address":{"Label":"Compton Acres Shopping Centre, Nottingham, NG2 7, United Kingdom","Country":"GBR","State":"England","County":"Nottinghamshire","City":"Nottingham","District":"West Bridgford","Street":"Compton Acres Shopping Centre","PostalCode":"NG2 7","AdditionalData":[{"value":"United Kingdom","key":"CountryName"},{"value":"England","key":"StateName"},{"value":"Nottinghamshire","key":"CountyName"}]},"MapReference":{"ReferenceId":"26295480","Spot":1.0,"SideOfStreet":"left","StateId":"20248595","CountyId":"20344764","CityId":"20356833","DistrictId":"20356953"}}},{"Relevance":1.0,"Distance":43.1,"MatchLevel":"houseNumber","MatchQuality":{"Country":1.0,"State":1.0,"County":1.0,"City":1.0,"District":1.0,"Street":[1.0],"HouseNumber":1.0,"PostalCode":1.0},"MatchType":"interpolated","Location":{"LocationId":"NT_fZmPzgMPmOxGyBzKVIbTiB_l_26295359_L_yA","LocationType":"point","DisplayPosition":{"Latitude":52.91913,"Longitude":-1.15317},"MapView":{"TopLeft":{"Latitude":52.9202542,"Longitude":-1.1550345},"BottomRight":{"Latitude":52.9180059,"Longitude":-1.1513056}},"Address":{"Label":"2 Parkstone Close, Nottingham, NG2 7UW, United Kingdom","Country":"GBR","State":"England","County":"Nottinghamshire","City":"Nottingham","District":"West Bridgford","Street":"Parkstone Close","HouseNumber":"2","PostalCode":"NG2 7UW","AdditionalData":[{"value":"United Kingdom","key":"CountryName"},{"value":"England","key":"StateName"},{"value":"Nottinghamshire","key":"CountyName"}]},"MapReference":{"ReferenceId":"26295359","Spot":0.27,"SideOfStreet":"left","StateId":"20248595","CountyId":"20344764","CityId":"20356833","DistrictId":"20356953"}}},{"Relevance":1.0,"Distance":55.1,"MatchLevel":"street","MatchQuality":{"Country":1.0,"State":1.0,"County":1.0,"City":1.0,"District":1.0,"Street":[1.0],"PostalCode":1.0},"Location":{"LocationId":"NT_vnGPbfhuJ23QR5XIZ9MFiB_l_26295391_R","LocationType":"point","DisplayPosition":{"Latitude":52.91889,"Longitude":-1.15376},"MapView":{"TopLeft":{"Latitude":52.91889,"Longitude":-1.15395},"BottomRight":{"Latitude":52.91878,"Longitude":-1.15376}},"Address":{"Label":"Rugby Road, Nottingham, NG2 7, United Kingdom","Country":"GBR","State":"England","County":"Nottinghamshire","City":"Nottingham","District":"West Bridgford","Street":"Rugby Road","PostalCode":"NG2 7","AdditionalData":[{"value":"United Kingdom","key":"CountryName"},{"value":"England","key":"StateName"},{"value":"Nottinghamshire","key":"CountyName"}]},"MapReference":{"ReferenceId":"26295391","Spot":1.0,"SideOfStreet":"right","StateId":"20248595","CountyId":"20344764","CityId":"20356833","DistrictId":"20356953"}}},{"Relevance":1.0,"Distance":55.1,"MatchLevel":"street","MatchQuality":{"Country":1.0,"State":1.0,"County":1.0,"City":1.0,"District":1.0,"Street":[1.0],"PostalCode":1.0},"Location":{"LocationId":"NT_vnGPbfhuJ23QR5XIZ9MFiB_l_26295371_R","LocationType":"point","DisplayPosition":{"Latitude":52.91889,"Longitude":-1.15376},"MapView":{"TopLeft":{"Latitude":52.91891,"Longitude":-1.15404},"BottomRight":{"Latitude":52.91889,"Longitude":-1.15376}},"Address":{"Label":"Rugby Road, Nottingham, NG2 7, United Kingdom","Country":"GBR","State":"England","County":"Nottinghamshire","City":"Nottingham","District":"West Bridgford","Street":"Rugby Road","PostalCode":"NG2 7","AdditionalData":[{"value":"United Kingdom","key":"CountryName"},{"value":"England","key":"StateName"},{"value":"Nottinghamshire","key":"CountyName"}]},"MapReference":{"ReferenceId":"26295371","Spot":1.0,"SideOfStreet":"right","StateId":"20248595","CountyId":"20344764","CityId":"20356833","DistrictId":"20356953"}}},{"Relevance":1.0,"Distance":61.5,"MatchLevel":"street","MatchQuality":{"Country":1.0,"State":1.0,"County":1.0,"City":1.0,"District":1.0,"Street":[1.0],"PostalCode":1.0},"Location":{"LocationId":"NT_q74z3cV9rFJR90Z3zPlYXC_l_26295433_R","LocationType":"point","DisplayPosition":{"Latitude":52.91849,"Longitude":-1.15389},"MapView":{"TopLeft":{"Latitude":52.91873,"Longitude":-1.15398},"BottomRight":{"Latitude":52.91849,"Longitude":-1.15389}},"Address":{"Label":"Compton Acres, Nottingham, NG2 7, United Kingdom","Country":"GBR","State":"England","County":"Nottinghamshire","City":"Nottingham","District":"West Bridgford","Street":"Compton Acres","PostalCode":"NG2 7","AdditionalData":[{"value":"United Kingdom","key":"CountryName"},{"value":"England","key":"StateName"},{"value":"Nottinghamshire","key":"CountyName"}]},"MapReference":{"ReferenceId":"26295433","Spot":0.0,"SideOfStreet":"right","StateId":"20248595","CountyId":"20344764","CityId":"20356833","DistrictId":"20356953"}}},{"Relevance":1.0,"Distance":61.5,"MatchLevel":"street","MatchQuality":{"Country":1.0,"State":1.0,"County":1.0,"City":1.0,"District":1.0,"Street":[1.0],"PostalCode":1.0},"Location":{"LocationId":"NT_q74z3cV9rFJR90Z3zPlYXC_l_26295434_R","LocationType":"point","DisplayPosition":{"Latitude":52.91849,"Longitude":-1.15389},"MapView":{"TopLeft":{"Latitude":52.91869,"Longitude":-1.15414},"BottomRight":{"Latitude":52.91849,"Longitude":-1.15389}},"Address":{"Label":"Compton Acres, Nottingham, NG2 7, United Kingdom","Country":"GBR","State":"England","County":"Nottinghamshire","City":"Nottingham","District":"West Bridgford","Street":"Compton Acres","PostalCode":"NG2 7","AdditionalData":[{"value":"United Kingdom","key":"CountryName"},{"value":"England","key":"StateName"},{"value":"Nottinghamshire","key":"CountyName"}]},"MapReference":{"ReferenceId":"26295434","Spot":0.0,"SideOfStreet":"right","StateId":"20248595","CountyId":"20344764","CityId":"20356833","DistrictId":"20356953"}}}]}]}}