{"Response":{"MetaInfo":{"Timestamp":"2020-03-28T10:56:15.544+0000","NextPageInformation":"2"},"View":[{"_type":"SearchResultsViewType","ViewId":0,"Result":[{"Relevance":1.0,"Distance":0.0,"Direction":0.0,"MatchLevel":"city","MatchQuality":{"Country":1.0,"State":1.0,"County":1.0,"City":1.0,"PostalCode":1.0},"Location":{"LocationId":"NT_uAzXsa97mPXLOOdqJNWNuC","LocationType":"point","DisplayPosition":{"Latitude":52.9632225,"Longitude":8.3933722},"MapView":{"TopLeft":{"Latitude":53.02367,"Longitude":8.31437},"BottomRight":{"Latitude":52.9041,"Longitude":8.51706}},"Address":{"Label":"Dötlingen, Niedersachsen, Deutschland","Country":"DEU","State":"Niedersachsen","County":"Oldenburg","City":"Dötlingen","PostalCode":"27801","AdditionalData":[{"value":"Deutschland","key":"CountryName"},{"value":"Niedersachsen","key":"StateName"},{"value":"Oldenburg","key":"CountyName"}]},"MapReference":{"ReferenceId":"83697229","SideOfStreet":"neither","CountryId":"20147700","StateId":"20151542","CountyId":"20156811","CityId":"20156818"}}},{"Relevance":1.0,"Distance":158.8,"MatchLevel":"houseNumber","MatchQuality":{"Country":1.0,"State":1.0,"County":1.0,"City":1.0,"Street":[1.0],"HouseNumber":1.0,"PostalCode":1.0},"MatchType":"interpolated","Location":{"LocationId":"NT_owZGyM6OpgVx-krafejIHA_5A","LocationType":"point","DisplayPosition":{"Latitude":52.96189,"Longitude":8.39518},"MapView":{"TopLeft":{"Latitude":52.9630142,"Longitude":8.3933137},"BottomRight":{"Latitude":52.9607658,"Longitude":8.3970463}},"Address":{"Label":"Neerstedter Straße 9, 27801 Dötlingen, Deutschland","Country":"DEU","State":"Niedersachsen","County":"Oldenburg","City":"Dötlingen","Street":"Neerstedter Straße","HouseNumber":"9","PostalCode":"27801","AdditionalData":[{"value":"Deutschland","key":"CountryName"},{"value":"Niedersachsen","key":"StateName"},{"value":"Oldenburg","key":"CountyName"}]},"MapReference":{"ReferenceId":"1081779691","Spot":1.0,"SideOfStreet":"left","CountryId":"20147700","StateId":"20151542","CountyId":"20156811","CityId":"20156818","AddressId":"673399649","RoadLinkId":"399001374"}}},{"Relevance":1.0,"Distance":290.5,"MatchLevel":"houseNumber","MatchQuality":{"Country":1.0,"State":1.0,"County":1.0,"City":1.0,"Street":[1.0],"HouseNumber":1.0,"PostalCode":1.0},"MatchType":"interpolated","Location":{"LocationId":"NT_3Ae5EB-j9.QG-XUrd1ngQA_yA","LocationType":"point","DisplayPosition":{"Latitude":52.96513,"Longitude":8.39003},"MapView":{"TopLeft":{"Latitude":52.9662542,"Longitude":8.3881636},"BottomRight":{"Latitude":52.9640058,"Longitude":8.3918964}},"Address":{"Label":"Geveshauser Höhe 2, 27801 Dötlingen, Deutschland","Country":"DEU","State":"Niedersachsen","County":"Oldenburg","City":"Dötlingen","Street":"Geveshauser Höhe","HouseNumber":"2","PostalCode":"27801","AdditionalData":[{"value":"Deutschland","key":"CountryName"},{"value":"Niedersachsen","key":"StateName"},{"value":"Oldenburg","key":"CountyName"}]},"MapReference":{"ReferenceId":"83692530","Spot":0.0,"SideOfStreet":"left","CountryId":"20147700","StateId":"20151542","CountyId":"20156811","CityId":"20156818","AddressId":"208571909","RoadLinkId":"36749334"}}},{"Relevance":1.0,"Distance":375.8,"MatchLevel":"street","MatchQuality":{"Country":1.0,"State":1.0,"County":1.0,"City":1.0,"Street":[1.0],"PostalCode":1.0},"Location":{"LocationId":"NT_3Ae5EB-j9.QG-XUrd1ngQA_l_1133274749_R","LocationType":"point","DisplayPosition":{"Latitude":52.9664834,"Longitude":8.3918961},"MapView":{"TopLeft":{"Latitude":52.9684,"Longitude":8.38956},"BottomRight":{"Latitude":52.96607,"Longitude":8.39613}},"Address":{"Label":"Geveshauser Höhe, 27801 Dötlingen, Deutschland","Country":"DEU","State":"Niedersachsen","County":"Oldenburg","City":"Dötlingen","Street":"Geveshauser Höhe","PostalCode":"27801","AdditionalData":[{"value":"Deutschland","key":"CountryName"},{"value":"Niedersachsen","key":"StateName"},{"value":"Oldenburg","key":"CountyName"}]},"MapReference":{"ReferenceId":"1133274749","Spot":0.34,"SideOfStreet":"right","CountryId":"20147700","StateId":"20151542","CountyId":"20156811","CityId":"20156818"}}},{"Relevance":1.0,"Distance":377.1,"MatchLevel":"landmark","MatchQuality":{"Country":1.0,"State":1.0,"County":1.0,"City":1.0,"District":1.0,"PostalCode":1.0,"Name":1.0},"Location":{"LocationId":"NT_s1EJkIrAUr04rIvVjVzU4D","LocationType":"industrialComplex","Name":"Neerstedt-Süd","DisplayPosition":{"Latitude":52.96333,"Longitude":8.40089},"MapView":{"TopLeft":{"Latitude":52.96564,"Longitude":8.39895},"BottomRight":{"Latitude":52.96102,"Longitude":8.40364}},"Address":{"Label":"27801 Dötlingen, Deutschland","Country":"DEU","State":"Niedersachsen","County":"Oldenburg","City":"Dötlingen","District":"Neerstedt","PostalCode":"27801","AdditionalData":[{"value":"Deutschland","key":"CountryName"},{"value":"Niedersachsen","key":"StateName"},{"value":"Oldenburg","key":"CountyName"}]},"MapReference":{"CountryId":"20147700","StateId":"20151542","CountyId":"20156811","CityId":"20156818","DistrictId":"20156822","PlaceId":"1410276202"}}},{"Relevance":1.0,"Distance":379.1,"MatchLevel":"street","MatchQuality":{"Country":1.0,"State":1.0,"County":1.0,"City":1.0,"Street":[1.0],"PostalCode":1.0},"Location":{"LocationId":"NT_owZGyM6OpgVx-krafejIHA_l_1081779690_L","LocationType":"point","DisplayPosition":{"Latitude":52.96126,"Longitude":8.398},"MapView":{"TopLeft":{"Latitude":52.96276,"Longitude":8.398},"BottomRight":{"Latitude":52.96126,"Longitude":8.39895}},"Address":{"Label":"Neerstedter Straße, 27801 Dötlingen, Deutschland","Country":"DEU","State":"Niedersachsen","County":"Oldenburg","City":"Dötlingen","Street":"Neerstedter Straße","PostalCode":"27801","AdditionalData":[{"value":"Deutschland","key":"CountryName"},{"value":"Niedersachsen","key":"StateName"},{"value":"Oldenburg","key":"CountyName"}]},"MapReference":{"ReferenceId":"1081779690","Spot":0.0,"SideOfStreet":"left","CountryId":"20147700","StateId":"20151542","CountyId":"20156811","CityId":"20156818"}}},{"Relevance":1.0,"Distance":389.0,"MatchLevel":"houseNumber","MatchQuality":{"Country":1.0,"State":1.0,"County":1.0,"City":1.0,"District":1.0,"Street":[1.0],"HouseNumber":1.0,"PostalCode":1.0},"MatchType":"interpolated","Location":{"LocationId":"NT_J2v8jdv1yK7jlaXm3l-awB_xUD","LocationType":"point","DisplayPosition":{"Latitude":52.96428,"Longitude":8.3999},"MapView":{"TopLeft":{"Latitude":52.9654042,"Longitude":8.3980336},"BottomRight":{"Latitude":52.9631558,"Longitude":8.4017664}},"Address":{"Label":"Neerstedter Straße 15, 27801 Dötlingen, Deutschland","Country":"DEU","State":"Niedersachsen","County":"Oldenburg","City":"Dötlingen","District":"Neerstedt","Street":"Neerstedter Straße","HouseNumber":"15","PostalCode":"27801","AdditionalData":[{"value":"Deutschland","key":"CountryName"},{"value":"Niedersachsen","key":"StateName"},{"value":"Oldenburg","key":"CountyName"}]},"MapReference":{"ReferenceId":"839678241","Spot":0.86,"SideOfStreet":"left","CountryId":"20147700","StateId":"20151542","CountyId":"20156811","CityId":"20156818","DistrictId":"20156822","AddressId":"179515196","RoadLinkId":"221818042"}}},{"Relevance":1.0,"Distance":397.8,"MatchLevel":"houseNumber","MatchQuality":{"Country":1.0,"State":1.0,"County":1.0,"City":1.0,"Street":[1.0],"HouseNumber":1.0,"PostalCode":1.0},"MatchType":"interpolated","Location":{"LocationId":"NT_owZGyM6OpgVx-krafejIHA_yID","LocationType":"point","DisplayPosition":{"Latitude":52.96076,"Longitude":8.39768},"MapView":{"TopLeft":{"Latitude":52.9618842,"Longitude":8.3958138},"BottomRight":{"Latitude":52.9596358,"Longitude":8.3995462}},"Address":{"Label":"Neerstedter Straße 22, 27801 Dötlingen, Deutschland","Country":"DEU","State":"Niedersachsen","County":"Oldenburg","City":"Dötlingen","Street":"Neerstedter Straße","HouseNumber":"22","PostalCode":"27801","AdditionalData":[{"value":"Deutschland","key":"CountryName"},{"value":"Niedersachsen","key":"StateName"},{"value":"Oldenburg","key":"CountyName"}]},"MapReference":{"ReferenceId":"1081779689","Spot":0.94,"SideOfStreet":"right","CountryId":"20147700","StateId":"20151542","CountyId":"20156811","CityId":"20156818","AddressId":"180852535","RoadLinkId":"399001370"}}},{"Relevance":1.0,"Distance":406.7,"MatchLevel":"street","MatchQuality":{"Country":1.0,"State":1.0,"County":1.0,"City":1.0,"Street":[1.0],"PostalCode":1.0},"Location":{"LocationId":"NT_3Ae5EB-j9.QG-XUrd1ngQA_l_83692493_R","LocationType":"point","DisplayPosition":{"Latitude":52.96607,"Longitude":8.38956},"MapView":{"TopLeft":{"Latitude":52.96607,"Longitude":8.38499},"BottomRight":{"Latitude":52.96569,"Longitude":8.38956}},"Address":{"Label":"Geveshauser Höhe, 27801 Dötlingen, Deutschland","Country":"DEU","State":"Niedersachsen","County":"Oldenburg","City":"Dötlingen","Street":"Geveshauser Höhe","PostalCode":"27801","AdditionalData":[{"value":"Deutschland","key":"CountryName"},{"value":"Niedersachsen","key":"StateName"},{"value":"Oldenburg","key":"CountyName"}]},"MapReference":{"ReferenceId":"83692493","Spot":1.0,"SideOfStreet":"right","CountryId":"20147700","StateId":"20151542","CountyId":"20156811","CityId":"20156818"}}},{"Relevance":1.0,"Distance":446.8,"MatchLevel":"houseNumber","MatchQuality":{"Country":1.0,"State":1.0,"County":1.0,"City":1.0,"District":1.0,"Street":[1.0],"HouseNumber":1.0,"PostalCode":1.0},"MatchType":"interpolated","Location":{"LocationId":"NT_V5kl2ZxOHBigyRVREShzvA_0A","LocationType":"point","DisplayPosition":{"Latitude":52.96362,"Longitude":8.40103},"MapView":{"TopLeft":{"Latitude":52.9647442,"Longitude":8.3991636},"BottomRight":{"Latitude":52.9624958,"Longitude":8.4028964}},"Address":{"Label":"Heidkamper Weg 4, 27801 Dötlingen, Deutschland","Country":"DEU","State":"Niedersachsen","County":"Oldenburg","City":"Dötlingen","District":"Neerstedt","Street":"Heidkamper Weg","HouseNumber":"4","PostalCode":"27801","AdditionalData":[{"value":"Deutschland","key":"CountryName"},{"value":"Niedersachsen","key":"StateName"},{"value":"Oldenburg","key":"CountyName"}]},"MapReference":{"ReferenceId":"839678243","Spot":0.52,"SideOfStreet":"left","CountryId":"20147700","StateId":"20151542","CountyId":"20156811","CityId":"20156818","DistrictId":"20156822","AddressId":"790136802","RoadLinkId":"221818046"}}}]}]}}