{"Response":{"MetaInfo":{"Timestamp":"2020-03-28T11:39:56.728+0000","NextPageInformation":"2"},"View":[{"_type":"SearchResultsViewType","ViewId":0,"Result":[{"Relevance":1.0,"Distance":0.0,"Direction":0.0,"MatchLevel":"city","MatchQuality":{"Country":1.0,"State":1.0,"County":1.0,"City":1.0,"PostalCode":1.0},"Location":{"LocationId":"NT_9VO1Pq1U.wTkbSclDmIayD","LocationType":"point","DisplayPosition":{"Latitude":52.9502652,"Longitude":12.8422693},"MapView":{"TopLeft":{"Latitude":53.09898,"Longitude":12.65873},"BottomRight":{"Latitude":52.79249,"Longitude":12.96636}},"Address":{"Label":"Neuruppin, Brandenburg, Deutschland","Country":"DEU","State":"Brandenburg","County":"Ostprignitz-Ruppin","City":"Neuruppin","PostalCode":"16816","AdditionalData":[{"value":"Deutschland","key":"CountryName"},{"value":"Brandenburg","key":"StateName"},{"value":"Ostprignitz-Ruppin","key":"CountyName"}]},"MapReference":{"ReferenceId":"77302648","SideOfStreet":"neither","CountryId":"20147700","StateId":"20187428","CountyId":"20188666","CityId":"20188733"}}},{"Relevance":1.0,"Distance":12.6,"MatchLevel":"houseNumber","MatchQuality":{"Country":1.0,"State":1.0,"County":1.0,"City":1.0,"District":1.0,"Street":[1.0],"HouseNumber":1.0,"PostalCode":1.0},"MatchType":"interpolated","Location":{"LocationId":"NT_Af37CQQj0kiiAs2x74YgTA_xED","LocationType":"point","DisplayPosition":{"Latitude":52.95041,"Longitude":12.84246},"MapView":{"TopLeft":{"Latitude":52.9515342,"Longitude":12.8405942},"BottomRight":{"Latitude":52.9492858,"Longitude":12.8443258}},"Address":{"Label":"Friedrich-Engels-Straße 11, 16827 Neuruppin, Deutschland","Country":"DEU","State":"Brandenburg","County":"Ostprignitz-Ruppin","City":"Neuruppin","District":"Alt Ruppin","Street":"Friedrich-Engels-Straße","HouseNumber":"11","PostalCode":"16827","AdditionalData":[{"value":"Deutschland","key":"CountryName"},{"value":"Brandenburg","key":"StateName"},{"value":"Ostprignitz-Ruppin","key":"CountyName"}]},"MapReference":{"ReferenceId":"1187854092","Spot":0.02,"SideOfStreet":"left","CountryId":"20147700","StateId":"20187428","CountyId":"20188666","CityId":"20188733","DistrictId":"20215053","AddressId":"182538680","RoadLinkId":"496620695"}}},{"Relevance":1.0,"Distance":14.4,"MatchLevel":"houseNumber","MatchQuality":{"Country":1.0,"State":1.0,"County":1.0,"City":1.0,"District":1.0,"Street":[1.0],"HouseNumber":1.0,"PostalCode":1.0},"MatchType":"interpolated","Location":{"LocationId":"NT_Af37CQQj0kiiAs2x74YgTA_xID","LocationType":"point","DisplayPosition":{"Latitude":52.95026,"Longitude":12.84259},"MapView":{"TopLeft":{"Latitude":52.9513842,"Longitude":12.8407242},"BottomRight":{"Latitude":52.9491358,"Longitude":12.8444558}},"Address":{"Label":"Friedrich-Engels-Straße 12, 16827 Neuruppin, Deutschland","Country":"DEU","State":"Brandenburg","County":"Ostprignitz-Ruppin","City":"Neuruppin","District":"Alt Ruppin","Street":"Friedrich-Engels-Straße","HouseNumber":"12","PostalCode":"16827","AdditionalData":[{"value":"Deutschland","key":"CountryName"},{"value":"Brandenburg","key":"StateName"},{"value":"Ostprignitz-Ruppin","key":"CountyName"}]},"MapReference":{"ReferenceId":"1187702281","Spot":0.13,"SideOfStreet":"left","CountryId":"20147700","StateId":"20187428","CountyId":"20188666","CityId":"20188733","DistrictId":"20215053","AddressId":"182538673","RoadLinkId":"496436534"}}},{"Relevance":1.0,"Distance":22.3,"MatchLevel":"street","MatchQuality":{"Country":1.0,"State":1.0,"County":1.0,"City":1.0,"District":1.0,"Street":[1.0],"PostalCode":1.0},"Location":{"LocationId":"NT_KW7Lo8GhadpMSrZJMcaMsC_l_544572091_L","LocationType":"point","DisplayPosition":{"Latitude":52.95024,"Longitude":12.8426},"MapView":{"TopLeft":{"Latitude":52.95034,"Longitude":12.8426},"BottomRight":{"Latitude":52.95024,"Longitude":12.84306}},"Address":{"Label":"Brückenstraße, 16827 Neuruppin, Deutschland","Country":"DEU","State":"Brandenburg","County":"Ostprignitz-Ruppin","City":"Neuruppin","District":"Alt Ruppin","Street":"Brückenstraße","PostalCode":"16827","AdditionalData":[{"value":"Deutschland","key":"CountryName"},{"value":"Brandenburg","key":"StateName"},{"value":"Ostprignitz-Ruppin","key":"CountyName"}]},"MapReference":{"ReferenceId":"544572091","Spot":0.0,"SideOfStreet":"left","CountryId":"20147700","StateId":"20187428","CountyId":"20188666","CityId":"20188733","DistrictId":"20215053"}}},{"Relevance":1.0,"Distance":22.3,"MatchLevel":"street","MatchQuality":{"Country":1.0,"State":1.0,"County":1.0,"City":1.0,"District":1.0,"Street":[1.0],"PostalCode":1.0},"Location":{"LocationId":"NT_Af37CQQj0kiiAs2x74YgTA_l_948706779_L","LocationType":"point","DisplayPosition":{"Latitude":52.95024,"Longitude":12.8426},"MapView":{"TopLeft":{"Latitude":52.95024,"Longitude":12.8426},"BottomRight":{"Latitude":52.95016,"Longitude":12.84266}},"Address":{"Label":"Friedrich-Engels-Straße, 16827 Neuruppin, Deutschland","Country":"DEU","State":"Brandenburg","County":"Ostprignitz-Ruppin","City":"Neuruppin","District":"Alt Ruppin","Street":"Friedrich-Engels-Straße","PostalCode":"16827","AdditionalData":[{"value":"Deutschland","key":"CountryName"},{"value":"Brandenburg","key":"StateName"},{"value":"Ostprignitz-Ruppin","key":"CountyName"}]},"MapReference":{"ReferenceId":"948706779","Spot":1.0,"SideOfStreet":"left","CountryId":"20147700","StateId":"20187428","CountyId":"20188666","CityId":"20188733","DistrictId":"20215053"}}},{"Relevance":1.0,"Distance":29.3,"MatchLevel":"houseNumber","MatchQuality":{"Country":1.0,"State":1.0,"County":1.0,"City":1.0,"District":1.0,"Street":[1.0],"HouseNumber":1.0,"PostalCode":1.0},"MatchType":"interpolated","Location":{"LocationId":"NT_Af37CQQj0kiiAs2x74YgTA_xMD","LocationType":"point","DisplayPosition":{"Latitude":52.95011,"Longitude":12.8427},"MapView":{"TopLeft":{"Latitude":52.9512342,"Longitude":12.8408342},"BottomRight":{"Latitude":52.9489858,"Longitude":12.8445658}},"Address":{"Label":"Friedrich-Engels-Straße 13, 16827 Neuruppin, Deutschland","Country":"DEU","State":"Brandenburg","County":"Ostprignitz-Ruppin","City":"Neuruppin","District":"Alt Ruppin","Street":"Friedrich-Engels-Straße","HouseNumber":"13","PostalCode":"16827","AdditionalData":[{"value":"Deutschland","key":"CountryName"},{"value":"Brandenburg","key":"StateName"},{"value":"Ostprignitz-Ruppin","key":"CountyName"}]},"MapReference":{"ReferenceId":"1187702280","Spot":0.77,"SideOfStreet":"left","CountryId":"20147700","StateId":"20187428","CountyId":"20188666","CityId":"20188733","DistrictId":"20215053","AddressId":"182512287","RoadLinkId":"496436533"}}},{"Relevance":1.0,"Distance":55.2,"MatchLevel":"houseNumber","MatchQuality":{"Country":1.0,"State":1.0,"County":1.0,"City":1.0,"District":1.0,"Street":[1.0],"HouseNumber":1.0,"PostalCode":1.0},"MatchType":"interpolated","Location":{"LocationId":"NT_Af37CQQj0kiiAs2x74YgTA_xQD","LocationType":"point","DisplayPosition":{"Latitude":52.94987,"Longitude":12.84285},"MapView":{"TopLeft":{"Latitude":52.9509942,"Longitude":12.8409842},"BottomRight":{"Latitude":52.9487458,"Longitude":12.8447158}},"Address":{"Label":"Friedrich-Engels-Straße 14, 16827 Neuruppin, Deutschland","Country":"DEU","State":"Brandenburg","County":"Ostprignitz-Ruppin","City":"Neuruppin","District":"Alt Ruppin","Street":"Friedrich-Engels-Straße","HouseNumber":"14","PostalCode":"16827","AdditionalData":[{"value":"Deutschland","key":"CountryName"},{"value":"Brandenburg","key":"StateName"},{"value":"Ostprignitz-Ruppin","key":"CountyName"}]},"MapReference":{"ReferenceId":"1187702279","Spot":0.64,"SideOfStreet":"left","CountryId":"20147700","StateId":"20187428","CountyId":"20188666","CityId":"20188733","DistrictId":"20215053","AddressId":"182512286","RoadLinkId":"496436532"}}},{"Relevance":1.0,"Distance":57.7,"MatchLevel":"houseNumber","MatchQuality":{"Country":1.0,"State":1.0,"County":1.0,"City":1.0,"District":1.0,"Street":[1.0],"HouseNumber":1.0,"PostalCode":1.0},"MatchType":"interpolated","Location":{"LocationId":"NT_KW7Lo8GhadpMSrZJMcaMsC_xID","LocationType":"point","DisplayPosition":{"Latitude":52.95036,"Longitude":12.84313},"MapView":{"TopLeft":{"Latitude":52.9514842,"Longitude":12.8412642},"BottomRight":{"Latitude":52.9492358,"Longitude":12.8449958}},"Address":{"Label":"Brückenstraße 12, 16827 Neuruppin, Deutschland","Country":"DEU","State":"Brandenburg","County":"Ostprignitz-Ruppin","City":"Neuruppin","District":"Alt Ruppin","Street":"Brückenstraße","HouseNumber":"12","PostalCode":"16827","AdditionalData":[{"value":"Deutschland","key":"CountryName"},{"value":"Brandenburg","key":"StateName"},{"value":"Ostprignitz-Ruppin","key":"CountyName"}]},"MapReference":{"ReferenceId":"572663789","Spot":0.04,"SideOfStreet":"left","CountryId":"20147700","StateId":"20187428","CountyId":"20188666","CityId":"20188733","DistrictId":"20215053","AddressId":"790446044","RoadLinkId":"37542300"}}},{"Relevance":1.0,"Distance":63.9,"MatchLevel":"houseNumber","MatchQuality":{"Country":1.0,"State":1.0,"County":1.0,"City":1.0,"District":1.0,"Street":[1.0],"HouseNumber":1.0,"PostalCode":1.0},"MatchType":"interpolated","Location":{"LocationId":"NT_VjVibb25dEy86gtO92Av-C_zA","LocationType":"point","DisplayPosition":{"Latitude":52.95014,"Longitude":12.8432},"MapView":{"TopLeft":{"Latitude":52.9512642,"Longitude":12.8413342},"BottomRight":{"Latitude":52.9490158,"Longitude":12.8450658}},"Address":{"Label":"Kirchplatz 3, 16827 Neuruppin, Deutschland","Country":"DEU","State":"Brandenburg","County":"Ostprignitz-Ruppin","City":"Neuruppin","District":"Alt Ruppin","Street":"Kirchplatz","HouseNumber":"3","PostalCode":"16827","AdditionalData":[{"value":"Deutschland","key":"CountryName"},{"value":"Brandenburg","key":"StateName"},{"value":"Ostprignitz-Ruppin","key":"CountyName"}]},"MapReference":{"ReferenceId":"544572092","Spot":0.77,"SideOfStreet":"right","CountryId":"20147700","StateId":"20187428","CountyId":"20188666","CityId":"20188733","DistrictId":"20215053","AddressId":"182622978","RoadLinkId":"37494126"}}},{"Relevance":1.0,"Distance":71.2,"MatchLevel":"houseNumber","MatchQuality":{"Country":1.0,"State":1.0,"County":1.0,"City":1.0,"District":1.0,"Street":[1.0],"HouseNumber":1.0,"PostalCode":1.0},"MatchType":"interpolated","Location":{"LocationId":"NT_Af37CQQj0kiiAs2x74YgTA_xUD","LocationType":"point","DisplayPosition":{"Latitude":52.94973,"Longitude":12.84293},"MapView":{"TopLeft":{"Latitude":52.9508542,"Longitude":12.8410642},"BottomRight":{"Latitude":52.9486058,"Longitude":12.8447958}},"Address":{"Label":"Friedrich-Engels-Straße 15, 16827 Neuruppin, Deutschland","Country":"DEU","State":"Brandenburg","County":"Ostprignitz-Ruppin","City":"Neuruppin","District":"Alt Ruppin","Street":"Friedrich-Engels-Straße","HouseNumber":"15","PostalCode":"16827","AdditionalData":[{"value":"Deutschland","key":"CountryName"},{"value":"Brandenburg","key":"StateName"},{"value":"Ostprignitz-Ruppin","key":"CountyName"}]},"MapReference":{"ReferenceId":"1156916551","Spot":0.98,"SideOfStreet":"left","CountryId":"20147700","StateId":"20187428","CountyId":"20188666","CityId":"20188733","DistrictId":"20215053","AddressId":"181754242","RoadLinkId":"463220295"}}}]}]}}