{"Response":{"MetaInfo":{"Timestamp":"2020-03-28T11:32:14.002+0000","NextPageInformation":"2"},"View":[{"_type":"SearchResultsViewType","ViewId":0,"Result":[{"Relevance":1.0,"Distance":0.0,"Direction":0.0,"MatchLevel":"district","MatchQuality":{"Country":1.0,"State":1.0,"County":1.0,"City":1.0,"District":1.0,"PostalCode":1.0},"Location":{"LocationId":"NT_5eOtfkT28tOmoS8fgX.BjB","LocationType":"point","DisplayPosition":{"Latitude":52.9833724,"Longitude":16.9015677},"MapView":{"TopLeft":{"Latitude":53.02505,"Longitude":16.88547},"BottomRight":{"Latitude":52.96829,"Longitude":16.94649}},"Address":{"Label":"Chodzież, Woj. Wielkopolskie, Polska","Country":"POL","State":"Woj. Wielkopolskie","County":"Powiat Chodzieski","City":"Chodzież","District":"Chodzież","PostalCode":"64-800","AdditionalData":[{"value":"Polska","key":"CountryName"},{"value":"Woj. Wielkopolskie","key":"StateName"},{"value":"Powiat Chodzieski","key":"CountyName"}]},"MapReference":{"ReferenceId":"595201042","SideOfStreet":"neither","CountryId":"20624059","StateId":"20629915","CountyId":"20629925","CityId":"20695662","DistrictId":"20695663"}}},{"Relevance":1.0,"Distance":61.5,"MatchLevel":"houseNumber","MatchQuality":{"Country":1.0,"State":1.0,"County":1.0,"City":1.0,"District":1.0,"Street":[1.0],"HouseNumber":1.0,"PostalCode":1.0},"MatchType":"interpolated","Location":{"LocationId":"NT_ReltlRPjW9v-fCC9xKPiBA_zID","LocationType":"point","DisplayPosition":{"Latitude":52.98339,"Longitude":16.90065},"MapView":{"TopLeft":{"Latitude":52.9845142,"Longitude":16.8987828},"BottomRight":{"Latitude":52.9822658,"Longitude":16.9025172}},"Address":{"Label":"ulica Strzelecka 32, 64-800 Chodzież, Polska","Country":"POL","State":"Woj. Wielkopolskie","County":"Powiat Chodzieski","City":"Chodzież","District":"Chodzież","Street":"ulica Strzelecka","HouseNumber":"32","PostalCode":"64-800","AdditionalData":[{"value":"Polska","key":"CountryName"},{"value":"Woj. Wielkopolskie","key":"StateName"},{"value":"Powiat Chodzieski","key":"CountyName"}]},"MapReference":{"ReferenceId":"744381202","Spot":0.23,"SideOfStreet":"right","CountryId":"20624059","StateId":"20629915","CountyId":"20629925","CityId":"20695662","DistrictId":"20695663","AddressId":"702045208","RoadLinkId":"142359428"}}},{"Relevance":1.0,"Distance":182.0,"MatchLevel":"street","MatchQuality":{"Country":1.0,"State":1.0,"County":1.0,"City":1.0,"District":1.0,"Street":[1.0],"PostalCode":1.0},"Location":{"LocationId":"NT_ReltlRPjW9v-fCC9xKPiBA_l_778802334_R","LocationType":"point","DisplayPosition":{"Latitude":52.98352,"Longitude":16.89886},"MapView":{"TopLeft":{"Latitude":52.98653,"Longitude":16.89712},"BottomRight":{"Latitude":52.98352,"Longitude":16.89886}},"Address":{"Label":"ulica Strzelecka, 64-800 Chodzież, Polska","Country":"POL","State":"Woj. Wielkopolskie","County":"Powiat Chodzieski","City":"Chodzież","District":"Chodzież","Street":"ulica Strzelecka","PostalCode":"64-800","AdditionalData":[{"value":"Polska","key":"CountryName"},{"value":"Woj. Wielkopolskie","key":"StateName"},{"value":"Powiat Chodzieski","key":"CountyName"}]},"MapReference":{"ReferenceId":"778802334","Spot":0.0,"SideOfStreet":"right","CountryId":"20624059","StateId":"20629915","CountyId":"20629925","CityId":"20695662","DistrictId":"20695663"}}},{"Relevance":1.0,"Distance":182.0,"MatchLevel":"street","MatchQuality":{"Country":1.0,"State":1.0,"County":1.0,"City":1.0,"District":1.0,"Street":[1.0],"PostalCode":1.0},"Location":{"LocationId":"NT_Ryca5XtJnLvVwzHR4C5wCD_l_595202408_R","LocationType":"point","DisplayPosition":{"Latitude":52.98352,"Longitude":16.89886},"MapView":{"TopLeft":{"Latitude":52.98352,"Longitude":16.89524},"BottomRight":{"Latitude":52.98038,"Longitude":16.89886}},"Address":{"Label":"ulica 3 Maja, 64-800 Chodzież, Polska","Country":"POL","State":"Woj. Wielkopolskie","County":"Powiat Chodzieski","City":"Chodzież","District":"Chodzież","Street":"ulica 3 Maja","PostalCode":"64-800","AdditionalData":[{"value":"Polska","key":"CountryName"},{"value":"Woj. Wielkopolskie","key":"StateName"},{"value":"Powiat Chodzieski","key":"CountyName"}]},"MapReference":{"ReferenceId":"595202408","Spot":1.0,"SideOfStreet":"right","CountryId":"20624059","StateId":"20629915","CountyId":"20629925","CityId":"20695662","DistrictId":"20695663"}}},{"Relevance":1.0,"Distance":232.5,"MatchLevel":"street","MatchQuality":{"Country":1.0,"State":1.0,"County":1.0,"City":1.0,"District":1.0,"Street":[1.0],"PostalCode":1.0},"Location":{"LocationId":"NT_R1kXTTtq-M4Lq--USxk.PB_l_595202312_L","LocationType":"point","DisplayPosition":{"Latitude":52.98132,"Longitude":16.90223},"MapView":{"TopLeft":{"Latitude":52.98142,"Longitude":16.90223},"BottomRight":{"Latitude":52.98132,"Longitude":16.9054}},"Address":{"Label":"ulica Kornela Makuszyńskiego, 64-800 Chodzież, Polska","Country":"POL","State":"Woj. Wielkopolskie","County":"Powiat Chodzieski","City":"Chodzież","District":"Chodzież","Street":"ulica Kornela Makuszyńskiego","PostalCode":"64-800","AdditionalData":[{"value":"Polska","key":"CountryName"},{"value":"Woj. Wielkopolskie","key":"StateName"},{"value":"Powiat Chodzieski","key":"CountyName"}]},"MapReference":{"ReferenceId":"595202312","Spot":0.0,"SideOfStreet":"left","CountryId":"20624059","StateId":"20629915","CountyId":"20629925","CityId":"20695662","DistrictId":"20695663"}}},{"Relevance":1.0,"Distance":232.5,"MatchLevel":"street","MatchQuality":{"Country":1.0,"State":1.0,"County":1.0,"City":1.0,"District":1.0,"Street":[1.0],"PostalCode":1.0},"Location":{"LocationId":"NT_4z7Dxc0mfIFCLcG3kFHMNB_l_778802272_R","LocationType":"point","DisplayPosition":{"Latitude":52.98132,"Longitude":16.90223},"MapView":{"TopLeft":{"Latitude":52.98132,"Longitude":16.90223},"BottomRight":{"Latitude":52.98084,"Longitude":16.90253}},"Address":{"Label":"ulica Kazimierza Przerwy-Tetmajera, 64-800 Chodzież, Polska","Country":"POL","State":"Woj. Wielkopolskie","County":"Powiat Chodzieski","City":"Chodzież","District":"Chodzież","Street":"ulica Kazimierza Przerwy-Tetmajera","PostalCode":"64-800","AdditionalData":[{"value":"Polska","key":"CountryName"},{"value":"Woj. Wielkopolskie","key":"StateName"},{"value":"Powiat Chodzieski","key":"CountyName"}]},"MapReference":{"ReferenceId":"778802272","Spot":1.0,"SideOfStreet":"right","CountryId":"20624059","StateId":"20629915","CountyId":"20629925","CityId":"20695662","DistrictId":"20695663"}}},{"Relevance":1.0,"Distance":235.7,"MatchLevel":"street","MatchQuality":{"Country":1.0,"State":1.0,"County":1.0,"City":1.0,"District":1.0,"Street":[1.0],"PostalCode":1.0},"Location":{"LocationId":"NT_R1kXTTtq-M4Lq--USxk.PB_l_595202321_L","LocationType":"point","DisplayPosition":{"Latitude":52.9812671,"Longitude":16.9019733},"MapView":{"TopLeft":{"Latitude":52.98132,"Longitude":16.90095},"BottomRight":{"Latitude":52.98107,"Longitude":16.90223}},"Address":{"Label":"ulica Kornela Makuszyńskiego, 64-800 Chodzież, Polska","Country":"POL","State":"Woj. Wielkopolskie","County":"Powiat Chodzieski","City":"Chodzież","District":"Chodzież","Street":"ulica Kornela Makuszyńskiego","PostalCode":"64-800","AdditionalData":[{"value":"Polska","key":"CountryName"},{"value":"Woj. Wielkopolskie","key":"StateName"},{"value":"Powiat Chodzieski","key":"CountyName"}]},"MapReference":{"ReferenceId":"595202321","Spot":0.8,"SideOfStreet":"left","CountryId":"20624059","StateId":"20629915","CountyId":"20629925","CityId":"20695662","DistrictId":"20695663"}}},{"Relevance":1.0,"Distance":248.5,"MatchLevel":"houseNumber","MatchQuality":{"Country":1.0,"State":1.0,"County":1.0,"City":1.0,"District":1.0,"Street":[1.0],"HouseNumber":1.0,"PostalCode":1.0},"MatchType":"interpolated","Location":{"LocationId":"NT_OFkOiZPwRe1VNueJZJCfyD_ykD","LocationType":"point","DisplayPosition":{"Latitude":52.98118,"Longitude":16.90085},"MapView":{"TopLeft":{"Latitude":52.9823042,"Longitude":16.8989829},"BottomRight":{"Latitude":52.9800558,"Longitude":16.9027171}},"Address":{"Label":"ulica Władysława Broniewskiego 29, 64-800 Chodzież, Polska","Country":"POL","State":"Woj. Wielkopolskie","County":"Powiat Chodzieski","City":"Chodzież","District":"Chodzież","Street":"ulica Władysława Broniewskiego","HouseNumber":"29","PostalCode":"64-800","AdditionalData":[{"value":"Polska","key":"CountryName"},{"value":"Woj. Wielkopolskie","key":"StateName"},{"value":"Powiat Chodzieski","key":"CountyName"}]},"MapReference":{"ReferenceId":"595202322","Spot":0.3,"SideOfStreet":"left","CountryId":"20624059","StateId":"20629915","CountyId":"20629925","CityId":"20695662","DistrictId":"20695663","AddressId":"702038297","RoadLinkId":"95265321"}}},{"Relevance":1.0,"Distance":270.9,"MatchLevel":"houseNumber","MatchQuality":{"Country":1.0,"State":1.0,"County":1.0,"City":1.0,"District":1.0,"Street":[1.0],"HouseNumber":1.0,"PostalCode":1.0},"MatchType":"interpolated","Location":{"LocationId":"NT_R1kXTTtq-M4Lq--USxk.PB_ygD","LocationType":"point","DisplayPosition":{"Latitude":52.98096,"Longitude":16.90279},"MapView":{"TopLeft":{"Latitude":52.9820842,"Longitude":16.9009229},"BottomRight":{"Latitude":52.9798358,"Longitude":16.9046571}},"Address":{"Label":"ulica Kornela Makuszyńskiego 28, 64-800 Chodzież, Polska","Country":"POL","State":"Woj. Wielkopolskie","County":"Powiat Chodzieski","City":"Chodzież","District":"Chodzież","Street":"ulica Kornela Makuszyńskiego","HouseNumber":"28","PostalCode":"64-800","AdditionalData":[{"value":"Polska","key":"CountryName"},{"value":"Woj. Wielkopolskie","key":"StateName"},{"value":"Powiat Chodzieski","key":"CountyName"}]},"MapReference":{"ReferenceId":"778802273","Spot":0.09,"SideOfStreet":"left","CountryId":"20624059","StateId":"20629915","CountyId":"20629925","CityId":"20695662","DistrictId":"20695663","AddressId":"702053579","RoadLinkId":"271902489"}}},{"Relevance":1.0,"Distance":283.9,"MatchLevel":"houseNumber","MatchQuality":{"Country":1.0,"State":1.0,"County":1.0,"City":1.0,"District":1.0,"Street":[1.0],"HouseNumber":1.0,"PostalCode":1.0},"MatchType":"interpolated","Location":{"LocationId":"NT_OFkOiZPwRe1VNueJZJCfyD_zAD","LocationType":"point","DisplayPosition":{"Latitude":52.98072,"Longitude":16.90114},"MapView":{"TopLeft":{"Latitude":52.9818442,"Longitude":16.8992729},"BottomRight":{"Latitude":52.9795958,"Longitude":16.9030071}},"Address":{"Label":"ulica Władysława Broniewskiego 30, 64-800 Chodzież, Polska","Country":"POL","State":"Woj. Wielkopolskie","County":"Powiat Chodzieski","City":"Chodzież","District":"Chodzież","Street":"ulica Władysława Broniewskiego","HouseNumber":"30","PostalCode":"64-800","AdditionalData":[{"value":"Polska","key":"CountryName"},{"value":"Woj. Wielkopolskie","key":"StateName"},{"value":"Powiat Chodzieski","key":"CountyName"}]},"MapReference":{"ReferenceId":"595202547","Spot":0.67,"SideOfStreet":"right","CountryId":"20624059","StateId":"20629915","CountyId":"20629925","CityId":"20695662","DistrictId":"20695663","AddressId":"211161162","RoadLinkId":"95328475"}}}]}]}}