{"Response":{"MetaInfo":{"Timestamp":"2020-03-28T10:41:30.480+0000","NextPageInformation":"2"},"View":[{"_type":"SearchResultsViewType","ViewId":0,"Result":[{"Relevance":1.0,"Distance":0.0,"Direction":0.0,"MatchLevel":"district","MatchQuality":{"Country":1.0,"State":1.0,"County":1.0,"City":1.0,"District":1.0,"PostalCode":1.0},"Location":{"LocationId":"NT_SsMzE8PSAE0dAZ4O7EXL5D","LocationType":"point","DisplayPosition":{"Latitude":52.9812645,"Longitude":-1.1067773},"MapView":{"TopLeft":{"Latitude":53.02147,"Longitude":-1.15375},"BottomRight":{"Latitude":52.96479,"Longitude":-1.08875}},"Address":{"Label":"Mapperley, Nottingham, England, United Kingdom","Country":"GBR","State":"England","County":"Nottinghamshire","City":"Nottingham","District":"Mapperley","PostalCode":"NG3 5","AdditionalData":[{"value":"United Kingdom","key":"CountryName"},{"value":"England","key":"StateName"},{"value":"Nottinghamshire","key":"CountyName"}]},"MapReference":{"ReferenceId":"26285785","SideOfStreet":"neither","StateId":"20248595","CountyId":"20344764","CityId":"20356833","DistrictId":"20356911"}}},{"Relevance":1.0,"Distance":5.3,"MatchLevel":"houseNumber","MatchQuality":{"Country":1.0,"State":1.0,"County":1.0,"City":1.0,"District":1.0,"Street":[1.0],"HouseNumber":1.0,"PostalCode":1.0},"MatchType":"interpolated","Location":{"LocationId":"NT_vANGkbXOTn15eTj58X94FD_l_26440765_L_yA","LocationType":"point","DisplayPosition":{"Latitude":52.9811,"Longitude":-1.1066787},"MapView":{"TopLeft":{"Latitude":52.9822242,"Longitude":-1.1085459},"BottomRight":{"Latitude":52.9799759,"Longitude":-1.1048116}},"Address":{"Label":"2 Oakleigh Avenue, Nottingham, NG3 6GA, United Kingdom","Country":"GBR","State":"England","County":"Nottinghamshire","City":"Nottingham","District":"Mapperley","Street":"Oakleigh Avenue","HouseNumber":"2","PostalCode":"NG3 6GA","AdditionalData":[{"value":"United Kingdom","key":"CountryName"},{"value":"England","key":"StateName"},{"value":"Nottinghamshire","key":"CountyName"}]},"MapReference":{"ReferenceId":"26440765","Spot":0.81,"SideOfStreet":"left","StateId":"20248595","CountyId":"20344764","CityId":"20356833","DistrictId":"20356911"}}},{"Relevance":1.0,"Distance":22.7,"MatchLevel":"street","MatchQuality":{"Country":1.0,"State":1.0,"County":1.0,"City":1.0,"District":1.0,"Street":[1.0],"PostalCode":1.0},"Location":{"LocationId":"NT_V2PMSSK7LnB8p3ED7fRhSA_l_1058201738_L","LocationType":"point","DisplayPosition":{"Latitude":52.98143,"Longitude":-1.10658},"MapView":{"TopLeft":{"Latitude":52.98143,"Longitude":-1.10658},"BottomRight":{"Latitude":52.98136,"Longitude":-1.10641}},"Address":{"Label":"Westdale Lane West, Nottingham, NG3 6, United Kingdom","Country":"GBR","State":"England","County":"Nottinghamshire","City":"Nottingham","District":"Mapperley","Street":"Westdale Lane West","PostalCode":"NG3 6","AdditionalData":[{"value":"United Kingdom","key":"CountryName"},{"value":"England","key":"StateName"},{"value":"Nottinghamshire","key":"CountyName"}]},"MapReference":{"ReferenceId":"1058201738","Spot":1.0,"SideOfStreet":"left","StateId":"20248595","CountyId":"20344764","CityId":"20356833","DistrictId":"20356911"}}},{"Relevance":1.0,"Distance":24.0,"MatchLevel":"street","MatchQuality":{"Country":1.0,"State":1.0,"County":1.0,"City":1.0,"District":1.0,"Street":[1.0],"PostalCode":1.0},"Location":{"LocationId":"NT_V2PMSSK7LnB8p3ED7fRhSA_l_1058201739_L","LocationType":"point","DisplayPosition":{"Latitude":52.981475,"Longitude":-1.1066951},"MapView":{"TopLeft":{"Latitude":52.98184,"Longitude":-1.10763},"BottomRight":{"Latitude":52.98143,"Longitude":-1.10658}},"Address":{"Label":"Westdale Lane West, Nottingham, NG3 6, United Kingdom","Country":"GBR","State":"England","County":"Nottinghamshire","City":"Nottingham","District":"Mapperley","Street":"Westdale Lane West","PostalCode":"NG3 6","AdditionalData":[{"value":"United Kingdom","key":"CountryName"},{"value":"England","key":"StateName"},{"value":"Nottinghamshire","key":"CountyName"}]},"MapReference":{"ReferenceId":"1058201739","Spot":0.11,"SideOfStreet":"left","StateId":"20248595","CountyId":"20344764","CityId":"20356833","DistrictId":"20356911"}}},{"Relevance":1.0,"Distance":26.8,"MatchLevel":"street","MatchQuality":{"Country":1.0,"State":1.0,"County":1.0,"City":1.0,"District":1.0,"Street":[1.0],"PostalCode":1.0},"Location":{"LocationId":"NT_V2PMSSK7LnB8p3ED7fRhSA_l_26284707_L","LocationType":"point","DisplayPosition":{"Latitude":52.98136,"Longitude":-1.10641},"MapView":{"TopLeft":{"Latitude":52.98136,"Longitude":-1.10641},"BottomRight":{"Latitude":52.98093,"Longitude":-1.10529}},"Address":{"Label":"Westdale Lane West, Nottingham, NG3 6, United Kingdom","Country":"GBR","State":"England","County":"Nottinghamshire","City":"Nottingham","District":"Mapperley","Street":"Westdale Lane West","PostalCode":"NG3 6","AdditionalData":[{"value":"United Kingdom","key":"CountryName"},{"value":"England","key":"StateName"},{"value":"Nottinghamshire","key":"CountyName"}]},"MapReference":{"ReferenceId":"26284707","Spot":1.0,"SideOfStreet":"left","StateId":"20248595","CountyId":"20344764","CityId":"20356833","DistrictId":"20356911"}}},{"Relevance":1.0,"Distance":57.1,"MatchLevel":"postalCode","MatchQuality":{"PostalCode":1.0},"Location":{"LocationId":"NT_V2PMSSK7LnB8p3ED7fRhSA_l_1058201739_L","LocationType":"point","DisplayPosition":{"Latitude":52.98172,"Longitude":-1.10717},"MapView":{"TopLeft":{"Latitude":52.9907132,"Longitude":-1.1221072},"BottomRight":{"Latitude":52.9727268,"Longitude":-1.0922328}},"Address":{"Label":"NG3 6ET, Nottingham, England, United Kingdom","Country":"GBR","State":"England","County":"Nottinghamshire","City":"Nottingham","PostalCode":"NG3 6ET","AdditionalData":[{"value":"United Kingdom","key":"CountryName"},{"value":"England","key":"StateName"},{"value":"Nottinghamshire","key":"CountyName"}]},"MapReference":{"ReferenceId":"1058201739","Spot":0.11,"SideOfStreet":"neither","StateId":"20248595","CountyId":"20344764","CityId":"20356833"}}},{"Relevance":1.0,"Distance":70.5,"MatchLevel":"houseNumber","MatchQuality":{"Country":1.0,"State":1.0,"County":1.0,"City":1.0,"District":1.0,"Street":[1.0],"HouseNumber":1.0,"PostalCode":1.0},"MatchType":"interpolated","Location":{"LocationId":"NT_zFWWw5RtKMA1HtleGFu1FB_l_26440766_R_xA","LocationType":"point","DisplayPosition":{"Latitude":52.9816373,"Longitude":-1.1078464},"MapView":{"TopLeft":{"Latitude":52.9827614,"Longitude":-1.1097135},"BottomRight":{"Latitude":52.9805131,"Longitude":-1.1059792}},"Address":{"Label":"1 Marshall Hill Drive, Nottingham, NG3 6FY, United Kingdom","Country":"GBR","State":"England","County":"Nottinghamshire","City":"Nottingham","District":"Mapperley","Street":"Marshall Hill Drive","HouseNumber":"1","PostalCode":"NG3 6FY","AdditionalData":[{"value":"United Kingdom","key":"CountryName"},{"value":"England","key":"StateName"},{"value":"Nottinghamshire","key":"CountyName"}]},"MapReference":{"ReferenceId":"26440766","Spot":0.83,"SideOfStreet":"right","StateId":"20248595","CountyId":"20344764","CityId":"20356833","DistrictId":"20356911"}}},{"Relevance":1.0,"Distance":78.5,"MatchLevel":"postalCode","MatchQuality":{"PostalCode":1.0},"Location":{"LocationId":"NT_V2PMSSK7LnB8p3ED7fRhSA_l_1051722908_L","LocationType":"point","DisplayPosition":{"Latitude":52.98164,"Longitude":-1.10777},"MapView":{"TopLeft":{"Latitude":52.9906332,"Longitude":-1.1227071},"BottomRight":{"Latitude":52.9726468,"Longitude":-1.0928329}},"Address":{"Label":"NG3 6EW, Nottingham, England, United Kingdom","Country":"GBR","State":"England","County":"Nottinghamshire","City":"Nottingham","PostalCode":"NG3 6EW","AdditionalData":[{"value":"United Kingdom","key":"CountryName"},{"value":"England","key":"StateName"},{"value":"Nottinghamshire","key":"CountyName"}]},"MapReference":{"ReferenceId":"1051722908","Spot":0.0,"SideOfStreet":"neither","StateId":"20248595","CountyId":"20344764","CityId":"20356833"}}},{"Relevance":1.0,"Distance":85.4,"MatchLevel":"postalCode","MatchQuality":{"PostalCode":1.0},"MatchType":"interpolated","Location":{"LocationId":"NT_vANGkbXOTn15eTj58X94FD_l_26440765_L_yA","LocationType":"point","DisplayPosition":{"Latitude":52.98054,"Longitude":-1.1072},"MapView":{"TopLeft":{"Latitude":52.9895332,"Longitude":-1.1221368},"BottomRight":{"Latitude":52.9715468,"Longitude":-1.0922632}},"Address":{"Label":"NG3 6GA, Nottingham, England, United Kingdom","Country":"GBR","State":"England","County":"Nottinghamshire","City":"Nottingham","PostalCode":"NG3 6GA","AdditionalData":[{"value":"United Kingdom","key":"CountryName"},{"value":"England","key":"StateName"},{"value":"Nottinghamshire","key":"CountyName"}]},"MapReference":{"ReferenceId":"26440765","Spot":0.81,"SideOfStreet":"neither","StateId":"20248595","CountyId":"20344764","CityId":"20356833"}}},{"Relevance":1.0,"Distance":85.8,"MatchLevel":"street","MatchQuality":{"Country":1.0,"State":1.0,"County":1.0,"City":1.0,"District":1.0,"Street":[1.0],"PostalCode":1.0},"Location":{"LocationId":"NT_V2PMSSK7LnB8p3ED7fRhSA_l_1051722908_L","LocationType":"point","DisplayPosition":{"Latitude":52.98184,"Longitude":-1.10763},"MapView":{"TopLeft":{"Latitude":52.98209,"Longitude":-1.10823},"BottomRight":{"Latitude":52.98184,"Longitude":-1.10763}},"Address":{"Label":"Westdale Lane West, Nottingham, NG3 6, United Kingdom","Country":"GBR","State":"England","County":"Nottinghamshire","City":"Nottingham","District":"Mapperley","Street":"Westdale Lane West","PostalCode":"NG3 6","AdditionalData":[{"value":"United Kingdom","key":"CountryName"},{"value":"England","key":"StateName"},{"value":"Nottinghamshire","key":"CountyName"}]},"MapReference":{"ReferenceId":"1051722908","Spot":0.0,"SideOfStreet":"left","StateId":"20248595","CountyId":"20344764","CityId":"20356833","DistrictId":"20356911"}}}]}]}}