{"Response":{"MetaInfo":{"Timestamp":"2020-03-28T11:54:56.294+0000","NextPageInformation":"2"},"View":[{"_type":"SearchResultsViewType","ViewId":0,"Result":[{"Relevance":1.0,"Distance":0.0,"Direction":0.0,"MatchLevel":"district","MatchQuality":{"Country":1.0,"State":1.0,"County":1.0,"City":1.0,"District":1.0,"PostalCode":1.0},"Location":{"LocationId":"NT_90jZtBNvuljh.ex9ll5DAB","LocationType":"point","DisplayPosition":{"Latitude":52.9563578,"Longitude":-1.1668385},"MapView":{"TopLeft":{"Latitude":53.0187,"Longitude":-1.27314},"BottomRight":{"Latitude":52.90184,"Longitude":-1.05453}},"Address":{"Label":"Nottingham, England, United Kingdom","Country":"GBR","State":"England","County":"Nottinghamshire","City":"Nottingham","District":"Nottingham","PostalCode":"NG1 7","AdditionalData":[{"value":"United Kingdom","key":"CountryName"},{"value":"England","key":"StateName"},{"value":"Nottinghamshire","key":"CountyName"}]},"MapReference":{"ReferenceId":"1239210936","SideOfStreet":"neither","StateId":"20248595","CountyId":"20344764","CityId":"20356833","DistrictId":"20356834"}}},{"Relevance":1.0,"Distance":11.3,"MatchLevel":"houseNumber","MatchQuality":{"Country":1.0,"State":1.0,"County":1.0,"City":1.0,"District":1.0,"Street":[1.0],"HouseNumber":1.0,"PostalCode":1.0},"MatchType":"interpolated","Location":{"LocationId":"NT_-fJaxsfdeydA6RbJPtzjBC_l_836675769_R_3ID","LocationType":"point","DisplayPosition":{"Latitude":52.9561501,"Longitude":-1.1667267},"MapView":{"TopLeft":{"Latitude":52.9572742,"Longitude":-1.1685927},"BottomRight":{"Latitude":52.9550259,"Longitude":-1.1648606}},"Address":{"Label":"72 Ilkeston Road, Nottingham, NG7 3GQ, United Kingdom","Country":"GBR","State":"England","County":"Nottinghamshire","City":"Nottingham","District":"Nottingham","Street":"Ilkeston Road","HouseNumber":"72","PostalCode":"NG7 3GQ","AdditionalData":[{"value":"United Kingdom","key":"CountryName"},{"value":"England","key":"StateName"},{"value":"Nottinghamshire","key":"CountyName"}]},"MapReference":{"ReferenceId":"836675769","Spot":0.5,"SideOfStreet":"right","StateId":"20248595","CountyId":"20344764","CityId":"20356833","DistrictId":"20356834"}}},{"Relevance":1.0,"Distance":17.5,"MatchLevel":"houseNumber","MatchQuality":{"Country":1.0,"State":1.0,"County":1.0,"City":1.0,"District":1.0,"Street":[1.0],"HouseNumber":1.0,"PostalCode":1.0},"MatchType":"interpolated","Location":{"LocationId":"NT_CAe9qUyeialV2BRlZSxZrC_l_26289548_R_xkD","LocationType":"point","DisplayPosition":{"Latitude":52.956495,"Longitude":-1.16671},"MapView":{"TopLeft":{"Latitude":52.9576192,"Longitude":-1.1685761},"BottomRight":{"Latitude":52.9553709,"Longitude":-1.164844}},"Address":{"Label":"19 Althorpe Street, Nottingham, NG7 3GN, United Kingdom","Country":"GBR","State":"England","County":"Nottinghamshire","City":"Nottingham","District":"Nottingham","Street":"Althorpe Street","HouseNumber":"19","PostalCode":"NG7 3GN","AdditionalData":[{"value":"United Kingdom","key":"CountryName"},{"value":"England","key":"StateName"},{"value":"Nottinghamshire","key":"CountyName"}]},"MapReference":{"ReferenceId":"26289548","Spot":0.47,"SideOfStreet":"right","StateId":"20248595","CountyId":"20344764","CityId":"20356833","DistrictId":"20356834"}}},{"Relevance":1.0,"Distance":23.2,"MatchLevel":"street","MatchQuality":{"Country":1.0,"State":1.0,"County":1.0,"City":1.0,"District":1.0,"Street":[1.0],"PostalCode":1.0},"Location":{"LocationId":"NT_qBff7MxYo0ORbYh-NQz5oA_l_836675770_L","LocationType":"point","DisplayPosition":{"Latitude":52.95616,"Longitude":-1.16695},"MapView":{"TopLeft":{"Latitude":52.95616,"Longitude":-1.16713},"BottomRight":{"Latitude":52.95616,"Longitude":-1.16695}},"Address":{"Label":"Ilkeston Road, Nottingham, NG7 3, United Kingdom","Country":"GBR","State":"England","County":"Nottinghamshire","City":"Nottingham","District":"Nottingham","Street":"Ilkeston Road","PostalCode":"NG7 3","AdditionalData":[{"value":"United Kingdom","key":"CountryName"},{"value":"England","key":"StateName"},{"value":"Nottinghamshire","key":"CountyName"}]},"MapReference":{"ReferenceId":"836675770","Spot":1.0,"SideOfStreet":"left","StateId":"20248595","CountyId":"20344764","CityId":"20356833","DistrictId":"20356834"}}},{"Relevance":1.0,"Distance":23.5,"MatchLevel":"postalCode","MatchQuality":{"PostalCode":1.0},"MatchType":"interpolated","Location":{"LocationId":"NT_-fJaxsfdeydA6RbJPtzjBC_l_836675769_R_3ID","LocationType":"point","DisplayPosition":{"Latitude":52.95627,"Longitude":-1.16652},"MapView":{"TopLeft":{"Latitude":52.9652632,"Longitude":-1.1814484},"BottomRight":{"Latitude":52.9472768,"Longitude":-1.1515916}},"Address":{"Label":"NG7 3GQ, Nottingham, England, United Kingdom","Country":"GBR","State":"England","County":"Nottinghamshire","City":"Nottingham","PostalCode":"NG7 3GQ","AdditionalData":[{"value":"United Kingdom","key":"CountryName"},{"value":"England","key":"StateName"},{"value":"Nottinghamshire","key":"CountyName"}]},"MapReference":{"ReferenceId":"836675769","Spot":0.5,"SideOfStreet":"neither","StateId":"20248595","CountyId":"20344764","CityId":"20356833"}}},{"Relevance":1.0,"Distance":25.8,"MatchLevel":"street","MatchQuality":{"Country":1.0,"State":1.0,"County":1.0,"City":1.0,"District":1.0,"Street":[1.0],"PostalCode":1.0},"Location":{"LocationId":"NT_B8ri0h1NtJJAMMqNowEJ0A_l_26289589_R","LocationType":"point","DisplayPosition":{"Latitude":52.9565079,"Longitude":-1.1671322},"MapView":{"TopLeft":{"Latitude":52.95661,"Longitude":-1.16731},"BottomRight":{"Latitude":52.95616,"Longitude":-1.16708}},"Address":{"Label":"Highurst Street, Nottingham, NG7 3, United Kingdom","Country":"GBR","State":"England","County":"Nottinghamshire","City":"Nottingham","District":"Nottingham","Street":"Highurst Street","PostalCode":"NG7 3","AdditionalData":[{"value":"United Kingdom","key":"CountryName"},{"value":"England","key":"StateName"},{"value":"Nottinghamshire","key":"CountyName"}]},"MapReference":{"ReferenceId":"26289589","Spot":0.77,"SideOfStreet":"right","StateId":"20248595","CountyId":"20344764","CityId":"20356833","DistrictId":"20356834"}}},{"Relevance":1.0,"Distance":26.4,"MatchLevel":"street","MatchQuality":{"Country":1.0,"State":1.0,"County":1.0,"City":1.0,"District":1.0,"Street":[1.0],"PostalCode":1.0},"Location":{"LocationId":"NT_A-ITXkoTDtIZMQQ1zMGNuC_l_26289597_L","LocationType":"point","DisplayPosition":{"Latitude":52.95626,"Longitude":-1.16648},"MapView":{"TopLeft":{"Latitude":52.95635,"Longitude":-1.1665},"BottomRight":{"Latitude":52.95614,"Longitude":-1.16639}},"Address":{"Label":"Montfort Street, Nottingham, NG7 3, United Kingdom","Country":"GBR","State":"England","County":"Nottinghamshire","City":"Nottingham","District":"Nottingham","Street":"Montfort Street","PostalCode":"NG7 3","AdditionalData":[{"value":"United Kingdom","key":"CountryName"},{"value":"England","key":"StateName"},{"value":"Nottinghamshire","key":"CountyName"}]},"MapReference":{"ReferenceId":"26289597","Spot":0.49,"SideOfStreet":"left","StateId":"20248595","CountyId":"20344764","CityId":"20356833","DistrictId":"20356834"}}},{"Relevance":1.0,"Distance":26.6,"MatchLevel":"houseNumber","MatchQuality":{"Country":1.0,"State":1.0,"County":1.0,"City":1.0,"District":1.0,"Street":[1.0],"HouseNumber":1.0,"PostalCode":1.0},"MatchType":"interpolated","Location":{"LocationId":"NT_A-ITXkoTDtIZMQQ1zMGNuC_l_565672369_L_yAD","LocationType":"point","DisplayPosition":{"Latitude":52.95635,"Longitude":-1.16639},"MapView":{"TopLeft":{"Latitude":52.9574742,"Longitude":-1.168256},"BottomRight":{"Latitude":52.9552259,"Longitude":-1.1645239}},"Address":{"Label":"20 Montfort Street, Nottingham, NG7 3, United Kingdom","Country":"GBR","State":"England","County":"Nottinghamshire","City":"Nottingham","District":"Nottingham","Street":"Montfort Street","HouseNumber":"20","PostalCode":"NG7 3","AdditionalData":[{"value":"United Kingdom","key":"CountryName"},{"value":"England","key":"StateName"},{"value":"Nottinghamshire","key":"CountyName"}]},"MapReference":{"ReferenceId":"565672369","Spot":0.0,"SideOfStreet":"left","StateId":"20248595","CountyId":"20344764","CityId":"20356833","DistrictId":"20356834"}}},{"Relevance":1.0,"Distance":27.9,"MatchLevel":"postalCode","MatchQuality":{"PostalCode":1.0},"MatchType":"interpolated","Location":{"LocationId":"NT_CAe9qUyeialV2BRlZSxZrC_l_26289548_R_xkD","LocationType":"point","DisplayPosition":{"Latitude":52.95643,"Longitude":-1.16644},"MapView":{"TopLeft":{"Latitude":52.9654232,"Longitude":-1.1813684},"BottomRight":{"Latitude":52.9474368,"Longitude":-1.1515116}},"Address":{"Label":"NG7 3GN, Nottingham, England, United Kingdom","Country":"GBR","State":"England","County":"Nottinghamshire","City":"Nottingham","PostalCode":"NG7 3GN","AdditionalData":[{"value":"United Kingdom","key":"CountryName"},{"value":"England","key":"StateName"},{"value":"Nottinghamshire","key":"CountyName"}]},"MapReference":{"ReferenceId":"26289548","Spot":0.47,"SideOfStreet":"neither","StateId":"20248595","CountyId":"20344764","CityId":"20356833"}}},{"Relevance":1.0,"Distance":29.2,"MatchLevel":"houseNumber","MatchQuality":{"Country":1.0,"State":1.0,"County":1.0,"City":1.0,"District":1.0,"Street":[1.0],"HouseNumber":1.0,"PostalCode":1.0},"MatchType":"interpolated","Location":{"LocationId":"NT_ue-1O0.n6jen-msjm4lYCB_l_26289665_R_xID","LocationType":"point","DisplayPosition":{"Latitude":52.9560031,"Longitude":-1.1670599},"MapView":{"TopLeft":{"Latitude":52.9571272,"Longitude":-1.1689259},"BottomRight":{"Latitude":52.9548789,"Longitude":-1.1651938}},"Address":{"Label":"12 Arundel Street, Nottingham, NG7 1NL, United Kingdom","Country":"GBR","State":"England","County":"Nottinghamshire","City":"Nottingham","District":"Lenton","Street":"Arundel Street","HouseNumber":"12","PostalCode":"NG7 1NL","AdditionalData":[{"value":"United Kingdom","key":"CountryName"},{"value":"England","key":"StateName"},{"value":"Nottinghamshire","key":"CountyName"}]},"MapReference":{"ReferenceId":"26289665","Spot":0.51,"SideOfStreet":"right","StateId":"20248595","CountyId":"20344764","CityId":"20356833","DistrictId":"20356906"}}}]}]}}