{"Response":{"MetaInfo":{"Timestamp":"2020-03-28T10:40:20.458+0000","NextPageInformation":"2"},"View":[{"_type":"SearchResultsViewType","ViewId":0,"Result":[{"Relevance":1.0,"Distance":0.0,"Direction":0.0,"MatchLevel":"district","MatchQuality":{"Country":1.0,"State":1.0,"County":1.0,"City":1.0,"District":1.0,"PostalCode":1.0},"Location":{"LocationId":"NT_WvuHrGobV-epPyNaKC1VTB","LocationType":"point","DisplayPosition":{"Latitude":52.92503,"Longitude":-1.216507},"MapView":{"TopLeft":{"Latitude":52.9536,"Longitude":-1.2721},"BottomRight":{"Latitude":52.90199,"Longitude":-1.1789}},"Address":{"Label":"Beeston, Nottingham, England, United Kingdom","Country":"GBR","State":"England","County":"Nottinghamshire","City":"Nottingham","District":"Beeston","PostalCode":"NG9 1","AdditionalData":[{"value":"United Kingdom","key":"CountryName"},{"value":"England","key":"StateName"},{"value":"Nottinghamshire","key":"CountyName"}]},"MapReference":{"ReferenceId":"1131315428","SideOfStreet":"neither","StateId":"20248595","CountyId":"20344764","CityId":"20356833","DistrictId":"20356845"}}},{"Relevance":1.0,"Distance":23.1,"MatchLevel":"postalCode","MatchQuality":{"PostalCode":1.0},"Location":{"LocationId":"NT_8gpX9p4LBEACJNGhZ2-dPC_l_1061818914_R","LocationType":"point","DisplayPosition":{"Latitude":52.92483,"Longitude":-1.2166},"MapView":{"TopLeft":{"Latitude":52.9338232,"Longitude":-1.2315175},"BottomRight":{"Latitude":52.9158368,"Longitude":-1.2016825}},"Address":{"Label":"NG9 1GA, Nottingham, England, United Kingdom","Country":"GBR","State":"England","County":"Nottinghamshire","City":"Nottingham","PostalCode":"NG9 1GA","AdditionalData":[{"value":"United Kingdom","key":"CountryName"},{"value":"England","key":"StateName"},{"value":"Nottinghamshire","key":"CountyName"}]},"MapReference":{"ReferenceId":"1061818914","Spot":0.84,"SideOfStreet":"neither","StateId":"20248595","CountyId":"20344764","CityId":"20356833"}}},{"Relevance":1.0,"Distance":28.0,"MatchLevel":"street","MatchQuality":{"Country":1.0,"State":1.0,"County":1.0,"City":1.0,"District":1.0,"Street":[1.0],"PostalCode":1.0},"Location":{"LocationId":"NT_8gpX9p4LBEACJNGhZ2-dPC_l_1131315427_R","LocationType":"point","DisplayPosition":{"Latitude":52.92483,"Longitude":-1.21676},"MapView":{"TopLeft":{"Latitude":52.92494,"Longitude":-1.21711},"BottomRight":{"Latitude":52.92483,"Longitude":-1.21676}},"Address":{"Label":"Middle Street, Nottingham, NG9 1, United Kingdom","Country":"GBR","State":"England","County":"Nottinghamshire","City":"Nottingham","District":"Beeston","Street":"Middle Street","PostalCode":"NG9 1","AdditionalData":[{"value":"United Kingdom","key":"CountryName"},{"value":"England","key":"StateName"},{"value":"Nottinghamshire","key":"CountyName"}]},"MapReference":{"ReferenceId":"1131315427","Spot":0.0,"SideOfStreet":"right","StateId":"20248595","CountyId":"20344764","CityId":"20356833","DistrictId":"20356845"}}},{"Relevance":1.0,"Distance":29.0,"MatchLevel":"street","MatchQuality":{"Country":1.0,"State":1.0,"County":1.0,"City":1.0,"District":1.0,"Street":[1.0],"PostalCode":1.0},"Location":{"LocationId":"NT_8gpX9p4LBEACJNGhZ2-dPC_l_1061818914_R","LocationType":"point","DisplayPosition":{"Latitude":52.9247741,"Longitude":-1.2165923},"MapView":{"TopLeft":{"Latitude":52.92483,"Longitude":-1.21676},"BottomRight":{"Latitude":52.92452,"Longitude":-1.21572}},"Address":{"Label":"Middle Street, Nottingham, NG9 1, United Kingdom","Country":"GBR","State":"England","County":"Nottinghamshire","City":"Nottingham","District":"Beeston","Street":"Middle Street","PostalCode":"NG9 1","AdditionalData":[{"value":"United Kingdom","key":"CountryName"},{"value":"England","key":"StateName"},{"value":"Nottinghamshire","key":"CountyName"}]},"MapReference":{"ReferenceId":"1061818914","Spot":0.84,"SideOfStreet":"right","StateId":"20248595","CountyId":"20344764","CityId":"20356833","DistrictId":"20356845"}}},{"Relevance":1.0,"Distance":41.6,"MatchLevel":"street","MatchQuality":{"Country":1.0,"State":1.0,"County":1.0,"City":1.0,"District":1.0,"Street":[1.0],"PostalCode":1.0},"Location":{"LocationId":"NT_3aKt-Ke9qKMejnyC5t.LSC_l_1131315428_R","LocationType":"point","DisplayPosition":{"Latitude":52.92494,"Longitude":-1.21711},"MapView":{"TopLeft":{"Latitude":52.92497,"Longitude":-1.21751},"BottomRight":{"Latitude":52.92494,"Longitude":-1.21711}},"Address":{"Label":"Middle Street, Nottingham, NG9 1, United Kingdom","Country":"GBR","State":"England","County":"Nottinghamshire","City":"Nottingham","District":"Beeston","Street":"Middle Street","PostalCode":"NG9 1","AdditionalData":[{"value":"United Kingdom","key":"CountryName"},{"value":"England","key":"StateName"},{"value":"Nottinghamshire","key":"CountyName"}]},"MapReference":{"ReferenceId":"1131315428","Spot":0.0,"SideOfStreet":"right","StateId":"20248595","CountyId":"20344764","CityId":"20356833","DistrictId":"20356845"}}},{"Relevance":1.0,"Distance":41.6,"MatchLevel":"street","MatchQuality":{"Country":1.0,"State":1.0,"County":1.0,"City":1.0,"District":1.0,"PostalCode":1.0},"Location":{"LocationId":"NT_w6PA-Vc.OUnfVs.FVCTMGD_l_1131315429_R","LocationType":"point","DisplayPosition":{"Latitude":52.92494,"Longitude":-1.21711},"MapView":{"TopLeft":{"Latitude":52.92525,"Longitude":-1.21743},"BottomRight":{"Latitude":52.92494,"Longitude":-1.21711}},"Address":{"Label":"Nottingham, NG9 1, United Kingdom","Country":"GBR","State":"England","County":"Nottinghamshire","City":"Nottingham","District":"Beeston","PostalCode":"NG9 1","AdditionalData":[{"value":"United Kingdom","key":"CountryName"},{"value":"England","key":"StateName"},{"value":"Nottinghamshire","key":"CountyName"}]},"MapReference":{"ReferenceId":"1131315429","Spot":0.0,"SideOfStreet":"right","StateId":"20248595","CountyId":"20344764","CityId":"20356833","DistrictId":"20356845"}}},{"Relevance":1.0,"Distance":49.1,"MatchLevel":"postalCode","MatchQuality":{"PostalCode":1.0},"Location":{"LocationId":"NT_yChEZchERfnCJGOnyUuplA_l_26294733_L","LocationType":"point","DisplayPosition":{"Latitude":52.92512,"Longitude":-1.21579},"MapView":{"TopLeft":{"Latitude":52.9341132,"Longitude":-1.2307076},"BottomRight":{"Latitude":52.9161268,"Longitude":-1.2008724}},"Address":{"Label":"NG9 1NU, Nottingham, England, United Kingdom","Country":"GBR","State":"England","County":"Nottinghamshire","City":"Nottingham","PostalCode":"NG9 1NU","AdditionalData":[{"value":"United Kingdom","key":"CountryName"},{"value":"England","key":"StateName"},{"value":"Nottinghamshire","key":"CountyName"}]},"MapReference":{"ReferenceId":"26294733","Spot":0.59,"SideOfStreet":"neither","StateId":"20248595","CountyId":"20344764","CityId":"20356833"}}},{"Relevance":1.0,"Distance":53.7,"MatchLevel":"houseNumber","MatchQuality":{"Country":1.0,"State":1.0,"County":1.0,"City":1.0,"District":1.0,"Street":[1.0],"HouseNumber":1.0,"PostalCode":1.0},"MatchType":"interpolated","Location":{"LocationId":"NT_1CYEdphstntjeRhHflLpXA_l_1131315423_R_xUD","LocationType":"point","DisplayPosition":{"Latitude":52.92537,"Longitude":-1.21736},"MapView":{"TopLeft":{"Latitude":52.9264942,"Longitude":-1.2192247},"BottomRight":{"Latitude":52.9242459,"Longitude":-1.2154953}},"Address":{"Label":"15 Chilwell Road, Nottingham, NG9 1, United Kingdom","Country":"GBR","State":"England","County":"Nottinghamshire","City":"Nottingham","District":"Beeston","Street":"Chilwell Road","HouseNumber":"15","PostalCode":"NG9 1","AdditionalData":[{"value":"United Kingdom","key":"CountryName"},{"value":"England","key":"StateName"},{"value":"Nottinghamshire","key":"CountyName"}]},"MapReference":{"ReferenceId":"1131315423","Spot":0.2,"SideOfStreet":"right","StateId":"20248595","CountyId":"20344764","CityId":"20356833","DistrictId":"20356845"}}},{"Relevance":1.0,"Distance":53.9,"MatchLevel":"street","MatchQuality":{"Country":1.0,"State":1.0,"County":1.0,"City":1.0,"District":1.0,"Street":[1.0],"PostalCode":1.0},"Location":{"LocationId":"NT_yChEZchERfnCJGOnyUuplA_l_26294733_L","LocationType":"point","DisplayPosition":{"Latitude":52.92526,"Longitude":-1.2158},"MapView":{"TopLeft":{"Latitude":52.92583,"Longitude":-1.21587},"BottomRight":{"Latitude":52.92452,"Longitude":-1.2156}},"Address":{"Label":"Church Street, Nottingham, NG9 1, United Kingdom","Country":"GBR","State":"England","County":"Nottinghamshire","City":"Nottingham","District":"Beeston","Street":"Church Street","PostalCode":"NG9 1","AdditionalData":[{"value":"United Kingdom","key":"CountryName"},{"value":"England","key":"StateName"},{"value":"Nottinghamshire","key":"CountyName"}]},"MapReference":{"ReferenceId":"26294733","Spot":0.59,"SideOfStreet":"left","StateId":"20248595","CountyId":"20344764","CityId":"20356833","DistrictId":"20356845"}}},{"Relevance":1.0,"Distance":55.2,"MatchLevel":"postalCode","MatchQuality":{"PostalCode":1.0},"Location":{"LocationId":"NT_3aKt-Ke9qKMejnyC5t.LSC_l_1131315428_R","LocationType":"point","DisplayPosition":{"Latitude":52.92492,"Longitude":-1.21731},"MapView":{"TopLeft":{"Latitude":52.9339132,"Longitude":-1.2322276},"BottomRight":{"Latitude":52.9159268,"Longitude":-1.2023924}},"Address":{"Label":"NG9 1ER, Nottingham, England, United Kingdom","Country":"GBR","State":"England","County":"Nottinghamshire","City":"Nottingham","PostalCode":"NG9 1ER","AdditionalData":[{"value":"United Kingdom","key":"CountryName"},{"value":"England","key":"StateName"},{"value":"Nottinghamshire","key":"CountyName"}]},"MapReference":{"ReferenceId":"1131315428","Spot":0.0,"SideOfStreet":"neither","StateId":"20248595","CountyId":"20344764","CityId":"20356833"}}}]}]}}