{"Response":{"MetaInfo":{"Timestamp":"2020-03-28T09:51:20.413+0000","NextPageInformation":"2"},"View":[{"_type":"SearchResultsViewType","ViewId":0,"Result":[{"Relevance":1.0,"Distance":0.0,"Direction":0.0,"MatchLevel":"district","MatchQuality":{"Country":1.0,"State":1.0,"County":1.0,"City":1.0,"District":1.0,"PostalCode":1.0},"Location":{"LocationId":"NT_wYQw1G4pBNLLCwRvpkRZhA","LocationType":"point","DisplayPosition":{"Latitude":53.0493134,"Longitude":-2.983857},"MapView":{"TopLeft":{"Latitude":53.07921,"Longitude":-3.02123},"BottomRight":{"Latitude":53.02937,"Longitude":-2.95123}},"Address":{"Label":"Wrexham, Wales, United Kingdom","Country":"GBR","State":"Wales","County":"Clwyd","City":"Wrexham","District":"Wrexham","PostalCode":"LL13 7","AdditionalData":[{"value":"United Kingdom","key":"CountryName"},{"value":"Wales","key":"StateName"},{"value":"Clwyd","key":"CountyName"}]},"MapReference":{"ReferenceId":"17491943","SideOfStreet":"neither","StateId":"20287683","CountyId":"20340689","CityId":"20340918","DistrictId":"20340919"}}},{"Relevance":1.0,"Distance":33.1,"MatchLevel":"houseNumber","MatchQuality":{"Country":1.0,"State":1.0,"County":1.0,"City":1.0,"District":1.0,"Street":[1.0],"HouseNumber":1.0,"PostalCode":1.0},"MatchType":"interpolated","Location":{"LocationId":"NT_TPMWCcKFZ0lb45DxxntOLD_l_880953207_R_3gD","LocationType":"point","DisplayPosition":{"Latitude":53.0497017,"Longitude":-2.9841554},"MapView":{"TopLeft":{"Latitude":53.0508258,"Longitude":-2.9860255},"BottomRight":{"Latitude":53.0485775,"Longitude":-2.9822853}},"Address":{"Label":"78 Holt Road, Wrexham, LL13 8RG, United Kingdom","Country":"GBR","State":"Wales","County":"Clwyd","City":"Wrexham","District":"Wrexham","Street":"Holt Road","HouseNumber":"78","PostalCode":"LL13 8RG","AdditionalData":[{"value":"United Kingdom","key":"CountryName"},{"value":"Wales","key":"StateName"},{"value":"Clwyd","key":"CountyName"}]},"MapReference":{"ReferenceId":"880953207","Spot":0.78,"SideOfStreet":"right","StateId":"20287683","CountyId":"20340689","CityId":"20340918","DistrictId":"20340919"}}},{"Relevance":1.0,"Distance":41.8,"MatchLevel":"houseNumber","MatchQuality":{"Country":1.0,"State":1.0,"County":1.0,"City":1.0,"District":1.0,"Street":[1.0],"HouseNumber":1.0,"PostalCode":1.0},"MatchType":"interpolated","Location":{"LocationId":"NT_30gxixkDxnvCGCoYwNTAHB_l_880953208_R_4AD","LocationType":"point","DisplayPosition":{"Latitude":53.04982,"Longitude":-2.9838699},"MapView":{"TopLeft":{"Latitude":53.0509442,"Longitude":-2.98574},"BottomRight":{"Latitude":53.0486959,"Longitude":-2.9819999}},"Address":{"Label":"80 Holt Road, Wrexham, LL12 7, United Kingdom","Country":"GBR","State":"Wales","County":"Clwyd","City":"Wrexham","District":"Wrexham","Street":"Holt Road","HouseNumber":"80","PostalCode":"LL12 7","AdditionalData":[{"value":"United Kingdom","key":"CountryName"},{"value":"Wales","key":"StateName"},{"value":"Clwyd","key":"CountyName"}]},"MapReference":{"ReferenceId":"880953208","Spot":0.0,"SideOfStreet":"right","StateId":"20287683","CountyId":"20340689","CityId":"20340918","DistrictId":"20340919"}}},{"Relevance":1.0,"Distance":43.1,"MatchLevel":"postalCode","MatchQuality":{"PostalCode":1.0},"MatchType":"interpolated","Location":{"LocationId":"NT_TPMWCcKFZ0lb45DxxntOLD_l_880953207_R_3gD","LocationType":"point","DisplayPosition":{"Latitude":53.04957,"Longitude":-2.98434},"MapView":{"TopLeft":{"Latitude":53.0585632,"Longitude":-2.9993007},"BottomRight":{"Latitude":53.0405768,"Longitude":-2.9693793}},"Address":{"Label":"LL13 8RG, Wrexham, Wales, United Kingdom","Country":"GBR","State":"Wales","County":"Clwyd","City":"Wrexham","PostalCode":"LL13 8RG","AdditionalData":[{"value":"United Kingdom","key":"CountryName"},{"value":"Wales","key":"StateName"},{"value":"Clwyd","key":"CountyName"}]},"MapReference":{"ReferenceId":"880953207","Spot":0.78,"SideOfStreet":"neither","StateId":"20287683","CountyId":"20340689","CityId":"20340918"}}},{"Relevance":1.0,"Distance":50.4,"MatchLevel":"houseNumber","MatchQuality":{"Country":1.0,"State":1.0,"County":1.0,"City":1.0,"District":1.0,"Street":[1.0],"HouseNumber":1.0,"PostalCode":1.0},"MatchType":"interpolated","Location":{"LocationId":"NT_-lH5B5h.hYy7nB3TOdHLQC_l_997229879_L_3A","LocationType":"point","DisplayPosition":{"Latitude":53.04963,"Longitude":-2.98306},"MapView":{"TopLeft":{"Latitude":53.0507542,"Longitude":-2.9849301},"BottomRight":{"Latitude":53.0485059,"Longitude":-2.9811899}},"Address":{"Label":"7 Montgomery Road, Wrexham, LL12 7, United Kingdom","Country":"GBR","State":"Wales","County":"Clwyd","City":"Wrexham","District":"Wrexham","Street":"Montgomery Road","HouseNumber":"7","PostalCode":"LL12 7","AdditionalData":[{"value":"United Kingdom","key":"CountryName"},{"value":"Wales","key":"StateName"},{"value":"Clwyd","key":"CountyName"}]},"MapReference":{"ReferenceId":"997229879","Spot":0.33,"SideOfStreet":"left","StateId":"20287683","CountyId":"20340689","CityId":"20340918","DistrictId":"20340919"}}},{"Relevance":1.0,"Distance":51.5,"MatchLevel":"houseNumber","MatchQuality":{"Country":1.0,"State":1.0,"County":1.0,"City":1.0,"District":1.0,"Street":[1.0],"HouseNumber":1.0,"PostalCode":1.0},"MatchType":"interpolated","Location":{"LocationId":"NT_Q0R4pTcT73qGo-CfZVBZ3D_l_565718878_L_xID","LocationType":"point","DisplayPosition":{"Latitude":53.0487329,"Longitude":-2.9836214},"MapView":{"TopLeft":{"Latitude":53.049857,"Longitude":-2.9854915},"BottomRight":{"Latitude":53.0476087,"Longitude":-2.9817514}},"Address":{"Label":"12 Wilson Avenue, Wrexham, LL13 8TA, United Kingdom","Country":"GBR","State":"Wales","County":"Clwyd","City":"Wrexham","District":"Wrexham","Street":"Wilson Avenue","HouseNumber":"12","PostalCode":"LL13 8TA","AdditionalData":[{"value":"United Kingdom","key":"CountryName"},{"value":"Wales","key":"StateName"},{"value":"Clwyd","key":"CountyName"}]},"MapReference":{"ReferenceId":"565718878","Spot":0.86,"SideOfStreet":"left","StateId":"20287683","CountyId":"20340689","CityId":"20340918","DistrictId":"20340919"}}},{"Relevance":1.0,"Distance":51.7,"MatchLevel":"houseNumber","MatchQuality":{"Country":1.0,"State":1.0,"County":1.0,"City":1.0,"District":1.0,"Street":[1.0],"HouseNumber":1.0,"PostalCode":1.0},"MatchType":"interpolated","Location":{"LocationId":"NT_Q0R4pTcT73qGo-CfZVBZ3D_l_565718879_L_xED","LocationType":"point","DisplayPosition":{"Latitude":53.04881,"Longitude":-2.9833599},"MapView":{"TopLeft":{"Latitude":53.0499342,"Longitude":-2.9852299},"BottomRight":{"Latitude":53.0476859,"Longitude":-2.9814898}},"Address":{"Label":"11 Wilson Avenue, Wrexham, LL13 8TA, United Kingdom","Country":"GBR","State":"Wales","County":"Clwyd","City":"Wrexham","District":"Wrexham","Street":"Wilson Avenue","HouseNumber":"11","PostalCode":"LL13 8TA","AdditionalData":[{"value":"United Kingdom","key":"CountryName"},{"value":"Wales","key":"StateName"},{"value":"Clwyd","key":"CountyName"}]},"MapReference":{"ReferenceId":"565718879","Spot":0.45,"SideOfStreet":"left","StateId":"20287683","CountyId":"20340689","CityId":"20340918","DistrictId":"20340919"}}},{"Relevance":1.0,"Distance":52.1,"MatchLevel":"houseNumber","MatchQuality":{"Country":1.0,"State":1.0,"County":1.0,"City":1.0,"District":1.0,"Street":[1.0],"HouseNumber":1.0,"PostalCode":1.0},"MatchType":"interpolated","Location":{"LocationId":"NT_S0sD-V9KpsNiOUa5aRg72A_l_997225750_L_5A","LocationType":"point","DisplayPosition":{"Latitude":53.0494829,"Longitude":-2.9829486},"MapView":{"TopLeft":{"Latitude":53.050607,"Longitude":-2.9848187},"BottomRight":{"Latitude":53.0483587,"Longitude":-2.9810785}},"Address":{"Label":"9 Montgomery Road, Wrexham, LL13 8SP, United Kingdom","Country":"GBR","State":"Wales","County":"Clwyd","City":"Wrexham","District":"Wrexham","Street":"Montgomery Road","HouseNumber":"9","PostalCode":"LL13 8SP","AdditionalData":[{"value":"United Kingdom","key":"CountryName"},{"value":"Wales","key":"StateName"},{"value":"Clwyd","key":"CountyName"}]},"MapReference":{"ReferenceId":"997225750","Spot":0.86,"SideOfStreet":"left","StateId":"20287683","CountyId":"20340689","CityId":"20340918","DistrictId":"20340919"}}},{"Relevance":1.0,"Distance":56.5,"MatchLevel":"houseNumber","MatchQuality":{"Country":1.0,"State":1.0,"County":1.0,"City":1.0,"District":1.0,"Street":[1.0],"HouseNumber":1.0,"PostalCode":1.0},"MatchType":"interpolated","Location":{"LocationId":"NT_r3n3kIrflm.dc.SF7t1r3C_l_880953206_R_4gD","LocationType":"point","DisplayPosition":{"Latitude":53.04992,"Longitude":-2.98361},"MapView":{"TopLeft":{"Latitude":53.0510442,"Longitude":-2.9854801},"BottomRight":{"Latitude":53.0487959,"Longitude":-2.9817399}},"Address":{"Label":"88 Holt Road, Wrexham, LL12 7, United Kingdom","Country":"GBR","State":"Wales","County":"Clwyd","City":"Wrexham","District":"Wrexham","Street":"Holt Road","HouseNumber":"88","PostalCode":"LL12 7","AdditionalData":[{"value":"United Kingdom","key":"CountryName"},{"value":"Wales","key":"StateName"},{"value":"Clwyd","key":"CountyName"}]},"MapReference":{"ReferenceId":"880953206","Spot":0.0,"SideOfStreet":"right","StateId":"20287683","CountyId":"20340689","CityId":"20340918","DistrictId":"20340919"}}},{"Relevance":1.0,"Distance":62.3,"MatchLevel":"postalCode","MatchQuality":{"PostalCode":1.0},"MatchType":"interpolated","Location":{"LocationId":"NT_Q0R4pTcT73qGo-CfZVBZ3D_l_565718878_L_xID","LocationType":"point","DisplayPosition":{"Latitude":53.04876,"Longitude":-2.98371},"MapView":{"TopLeft":{"Latitude":53.0577532,"Longitude":-2.9986704},"BottomRight":{"Latitude":53.0397668,"Longitude":-2.9687496}},"Address":{"Label":"LL13 8TA, Wrexham, Wales, United Kingdom","Country":"GBR","State":"Wales","County":"Clwyd","City":"Wrexham","PostalCode":"LL13 8TA","AdditionalData":[{"value":"United Kingdom","key":"CountryName"},{"value":"Wales","key":"StateName"},{"value":"Clwyd","key":"CountyName"}]},"MapReference":{"ReferenceId":"565718878","Spot":0.86,"SideOfStreet":"neither","StateId":"20287683","CountyId":"20340689","CityId":"20340918"}}}]}]}}