{"Response":{"MetaInfo":{"Timestamp":"2020-03-28T11:59:18.749+0000","NextPageInformation":"2"},"View":[{"_type":"SearchResultsViewType","ViewId":0,"Result":[{"Relevance":1.0,"Distance":0.0,"Direction":0.0,"MatchLevel":"district","MatchQuality":{"Country":1.0,"State":1.0,"County":1.0,"City":1.0,"District":1.0,"PostalCode":1.0},"Location":{"LocationId":"NT_9ww13uGOf0rM7jzscjqAFA","LocationType":"point","DisplayPosition":{"Latitude":53.0979611,"Longitude":-1.38812},"MapView":{"TopLeft":{"Latitude":53.10478,"Longitude":-1.40414},"BottomRight":{"Latitude":53.08557,"Longitude":-1.36574}},"Address":{"Label":"Alfreton, England, United Kingdom","Country":"GBR","State":"England","County":"Derbyshire","City":"Alfreton","District":"Alfreton","PostalCode":"DE55 7","AdditionalData":[{"value":"United Kingdom","key":"CountryName"},{"value":"England","key":"StateName"},{"value":"Derbyshire","key":"CountyName"}]},"MapReference":{"ReferenceId":"26059949","SideOfStreet":"neither","StateId":"20248595","CountyId":"20343933","CityId":"20353505","DistrictId":"20353506"}}},{"Relevance":1.0,"Distance":4.4,"MatchLevel":"houseNumber","MatchQuality":{"Country":1.0,"State":1.0,"County":1.0,"City":1.0,"District":1.0,"Street":[1.0],"HouseNumber":1.0,"PostalCode":1.0},"MatchType":"interpolated","Location":{"LocationId":"NT_Lg7YNVfbiod3WH9yQO2S3B_l_1065694151_R_xED","LocationType":"point","DisplayPosition":{"Latitude":53.0979934,"Longitude":-1.3881583},"MapView":{"TopLeft":{"Latitude":53.0991175,"Longitude":-1.3900305},"BottomRight":{"Latitude":53.0968692,"Longitude":-1.3862861}},"Address":{"Label":"11 Limes Avenue, Alfreton, DE55 7DW, United Kingdom","Country":"GBR","State":"England","County":"Derbyshire","City":"Alfreton","District":"Alfreton","Street":"Limes Avenue","HouseNumber":"11","PostalCode":"DE55 7DW","AdditionalData":[{"value":"United Kingdom","key":"CountryName"},{"value":"England","key":"StateName"},{"value":"Derbyshire","key":"CountyName"}]},"MapReference":{"ReferenceId":"1065694151","Spot":0.43,"SideOfStreet":"right","StateId":"20248595","CountyId":"20343933","CityId":"20353505","DistrictId":"20353506"}}},{"Relevance":1.0,"Distance":36.6,"MatchLevel":"houseNumber","MatchQuality":{"Country":1.0,"State":1.0,"County":1.0,"City":1.0,"District":1.0,"Street":[1.0],"HouseNumber":1.0,"PostalCode":1.0},"MatchType":"interpolated","Location":{"LocationId":"NT_xkLgkGYd4BT0vZrmnicezA_l_26059961_L_2MD","LocationType":"point","DisplayPosition":{"Latitude":53.0975198,"Longitude":-1.387891},"MapView":{"TopLeft":{"Latitude":53.0986439,"Longitude":-1.3897631},"BottomRight":{"Latitude":53.0963956,"Longitude":-1.3860188}},"Address":{"Label":"63 High Street, Alfreton, DE55 7, United Kingdom","Country":"GBR","State":"England","County":"Derbyshire","City":"Alfreton","District":"Alfreton","Street":"High Street","HouseNumber":"63","PostalCode":"DE55 7","AdditionalData":[{"value":"United Kingdom","key":"CountryName"},{"value":"England","key":"StateName"},{"value":"Derbyshire","key":"CountyName"}]},"MapReference":{"ReferenceId":"26059961","Spot":0.49,"SideOfStreet":"left","StateId":"20248595","CountyId":"20343933","CityId":"20353505","DistrictId":"20353506"}}},{"Relevance":1.0,"Distance":42.4,"MatchLevel":"houseNumber","MatchQuality":{"Country":1.0,"State":1.0,"County":1.0,"City":1.0,"District":1.0,"Street":[1.0],"HouseNumber":1.0,"PostalCode":1.0},"MatchType":"interpolated","Location":{"LocationId":"NT_xkLgkGYd4BT0vZrmnicezA_l_1143096397_L_1UD","LocationType":"point","DisplayPosition":{"Latitude":53.0974648,"Longitude":-1.3883093},"MapView":{"TopLeft":{"Latitude":53.098589,"Longitude":-1.3901815},"BottomRight":{"Latitude":53.0963407,"Longitude":-1.3864371}},"Address":{"Label":"55 High Street, Alfreton, DE55 7DR, United Kingdom","Country":"GBR","State":"England","County":"Derbyshire","City":"Alfreton","District":"Alfreton","Street":"High Street","HouseNumber":"55","PostalCode":"DE55 7DR","AdditionalData":[{"value":"United Kingdom","key":"CountryName"},{"value":"England","key":"StateName"},{"value":"Derbyshire","key":"CountyName"}]},"MapReference":{"ReferenceId":"1143096397","Spot":0.5,"SideOfStreet":"left","StateId":"20248595","CountyId":"20343933","CityId":"20353505","DistrictId":"20353506"}}},{"Relevance":1.0,"Distance":43.2,"MatchLevel":"houseNumber","MatchQuality":{"Country":1.0,"State":1.0,"County":1.0,"City":1.0,"District":1.0,"Street":[1.0],"HouseNumber":1.0,"PostalCode":1.0},"MatchType":"interpolated","Location":{"LocationId":"NT_xkLgkGYd4BT0vZrmnicezA_l_1027389713_L_2kD","LocationType":"point","DisplayPosition":{"Latitude":53.09757,"Longitude":-1.3876199},"MapView":{"TopLeft":{"Latitude":53.0986942,"Longitude":-1.3894921},"BottomRight":{"Latitude":53.0964459,"Longitude":-1.3857478}},"Address":{"Label":"69 High Street, Alfreton, DE55 7DP, United Kingdom","Country":"GBR","State":"England","County":"Derbyshire","City":"Alfreton","District":"Alfreton","Street":"High Street","HouseNumber":"69","PostalCode":"DE55 7DP","AdditionalData":[{"value":"United Kingdom","key":"CountryName"},{"value":"England","key":"StateName"},{"value":"Derbyshire","key":"CountyName"}]},"MapReference":{"ReferenceId":"1027389713","Spot":0.0,"SideOfStreet":"left","StateId":"20248595","CountyId":"20343933","CityId":"20353505","DistrictId":"20353506"}}},{"Relevance":1.0,"Distance":54.3,"MatchLevel":"houseNumber","MatchQuality":{"Country":1.0,"State":1.0,"County":1.0,"City":1.0,"District":1.0,"Street":[1.0],"HouseNumber":1.0,"PostalCode":1.0},"MatchType":"interpolated","Location":{"LocationId":"NT_vGCwCzL4u3qtstnEwU8gbC_l_26059965_R_1MD","LocationType":"point","DisplayPosition":{"Latitude":53.09747,"Longitude":-1.3886902},"MapView":{"TopLeft":{"Latitude":53.0985942,"Longitude":-1.3905623},"BottomRight":{"Latitude":53.0963459,"Longitude":-1.386818}},"Address":{"Label":"53 High Street, Alfreton, DE55 7DR, United Kingdom","Country":"GBR","State":"England","County":"Derbyshire","City":"Alfreton","District":"Alfreton","Street":"High Street","HouseNumber":"53","PostalCode":"DE55 7DR","AdditionalData":[{"value":"United Kingdom","key":"CountryName"},{"value":"England","key":"StateName"},{"value":"Derbyshire","key":"CountyName"}]},"MapReference":{"ReferenceId":"26059965","Spot":0.27,"SideOfStreet":"right","StateId":"20248595","CountyId":"20343933","CityId":"20353505","DistrictId":"20353506"}}},{"Relevance":1.0,"Distance":54.8,"MatchLevel":"street","MatchQuality":{"Country":1.0,"State":1.0,"County":1.0,"City":1.0,"District":1.0,"Street":[1.0],"PostalCode":1.0},"Location":{"LocationId":"NT_Bl4Pzcek.Bb3m7f0kiOUqC_l_26060032_L","LocationType":"point","DisplayPosition":{"Latitude":53.09757,"Longitude":-1.38762},"MapView":{"TopLeft":{"Latitude":53.09757,"Longitude":-1.38762},"BottomRight":{"Latitude":53.09626,"Longitude":-1.38747}},"Address":{"Label":"Chapel Street, Alfreton, DE55 7, United Kingdom","Country":"GBR","State":"England","County":"Derbyshire","City":"Alfreton","District":"Alfreton","Street":"Chapel Street","PostalCode":"DE55 7","AdditionalData":[{"value":"United Kingdom","key":"CountryName"},{"value":"England","key":"StateName"},{"value":"Derbyshire","key":"CountyName"}]},"MapReference":{"ReferenceId":"26060032","Spot":1.0,"SideOfStreet":"left","StateId":"20248595","CountyId":"20343933","CityId":"20353505","DistrictId":"20353506"}}},{"Relevance":1.0,"Distance":59.9,"MatchLevel":"postalCode","MatchQuality":{"PostalCode":1.0},"MatchType":"interpolated","Location":{"LocationId":"NT_Lg7YNVfbiod3WH9yQO2S3B_l_1065694151_R_xED","LocationType":"point","DisplayPosition":{"Latitude":53.0985,"Longitude":-1.38812},"MapView":{"TopLeft":{"Latitude":53.1074932,"Longitude":-1.4030977},"BottomRight":{"Latitude":53.0895068,"Longitude":-1.3731423}},"Address":{"Label":"DE55 7DW, Alfreton, England, United Kingdom","Country":"GBR","State":"England","County":"Derbyshire","City":"Alfreton","PostalCode":"DE55 7DW","AdditionalData":[{"value":"United Kingdom","key":"CountryName"},{"value":"England","key":"StateName"},{"value":"Derbyshire","key":"CountyName"}]},"MapReference":{"ReferenceId":"1065694151","Spot":0.43,"SideOfStreet":"neither","StateId":"20248595","CountyId":"20343933","CityId":"20353505"}}},{"Relevance":1.0,"Distance":64.3,"MatchLevel":"houseNumber","MatchQuality":{"Country":1.0,"State":1.0,"County":1.0,"City":1.0,"District":1.0,"Street":[1.0],"HouseNumber":1.0,"PostalCode":1.0},"MatchType":"interpolated","Location":{"LocationId":"NT_vGCwCzL4u3qtstnEwU8gbC_l_1199153404_L_3cD","LocationType":"point","DisplayPosition":{"Latitude":53.09761,"Longitude":-1.3872098},"MapView":{"TopLeft":{"Latitude":53.0987342,"Longitude":-1.389082},"BottomRight":{"Latitude":53.0964859,"Longitude":-1.3853376}},"Address":{"Label":"77 High Street, Alfreton, DE55 7, United Kingdom","Country":"GBR","State":"England","County":"Derbyshire","City":"Alfreton","District":"Alfreton","Street":"High Street","HouseNumber":"77","PostalCode":"DE55 7","AdditionalData":[{"value":"United Kingdom","key":"CountryName"},{"value":"England","key":"StateName"},{"value":"Derbyshire","key":"CountyName"}]},"MapReference":{"ReferenceId":"1199153404","Spot":0.28,"SideOfStreet":"left","StateId":"20248595","CountyId":"20343933","CityId":"20353505","DistrictId":"20353506"}}},{"Relevance":1.0,"Distance":78.9,"MatchLevel":"street","MatchQuality":{"Country":1.0,"State":1.0,"County":1.0,"City":1.0,"District":1.0,"PostalCode":1.0},"Location":{"LocationId":"NT_nBP6hbTm4viC97lqUEowTB_l_1065694155_R","LocationType":"point","DisplayPosition":{"Latitude":53.09867,"Longitude":-1.38818},"MapView":{"TopLeft":{"Latitude":53.09867,"Longitude":-1.38944},"BottomRight":{"Latitude":53.0986,"Longitude":-1.38818}},"Address":{"Label":"Alfreton, DE55 7, United Kingdom","Country":"GBR","State":"England","County":"Derbyshire","City":"Alfreton","District":"Alfreton","PostalCode":"DE55 7","AdditionalData":[{"value":"United Kingdom","key":"CountryName"},{"value":"England","key":"StateName"},{"value":"Derbyshire","key":"CountyName"}]},"MapReference":{"ReferenceId":"1065694155","Spot":1.0,"SideOfStreet":"right","StateId":"20248595","CountyId":"20343933","CityId":"20353505","DistrictId":"20353506"}}}]}]}}