{"Response":{"MetaInfo":{"Timestamp":"2020-03-28T10:59:36.734+0000","NextPageInformation":"2"},"View":[{"_type":"SearchResultsViewType","ViewId":0,"Result":[{"Relevance":1.0,"Distance":0.0,"Direction":0.0,"MatchLevel":"city","MatchQuality":{"Country":1.0,"State":1.0,"County":1.0,"City":1.0,"PostalCode":1.0},"Location":{"LocationId":"NT_zVn7H0Lc9fumQTRWP4BKEB","LocationType":"point","DisplayPosition":{"Latitude":53.0115268,"Longitude":10.422855},"MapView":{"TopLeft":{"Latitude":53.08176,"Longitude":10.32936},"BottomRight":{"Latitude":53.00192,"Longitude":10.48819}},"Address":{"Label":"Ebstorf, Niedersachsen, Deutschland","Country":"DEU","State":"Niedersachsen","County":"Uelzen","City":"Ebstorf","PostalCode":"29574","AdditionalData":[{"value":"Deutschland","key":"CountryName"},{"value":"Niedersachsen","key":"StateName"},{"value":"Uelzen","key":"CountyName"}]},"MapReference":{"ReferenceId":"80694719","SideOfStreet":"neither","CountryId":"20147700","StateId":"20151542","CountyId":"20155613","CityId":"20155645"}}},{"Relevance":1.0,"Distance":28.4,"MatchLevel":"houseNumber","MatchQuality":{"Country":1.0,"State":1.0,"County":1.0,"City":1.0,"Street":[1.0],"HouseNumber":1.0,"PostalCode":1.0},"MatchType":"interpolated","Location":{"LocationId":"NT_5iWFA-ITtTmoBGM28o19HB_xA","LocationType":"point","DisplayPosition":{"Latitude":53.01174,"Longitude":10.42309},"MapView":{"TopLeft":{"Latitude":53.0128642,"Longitude":10.4212216},"BottomRight":{"Latitude":53.0106158,"Longitude":10.4249584}},"Address":{"Label":"Westerholz 1, 29574 Ebstorf, Deutschland","Country":"DEU","State":"Niedersachsen","County":"Uelzen","City":"Ebstorf","Street":"Westerholz","HouseNumber":"1","PostalCode":"29574","AdditionalData":[{"value":"Deutschland","key":"CountryName"},{"value":"Niedersachsen","key":"StateName"},{"value":"Uelzen","key":"CountyName"}]},"MapReference":{"ReferenceId":"80694676","Spot":0.0,"SideOfStreet":"left","CountryId":"20147700","StateId":"20151542","CountyId":"20155613","CityId":"20155645","AddressId":"249839213","RoadLinkId":"112643237"}}},{"Relevance":1.0,"Distance":72.0,"MatchLevel":"street","MatchQuality":{"Country":1.0,"State":1.0,"County":1.0,"City":1.0,"PostalCode":1.0},"Location":{"LocationId":"NT_VVG9YwiqMzcl741hex1LpA_l_80694570_L","LocationType":"point","DisplayPosition":{"Latitude":53.0108825,"Longitude":10.4229574},"MapView":{"TopLeft":{"Latitude":53.01106,"Longitude":10.42269},"BottomRight":{"Latitude":53.01084,"Longitude":10.42394}},"Address":{"Label":"29574 Ebstorf, Deutschland","Country":"DEU","State":"Niedersachsen","County":"Uelzen","City":"Ebstorf","PostalCode":"29574","AdditionalData":[{"value":"Deutschland","key":"CountryName"},{"value":"Niedersachsen","key":"StateName"},{"value":"Uelzen","key":"CountyName"}]},"MapReference":{"ReferenceId":"80694570","Spot":0.21,"SideOfStreet":"left","CountryId":"20147700","StateId":"20151542","CountyId":"20155613","CityId":"20155645"}}},{"Relevance":1.0,"Distance":142.7,"MatchLevel":"houseNumber","MatchQuality":{"Country":1.0,"State":1.0,"County":1.0,"City":1.0,"Street":[1.0],"HouseNumber":1.0,"PostalCode":1.0},"MatchType":"interpolated","Location":{"LocationId":"NT_hmRDCI5BSYcGUe2Wt5ytwA_xMD","LocationType":"point","DisplayPosition":{"Latitude":53.01061,"Longitude":10.42122},"MapView":{"TopLeft":{"Latitude":53.0117342,"Longitude":10.4193516},"BottomRight":{"Latitude":53.0094858,"Longitude":10.4230884}},"Address":{"Label":"Wittenwater 13, 29593 Schwienau, Deutschland","Country":"DEU","State":"Niedersachsen","County":"Uelzen","City":"Schwienau","Street":"Wittenwater","HouseNumber":"13","PostalCode":"29593","AdditionalData":[{"value":"Deutschland","key":"CountryName"},{"value":"Niedersachsen","key":"StateName"},{"value":"Uelzen","key":"CountyName"}]},"MapReference":{"ReferenceId":"80694574","Spot":0.31,"SideOfStreet":"left","CountryId":"20147700","StateId":"20151542","CountyId":"20155613","CityId":"20155709","AddressId":"180954651","RoadLinkId":"37272472"}}},{"Relevance":1.0,"Distance":165.9,"MatchLevel":"houseNumber","MatchQuality":{"Country":1.0,"State":1.0,"County":1.0,"City":1.0,"Street":[1.0],"HouseNumber":1.0,"PostalCode":1.0},"MatchType":"interpolated","Location":{"LocationId":"NT_hmRDCI5BSYcGUe2Wt5ytwA_xIjQ","LocationType":"point","DisplayPosition":{"Latitude":53.0108,"Longitude":10.42073},"MapView":{"TopLeft":{"Latitude":53.0119242,"Longitude":10.4188616},"BottomRight":{"Latitude":53.0096758,"Longitude":10.4225984}},"Address":{"Label":"Wittenwater 12B, 29593 Schwienau, Deutschland","Country":"DEU","State":"Niedersachsen","County":"Uelzen","City":"Schwienau","Street":"Wittenwater","HouseNumber":"12B","PostalCode":"29593","AdditionalData":[{"value":"Deutschland","key":"CountryName"},{"value":"Niedersachsen","key":"StateName"},{"value":"Uelzen","key":"CountyName"}]},"MapReference":{"ReferenceId":"80694571","Spot":0.73,"SideOfStreet":"right","CountryId":"20147700","StateId":"20151542","CountyId":"20155613","CityId":"20155709","AddressId":"178536129","RoadLinkId":"36533269"}}},{"Relevance":1.0,"Distance":190.7,"MatchLevel":"street","MatchQuality":{"Country":1.0,"State":1.0,"County":1.0,"City":1.0,"Street":[1.0],"PostalCode":1.0},"Location":{"LocationId":"NT_hmRDCI5BSYcGUe2Wt5ytwA_l_80694569_L","LocationType":"point","DisplayPosition":{"Latitude":53.01051,"Longitude":10.42056},"MapView":{"TopLeft":{"Latitude":53.01051,"Longitude":10.41851},"BottomRight":{"Latitude":53.01031,"Longitude":10.42056}},"Address":{"Label":"Wittenwater, 29593 Schwienau, Deutschland","Country":"DEU","State":"Niedersachsen","County":"Uelzen","City":"Schwienau","Street":"Wittenwater","PostalCode":"29593","AdditionalData":[{"value":"Deutschland","key":"CountryName"},{"value":"Niedersachsen","key":"StateName"},{"value":"Uelzen","key":"CountyName"}]},"MapReference":{"ReferenceId":"80694569","Spot":1.0,"SideOfStreet":"left","CountryId":"20147700","StateId":"20151542","CountyId":"20155613","CityId":"20155709"}}},{"Relevance":1.0,"Distance":280.1,"MatchLevel":"street","MatchQuality":{"Country":1.0,"State":1.0,"County":1.0,"City":1.0,"Street":[1.0],"PostalCode":1.0},"Location":{"LocationId":"NT_y-72GD1gTbze5HK.Yt.t2B_l_80694573_R","LocationType":"point","DisplayPosition":{"Latitude":53.01192,"Longitude":10.41872},"MapView":{"TopLeft":{"Latitude":53.01192,"Longitude":10.41851},"BottomRight":{"Latitude":53.01031,"Longitude":10.41872}},"Address":{"Label":"L233, 29593 Schwienau, Deutschland","Country":"DEU","State":"Niedersachsen","County":"Uelzen","City":"Schwienau","Street":"L233","PostalCode":"29593","AdditionalData":[{"value":"Deutschland","key":"CountryName"},{"value":"Niedersachsen","key":"StateName"},{"value":"Uelzen","key":"CountyName"}]},"MapReference":{"ReferenceId":"80694573","Spot":1.0,"SideOfStreet":"right","CountryId":"20147700","StateId":"20151542","CountyId":"20155613","CityId":"20155709"}}},{"Relevance":1.0,"Distance":303.2,"MatchLevel":"street","MatchQuality":{"Country":1.0,"State":1.0,"County":1.0,"City":1.0,"Street":[1.0],"PostalCode":1.0},"Location":{"LocationId":"NT_PefoyguVIwy4SMriQ0yAmA_l_706813520_R","LocationType":"point","DisplayPosition":{"Latitude":53.0131322,"Longitude":10.4191914},"MapView":{"TopLeft":{"Latitude":53.01466,"Longitude":10.41872},"BottomRight":{"Latitude":53.01192,"Longitude":10.41985}},"Address":{"Label":"Am Bahnhof, 29574 Ebstorf, Deutschland","Country":"DEU","State":"Niedersachsen","County":"Uelzen","City":"Ebstorf","Street":"Am Bahnhof","PostalCode":"29574","AdditionalData":[{"value":"Deutschland","key":"CountryName"},{"value":"Niedersachsen","key":"StateName"},{"value":"Uelzen","key":"CountyName"}]},"MapReference":{"ReferenceId":"706813520","Spot":0.44,"SideOfStreet":"right","CountryId":"20147700","StateId":"20151542","CountyId":"20155613","CityId":"20155645"}}},{"Relevance":1.0,"Distance":320.6,"MatchLevel":"street","MatchQuality":{"Country":1.0,"State":1.0,"County":1.0,"City":1.0,"Street":[1.0],"PostalCode":1.0},"Location":{"LocationId":"NT_y-72GD1gTbze5HK.Yt.t2B_l_706834091_R","LocationType":"point","DisplayPosition":{"Latitude":53.01031,"Longitude":10.41851},"MapView":{"TopLeft":{"Latitude":53.01031,"Longitude":10.41472},"BottomRight":{"Latitude":53.00512,"Longitude":10.41851}},"Address":{"Label":"L233, 29593 Schwienau, Deutschland","Country":"DEU","State":"Niedersachsen","County":"Uelzen","City":"Schwienau","Street":"L233","PostalCode":"29593","AdditionalData":[{"value":"Deutschland","key":"CountryName"},{"value":"Niedersachsen","key":"StateName"},{"value":"Uelzen","key":"CountyName"}]},"MapReference":{"ReferenceId":"706834091","Spot":1.0,"SideOfStreet":"right","CountryId":"20147700","StateId":"20151542","CountyId":"20155613","CityId":"20155709"}}},{"Relevance":1.0,"Distance":418.2,"MatchLevel":"houseNumber","MatchQuality":{"Country":1.0,"State":1.0,"County":1.0,"City":1.0,"Street":[1.0],"HouseNumber":1.0,"PostalCode":1.0},"MatchType":"interpolated","Location":{"LocationId":"NT_PefoyguVIwy4SMriQ0yAmA_4A","LocationType":"point","DisplayPosition":{"Latitude":53.01495,"Longitude":10.41998},"MapView":{"TopLeft":{"Latitude":53.0160742,"Longitude":10.4181114},"BottomRight":{"Latitude":53.0138258,"Longitude":10.4218486}},"Address":{"Label":"Am Bahnhof 8, 29574 Ebstorf, Deutschland","Country":"DEU","State":"Niedersachsen","County":"Uelzen","City":"Ebstorf","Street":"Am Bahnhof","HouseNumber":"8","PostalCode":"29574","AdditionalData":[{"value":"Deutschland","key":"CountryName"},{"value":"Niedersachsen","key":"StateName"},{"value":"Uelzen","key":"CountyName"}]},"MapReference":{"ReferenceId":"841781710","Spot":0.5,"SideOfStreet":"right","CountryId":"20147700","StateId":"20151542","CountyId":"20155613","CityId":"20155645","AddressId":"341582605","RoadLinkId":"276325823"}}}]}]}}