{"Response":{"MetaInfo":{"Timestamp":"2020-03-28T11:58:48.895+0000","NextPageInformation":"2"},"View":[{"_type":"SearchResultsViewType","ViewId":0,"Result":[{"Relevance":1.0,"Distance":0.0,"Direction":0.0,"MatchLevel":"district","MatchQuality":{"Country":1.0,"State":1.0,"County":1.0,"City":1.0,"District":1.0,"PostalCode":1.0},"Location":{"LocationId":"NT_BFgoiLY1g5cgKS9V2ghTzB","LocationType":"point","DisplayPosition":{"Latitude":53.0322229,"Longitude":-1.2089964},"MapView":{"TopLeft":{"Latitude":53.0518,"Longitude":-1.24181},"BottomRight":{"Latitude":53.01118,"Longitude":-1.18269}},"Address":{"Label":"Hucknall, Nottingham, England, United Kingdom","Country":"GBR","State":"England","County":"Nottinghamshire","City":"Nottingham","District":"Hucknall","PostalCode":"NG15 6","AdditionalData":[{"value":"United Kingdom","key":"CountryName"},{"value":"England","key":"StateName"},{"value":"Nottinghamshire","key":"CountyName"}]},"MapReference":{"ReferenceId":"26299464","SideOfStreet":"neither","StateId":"20248595","CountyId":"20344764","CityId":"20356833","DistrictId":"20356893"}}},{"Relevance":1.0,"Distance":21.5,"MatchLevel":"houseNumber","MatchQuality":{"Country":1.0,"State":1.0,"County":1.0,"City":1.0,"District":1.0,"Street":[1.0],"HouseNumber":1.0,"PostalCode":1.0},"MatchType":"interpolated","Location":{"LocationId":"NT_9f9D9sR.3iykTiIAnTFuWA_l_26299464_L_xcDM","LocationType":"point","DisplayPosition":{"Latitude":53.0323837,"Longitude":-1.2091754},"MapView":{"TopLeft":{"Latitude":53.0335078,"Longitude":-1.2110447},"BottomRight":{"Latitude":53.0312595,"Longitude":-1.207306}},"Address":{"Label":"170 Watnall Road, Nottingham, NG15 7NH, United Kingdom","Country":"GBR","State":"England","County":"Nottinghamshire","City":"Nottingham","District":"Hucknall","Street":"Watnall Road","HouseNumber":"170","PostalCode":"NG15 7NH","AdditionalData":[{"value":"United Kingdom","key":"CountryName"},{"value":"England","key":"StateName"},{"value":"Nottinghamshire","key":"CountyName"}]},"MapReference":{"ReferenceId":"26299464","Spot":0.51,"SideOfStreet":"left","StateId":"20248595","CountyId":"20344764","CityId":"20356833","DistrictId":"20356893"}}},{"Relevance":1.0,"Distance":31.0,"MatchLevel":"postalCode","MatchQuality":{"PostalCode":1.0},"MatchType":"interpolated","Location":{"LocationId":"NT_9f9D9sR.3iykTiIAnTFuWA_l_26299464_L_xcDM","LocationType":"point","DisplayPosition":{"Latitude":53.0325,"Longitude":-1.20894},"MapView":{"TopLeft":{"Latitude":53.0414932,"Longitude":-1.2238947},"BottomRight":{"Latitude":53.0235068,"Longitude":-1.1939853}},"Address":{"Label":"NG15 6ES, Nottingham, England, United Kingdom","Country":"GBR","State":"England","County":"Nottinghamshire","City":"Nottingham","PostalCode":"NG15 6ES","AdditionalData":[{"value":"United Kingdom","key":"CountryName"},{"value":"England","key":"StateName"},{"value":"Nottinghamshire","key":"CountyName"}]},"MapReference":{"ReferenceId":"26299464","Spot":0.51,"SideOfStreet":"neither","StateId":"20248595","CountyId":"20344764","CityId":"20356833"}}},{"Relevance":1.0,"Distance":62.9,"MatchLevel":"street","MatchQuality":{"Country":1.0,"State":1.0,"County":1.0,"City":1.0,"District":1.0,"Street":[1.0],"PostalCode":1.0},"Location":{"LocationId":"NT_nDerqgowykniOlYAOK99wD_l_78794642_R","LocationType":"point","DisplayPosition":{"Latitude":53.0317018,"Longitude":-1.2093642},"MapView":{"TopLeft":{"Latitude":53.03196,"Longitude":-1.20973},"BottomRight":{"Latitude":53.03142,"Longitude":-1.20902}},"Address":{"Label":"Farleys Lane, Nottingham, NG15 6, United Kingdom","Country":"GBR","State":"England","County":"Nottinghamshire","City":"Nottingham","District":"Hucknall","Street":"Farleys Lane","PostalCode":"NG15 6","AdditionalData":[{"value":"United Kingdom","key":"CountryName"},{"value":"England","key":"StateName"},{"value":"Nottinghamshire","key":"CountyName"}]},"MapReference":{"ReferenceId":"78794642","Spot":0.5,"SideOfStreet":"right","StateId":"20248595","CountyId":"20344764","CityId":"20356833","DistrictId":"20356893"}}},{"Relevance":1.0,"Distance":65.4,"MatchLevel":"houseNumber","MatchQuality":{"Country":1.0,"State":1.0,"County":1.0,"City":1.0,"District":1.0,"Street":[1.0],"HouseNumber":1.0,"PostalCode":1.0},"MatchType":"interpolated","Location":{"LocationId":"NT_bCwfHdbpQgg.MpmeORRaGD_l_1049936610_L_xEDO","LocationType":"point","DisplayPosition":{"Latitude":53.0329201,"Longitude":-1.2087501},"MapView":{"TopLeft":{"Latitude":53.0340443,"Longitude":-1.2106195},"BottomRight":{"Latitude":53.031796,"Longitude":-1.2068807}},"Address":{"Label":"118 Sandy Lane, Nottingham, NG15 7, United Kingdom","Country":"GBR","State":"England","County":"Nottinghamshire","City":"Nottingham","District":"Hucknall","Street":"Sandy Lane","HouseNumber":"118","PostalCode":"NG15 7","AdditionalData":[{"value":"United Kingdom","key":"CountryName"},{"value":"England","key":"StateName"},{"value":"Nottinghamshire","key":"CountyName"}]},"MapReference":{"ReferenceId":"1049936610","Spot":0.06,"SideOfStreet":"left","StateId":"20248595","CountyId":"20344764","CityId":"20356833","DistrictId":"20356893"}}},{"Relevance":1.0,"Distance":69.3,"MatchLevel":"street","MatchQuality":{"Country":1.0,"State":1.0,"County":1.0,"City":1.0,"District":1.0,"Street":[1.0],"PostalCode":1.0},"Location":{"LocationId":"NT_s2wIduWlnWg3zR9ezAhqLA_l_26279369_R","LocationType":"point","DisplayPosition":{"Latitude":53.03281,"Longitude":-1.20865},"MapView":{"TopLeft":{"Latitude":53.0329,"Longitude":-1.20865},"BottomRight":{"Latitude":53.03281,"Longitude":-1.20853}},"Address":{"Label":"Watnall Road, Nottingham, NG15 7, United Kingdom","Country":"GBR","State":"England","County":"Nottinghamshire","City":"Nottingham","District":"Hucknall","Street":"Watnall Road","PostalCode":"NG15 7","AdditionalData":[{"value":"United Kingdom","key":"CountryName"},{"value":"England","key":"StateName"},{"value":"Nottinghamshire","key":"CountyName"}]},"MapReference":{"ReferenceId":"26279369","Spot":0.0,"SideOfStreet":"right","StateId":"20248595","CountyId":"20344764","CityId":"20356833","DistrictId":"20356893"}}},{"Relevance":1.0,"Distance":69.9,"MatchLevel":"houseNumber","MatchQuality":{"Country":1.0,"State":1.0,"County":1.0,"City":1.0,"District":1.0,"Street":[1.0],"HouseNumber":1.0,"PostalCode":1.0},"MatchType":"interpolated","Location":{"LocationId":"NT_9f9D9sR.3iykTiIAnTFuWA_l_26279417_L_xcjM","LocationType":"point","DisplayPosition":{"Latitude":53.0318541,"Longitude":-1.2098681},"MapView":{"TopLeft":{"Latitude":53.0329782,"Longitude":-1.2117374},"BottomRight":{"Latitude":53.0307299,"Longitude":-1.2079988}},"Address":{"Label":"172 Watnall Road, Nottingham, NG15 6GP, United Kingdom","Country":"GBR","State":"England","County":"Nottinghamshire","City":"Nottingham","District":"Hucknall","Street":"Watnall Road","HouseNumber":"172","PostalCode":"NG15 6GP","AdditionalData":[{"value":"United Kingdom","key":"CountryName"},{"value":"England","key":"StateName"},{"value":"Nottinghamshire","key":"CountyName"}]},"MapReference":{"ReferenceId":"26279417","Spot":0.5,"SideOfStreet":"left","StateId":"20248595","CountyId":"20344764","CityId":"20356833","DistrictId":"20356893"}}},{"Relevance":1.0,"Distance":80.2,"MatchLevel":"houseNumber","MatchQuality":{"Country":1.0,"State":1.0,"County":1.0,"City":1.0,"District":1.0,"Street":[1.0],"HouseNumber":1.0,"PostalCode":1.0},"MatchType":"interpolated","Location":{"LocationId":"NT_Or.h1YBqYiDzie8FqkUrkB_l_26279378_L_yA","LocationType":"point","DisplayPosition":{"Latitude":53.0327775,"Longitude":-1.2079925},"MapView":{"TopLeft":{"Latitude":53.0339017,"Longitude":-1.2098619},"BottomRight":{"Latitude":53.0316534,"Longitude":-1.2061232}},"Address":{"Label":"2 Storth Avenue, Nottingham, NG15 7LZ, United Kingdom","Country":"GBR","State":"England","County":"Nottinghamshire","City":"Nottingham","District":"Hucknall","Street":"Storth Avenue","HouseNumber":"2","PostalCode":"NG15 7LZ","AdditionalData":[{"value":"United Kingdom","key":"CountryName"},{"value":"England","key":"StateName"},{"value":"Nottinghamshire","key":"CountyName"}]},"MapReference":{"ReferenceId":"26279378","Spot":0.68,"SideOfStreet":"left","StateId":"20248595","CountyId":"20344764","CityId":"20356833","DistrictId":"20356893"}}},{"Relevance":1.0,"Distance":81.5,"MatchLevel":"street","MatchQuality":{"Country":1.0,"State":1.0,"County":1.0,"City":1.0,"District":1.0,"Street":[1.0],"PostalCode":1.0},"Location":{"LocationId":"NT_kFhUZesZ-ZoVlw95zTZJ8B_l_26279365_R","LocationType":"point","DisplayPosition":{"Latitude":53.0329,"Longitude":-1.20853},"MapView":{"TopLeft":{"Latitude":53.03302,"Longitude":-1.20853},"BottomRight":{"Latitude":53.0329,"Longitude":-1.20837}},"Address":{"Label":"Watnall Road, Nottingham, NG15 7, United Kingdom","Country":"GBR","State":"England","County":"Nottinghamshire","City":"Nottingham","District":"Hucknall","Street":"Watnall Road","PostalCode":"NG15 7","AdditionalData":[{"value":"United Kingdom","key":"CountryName"},{"value":"England","key":"StateName"},{"value":"Nottinghamshire","key":"CountyName"}]},"MapReference":{"ReferenceId":"26279365","Spot":0.0,"SideOfStreet":"right","StateId":"20248595","CountyId":"20344764","CityId":"20356833","DistrictId":"20356893"}}},{"Relevance":1.0,"Distance":82.0,"MatchLevel":"houseNumber","MatchQuality":{"Country":1.0,"State":1.0,"County":1.0,"City":1.0,"District":1.0,"Street":[1.0],"HouseNumber":1.0,"PostalCode":1.0},"MatchType":"interpolated","Location":{"LocationId":"NT_MXa0z87aNVZna.LK87Y0sC_l_26279418_R_yA","LocationType":"point","DisplayPosition":{"Latitude":53.0318204,"Longitude":-1.2101908},"MapView":{"TopLeft":{"Latitude":53.0329445,"Longitude":-1.2120601},"BottomRight":{"Latitude":53.0306962,"Longitude":-1.2083215}},"Address":{"Label":"2 Long Hill Rise, Nottingham, NG15 6, United Kingdom","Country":"GBR","State":"England","County":"Nottinghamshire","City":"Nottingham","District":"Hucknall","Street":"Long Hill Rise","HouseNumber":"2","PostalCode":"NG15 6","AdditionalData":[{"value":"United Kingdom","key":"CountryName"},{"value":"England","key":"StateName"},{"value":"Nottinghamshire","key":"CountyName"}]},"MapReference":{"ReferenceId":"26279418","Spot":0.02,"SideOfStreet":"right","StateId":"20248595","CountyId":"20344764","CityId":"20356833","DistrictId":"20356893"}}}]}]}}