{"Response":{"MetaInfo":{"Timestamp":"2020-03-28T10:04:40.942+0000","NextPageInformation":"2"},"View":[{"_type":"SearchResultsViewType","ViewId":0,"Result":[{"Relevance":1.0,"Distance":0.0,"Direction":0.0,"MatchLevel":"district","MatchQuality":{"Country":1.0,"State":1.0,"County":1.0,"City":1.0,"District":1.0,"PostalCode":1.0},"Location":{"LocationId":"NT_bMtvp8m5Ju1ev5.GAsUxrB","LocationType":"point","DisplayPosition":{"Latitude":53.0920511,"Longitude":8.5307369},"MapView":{"TopLeft":{"Latitude":53.10692,"Longitude":8.51721},"BottomRight":{"Latitude":53.08366,"Longitude":8.55386}},"Address":{"Label":"Bookholzberg, Ganderkesee, Niedersachsen, Deutschland","Country":"DEU","State":"Niedersachsen","County":"Oldenburg","City":"Ganderkesee","District":"Bookholzberg","PostalCode":"27777","AdditionalData":[{"value":"Deutschland","key":"CountryName"},{"value":"Niedersachsen","key":"StateName"},{"value":"Oldenburg","key":"CountyName"}]},"MapReference":{"ReferenceId":"718064594","SideOfStreet":"neither","CountryId":"20147700","StateId":"20151542","CountyId":"20156811","CityId":"20156827","DistrictId":"20156837"}}},{"Relevance":1.0,"Distance":15.6,"MatchLevel":"houseNumber","MatchQuality":{"Country":1.0,"State":1.0,"County":1.0,"City":1.0,"District":1.0,"Street":[1.0],"HouseNumber":1.0,"PostalCode":1.0},"MatchType":"interpolated","Location":{"LocationId":"NT_nNw1dEhfKThCk6lw6Jc.FB_yA","LocationType":"point","DisplayPosition":{"Latitude":53.09218,"Longitude":8.53083},"MapView":{"TopLeft":{"Latitude":53.0933042,"Longitude":8.5289581},"BottomRight":{"Latitude":53.0910558,"Longitude":8.5327019}},"Address":{"Label":"Rudolf-Kinau-Straße 2, 27777 Ganderkesee, Deutschland","Country":"DEU","State":"Niedersachsen","County":"Oldenburg","City":"Ganderkesee","District":"Bookholzberg","Street":"Rudolf-Kinau-Straße","HouseNumber":"2","PostalCode":"27777","AdditionalData":[{"value":"Deutschland","key":"CountryName"},{"value":"Niedersachsen","key":"StateName"},{"value":"Oldenburg","key":"CountyName"}]},"MapReference":{"ReferenceId":"51850434","Spot":0.86,"SideOfStreet":"right","CountryId":"20147700","StateId":"20151542","CountyId":"20156811","CityId":"20156827","DistrictId":"20156837","AddressId":"177220061","RoadLinkId":"37119627"}}},{"Relevance":1.0,"Distance":18.2,"MatchLevel":"houseNumber","MatchQuality":{"Country":1.0,"State":1.0,"County":1.0,"City":1.0,"District":1.0,"Street":[1.0],"HouseNumber":1.0,"PostalCode":1.0},"MatchType":"interpolated","Location":{"LocationId":"NT_1F0O.YW0pluQRH5qt7Cm9A_xA","LocationType":"point","DisplayPosition":{"Latitude":53.0918,"Longitude":8.53049},"MapView":{"TopLeft":{"Latitude":53.0929242,"Longitude":8.5286181},"BottomRight":{"Latitude":53.0906758,"Longitude":8.5323619}},"Address":{"Label":"August-Hinrichs-Straße 1, 27777 Ganderkesee, Deutschland","Country":"DEU","State":"Niedersachsen","County":"Oldenburg","City":"Ganderkesee","District":"Bookholzberg","Street":"August-Hinrichs-Straße","HouseNumber":"1","PostalCode":"27777","AdditionalData":[{"value":"Deutschland","key":"CountryName"},{"value":"Niedersachsen","key":"StateName"},{"value":"Oldenburg","key":"CountyName"}]},"MapReference":{"ReferenceId":"51850432","Spot":0.74,"SideOfStreet":"right","CountryId":"20147700","StateId":"20151542","CountyId":"20156811","CityId":"20156827","DistrictId":"20156837","AddressId":"178450290","RoadLinkId":"37097019"}}},{"Relevance":1.0,"Distance":40.8,"MatchLevel":"houseNumber","MatchQuality":{"Country":1.0,"State":1.0,"County":1.0,"City":1.0,"District":1.0,"Street":[1.0],"HouseNumber":1.0,"PostalCode":1.0},"MatchType":"interpolated","Location":{"LocationId":"NT_1F0O.YW0pluQRH5qt7Cm9A_yA","LocationType":"point","DisplayPosition":{"Latitude":53.09193,"Longitude":8.53016},"MapView":{"TopLeft":{"Latitude":53.0930542,"Longitude":8.5282881},"BottomRight":{"Latitude":53.0908058,"Longitude":8.5320319}},"Address":{"Label":"August-Hinrichs-Straße 2, 27777 Ganderkesee, Deutschland","Country":"DEU","State":"Niedersachsen","County":"Oldenburg","City":"Ganderkesee","District":"Bookholzberg","Street":"August-Hinrichs-Straße","HouseNumber":"2","PostalCode":"27777","AdditionalData":[{"value":"Deutschland","key":"CountryName"},{"value":"Niedersachsen","key":"StateName"},{"value":"Oldenburg","key":"CountyName"}]},"MapReference":{"ReferenceId":"51850433","Spot":0.07,"SideOfStreet":"left","CountryId":"20147700","StateId":"20151542","CountyId":"20156811","CityId":"20156827","DistrictId":"20156837","AddressId":"181145623","RoadLinkId":"37070929"}}},{"Relevance":1.0,"Distance":63.9,"MatchLevel":"houseNumber","MatchQuality":{"Country":1.0,"State":1.0,"County":1.0,"City":1.0,"District":1.0,"Street":[1.0],"HouseNumber":1.0,"PostalCode":1.0},"MatchType":"interpolated","Location":{"LocationId":"NT_V8lCZwhhVhC0XlvEHmtIxD_xA","LocationType":"point","DisplayPosition":{"Latitude":53.09152,"Longitude":8.53148},"MapView":{"TopLeft":{"Latitude":53.0926442,"Longitude":8.5296081},"BottomRight":{"Latitude":53.0903958,"Longitude":8.5333519}},"Address":{"Label":"Alma-Rogge-Straße 1, 27777 Ganderkesee, Deutschland","Country":"DEU","State":"Niedersachsen","County":"Oldenburg","City":"Ganderkesee","District":"Bookholzberg","Street":"Alma-Rogge-Straße","HouseNumber":"1","PostalCode":"27777","AdditionalData":[{"value":"Deutschland","key":"CountryName"},{"value":"Niedersachsen","key":"StateName"},{"value":"Oldenburg","key":"CountyName"}]},"MapReference":{"ReferenceId":"51850431","Spot":0.14,"SideOfStreet":"left","CountryId":"20147700","StateId":"20151542","CountyId":"20156811","CityId":"20156827","DistrictId":"20156837","AddressId":"180783351","RoadLinkId":"36419828"}}},{"Relevance":1.0,"Distance":71.3,"MatchLevel":"houseNumber","MatchQuality":{"Country":1.0,"State":1.0,"County":1.0,"City":1.0,"District":1.0,"Street":[1.0],"HouseNumber":1.0,"PostalCode":1.0},"MatchType":"interpolated","Location":{"LocationId":"NT_vkOlsR50DvwLBaYVAwWMoC_yYD","LocationType":"point","DisplayPosition":{"Latitude":53.09234,"Longitude":8.52956},"MapView":{"TopLeft":{"Latitude":53.0934642,"Longitude":8.5276881},"BottomRight":{"Latitude":53.0912158,"Longitude":8.5314319}},"Address":{"Label":"Stedinger Straße 26, 27777 Ganderkesee, Deutschland","Country":"DEU","State":"Niedersachsen","County":"Oldenburg","City":"Ganderkesee","District":"Bookholzberg","Street":"Stedinger Straße","HouseNumber":"26","PostalCode":"27777","AdditionalData":[{"value":"Deutschland","key":"CountryName"},{"value":"Niedersachsen","key":"StateName"},{"value":"Oldenburg","key":"CountyName"}]},"MapReference":{"ReferenceId":"833090179","Spot":0.55,"SideOfStreet":"right","CountryId":"20147700","StateId":"20151542","CountyId":"20156811","CityId":"20156827","DistrictId":"20156837","AddressId":"181331978","RoadLinkId":"216334955"}}},{"Relevance":1.0,"Distance":83.8,"MatchLevel":"street","MatchQuality":{"Country":1.0,"State":1.0,"County":1.0,"City":1.0,"District":1.0,"Street":[1.0],"PostalCode":1.0},"Location":{"LocationId":"NT_U42xbF8OU.erzlgCQzpATB_l_51850297_R","LocationType":"point","DisplayPosition":{"Latitude":53.09218,"Longitude":8.5295},"MapView":{"TopLeft":{"Latitude":53.09218,"Longitude":8.52943},"BottomRight":{"Latitude":53.09201,"Longitude":8.5295}},"Address":{"Label":"Stedinger Straße, 27777 Ganderkesee, Deutschland","Country":"DEU","State":"Niedersachsen","County":"Oldenburg","City":"Ganderkesee","District":"Bookholzberg","Street":"Stedinger Straße","PostalCode":"27777","AdditionalData":[{"value":"Deutschland","key":"CountryName"},{"value":"Niedersachsen","key":"StateName"},{"value":"Oldenburg","key":"CountyName"}]},"MapReference":{"ReferenceId":"51850297","Spot":1.0,"SideOfStreet":"right","CountryId":"20147700","StateId":"20151542","CountyId":"20156811","CityId":"20156827","DistrictId":"20156837"}}},{"Relevance":1.0,"Distance":86.7,"MatchLevel":"houseNumber","MatchQuality":{"Country":1.0,"State":1.0,"County":1.0,"City":1.0,"District":1.0,"Street":[1.0],"HouseNumber":1.0,"PostalCode":1.0},"MatchType":"interpolated","Location":{"LocationId":"NT_vkOlsR50DvwLBaYVAwWMoC_yQD","LocationType":"point","DisplayPosition":{"Latitude":53.09162,"Longitude":8.52934},"MapView":{"TopLeft":{"Latitude":53.0927442,"Longitude":8.5274681},"BottomRight":{"Latitude":53.0904958,"Longitude":8.5312119}},"Address":{"Label":"Stedinger Straße 24, 27777 Ganderkesee, Deutschland","Country":"DEU","State":"Niedersachsen","County":"Oldenburg","City":"Ganderkesee","District":"Bookholzberg","Street":"Stedinger Straße","HouseNumber":"24","PostalCode":"27777","AdditionalData":[{"value":"Deutschland","key":"CountryName"},{"value":"Niedersachsen","key":"StateName"},{"value":"Oldenburg","key":"CountyName"}]},"MapReference":{"ReferenceId":"1058754092","Spot":0.65,"SideOfStreet":"right","CountryId":"20147700","StateId":"20151542","CountyId":"20156811","CityId":"20156827","DistrictId":"20156837","AddressId":"181489309","RoadLinkId":"381607764"}}},{"Relevance":1.0,"Distance":87.4,"MatchLevel":"street","MatchQuality":{"Country":1.0,"State":1.0,"County":1.0,"City":1.0,"District":1.0,"Street":[1.0],"PostalCode":1.0},"Location":{"LocationId":"NT_7UiKeBkgq3qzjDb6X4Dy3C_l_51850311_R","LocationType":"point","DisplayPosition":{"Latitude":53.09201,"Longitude":8.52943},"MapView":{"TopLeft":{"Latitude":53.09213,"Longitude":8.52901},"BottomRight":{"Latitude":53.09201,"Longitude":8.52943}},"Address":{"Label":"Poppestraße, 27777 Ganderkesee, Deutschland","Country":"DEU","State":"Niedersachsen","County":"Oldenburg","City":"Ganderkesee","District":"Bookholzberg","Street":"Poppestraße","PostalCode":"27777","AdditionalData":[{"value":"Deutschland","key":"CountryName"},{"value":"Niedersachsen","key":"StateName"},{"value":"Oldenburg","key":"CountyName"}]},"MapReference":{"ReferenceId":"51850311","Spot":0.0,"SideOfStreet":"right","CountryId":"20147700","StateId":"20151542","CountyId":"20156811","CityId":"20156827","DistrictId":"20156837"}}},{"Relevance":1.0,"Distance":91.7,"MatchLevel":"street","MatchQuality":{"Country":1.0,"State":1.0,"County":1.0,"City":1.0,"District":1.0,"Street":[1.0],"PostalCode":1.0},"Location":{"LocationId":"NT_vkOlsR50DvwLBaYVAwWMoC_l_1058754094_R","LocationType":"point","DisplayPosition":{"Latitude":53.0925534,"Longitude":8.5296485},"MapView":{"TopLeft":{"Latitude":53.0926,"Longitude":8.52961},"BottomRight":{"Latitude":53.09247,"Longitude":8.52967}},"Address":{"Label":"Stedinger Straße, 27777 Ganderkesee, Deutschland","Country":"DEU","State":"Niedersachsen","County":"Oldenburg","City":"Ganderkesee","District":"Bookholzberg","Street":"Stedinger Straße","PostalCode":"27777","AdditionalData":[{"value":"Deutschland","key":"CountryName"},{"value":"Niedersachsen","key":"StateName"},{"value":"Oldenburg","key":"CountyName"}]},"MapReference":{"ReferenceId":"1058754094","Spot":0.64,"SideOfStreet":"right","CountryId":"20147700","StateId":"20151542","CountyId":"20156811","CityId":"20156827","DistrictId":"20156837"}}}]}]}}