{"Response":{"MetaInfo":{"Timestamp":"2020-03-28T11:56:46.554+0000","NextPageInformation":"2"},"View":[{"_type":"SearchResultsViewType","ViewId":0,"Result":[{"Relevance":1.0,"Distance":0.0,"Direction":0.0,"MatchLevel":"district","MatchQuality":{"Country":1.0,"State":1.0,"County":1.0,"City":1.0,"District":1.0,"PostalCode":1.0},"Location":{"LocationId":"NT_R6Thghy0fhLRrP.3Gfx0OC","LocationType":"point","DisplayPosition":{"Latitude":53.0406889,"Longitude":-1.3116335},"MapView":{"TopLeft":{"Latitude":53.05272,"Longitude":-1.31949},"BottomRight":{"Latitude":53.02908,"Longitude":-1.29956}},"Address":{"Label":"Brinsley, Nottingham, England, United Kingdom","Country":"GBR","State":"England","County":"Nottinghamshire","City":"Nottingham","District":"Brinsley","PostalCode":"NG16 5","AdditionalData":[{"value":"United Kingdom","key":"CountryName"},{"value":"England","key":"StateName"},{"value":"Nottinghamshire","key":"CountyName"}]},"MapReference":{"ReferenceId":"26062910","SideOfStreet":"neither","StateId":"20248595","CountyId":"20344764","CityId":"20356833","DistrictId":"20356854"}}},{"Relevance":1.0,"Distance":13.7,"MatchLevel":"houseNumber","MatchQuality":{"Country":1.0,"State":1.0,"County":1.0,"City":1.0,"District":1.0,"Street":[1.0],"HouseNumber":1.0,"PostalCode":1.0},"MatchType":"interpolated","Location":{"LocationId":"NT_PwKG1vRj5hkJskIzSs9TgD_l_26062919_R_xA","LocationType":"point","DisplayPosition":{"Latitude":53.0407228,"Longitude":-1.3118858},"MapView":{"TopLeft":{"Latitude":53.041847,"Longitude":-1.3137555},"BottomRight":{"Latitude":53.0395987,"Longitude":-1.3100161}},"Address":{"Label":"1 Brynsmoor Road, Nottingham, NG16 5DD, United Kingdom","Country":"GBR","State":"England","County":"Nottinghamshire","City":"Nottingham","District":"Brinsley","Street":"Brynsmoor Road","HouseNumber":"1","PostalCode":"NG16 5DD","AdditionalData":[{"value":"United Kingdom","key":"CountryName"},{"value":"England","key":"StateName"},{"value":"Nottinghamshire","key":"CountyName"}]},"MapReference":{"ReferenceId":"26062919","Spot":0.83,"SideOfStreet":"right","StateId":"20248595","CountyId":"20344764","CityId":"20356833","DistrictId":"20356854"}}},{"Relevance":1.0,"Distance":26.0,"MatchLevel":"houseNumber","MatchQuality":{"Country":1.0,"State":1.0,"County":1.0,"City":1.0,"District":1.0,"Street":[1.0],"HouseNumber":1.0,"PostalCode":1.0},"MatchType":"interpolated","Location":{"LocationId":"NT_iQqzzXsBkpiBi9RHKXoECB_l_26062892_L_5A","LocationType":"point","DisplayPosition":{"Latitude":53.0409701,"Longitude":-1.3118802},"MapView":{"TopLeft":{"Latitude":53.0420942,"Longitude":-1.3137499},"BottomRight":{"Latitude":53.0398459,"Longitude":-1.3100105}},"Address":{"Label":"9 Moor Road, Nottingham, NG16 5AZ, United Kingdom","Country":"GBR","State":"England","County":"Nottinghamshire","City":"Nottingham","District":"Brinsley","Street":"Moor Road","HouseNumber":"9","PostalCode":"NG16 5AZ","AdditionalData":[{"value":"United Kingdom","key":"CountryName"},{"value":"England","key":"StateName"},{"value":"Nottinghamshire","key":"CountyName"}]},"MapReference":{"ReferenceId":"26062892","Spot":0.06,"SideOfStreet":"left","StateId":"20248595","CountyId":"20344764","CityId":"20356833","DistrictId":"20356854"}}},{"Relevance":1.0,"Distance":28.3,"MatchLevel":"houseNumber","MatchQuality":{"Country":1.0,"State":1.0,"County":1.0,"City":1.0,"District":1.0,"Street":[1.0],"HouseNumber":1.0,"PostalCode":1.0},"MatchType":"interpolated","Location":{"LocationId":"NT_iQqzzXsBkpiBi9RHKXoECB_l_26062911_L_xA","LocationType":"point","DisplayPosition":{"Latitude":53.0407043,"Longitude":-1.311207},"MapView":{"TopLeft":{"Latitude":53.0418284,"Longitude":-1.3130767},"BottomRight":{"Latitude":53.0395801,"Longitude":-1.3093373}},"Address":{"Label":"1 Moor Road, Nottingham, NG16 5AZ, United Kingdom","Country":"GBR","State":"England","County":"Nottinghamshire","City":"Nottingham","District":"Brinsley","Street":"Moor Road","HouseNumber":"1","PostalCode":"NG16 5AZ","AdditionalData":[{"value":"United Kingdom","key":"CountryName"},{"value":"England","key":"StateName"},{"value":"Nottinghamshire","key":"CountyName"}]},"MapReference":{"ReferenceId":"26062911","Spot":0.49,"SideOfStreet":"left","StateId":"20248595","CountyId":"20344764","CityId":"20356833","DistrictId":"20356854"}}},{"Relevance":1.0,"Distance":39.6,"MatchLevel":"postalCode","MatchQuality":{"PostalCode":1.0},"MatchType":"interpolated","Location":{"LocationId":"NT_Jqe22iZZbcUrgLkdyRHxxA_l_762063180_L_xIjN","LocationType":"point","DisplayPosition":{"Latitude":53.0406,"Longitude":-1.31106},"MapView":{"TopLeft":{"Latitude":53.0495932,"Longitude":-1.3260176},"BottomRight":{"Latitude":53.0316068,"Longitude":-1.2961024}},"Address":{"Label":"NG16 5AY, Nottingham, England, United Kingdom","Country":"GBR","State":"England","County":"Nottinghamshire","City":"Nottingham","PostalCode":"NG16 5AY","AdditionalData":[{"value":"United Kingdom","key":"CountryName"},{"value":"England","key":"StateName"},{"value":"Nottinghamshire","key":"CountyName"}]},"MapReference":{"ReferenceId":"762063180","Spot":0.71,"SideOfStreet":"neither","StateId":"20248595","CountyId":"20344764","CityId":"20356833"}}},{"Relevance":1.0,"Distance":43.7,"MatchLevel":"houseNumber","MatchQuality":{"Country":1.0,"State":1.0,"County":1.0,"City":1.0,"District":1.0,"Street":[1.0],"HouseNumber":1.0,"PostalCode":1.0},"MatchType":"interpolated","Location":{"LocationId":"NT_Jqe22iZZbcUrgLkdyRHxxA_l_762063180_L_xIjN","LocationType":"point","DisplayPosition":{"Latitude":53.0403203,"Longitude":-1.3110404},"MapView":{"TopLeft":{"Latitude":53.0414444,"Longitude":-1.3129101},"BottomRight":{"Latitude":53.0391961,"Longitude":-1.3091707}},"Address":{"Label":"126 Church Lane, Nottingham, NG16 5AY, United Kingdom","Country":"GBR","State":"England","County":"Nottinghamshire","City":"Nottingham","District":"Brinsley","Street":"Church Lane","HouseNumber":"126","PostalCode":"NG16 5AY","AdditionalData":[{"value":"United Kingdom","key":"CountryName"},{"value":"England","key":"StateName"},{"value":"Nottinghamshire","key":"CountyName"}]},"MapReference":{"ReferenceId":"762063180","Spot":0.71,"SideOfStreet":"left","StateId":"20248595","CountyId":"20344764","CityId":"20356833","DistrictId":"20356854"}}},{"Relevance":1.0,"Distance":63.1,"MatchLevel":"street","MatchQuality":{"Country":1.0,"State":1.0,"County":1.0,"City":1.0,"District":1.0,"Street":[1.0],"PostalCode":1.0},"Location":{"LocationId":"NT_Jqe22iZZbcUrgLkdyRHxxA_l_26062910_L","LocationType":"point","DisplayPosition":{"Latitude":53.04049,"Longitude":-1.31075},"MapView":{"TopLeft":{"Latitude":53.04063,"Longitude":-1.31075},"BottomRight":{"Latitude":53.04049,"Longitude":-1.31031}},"Address":{"Label":"Church Lane, Nottingham, NG16 5, United Kingdom","Country":"GBR","State":"England","County":"Nottinghamshire","City":"Nottingham","District":"Brinsley","Street":"Church Lane","PostalCode":"NG16 5","AdditionalData":[{"value":"United Kingdom","key":"CountryName"},{"value":"England","key":"StateName"},{"value":"Nottinghamshire","key":"CountyName"}]},"MapReference":{"ReferenceId":"26062910","Spot":0.0,"SideOfStreet":"left","StateId":"20248595","CountyId":"20344764","CityId":"20356833","DistrictId":"20356854"}}},{"Relevance":1.0,"Distance":64.6,"MatchLevel":"houseNumber","MatchQuality":{"Country":1.0,"State":1.0,"County":1.0,"City":1.0,"District":1.0,"Street":[1.0],"HouseNumber":1.0,"PostalCode":1.0},"MatchType":"interpolated","Location":{"LocationId":"NT_MFR7hgVPdMDoQnkJCofYUA_l_26062901_L_xID","LocationType":"point","DisplayPosition":{"Latitude":53.0410486,"Longitude":-1.3106249},"MapView":{"TopLeft":{"Latitude":53.0421727,"Longitude":-1.3124946},"BottomRight":{"Latitude":53.0399244,"Longitude":-1.3087551}},"Address":{"Label":"12 Broad Lane, Nottingham, NG16 5BD, United Kingdom","Country":"GBR","State":"England","County":"Nottinghamshire","City":"Nottingham","District":"Brinsley","Street":"Broad Lane","HouseNumber":"12","PostalCode":"NG16 5BD","AdditionalData":[{"value":"United Kingdom","key":"CountryName"},{"value":"England","key":"StateName"},{"value":"Nottinghamshire","key":"CountyName"}]},"MapReference":{"ReferenceId":"26062901","Spot":0.12,"SideOfStreet":"left","StateId":"20248595","CountyId":"20344764","CityId":"20356833","DistrictId":"20356854"}}},{"Relevance":1.0,"Distance":70.3,"MatchLevel":"postalCode","MatchQuality":{"PostalCode":1.0},"MatchType":"interpolated","Location":{"LocationId":"NT_PwKG1vRj5hkJskIzSs9TgD_l_26062919_R_xA","LocationType":"point","DisplayPosition":{"Latitude":53.04039,"Longitude":-1.31256},"MapView":{"TopLeft":{"Latitude":53.0493832,"Longitude":-1.3275175},"BottomRight":{"Latitude":53.0313968,"Longitude":-1.2976025}},"Address":{"Label":"NG16 5DD, Nottingham, England, United Kingdom","Country":"GBR","State":"England","County":"Nottinghamshire","City":"Nottingham","PostalCode":"NG16 5DD","AdditionalData":[{"value":"United Kingdom","key":"CountryName"},{"value":"England","key":"StateName"},{"value":"Nottinghamshire","key":"CountyName"}]},"MapReference":{"ReferenceId":"26062919","Spot":0.83,"SideOfStreet":"neither","StateId":"20248595","CountyId":"20344764","CityId":"20356833"}}},{"Relevance":1.0,"Distance":84.2,"MatchLevel":"houseNumber","MatchQuality":{"Country":1.0,"State":1.0,"County":1.0,"City":1.0,"District":1.0,"Street":[1.0],"HouseNumber":1.0,"PostalCode":1.0},"MatchType":"interpolated","Location":{"LocationId":"NT_Tl35fj9UP-cW76qz0AfaOB_l_26062920_R_yA","LocationType":"point","DisplayPosition":{"Latitude":53.04043,"Longitude":-1.31304},"MapView":{"TopLeft":{"Latitude":53.0415542,"Longitude":-1.3149097},"BottomRight":{"Latitude":53.0393059,"Longitude":-1.3111703}},"Address":{"Label":"2 Gladstone Drive, Nottingham, NG16 5DE, United Kingdom","Country":"GBR","State":"England","County":"Nottinghamshire","City":"Nottingham","District":"Brinsley","Street":"Gladstone Drive","HouseNumber":"2","PostalCode":"NG16 5DE","AdditionalData":[{"value":"United Kingdom","key":"CountryName"},{"value":"England","key":"StateName"},{"value":"Nottinghamshire","key":"CountyName"}]},"MapReference":{"ReferenceId":"26062920","Spot":0.18,"SideOfStreet":"right","StateId":"20248595","CountyId":"20344764","CityId":"20356833","DistrictId":"20356854"}}}]}]}}