{"Response":{"MetaInfo":{"Timestamp":"2020-03-28T10:57:34.424+0000","NextPageInformation":"2"},"View":[{"_type":"SearchResultsViewType","ViewId":0,"Result":[{"Relevance":1.0,"Distance":0.0,"Direction":0.0,"MatchLevel":"district","MatchQuality":{"Country":1.0,"State":1.0,"County":1.0,"City":1.0,"District":1.0,"PostalCode":1.0},"Location":{"LocationId":"NT_JYsStEMdc.hbGOTsCGcanA","LocationType":"point","DisplayPosition":{"Latitude":53.051288,"Longitude":7.3297344},"MapView":{"TopLeft":{"Latitude":53.07375,"Longitude":7.31838},"BottomRight":{"Latitude":53.03916,"Longitude":7.36591}},"Address":{"Label":"Aschendorf (Ems), Papenburg, Niedersachsen, Deutschland","Country":"DEU","State":"Niedersachsen","County":"Emsland","City":"Papenburg","District":"Aschendorf (Ems)","PostalCode":"26871","AdditionalData":[{"value":"Deutschland","key":"CountryName"},{"value":"Niedersachsen","key":"StateName"},{"value":"Emsland","key":"CountyName"}]},"MapReference":{"ReferenceId":"1188341036","SideOfStreet":"neither","CountryId":"20147700","StateId":"20151542","CountyId":"20156280","CityId":"20156455","DistrictId":"20156460"}}},{"Relevance":1.0,"Distance":33.0,"MatchLevel":"houseNumber","MatchQuality":{"Country":1.0,"State":1.0,"County":1.0,"City":1.0,"District":1.0,"Street":[1.0],"HouseNumber":1.0,"PostalCode":1.0},"MatchType":"interpolated","Location":{"LocationId":"NT_JnqIATf9So16X31l1-YOUD_xED","LocationType":"point","DisplayPosition":{"Latitude":53.05207,"Longitude":7.32965},"MapView":{"TopLeft":{"Latitude":53.0531942,"Longitude":7.3277798},"BottomRight":{"Latitude":53.0509458,"Longitude":7.3315202}},"Address":{"Label":"Am Voßschloot 11, 26871 Papenburg, Deutschland","Country":"DEU","State":"Niedersachsen","County":"Emsland","City":"Papenburg","District":"Aschendorf (Ems)","Street":"Am Voßschloot","HouseNumber":"11","PostalCode":"26871","AdditionalData":[{"value":"Deutschland","key":"CountryName"},{"value":"Niedersachsen","key":"StateName"},{"value":"Emsland","key":"CountyName"}]},"MapReference":{"ReferenceId":"83715887","Spot":0.0,"SideOfStreet":"right","CountryId":"20147700","StateId":"20151542","CountyId":"20156280","CityId":"20156455","DistrictId":"20156460","AddressId":"341583412","RoadLinkId":"36453300"}}},{"Relevance":1.0,"Distance":72.4,"MatchLevel":"houseNumber","MatchQuality":{"Country":1.0,"State":1.0,"County":1.0,"City":1.0,"District":1.0,"Street":[1.0],"HouseNumber":1.0,"PostalCode":1.0},"MatchType":"interpolated","Location":{"LocationId":"NT_A3hg5g1yqfGqSPAZ417XzB_4A","LocationType":"point","DisplayPosition":{"Latitude":53.05064,"Longitude":7.32984},"MapView":{"TopLeft":{"Latitude":53.0517642,"Longitude":7.3279699},"BottomRight":{"Latitude":53.0495158,"Longitude":7.3317101}},"Address":{"Label":"Marienstraße 8, 26871 Papenburg, Deutschland","Country":"DEU","State":"Niedersachsen","County":"Emsland","City":"Papenburg","District":"Aschendorf (Ems)","Street":"Marienstraße","HouseNumber":"8","PostalCode":"26871","AdditionalData":[{"value":"Deutschland","key":"CountryName"},{"value":"Niedersachsen","key":"StateName"},{"value":"Emsland","key":"CountyName"}]},"MapReference":{"ReferenceId":"540609249","Spot":0.18,"SideOfStreet":"left","CountryId":"20147700","StateId":"20151542","CountyId":"20156280","CityId":"20156455","DistrictId":"20156460","AddressId":"179487539","RoadLinkId":"37307523"}}},{"Relevance":1.0,"Distance":89.3,"MatchLevel":"houseNumber","MatchQuality":{"Country":1.0,"State":1.0,"County":1.0,"City":1.0,"District":1.0,"Street":[1.0],"HouseNumber":1.0,"PostalCode":1.0},"MatchType":"interpolated","Location":{"LocationId":"NT_mUzsX4HEsuZtsPdIX31ljD_4AD","LocationType":"point","DisplayPosition":{"Latitude":53.05092,"Longitude":7.33105},"MapView":{"TopLeft":{"Latitude":53.0520442,"Longitude":7.3291799},"BottomRight":{"Latitude":53.0497958,"Longitude":7.3329201}},"Address":{"Label":"Große Straße 80, 26871 Papenburg, Deutschland","Country":"DEU","State":"Niedersachsen","County":"Emsland","City":"Papenburg","District":"Aschendorf (Ems)","Street":"Große Straße","HouseNumber":"80","PostalCode":"26871","AdditionalData":[{"value":"Deutschland","key":"CountryName"},{"value":"Niedersachsen","key":"StateName"},{"value":"Emsland","key":"CountyName"}]},"MapReference":{"ReferenceId":"540609248","Spot":0.09,"SideOfStreet":"left","CountryId":"20147700","StateId":"20151542","CountyId":"20156280","CityId":"20156455","DistrictId":"20156460","AddressId":"181510287","RoadLinkId":"36652508"}}},{"Relevance":1.0,"Distance":94.3,"MatchLevel":"houseNumber","MatchQuality":{"Country":1.0,"State":1.0,"County":1.0,"City":1.0,"District":1.0,"Street":[1.0],"HouseNumber":1.0,"PostalCode":1.0},"MatchType":"interpolated","Location":{"LocationId":"NT_0fHpCjpPlNz1D5pz9.6xgC_xA","LocationType":"point","DisplayPosition":{"Latitude":53.0508,"Longitude":7.32858},"MapView":{"TopLeft":{"Latitude":53.0519242,"Longitude":7.3267099},"BottomRight":{"Latitude":53.0496758,"Longitude":7.3304501}},"Address":{"Label":"Marienplatz 1, 26871 Papenburg, Deutschland","Country":"DEU","State":"Niedersachsen","County":"Emsland","City":"Papenburg","District":"Aschendorf (Ems)","Street":"Marienplatz","HouseNumber":"1","PostalCode":"26871","AdditionalData":[{"value":"Deutschland","key":"CountryName"},{"value":"Niedersachsen","key":"StateName"},{"value":"Emsland","key":"CountyName"}]},"MapReference":{"ReferenceId":"83715918","Spot":0.72,"SideOfStreet":"left","CountryId":"20147700","StateId":"20151542","CountyId":"20156280","CityId":"20156455","DistrictId":"20156460","AddressId":"181056891","RoadLinkId":"36970672"}}},{"Relevance":1.0,"Distance":94.5,"MatchLevel":"houseNumber","MatchQuality":{"Country":1.0,"State":1.0,"County":1.0,"City":1.0,"District":1.0,"Street":[1.0],"HouseNumber":1.0,"PostalCode":1.0},"MatchType":"interpolated","Location":{"LocationId":"NT_mUzsX4HEsuZtsPdIX31ljD_3AD","LocationType":"point","DisplayPosition":{"Latitude":53.05169,"Longitude":7.3311},"MapView":{"TopLeft":{"Latitude":53.0528142,"Longitude":7.3292298},"BottomRight":{"Latitude":53.0505658,"Longitude":7.3329702}},"Address":{"Label":"Große Straße 70, 26871 Papenburg, Deutschland","Country":"DEU","State":"Niedersachsen","County":"Emsland","City":"Papenburg","District":"Aschendorf (Ems)","Street":"Große Straße","HouseNumber":"70","PostalCode":"26871","AdditionalData":[{"value":"Deutschland","key":"CountryName"},{"value":"Niedersachsen","key":"StateName"},{"value":"Emsland","key":"CountyName"}]},"MapReference":{"ReferenceId":"83715976","Spot":0.9,"SideOfStreet":"left","CountryId":"20147700","StateId":"20151542","CountyId":"20156280","CityId":"20156455","DistrictId":"20156460","AddressId":"181135014","RoadLinkId":"37154208"}}},{"Relevance":1.0,"Distance":97.3,"MatchLevel":"houseNumber","MatchQuality":{"Country":1.0,"State":1.0,"County":1.0,"City":1.0,"District":1.0,"Street":[1.0],"HouseNumber":1.0,"PostalCode":1.0},"MatchType":"interpolated","Location":{"LocationId":"NT_mUzsX4HEsuZtsPdIX31ljD_2gD","LocationType":"point","DisplayPosition":{"Latitude":53.05175,"Longitude":7.3311},"MapView":{"TopLeft":{"Latitude":53.0528742,"Longitude":7.3292298},"BottomRight":{"Latitude":53.0506258,"Longitude":7.3329702}},"Address":{"Label":"Große Straße 68, 26871 Papenburg, Deutschland","Country":"DEU","State":"Niedersachsen","County":"Emsland","City":"Papenburg","District":"Aschendorf (Ems)","Street":"Große Straße","HouseNumber":"68","PostalCode":"26871","AdditionalData":[{"value":"Deutschland","key":"CountryName"},{"value":"Niedersachsen","key":"StateName"},{"value":"Emsland","key":"CountyName"}]},"MapReference":{"ReferenceId":"83715960","Spot":0.1,"SideOfStreet":"left","CountryId":"20147700","StateId":"20151542","CountyId":"20156280","CityId":"20156455","DistrictId":"20156460","AddressId":"180699690","RoadLinkId":"37194774"}}},{"Relevance":1.0,"Distance":98.2,"MatchLevel":"houseNumber","MatchQuality":{"Country":1.0,"State":1.0,"County":1.0,"City":1.0,"District":1.0,"Street":[1.0],"HouseNumber":1.0,"PostalCode":1.0},"MatchType":"interpolated","Location":{"LocationId":"NT_mUzsX4HEsuZtsPdIX31ljD_4ID","LocationType":"point","DisplayPosition":{"Latitude":53.05071,"Longitude":7.33098},"MapView":{"TopLeft":{"Latitude":53.0518342,"Longitude":7.3291099},"BottomRight":{"Latitude":53.0495858,"Longitude":7.3328501}},"Address":{"Label":"Große Straße 82, 26871 Papenburg, Deutschland","Country":"DEU","State":"Niedersachsen","County":"Emsland","City":"Papenburg","District":"Aschendorf (Ems)","Street":"Große Straße","HouseNumber":"82","PostalCode":"26871","AdditionalData":[{"value":"Deutschland","key":"CountryName"},{"value":"Niedersachsen","key":"StateName"},{"value":"Emsland","key":"CountyName"}]},"MapReference":{"ReferenceId":"540609253","Spot":0.74,"SideOfStreet":"left","CountryId":"20147700","StateId":"20151542","CountyId":"20156280","CityId":"20156455","DistrictId":"20156460","AddressId":"181450889","RoadLinkId":"36329849"}}},{"Relevance":1.0,"Distance":110.1,"MatchLevel":"houseNumber","MatchQuality":{"Country":1.0,"State":1.0,"County":1.0,"City":1.0,"District":1.0,"Street":[1.0],"HouseNumber":1.0,"PostalCode":1.0},"MatchType":"interpolated","Location":{"LocationId":"NT_Z2jZECYGb0f4xV95dxeTUC_xA","LocationType":"point","DisplayPosition":{"Latitude":53.05087,"Longitude":7.33133},"MapView":{"TopLeft":{"Latitude":53.0519942,"Longitude":7.3294599},"BottomRight":{"Latitude":53.0497458,"Longitude":7.3332001}},"Address":{"Label":"Am Markt 1, 26871 Papenburg, Deutschland","Country":"DEU","State":"Niedersachsen","County":"Emsland","City":"Papenburg","District":"Aschendorf (Ems)","Street":"Am Markt","HouseNumber":"1","PostalCode":"26871","AdditionalData":[{"value":"Deutschland","key":"CountryName"},{"value":"Niedersachsen","key":"StateName"},{"value":"Emsland","key":"CountyName"}]},"MapReference":{"ReferenceId":"540609252","Spot":0.25,"SideOfStreet":"left","CountryId":"20147700","StateId":"20151542","CountyId":"20156280","CityId":"20156455","DistrictId":"20156460","AddressId":"181456259","RoadLinkId":"36419209"}}},{"Relevance":1.0,"Distance":111.0,"MatchLevel":"street","MatchQuality":{"Country":1.0,"State":1.0,"County":1.0,"City":1.0,"District":1.0,"Street":[1.0],"PostalCode":1.0},"Location":{"LocationId":"NT_0fHpCjpPlNz1D5pz9.6xgC_l_83715936_L","LocationType":"point","DisplayPosition":{"Latitude":53.05029,"Longitude":7.32971},"MapView":{"TopLeft":{"Latitude":53.05029,"Longitude":7.32943},"BottomRight":{"Latitude":53.05029,"Longitude":7.32971}},"Address":{"Label":"Marienplatz, 26871 Papenburg, Deutschland","Country":"DEU","State":"Niedersachsen","County":"Emsland","City":"Papenburg","District":"Aschendorf (Ems)","Street":"Marienplatz","PostalCode":"26871","AdditionalData":[{"value":"Deutschland","key":"CountryName"},{"value":"Niedersachsen","key":"StateName"},{"value":"Emsland","key":"CountyName"}]},"MapReference":{"ReferenceId":"83715936","Spot":1.0,"SideOfStreet":"left","CountryId":"20147700","StateId":"20151542","CountyId":"20156280","CityId":"20156455","DistrictId":"20156460"}}}]}]}}