{"Response":{"MetaInfo":{"Timestamp":"2020-03-28T10:48:30.480+0000","NextPageInformation":"2"},"View":[{"_type":"SearchResultsViewType","ViewId":0,"Result":[{"Relevance":1.0,"Distance":-7755.7,"MatchLevel":"landmark","MatchQuality":{"Country":1.0,"State":1.0,"Name":1.0},"Location":{"LocationId":"NT_RhGPbEGj9Lh1j25V29.V9B","LocationType":"woodland","Name":"Puszcza Bydgoska","DisplayPosition":{"Latitude":52.94539,"Longitude":18.60639},"MapView":{"TopLeft":{"Latitude":53.13644,"Longitude":17.68596},"BottomRight":{"Latitude":52.75433,"Longitude":19.13817}},"Address":{"Label":"Polska","Country":"POL","State":"Woj. Kujawsko-Pomorskie","AdditionalData":[{"value":"Polska","key":"CountryName"},{"value":"Woj. Kujawsko-Pomorskie","key":"StateName"}]},"MapReference":{"CountryId":"20624059","StateId":"20625395","PlaceId":"561252277"}}},{"Relevance":1.0,"Distance":0.0,"Direction":0.0,"MatchLevel":"district","MatchQuality":{"Country":1.0,"State":1.0,"County":1.0,"City":1.0,"District":1.0,"Subdistrict":1.0,"PostalCode":1.0},"Location":{"LocationId":"NT_lBv4eTBH8dbjlPKmFtBAyD","LocationType":"point","DisplayPosition":{"Latitude":53.0099577,"Longitude":18.595673},"MapView":{"TopLeft":{"Latitude":53.0214,"Longitude":18.55516},"BottomRight":{"Latitude":52.99925,"Longitude":18.60297}},"Address":{"Label":"Bydgoskie II, Toruń, Woj. Kujawsko-Pomorskie, Polska","Country":"POL","State":"Woj. Kujawsko-Pomorskie","County":"Toruń","City":"Toruń","District":"Toruń","Subdistrict":"Bydgoskie II","PostalCode":"87-100","AdditionalData":[{"value":"Polska","key":"CountryName"},{"value":"Woj. Kujawsko-Pomorskie","key":"StateName"},{"value":"Toruń","key":"CountyName"}]},"MapReference":{"ReferenceId":"851433512","SideOfStreet":"neither","CountryId":"20624059","StateId":"20625395","CountyId":"20625717","CityId":"20625718","DistrictId":"20646832"}}},{"Relevance":1.0,"Distance":12.7,"MatchLevel":"houseNumber","MatchQuality":{"Country":1.0,"State":1.0,"County":1.0,"City":1.0,"District":1.0,"Subdistrict":1.0,"Street":[1.0],"HouseNumber":1.0,"PostalCode":1.0},"MatchType":"interpolated","Location":{"LocationId":"NT_BGd6pSJkX8Vr7gp0g0PqeB_0A","LocationType":"point","DisplayPosition":{"Latitude":53.00984,"Longitude":18.5954},"MapView":{"TopLeft":{"Latitude":53.0109642,"Longitude":18.5935316},"BottomRight":{"Latitude":53.0087158,"Longitude":18.5972684}},"Address":{"Label":"ulica Aleksandra Fredry 4, 87-100 Toruń, Polska","Country":"POL","State":"Woj. Kujawsko-Pomorskie","County":"Toruń","City":"Toruń","District":"Toruń","Subdistrict":"Bydgoskie II","Street":"ulica Aleksandra Fredry","HouseNumber":"4","PostalCode":"87-100","AdditionalData":[{"value":"Polska","key":"CountryName"},{"value":"Woj. Kujawsko-Pomorskie","key":"StateName"},{"value":"Toruń","key":"CountyName"}]},"MapReference":{"ReferenceId":"851481239","Spot":0.45,"SideOfStreet":"right","CountryId":"20624059","StateId":"20625395","CountyId":"20625717","CityId":"20625718","DistrictId":"20646832","AddressId":"701667233","RoadLinkId":"230786239"}}},{"Relevance":1.0,"Distance":40.6,"MatchLevel":"street","MatchQuality":{"Country":1.0,"State":1.0,"County":1.0,"City":1.0,"District":1.0,"Subdistrict":1.0,"PostalCode":1.0},"Location":{"LocationId":"NT_Ev.LwQ1QVgMIbjODdVHZpA_l_851481241_R","LocationType":"point","DisplayPosition":{"Latitude":53.01027,"Longitude":18.59536},"MapView":{"TopLeft":{"Latitude":53.01027,"Longitude":18.59487},"BottomRight":{"Latitude":53.01002,"Longitude":18.59536}},"Address":{"Label":"87-100 Toruń, Polska","Country":"POL","State":"Woj. Kujawsko-Pomorskie","County":"Toruń","City":"Toruń","District":"Toruń","Subdistrict":"Bydgoskie II","PostalCode":"87-100","AdditionalData":[{"value":"Polska","key":"CountryName"},{"value":"Woj. Kujawsko-Pomorskie","key":"StateName"},{"value":"Toruń","key":"CountyName"}]},"MapReference":{"ReferenceId":"851481241","Spot":1.0,"SideOfStreet":"right","CountryId":"20624059","StateId":"20625395","CountyId":"20625717","CityId":"20625718","DistrictId":"20646832"}}},{"Relevance":1.0,"Distance":49.2,"MatchLevel":"houseNumber","MatchQuality":{"Country":1.0,"State":1.0,"County":1.0,"City":1.0,"District":1.0,"Subdistrict":1.0,"Street":[1.0],"HouseNumber":1.0,"PostalCode":1.0},"MatchType":"interpolated","Location":{"LocationId":"NT_udcBjwdO7BTlCxkVRoorXD_xID","LocationType":"point","DisplayPosition":{"Latitude":53.00942,"Longitude":18.59504},"MapView":{"TopLeft":{"Latitude":53.0105442,"Longitude":18.5931717},"BottomRight":{"Latitude":53.0082958,"Longitude":18.5969083}},"Address":{"Label":"ulica Fryderyka Chopina 12, 87-100 Toruń, Polska","Country":"POL","State":"Woj. Kujawsko-Pomorskie","County":"Toruń","City":"Toruń","District":"Toruń","Subdistrict":"Bydgoskie II","Street":"ulica Fryderyka Chopina","HouseNumber":"12","PostalCode":"87-100","AdditionalData":[{"value":"Polska","key":"CountryName"},{"value":"Woj. Kujawsko-Pomorskie","key":"StateName"},{"value":"Toruń","key":"CountyName"}]},"MapReference":{"ReferenceId":"851481236","Spot":0.57,"SideOfStreet":"left","CountryId":"20624059","StateId":"20625395","CountyId":"20625717","CityId":"20625718","DistrictId":"20646832","AddressId":"210322121","RoadLinkId":"230786236"}}},{"Relevance":1.0,"Distance":50.2,"MatchLevel":"houseNumber","MatchQuality":{"Country":1.0,"State":1.0,"County":1.0,"City":1.0,"District":1.0,"Subdistrict":1.0,"Street":[1.0],"HouseNumber":1.0,"PostalCode":1.0},"MatchType":"interpolated","Location":{"LocationId":"NT_udcBjwdO7BTlCxkVRoorXD_xAD","LocationType":"point","DisplayPosition":{"Latitude":53.00944,"Longitude":18.59578},"MapView":{"TopLeft":{"Latitude":53.0105642,"Longitude":18.5939117},"BottomRight":{"Latitude":53.0083158,"Longitude":18.5976483}},"Address":{"Label":"ulica Fryderyka Chopina 10, 87-100 Toruń, Polska","Country":"POL","State":"Woj. Kujawsko-Pomorskie","County":"Toruń","City":"Toruń","District":"Toruń","Subdistrict":"Bydgoskie II","Street":"ulica Fryderyka Chopina","HouseNumber":"10","PostalCode":"87-100","AdditionalData":[{"value":"Polska","key":"CountryName"},{"value":"Woj. Kujawsko-Pomorskie","key":"StateName"},{"value":"Toruń","key":"CountyName"}]},"MapReference":{"ReferenceId":"840233536","Spot":0.16,"SideOfStreet":"left","CountryId":"20624059","StateId":"20625395","CountyId":"20625717","CityId":"20625718","DistrictId":"20646832","AddressId":"701667441","RoadLinkId":"222324191"}}},{"Relevance":1.0,"Distance":50.9,"MatchLevel":"street","MatchQuality":{"Country":1.0,"State":1.0,"County":1.0,"City":1.0,"District":1.0,"Subdistrict":1.0,"PostalCode":1.0},"Location":{"LocationId":"NT_Ev.LwQ1QVgMIbjODdVHZpA_l_851481380_L","LocationType":"point","DisplayPosition":{"Latitude":53.0095,"Longitude":18.5956912},"MapView":{"TopLeft":{"Latitude":53.00957,"Longitude":18.59544},"BottomRight":{"Latitude":53.00949,"Longitude":18.59745}},"Address":{"Label":"87-100 Toruń, Polska","Country":"POL","State":"Woj. Kujawsko-Pomorskie","County":"Toruń","City":"Toruń","District":"Toruń","Subdistrict":"Bydgoskie II","PostalCode":"87-100","AdditionalData":[{"value":"Polska","key":"CountryName"},{"value":"Woj. Kujawsko-Pomorskie","key":"StateName"},{"value":"Toruń","key":"CountyName"}]},"MapReference":{"ReferenceId":"851481380","Spot":0.12,"SideOfStreet":"left","CountryId":"20624059","StateId":"20625395","CountyId":"20625717","CityId":"20625718","DistrictId":"20646832"}}},{"Relevance":1.0,"Distance":54.3,"MatchLevel":"street","MatchQuality":{"Country":1.0,"State":1.0,"County":1.0,"City":1.0,"District":1.0,"Subdistrict":1.0,"Street":[1.0],"PostalCode":1.0},"Location":{"LocationId":"NT_BGd6pSJkX8Vr7gp0g0PqeB_l_851481234_R","LocationType":"point","DisplayPosition":{"Latitude":53.00949,"Longitude":18.59544},"MapView":{"TopLeft":{"Latitude":53.00949,"Longitude":18.59544},"BottomRight":{"Latitude":53.00943,"Longitude":18.59545}},"Address":{"Label":"ulica Aleksandra Fredry, 87-100 Toruń, Polska","Country":"POL","State":"Woj. Kujawsko-Pomorskie","County":"Toruń","City":"Toruń","District":"Toruń","Subdistrict":"Bydgoskie II","Street":"ulica Aleksandra Fredry","PostalCode":"87-100","AdditionalData":[{"value":"Polska","key":"CountryName"},{"value":"Woj. Kujawsko-Pomorskie","key":"StateName"},{"value":"Toruń","key":"CountyName"}]},"MapReference":{"ReferenceId":"851481234","Spot":1.0,"SideOfStreet":"right","CountryId":"20624059","StateId":"20625395","CountyId":"20625717","CityId":"20625718","DistrictId":"20646832"}}},{"Relevance":1.0,"Distance":54.3,"MatchLevel":"street","MatchQuality":{"Country":1.0,"State":1.0,"County":1.0,"City":1.0,"District":1.0,"Subdistrict":1.0,"PostalCode":1.0},"Location":{"LocationId":"NT_Ev.LwQ1QVgMIbjODdVHZpA_l_851481248_L","LocationType":"point","DisplayPosition":{"Latitude":53.00949,"Longitude":18.59544},"MapView":{"TopLeft":{"Latitude":53.00949,"Longitude":18.59527},"BottomRight":{"Latitude":53.00949,"Longitude":18.59544}},"Address":{"Label":"87-100 Toruń, Polska","Country":"POL","State":"Woj. Kujawsko-Pomorskie","County":"Toruń","City":"Toruń","District":"Toruń","Subdistrict":"Bydgoskie II","PostalCode":"87-100","AdditionalData":[{"value":"Polska","key":"CountryName"},{"value":"Woj. Kujawsko-Pomorskie","key":"StateName"},{"value":"Toruń","key":"CountyName"}]},"MapReference":{"ReferenceId":"851481248","Spot":1.0,"SideOfStreet":"left","CountryId":"20624059","StateId":"20625395","CountyId":"20625717","CityId":"20625718","DistrictId":"20646832"}}},{"Relevance":1.0,"Distance":55.1,"MatchLevel":"houseNumber","MatchQuality":{"Country":1.0,"State":1.0,"County":1.0,"City":1.0,"District":1.0,"Subdistrict":1.0,"Street":[1.0],"HouseNumber":1.0,"PostalCode":1.0},"MatchType":"interpolated","Location":{"LocationId":"NT_BGd6pSJkX8Vr7gp0g0PqeB_4A","LocationType":"point","DisplayPosition":{"Latitude":53.01043,"Longitude":18.59534},"MapView":{"TopLeft":{"Latitude":53.0115542,"Longitude":18.5934716},"BottomRight":{"Latitude":53.0093058,"Longitude":18.5972084}},"Address":{"Label":"ulica Aleksandra Fredry 8, 87-100 Toruń, Polska","Country":"POL","State":"Woj. Kujawsko-Pomorskie","County":"Toruń","City":"Toruń","District":"Toruń","Subdistrict":"Bydgoskie II","Street":"ulica Aleksandra Fredry","HouseNumber":"8","PostalCode":"87-100","AdditionalData":[{"value":"Polska","key":"CountryName"},{"value":"Woj. Kujawsko-Pomorskie","key":"StateName"},{"value":"Toruń","key":"CountyName"}]},"MapReference":{"ReferenceId":"851481240","Spot":0.39,"SideOfStreet":"right","CountryId":"20624059","StateId":"20625395","CountyId":"20625717","CityId":"20625718","DistrictId":"20646832","AddressId":"242392154","RoadLinkId":"230786240"}}}]}]}}