{"Response":{"MetaInfo":{"Timestamp":"2020-03-28T10:40:33.912+0000","NextPageInformation":"2"},"View":[{"_type":"SearchResultsViewType","ViewId":0,"Result":[{"Relevance":1.0,"Distance":0.0,"Direction":0.0,"MatchLevel":"district","MatchQuality":{"Country":1.0,"State":1.0,"County":1.0,"City":1.0,"District":1.0,"PostalCode":1.0},"Location":{"LocationId":"NT_90jZtBNvuljh.ex9ll5DAB","LocationType":"point","DisplayPosition":{"Latitude":53.0022521,"Longitude":-1.1565721},"MapView":{"TopLeft":{"Latitude":53.0187,"Longitude":-1.27314},"BottomRight":{"Latitude":52.90184,"Longitude":-1.05453}},"Address":{"Label":"Nottingham, England, United Kingdom","Country":"GBR","State":"England","County":"Nottinghamshire","City":"Nottingham","District":"Nottingham","PostalCode":"NG1 7","AdditionalData":[{"value":"United Kingdom","key":"CountryName"},{"value":"England","key":"StateName"},{"value":"Nottinghamshire","key":"CountyName"}]},"MapReference":{"ReferenceId":"1239210936","SideOfStreet":"neither","StateId":"20248595","CountyId":"20344764","CityId":"20356833","DistrictId":"20356834"}}},{"Relevance":1.0,"Distance":16.7,"MatchLevel":"postalCode","MatchQuality":{"PostalCode":1.0},"Location":{"LocationId":"NT_stYXWXnnTsFl9Su9oNduJC_l_801423550_R","LocationType":"point","DisplayPosition":{"Latitude":53.00239,"Longitude":-1.15667},"MapView":{"TopLeft":{"Latitude":53.0113832,"Longitude":-1.1716143},"BottomRight":{"Latitude":52.9933968,"Longitude":-1.1417257}},"Address":{"Label":"NG5 5NN, Nottingham, England, United Kingdom","Country":"GBR","State":"England","County":"Nottinghamshire","City":"Nottingham","PostalCode":"NG5 5NN","AdditionalData":[{"value":"United Kingdom","key":"CountryName"},{"value":"England","key":"StateName"},{"value":"Nottinghamshire","key":"CountyName"}]},"MapReference":{"ReferenceId":"801423550","Spot":0.77,"SideOfStreet":"neither","StateId":"20248595","CountyId":"20344764","CityId":"20356833"}}},{"Relevance":1.0,"Distance":18.5,"MatchLevel":"street","MatchQuality":{"Country":1.0,"State":1.0,"County":1.0,"City":1.0,"District":1.0,"PostalCode":1.0},"Location":{"LocationId":"NT_ypn4Om38ajeJxL1NHeBP5C_l_986566166_L","LocationType":"point","DisplayPosition":{"Latitude":53.0023867,"Longitude":-1.1564106},"MapView":{"TopLeft":{"Latitude":53.00247,"Longitude":-1.15648},"BottomRight":{"Latitude":53.00179,"Longitude":-1.15591}},"Address":{"Label":"Nottingham, NG5 5, United Kingdom","Country":"GBR","State":"England","County":"Nottinghamshire","City":"Nottingham","District":"Nottingham","PostalCode":"NG5 5","AdditionalData":[{"value":"United Kingdom","key":"CountryName"},{"value":"England","key":"StateName"},{"value":"Nottinghamshire","key":"CountyName"}]},"MapReference":{"ReferenceId":"986566166","Spot":0.88,"SideOfStreet":"left","StateId":"20248595","CountyId":"20344764","CityId":"20356833","DistrictId":"20356834"}}},{"Relevance":1.0,"Distance":22.5,"MatchLevel":"landmark","MatchQuality":{"Country":1.0,"State":1.0,"County":1.0,"City":1.0,"District":1.0,"PostalCode":1.0,"Name":1.0},"Location":{"LocationId":"NT_Qd5feL0CtIP2SIqLRBw0LC","LocationType":"industrialComplex","Name":"Beckhampton Road Industrial Estate","DisplayPosition":{"Latitude":53.00276,"Longitude":-1.1574},"MapView":{"TopLeft":{"Latitude":53.00311,"Longitude":-1.15927},"BottomRight":{"Latitude":53.0024,"Longitude":-1.15552}},"Address":{"Label":"Nottingham, NG1 7, United Kingdom","Country":"GBR","State":"England","County":"Nottinghamshire","City":"Nottingham","District":"Nottingham","PostalCode":"NG1 7","AdditionalData":[{"value":"United Kingdom","key":"CountryName"},{"value":"England","key":"StateName"},{"value":"Nottinghamshire","key":"CountyName"}]},"MapReference":{"StateId":"20248595","CountyId":"20344764","CityId":"20356833","DistrictId":"20356834","PlaceId":"1407320641"}}},{"Relevance":1.0,"Distance":22.5,"MatchLevel":"street","MatchQuality":{"Country":1.0,"State":1.0,"County":1.0,"City":1.0,"District":1.0,"Street":[1.0],"PostalCode":1.0},"Location":{"LocationId":"NT_stYXWXnnTsFl9Su9oNduJC_l_801423550_R","LocationType":"point","DisplayPosition":{"Latitude":53.0024539,"Longitude":-1.1565993},"MapView":{"TopLeft":{"Latitude":53.00247,"Longitude":-1.157},"BottomRight":{"Latitude":53.0024,"Longitude":-1.15648}},"Address":{"Label":"Pedmore Valley, Nottingham, NG5 5, United Kingdom","Country":"GBR","State":"England","County":"Nottinghamshire","City":"Nottingham","District":"Nottingham","Street":"Pedmore Valley","PostalCode":"NG5 5","AdditionalData":[{"value":"United Kingdom","key":"CountryName"},{"value":"England","key":"StateName"},{"value":"Nottinghamshire","key":"CountyName"}]},"MapReference":{"ReferenceId":"801423550","Spot":0.77,"SideOfStreet":"right","StateId":"20248595","CountyId":"20344764","CityId":"20356833","DistrictId":"20356834"}}},{"Relevance":1.0,"Distance":25.0,"MatchLevel":"street","MatchQuality":{"Country":1.0,"State":1.0,"County":1.0,"City":1.0,"District":1.0,"Street":[1.0],"PostalCode":1.0},"Location":{"LocationId":"NT_stYXWXnnTsFl9Su9oNduJC_l_801423551_R","LocationType":"point","DisplayPosition":{"Latitude":53.00247,"Longitude":-1.15648},"MapView":{"TopLeft":{"Latitude":53.00274,"Longitude":-1.15648},"BottomRight":{"Latitude":53.00247,"Longitude":-1.15552}},"Address":{"Label":"Pedmore Valley, Nottingham, NG5 5, United Kingdom","Country":"GBR","State":"England","County":"Nottinghamshire","City":"Nottingham","District":"Nottingham","Street":"Pedmore Valley","PostalCode":"NG5 5","AdditionalData":[{"value":"United Kingdom","key":"CountryName"},{"value":"England","key":"StateName"},{"value":"Nottinghamshire","key":"CountyName"}]},"MapReference":{"ReferenceId":"801423551","Spot":0.0,"SideOfStreet":"right","StateId":"20248595","CountyId":"20344764","CityId":"20356833","DistrictId":"20356834"}}},{"Relevance":1.0,"Distance":25.0,"MatchLevel":"street","MatchQuality":{"Country":1.0,"State":1.0,"County":1.0,"City":1.0,"District":1.0,"PostalCode":1.0},"Location":{"LocationId":"NT_ypn4Om38ajeJxL1NHeBP5C_l_801423549_L","LocationType":"point","DisplayPosition":{"Latitude":53.00247,"Longitude":-1.15648},"MapView":{"TopLeft":{"Latitude":53.00271,"Longitude":-1.15655},"BottomRight":{"Latitude":53.00247,"Longitude":-1.15648}},"Address":{"Label":"Nottingham, NG5 5, United Kingdom","Country":"GBR","State":"England","County":"Nottinghamshire","City":"Nottingham","District":"Nottingham","PostalCode":"NG5 5","AdditionalData":[{"value":"United Kingdom","key":"CountryName"},{"value":"England","key":"StateName"},{"value":"Nottinghamshire","key":"CountyName"}]},"MapReference":{"ReferenceId":"801423549","Spot":0.0,"SideOfStreet":"left","StateId":"20248595","CountyId":"20344764","CityId":"20356833","DistrictId":"20356834"}}},{"Relevance":1.0,"Distance":25.7,"MatchLevel":"houseNumber","MatchQuality":{"Country":1.0,"State":1.0,"County":1.0,"City":1.0,"District":1.0,"Street":[1.0],"HouseNumber":1.0,"PostalCode":1.0},"MatchType":"interpolated","Location":{"LocationId":"NT_4GdeXPLbm.1x5nJN0kg8iB_l_987713006_L_4cD","LocationType":"point","DisplayPosition":{"Latitude":53.0021901,"Longitude":-1.1569425},"MapView":{"TopLeft":{"Latitude":53.0033143,"Longitude":-1.1588106},"BottomRight":{"Latitude":53.001066,"Longitude":-1.1550745}},"Address":{"Label":"87 Chiltern Way, Nottingham, NG5 5NP, United Kingdom","Country":"GBR","State":"England","County":"Nottinghamshire","City":"Nottingham","District":"Nottingham","Street":"Chiltern Way","HouseNumber":"87","PostalCode":"NG5 5NP","AdditionalData":[{"value":"United Kingdom","key":"CountryName"},{"value":"England","key":"StateName"},{"value":"Nottinghamshire","key":"CountyName"}]},"MapReference":{"ReferenceId":"987713006","Spot":0.74,"SideOfStreet":"left","StateId":"20248595","CountyId":"20344764","CityId":"20356833","DistrictId":"20356834"}}},{"Relevance":1.0,"Distance":30.7,"MatchLevel":"houseNumber","MatchQuality":{"Country":1.0,"State":1.0,"County":1.0,"City":1.0,"District":1.0,"Street":[1.0],"HouseNumber":1.0,"PostalCode":1.0},"MatchType":"interpolated","Location":{"LocationId":"NT_stYXWXnnTsFl9Su9oNduJC_l_801423530_R_xEjM","LocationType":"point","DisplayPosition":{"Latitude":53.0024,"Longitude":-1.1570299},"MapView":{"TopLeft":{"Latitude":53.0035242,"Longitude":-1.1588979},"BottomRight":{"Latitude":53.0012758,"Longitude":-1.1551618}},"Address":{"Label":"112 Pedmore Valley, Nottingham, NG5 5NN, United Kingdom","Country":"GBR","State":"England","County":"Nottinghamshire","City":"Nottingham","District":"Nottingham","Street":"Pedmore Valley","HouseNumber":"112","PostalCode":"NG5 5NN","AdditionalData":[{"value":"United Kingdom","key":"CountryName"},{"value":"England","key":"StateName"},{"value":"Nottinghamshire","key":"CountyName"}]},"MapReference":{"ReferenceId":"801423530","Spot":0.57,"SideOfStreet":"right","StateId":"20248595","CountyId":"20344764","CityId":"20356833","DistrictId":"20356834"}}},{"Relevance":1.0,"Distance":37.2,"MatchLevel":"street","MatchQuality":{"Country":1.0,"State":1.0,"County":1.0,"City":1.0,"District":1.0,"PostalCode":1.0},"Location":{"LocationId":"NT_ypn4Om38ajeJxL1NHeBP5C_l_801423529_R","LocationType":"point","DisplayPosition":{"Latitude":53.0024,"Longitude":-1.15707},"MapView":{"TopLeft":{"Latitude":53.00263,"Longitude":-1.15707},"BottomRight":{"Latitude":53.0024,"Longitude":-1.15707}},"Address":{"Label":"Nottingham, NG5 5, United Kingdom","Country":"GBR","State":"England","County":"Nottinghamshire","City":"Nottingham","District":"Nottingham","PostalCode":"NG5 5","AdditionalData":[{"value":"United Kingdom","key":"CountryName"},{"value":"England","key":"StateName"},{"value":"Nottinghamshire","key":"CountyName"}]},"MapReference":{"ReferenceId":"801423529","Spot":0.0,"SideOfStreet":"right","StateId":"20248595","CountyId":"20344764","CityId":"20356833","DistrictId":"20356834"}}}]}]}}