{"Response":{"MetaInfo":{"Timestamp":"2020-03-28T10:25:04.247+0000","NextPageInformation":"2"},"View":[{"_type":"SearchResultsViewType","ViewId":0,"Result":[{"Relevance":1.0,"Distance":0.0,"Direction":0.0,"MatchLevel":"district","MatchQuality":{"Country":1.0,"State":1.0,"County":1.0,"City":1.0,"District":1.0,"PostalCode":1.0},"Location":{"LocationId":"NT_hSGctGiTLrWq8Uw-V17dNA","LocationType":"point","DisplayPosition":{"Latitude":53.0703922,"Longitude":8.7877223},"MapView":{"TopLeft":{"Latitude":53.07507,"Longitude":8.77605},"BottomRight":{"Latitude":53.06692,"Longitude":8.79035}},"Address":{"Label":"Hohentor, Bremen, Deutschland","Country":"DEU","State":"Bremen","County":"Bremen","City":"Bremen","District":"Hohentor","PostalCode":"28199","AdditionalData":[{"value":"Deutschland","key":"CountryName"},{"value":"Bremen","key":"StateName"},{"value":"Bremen","key":"CountyName"}]},"MapReference":{"ReferenceId":"833560137","SideOfStreet":"neither","CountryId":"20147700","StateId":"20157339","CountyId":"20157340","CityId":"20157341"}}},{"Relevance":1.0,"Distance":15.0,"MatchLevel":"houseNumber","MatchQuality":{"Country":1.0,"State":1.0,"County":1.0,"City":1.0,"District":1.0,"Street":[1.0],"HouseNumber":1.0,"PostalCode":1.0},"MatchType":"interpolated","Location":{"LocationId":"NT_oKGI15-km8BDjCLd-buS2D_xgTM","LocationType":"point","DisplayPosition":{"Latitude":53.07018,"Longitude":8.7879},"MapView":{"TopLeft":{"Latitude":53.0713042,"Longitude":8.786029},"BottomRight":{"Latitude":53.0690558,"Longitude":8.789771}},"Address":{"Label":"Langemarckstraße 181, 28199 Bremen, Deutschland","Country":"DEU","State":"Bremen","County":"Bremen","City":"Bremen","District":"Neustadt","Street":"Langemarckstraße","HouseNumber":"181","PostalCode":"28199","AdditionalData":[{"value":"Deutschland","key":"CountryName"},{"value":"Bremen","key":"StateName"},{"value":"Bremen","key":"CountyName"}]},"MapReference":{"ReferenceId":"51881690","Spot":0.47,"SideOfStreet":"left","CountryId":"20147700","StateId":"20157339","CountyId":"20157340","CityId":"20157341","DistrictId":"20157363","AddressId":"170102742","RoadLinkId":"37033871"}}},{"Relevance":1.0,"Distance":40.4,"MatchLevel":"houseNumber","MatchQuality":{"Country":1.0,"State":1.0,"County":1.0,"City":1.0,"District":1.0,"Street":[1.0],"HouseNumber":1.0,"PostalCode":1.0},"MatchType":"interpolated","Location":{"LocationId":"NT_oKGI15-km8BDjCLd-buS2D_xYzN","LocationType":"point","DisplayPosition":{"Latitude":53.07052,"Longitude":8.78839},"MapView":{"TopLeft":{"Latitude":53.0716442,"Longitude":8.786519},"BottomRight":{"Latitude":53.0693958,"Longitude":8.790261}},"Address":{"Label":"Langemarckstraße 167, 28199 Bremen, Deutschland","Country":"DEU","State":"Bremen","County":"Bremen","City":"Bremen","District":"Neustadt","Street":"Langemarckstraße","HouseNumber":"167","PostalCode":"28199","AdditionalData":[{"value":"Deutschland","key":"CountryName"},{"value":"Bremen","key":"StateName"},{"value":"Bremen","key":"CountyName"}]},"MapReference":{"ReferenceId":"51884731","Spot":0.06,"SideOfStreet":"left","CountryId":"20147700","StateId":"20157339","CountyId":"20157340","CityId":"20157341","DistrictId":"20157363","AddressId":"168200003","RoadLinkId":"36461412"}}},{"Relevance":1.0,"Distance":43.3,"MatchLevel":"houseNumber","MatchQuality":{"Country":1.0,"State":1.0,"County":1.0,"City":1.0,"District":1.0,"Street":[1.0],"HouseNumber":1.0,"PostalCode":1.0},"MatchType":"interpolated","Location":{"LocationId":"NT_IQzocrN7N1I5buXBXPt9DC_zYD","LocationType":"point","DisplayPosition":{"Latitude":53.07016,"Longitude":8.78707},"MapView":{"TopLeft":{"Latitude":53.0712842,"Longitude":8.785199},"BottomRight":{"Latitude":53.0690358,"Longitude":8.788941}},"Address":{"Label":"Pappelstraße 36, 28199 Bremen, Deutschland","Country":"DEU","State":"Bremen","County":"Bremen","City":"Bremen","District":"Neustadt","Street":"Pappelstraße","HouseNumber":"36","PostalCode":"28199","AdditionalData":[{"value":"Deutschland","key":"CountryName"},{"value":"Bremen","key":"StateName"},{"value":"Bremen","key":"CountyName"}]},"MapReference":{"ReferenceId":"1204384069","Spot":0.35,"SideOfStreet":"right","CountryId":"20147700","StateId":"20157339","CountyId":"20157340","CityId":"20157341","DistrictId":"20157363","AddressId":"168688236","RoadLinkId":"517644777"}}},{"Relevance":1.0,"Distance":46.2,"MatchLevel":"houseNumber","MatchQuality":{"Country":1.0,"State":1.0,"County":1.0,"City":1.0,"District":1.0,"Street":[1.0],"HouseNumber":1.0,"PostalCode":1.0},"MatchType":"interpolated","Location":{"LocationId":"NT_zWu3bd6FpEKpfjaKxJrfeD_xYjN","LocationType":"point","DisplayPosition":{"Latitude":53.0705,"Longitude":8.78839},"MapView":{"TopLeft":{"Latitude":53.0716242,"Longitude":8.786519},"BottomRight":{"Latitude":53.0693758,"Longitude":8.790261}},"Address":{"Label":"Langemarckstraße 166, 28199 Bremen, Deutschland","Country":"DEU","State":"Bremen","County":"Bremen","City":"Bremen","District":"Neustadt","Street":"Langemarckstraße","HouseNumber":"166","PostalCode":"28199","AdditionalData":[{"value":"Deutschland","key":"CountryName"},{"value":"Bremen","key":"StateName"},{"value":"Bremen","key":"CountyName"}]},"MapReference":{"ReferenceId":"51884730","Spot":0.04,"SideOfStreet":"right","CountryId":"20147700","StateId":"20157339","CountyId":"20157340","CityId":"20157341","DistrictId":"20157363","AddressId":"169633962","RoadLinkId":"36731981"}}},{"Relevance":1.0,"Distance":49.5,"MatchLevel":"houseNumber","MatchQuality":{"Country":1.0,"State":1.0,"County":1.0,"City":1.0,"District":1.0,"Street":[1.0],"HouseNumber":1.0,"PostalCode":1.0},"MatchType":"interpolated","Location":{"LocationId":"NT_IQzocrN7N1I5buXBXPt9DC_0kD","LocationType":"point","DisplayPosition":{"Latitude":53.07004,"Longitude":8.78727},"MapView":{"TopLeft":{"Latitude":53.0711642,"Longitude":8.785399},"BottomRight":{"Latitude":53.0689158,"Longitude":8.789141}},"Address":{"Label":"Pappelstraße 49, 28199 Bremen, Deutschland","Country":"DEU","State":"Bremen","County":"Bremen","City":"Bremen","District":"Neustadt","Street":"Pappelstraße","HouseNumber":"49","PostalCode":"28199","AdditionalData":[{"value":"Deutschland","key":"CountryName"},{"value":"Bremen","key":"StateName"},{"value":"Bremen","key":"CountyName"}]},"MapReference":{"ReferenceId":"1204384068","Spot":0.71,"SideOfStreet":"left","CountryId":"20147700","StateId":"20157339","CountyId":"20157340","CityId":"20157341","DistrictId":"20157363","AddressId":"169120964","RoadLinkId":"517644776"}}},{"Relevance":1.0,"Distance":56.4,"MatchLevel":"houseNumber","MatchQuality":{"Country":1.0,"State":1.0,"County":1.0,"City":1.0,"District":1.0,"Street":[1.0],"HouseNumber":1.0,"PostalCode":1.0},"MatchType":"interpolated","Location":{"LocationId":"NT_IQzocrN7N1I5buXBXPt9DC_zQD","LocationType":"point","DisplayPosition":{"Latitude":53.07032,"Longitude":8.78679},"MapView":{"TopLeft":{"Latitude":53.0714442,"Longitude":8.784919},"BottomRight":{"Latitude":53.0691958,"Longitude":8.788661}},"Address":{"Label":"Pappelstraße 34, 28199 Bremen, Deutschland","Country":"DEU","State":"Bremen","County":"Bremen","City":"Bremen","District":"Neustadt","Street":"Pappelstraße","HouseNumber":"34","PostalCode":"28199","AdditionalData":[{"value":"Deutschland","key":"CountryName"},{"value":"Bremen","key":"StateName"},{"value":"Bremen","key":"CountyName"}]},"MapReference":{"ReferenceId":"51883131","Spot":0.21,"SideOfStreet":"right","CountryId":"20147700","StateId":"20157339","CountyId":"20157340","CityId":"20157341","DistrictId":"20157363","AddressId":"168618958","RoadLinkId":"36861274"}}},{"Relevance":1.0,"Distance":57.0,"MatchLevel":"houseNumber","MatchQuality":{"Country":1.0,"State":1.0,"County":1.0,"City":1.0,"District":1.0,"Street":[1.0],"HouseNumber":1.0,"PostalCode":1.0},"MatchType":"interpolated","Location":{"LocationId":"NT_YK49jmMdP05IILo.xYpw5B_0ITQ","LocationType":"point","DisplayPosition":{"Latitude":53.06983,"Longitude":8.78766},"MapView":{"TopLeft":{"Latitude":53.0709542,"Longitude":8.785789},"BottomRight":{"Latitude":53.0687058,"Longitude":8.789531}},"Address":{"Label":"Pappelstraße 42A, 28199 Bremen, Deutschland","Country":"DEU","State":"Bremen","County":"Bremen","City":"Bremen","District":"Neustadt","Street":"Pappelstraße","HouseNumber":"42A","PostalCode":"28199","AdditionalData":[{"value":"Deutschland","key":"CountryName"},{"value":"Bremen","key":"StateName"},{"value":"Bremen","key":"CountyName"}]},"MapReference":{"ReferenceId":"1204099192","Spot":0.31,"SideOfStreet":"right","CountryId":"20147700","StateId":"20157339","CountyId":"20157340","CityId":"20157341","DistrictId":"20157363","AddressId":"167933507","RoadLinkId":"517281257"}}},{"Relevance":1.0,"Distance":62.9,"MatchLevel":"houseNumber","MatchQuality":{"Country":1.0,"State":1.0,"County":1.0,"City":1.0,"District":1.0,"Street":[1.0],"HouseNumber":1.0,"PostalCode":1.0},"MatchType":"interpolated","Location":{"LocationId":"NT_YK49jmMdP05IILo.xYpw5B_0IzQ","LocationType":"point","DisplayPosition":{"Latitude":53.06978,"Longitude":8.78775},"MapView":{"TopLeft":{"Latitude":53.0709042,"Longitude":8.785879},"BottomRight":{"Latitude":53.0686558,"Longitude":8.789621}},"Address":{"Label":"Pappelstraße 42C, 28199 Bremen, Deutschland","Country":"DEU","State":"Bremen","County":"Bremen","City":"Bremen","District":"Neustadt","Street":"Pappelstraße","HouseNumber":"42C","PostalCode":"28199","AdditionalData":[{"value":"Deutschland","key":"CountryName"},{"value":"Bremen","key":"StateName"},{"value":"Bremen","key":"CountyName"}]},"MapReference":{"ReferenceId":"1204099191","Spot":0.96,"SideOfStreet":"right","CountryId":"20147700","StateId":"20157339","CountyId":"20157340","CityId":"20157341","DistrictId":"20157363","AddressId":"167933506","RoadLinkId":"517281256"}}},{"Relevance":1.0,"Distance":65.2,"MatchLevel":"houseNumber","MatchQuality":{"Country":1.0,"State":1.0,"County":1.0,"City":1.0,"District":1.0,"Street":[1.0],"HouseNumber":1.0,"PostalCode":1.0},"MatchType":"interpolated","Location":{"LocationId":"NT_y7msaSIosmFJ-Y4UsOHEmB_0AD","LocationType":"point","DisplayPosition":{"Latitude":53.07101,"Longitude":8.78731},"MapView":{"TopLeft":{"Latitude":53.0721342,"Longitude":8.785439},"BottomRight":{"Latitude":53.0698858,"Longitude":8.789181}},"Address":{"Label":"Friedrich-Wilhelm-Straße 40, 28199 Bremen, Deutschland","Country":"DEU","State":"Bremen","County":"Bremen","City":"Bremen","District":"Neustadt","Street":"Friedrich-Wilhelm-Straße","HouseNumber":"40","PostalCode":"28199","AdditionalData":[{"value":"Deutschland","key":"CountryName"},{"value":"Bremen","key":"StateName"},{"value":"Bremen","key":"CountyName"}]},"MapReference":{"ReferenceId":"51883121","Spot":0.48,"SideOfStreet":"right","CountryId":"20147700","StateId":"20157339","CountyId":"20157340","CityId":"20157341","DistrictId":"20157363","AddressId":"168810190","RoadLinkId":"37261634"}}}]}]}}