{"Response":{"MetaInfo":{"Timestamp":"2020-03-28T11:56:16.196+0000","NextPageInformation":"2"},"View":[{"_type":"SearchResultsViewType","ViewId":0,"Result":[{"Relevance":1.0,"Distance":0.0,"Direction":0.0,"MatchLevel":"district","MatchQuality":{"Country":1.0,"State":1.0,"County":1.0,"City":1.0,"District":1.0,"PostalCode":1.0},"Location":{"LocationId":"NT_9ww13uGOf0rM7jzscjqAFA","LocationType":"point","DisplayPosition":{"Latitude":53.0973339,"Longitude":-1.388056},"MapView":{"TopLeft":{"Latitude":53.10478,"Longitude":-1.40414},"BottomRight":{"Latitude":53.08557,"Longitude":-1.36574}},"Address":{"Label":"Alfreton, England, United Kingdom","Country":"GBR","State":"England","County":"Derbyshire","City":"Alfreton","District":"Alfreton","PostalCode":"DE55 7","AdditionalData":[{"value":"United Kingdom","key":"CountryName"},{"value":"England","key":"StateName"},{"value":"Derbyshire","key":"CountyName"}]},"MapReference":{"ReferenceId":"26059949","SideOfStreet":"neither","StateId":"20248595","CountyId":"20343933","CityId":"20353505","DistrictId":"20353506"}}},{"Relevance":1.0,"Distance":11.7,"MatchLevel":"houseNumber","MatchQuality":{"Country":1.0,"State":1.0,"County":1.0,"City":1.0,"District":1.0,"Street":[1.0],"HouseNumber":1.0,"PostalCode":1.0},"MatchType":"interpolated","Location":{"LocationId":"NT_xkLgkGYd4BT0vZrmnicezA_l_26059961_R_zQD","LocationType":"point","DisplayPosition":{"Latitude":53.09751,"Longitude":-1.3879299},"MapView":{"TopLeft":{"Latitude":53.0986342,"Longitude":-1.389802},"BottomRight":{"Latitude":53.0963859,"Longitude":-1.3860577}},"Address":{"Label":"34 High Street, Alfreton, DE55 7BL, United Kingdom","Country":"GBR","State":"England","County":"Derbyshire","City":"Alfreton","District":"Alfreton","Street":"High Street","HouseNumber":"34","PostalCode":"DE55 7BL","AdditionalData":[{"value":"United Kingdom","key":"CountryName"},{"value":"England","key":"StateName"},{"value":"Derbyshire","key":"CountyName"}]},"MapReference":{"ReferenceId":"26059961","Spot":0.41,"SideOfStreet":"right","StateId":"20248595","CountyId":"20343933","CityId":"20353505","DistrictId":"20353506"}}},{"Relevance":1.0,"Distance":12.3,"MatchLevel":"houseNumber","MatchQuality":{"Country":1.0,"State":1.0,"County":1.0,"City":1.0,"District":1.0,"Street":[1.0],"HouseNumber":1.0,"PostalCode":1.0},"MatchType":"interpolated","Location":{"LocationId":"NT_N5Pd-kSI3wZgnmMC6zBd0D_l_26060033_R_xA","LocationType":"point","DisplayPosition":{"Latitude":53.0972186,"Longitude":-1.38837},"MapView":{"TopLeft":{"Latitude":53.0983427,"Longitude":-1.3902422},"BottomRight":{"Latitude":53.0960944,"Longitude":-1.3864978}},"Address":{"Label":"1 Institute Lane, Alfreton, DE55 7BQ, United Kingdom","Country":"GBR","State":"England","County":"Derbyshire","City":"Alfreton","District":"Alfreton","Street":"Institute Lane","HouseNumber":"1","PostalCode":"DE55 7BQ","AdditionalData":[{"value":"United Kingdom","key":"CountryName"},{"value":"England","key":"StateName"},{"value":"Derbyshire","key":"CountyName"}]},"MapReference":{"ReferenceId":"26060033","Spot":0.75,"SideOfStreet":"right","StateId":"20248595","CountyId":"20343933","CityId":"20353505","DistrictId":"20353506"}}},{"Relevance":1.0,"Distance":22.3,"MatchLevel":"houseNumber","MatchQuality":{"Country":1.0,"State":1.0,"County":1.0,"City":1.0,"District":1.0,"Street":[1.0],"HouseNumber":1.0,"PostalCode":1.0},"MatchType":"interpolated","Location":{"LocationId":"NT_xkLgkGYd4BT0vZrmnicezA_l_1143096397_L_1UD","LocationType":"point","DisplayPosition":{"Latitude":53.0974648,"Longitude":-1.3883093},"MapView":{"TopLeft":{"Latitude":53.098589,"Longitude":-1.3901815},"BottomRight":{"Latitude":53.0963407,"Longitude":-1.3864371}},"Address":{"Label":"55 High Street, Alfreton, DE55 7DR, United Kingdom","Country":"GBR","State":"England","County":"Derbyshire","City":"Alfreton","District":"Alfreton","Street":"High Street","HouseNumber":"55","PostalCode":"DE55 7DR","AdditionalData":[{"value":"United Kingdom","key":"CountryName"},{"value":"England","key":"StateName"},{"value":"Derbyshire","key":"CountyName"}]},"MapReference":{"ReferenceId":"1143096397","Spot":0.5,"SideOfStreet":"left","StateId":"20248595","CountyId":"20343933","CityId":"20353505","DistrictId":"20353506"}}},{"Relevance":1.0,"Distance":26.0,"MatchLevel":"postalCode","MatchQuality":{"PostalCode":1.0},"MatchType":"interpolated","Location":{"LocationId":"NT_xkLgkGYd4BT0vZrmnicezA_l_26059961_R_zQD","LocationType":"point","DisplayPosition":{"Latitude":53.09725,"Longitude":-1.38842},"MapView":{"TopLeft":{"Latitude":53.1062432,"Longitude":-1.4033972},"BottomRight":{"Latitude":53.0882568,"Longitude":-1.3734428}},"Address":{"Label":"DE55 7BL, Alfreton, England, United Kingdom","Country":"GBR","State":"England","County":"Derbyshire","City":"Alfreton","PostalCode":"DE55 7BL","AdditionalData":[{"value":"United Kingdom","key":"CountryName"},{"value":"England","key":"StateName"},{"value":"Derbyshire","key":"CountyName"}]},"MapReference":{"ReferenceId":"26059961","Spot":0.41,"SideOfStreet":"neither","StateId":"20248595","CountyId":"20343933","CityId":"20353505"}}},{"Relevance":1.0,"Distance":31.1,"MatchLevel":"street","MatchQuality":{"Country":1.0,"State":1.0,"County":1.0,"City":1.0,"District":1.0,"Street":[1.0],"PostalCode":1.0},"Location":{"LocationId":"NT_Bl4Pzcek.Bb3m7f0kiOUqC_l_26060032_L","LocationType":"point","DisplayPosition":{"Latitude":53.0973862,"Longitude":-1.387599},"MapView":{"TopLeft":{"Latitude":53.09757,"Longitude":-1.38762},"BottomRight":{"Latitude":53.09626,"Longitude":-1.38747}},"Address":{"Label":"Chapel Street, Alfreton, DE55 7, United Kingdom","Country":"GBR","State":"England","County":"Derbyshire","City":"Alfreton","District":"Alfreton","Street":"Chapel Street","PostalCode":"DE55 7","AdditionalData":[{"value":"United Kingdom","key":"CountryName"},{"value":"England","key":"StateName"},{"value":"Derbyshire","key":"CountyName"}]},"MapReference":{"ReferenceId":"26060032","Spot":0.86,"SideOfStreet":"left","StateId":"20248595","CountyId":"20343933","CityId":"20353505","DistrictId":"20353506"}}},{"Relevance":1.0,"Distance":31.3,"MatchLevel":"houseNumber","MatchQuality":{"Country":1.0,"State":1.0,"County":1.0,"City":1.0,"District":1.0,"Street":[1.0],"HouseNumber":1.0,"PostalCode":1.0},"MatchType":"interpolated","Location":{"LocationId":"NT_Lg7YNVfbiod3WH9yQO2S3B_l_1065694151_R_xA","LocationType":"point","DisplayPosition":{"Latitude":53.0976101,"Longitude":-1.38815},"MapView":{"TopLeft":{"Latitude":53.0987343,"Longitude":-1.3900222},"BottomRight":{"Latitude":53.096486,"Longitude":-1.3862778}},"Address":{"Label":"1 Limes Avenue, Alfreton, DE55 7DW, United Kingdom","Country":"GBR","State":"England","County":"Derbyshire","City":"Alfreton","District":"Alfreton","Street":"Limes Avenue","HouseNumber":"1","PostalCode":"DE55 7DW","AdditionalData":[{"value":"United Kingdom","key":"CountryName"},{"value":"England","key":"StateName"},{"value":"Derbyshire","key":"CountyName"}]},"MapReference":{"ReferenceId":"1065694151","Spot":0.11,"SideOfStreet":"right","StateId":"20248595","CountyId":"20343933","CityId":"20353505","DistrictId":"20353506"}}},{"Relevance":1.0,"Distance":32.2,"MatchLevel":"houseNumber","MatchQuality":{"Country":1.0,"State":1.0,"County":1.0,"City":1.0,"District":1.0,"Street":[1.0],"HouseNumber":1.0,"PostalCode":1.0},"MatchType":"interpolated","Location":{"LocationId":"NT_xkLgkGYd4BT0vZrmnicezA_l_1027389713_R_1gD","LocationType":"point","DisplayPosition":{"Latitude":53.09757,"Longitude":-1.38762},"MapView":{"TopLeft":{"Latitude":53.0986942,"Longitude":-1.3894921},"BottomRight":{"Latitude":53.0964459,"Longitude":-1.3857478}},"Address":{"Label":"58 High Street, Alfreton, DE55 7BE, United Kingdom","Country":"GBR","State":"England","County":"Derbyshire","City":"Alfreton","District":"Alfreton","Street":"High Street","HouseNumber":"58","PostalCode":"DE55 7BE","AdditionalData":[{"value":"United Kingdom","key":"CountryName"},{"value":"England","key":"StateName"},{"value":"Derbyshire","key":"CountyName"}]},"MapReference":{"ReferenceId":"1027389713","Spot":0.0,"SideOfStreet":"right","StateId":"20248595","CountyId":"20343933","CityId":"20353505","DistrictId":"20353506"}}},{"Relevance":1.0,"Distance":43.3,"MatchLevel":"houseNumber","MatchQuality":{"Country":1.0,"State":1.0,"County":1.0,"City":1.0,"District":1.0,"Street":[1.0],"HouseNumber":1.0,"PostalCode":1.0},"MatchType":"interpolated","Location":{"LocationId":"NT_vGCwCzL4u3qtstnEwU8gbC_l_26059965_L_zID","LocationType":"point","DisplayPosition":{"Latitude":53.09747,"Longitude":-1.3886901},"MapView":{"TopLeft":{"Latitude":53.0985942,"Longitude":-1.3905623},"BottomRight":{"Latitude":53.0963459,"Longitude":-1.386818}},"Address":{"Label":"32 High Street, Alfreton, DE55 7BL, United Kingdom","Country":"GBR","State":"England","County":"Derbyshire","City":"Alfreton","District":"Alfreton","Street":"High Street","HouseNumber":"32","PostalCode":"DE55 7BL","AdditionalData":[{"value":"United Kingdom","key":"CountryName"},{"value":"England","key":"StateName"},{"value":"Derbyshire","key":"CountyName"}]},"MapReference":{"ReferenceId":"26059965","Spot":0.27,"SideOfStreet":"left","StateId":"20248595","CountyId":"20343933","CityId":"20353505","DistrictId":"20353506"}}},{"Relevance":1.0,"Distance":59.7,"MatchLevel":"houseNumber","MatchQuality":{"Country":1.0,"State":1.0,"County":1.0,"City":1.0,"District":1.0,"Street":[1.0],"HouseNumber":1.0,"PostalCode":1.0},"MatchType":"interpolated","Location":{"LocationId":"NT_vGCwCzL4u3qtstnEwU8gbC_l_1199153404_R_2QD","LocationType":"point","DisplayPosition":{"Latitude":53.09761,"Longitude":-1.3872099},"MapView":{"TopLeft":{"Latitude":53.0987342,"Longitude":-1.3890821},"BottomRight":{"Latitude":53.0964859,"Longitude":-1.3853377}},"Address":{"Label":"64 High Street, Alfreton, DE55 7, United Kingdom","Country":"GBR","State":"England","County":"Derbyshire","City":"Alfreton","District":"Alfreton","Street":"High Street","HouseNumber":"64","PostalCode":"DE55 7","AdditionalData":[{"value":"United Kingdom","key":"CountryName"},{"value":"England","key":"StateName"},{"value":"Derbyshire","key":"CountyName"}]},"MapReference":{"ReferenceId":"1199153404","Spot":0.28,"SideOfStreet":"right","StateId":"20248595","CountyId":"20343933","CityId":"20353505","DistrictId":"20353506"}}}]}]}}