{"Response":{"MetaInfo":{"Timestamp":"2020-03-28T10:11:37.690+0000","NextPageInformation":"2"},"View":[{"_type":"SearchResultsViewType","ViewId":0,"Result":[{"Relevance":1.0,"Distance":0.0,"Direction":0.0,"MatchLevel":"district","MatchQuality":{"Country":1.0,"State":1.0,"County":1.0,"City":1.0,"District":1.0,"PostalCode":1.0},"Location":{"LocationId":"NT_JnHs4A3jra0ZCvcoYWHeQD","LocationType":"point","DisplayPosition":{"Latitude":53.0027254,"Longitude":-1.1391216},"MapView":{"TopLeft":{"Latitude":53.00405,"Longitude":-1.15392},"BottomRight":{"Latitude":52.99261,"Longitude":-1.13051}},"Address":{"Label":"Daybrook, Nottingham, England, United Kingdom","Country":"GBR","State":"England","County":"Nottinghamshire","City":"Nottingham","District":"Daybrook","PostalCode":"NG5 6","AdditionalData":[{"value":"United Kingdom","key":"CountryName"},{"value":"England","key":"StateName"},{"value":"Nottinghamshire","key":"CountyName"}]},"MapReference":{"ReferenceId":"716549398","SideOfStreet":"neither","StateId":"20248595","CountyId":"20344764","CityId":"20356833","DistrictId":"20356873"}}},{"Relevance":1.0,"Distance":5.8,"MatchLevel":"houseNumber","MatchQuality":{"Country":1.0,"State":1.0,"County":1.0,"City":1.0,"District":1.0,"Street":[1.0],"HouseNumber":1.0,"PostalCode":1.0},"MatchType":"interpolated","Location":{"LocationId":"NT_IJ4H6uVAwxnE2HyZRhwUEC_l_716549395_R_4gD","LocationType":"point","DisplayPosition":{"Latitude":53.0026714,"Longitude":-1.1392257},"MapView":{"TopLeft":{"Latitude":53.0037955,"Longitude":-1.1410937},"BottomRight":{"Latitude":53.0015472,"Longitude":-1.1373576}},"Address":{"Label":"88 Mansfield Road, Nottingham, NG5 6GY, United Kingdom","Country":"GBR","State":"England","County":"Nottinghamshire","City":"Nottingham","District":"Daybrook","Street":"Mansfield Road","HouseNumber":"88","PostalCode":"NG5 6GY","AdditionalData":[{"value":"United Kingdom","key":"CountryName"},{"value":"England","key":"StateName"},{"value":"Nottinghamshire","key":"CountyName"}]},"MapReference":{"ReferenceId":"716549395","Spot":0.48,"SideOfStreet":"right","StateId":"20248595","CountyId":"20344764","CityId":"20356833","DistrictId":"20356873"}}},{"Relevance":1.0,"Distance":8.4,"MatchLevel":"landmark","MatchQuality":{"Country":1.0,"State":1.0,"County":1.0,"City":1.0,"PostalCode":1.0,"Name":1.0},"Location":{"LocationId":"NT_8p.I13iX2w8cMFH87E52FB","LocationType":"industrialComplex","Name":"Mainsfield Road Industrial Estate","DisplayPosition":{"Latitude":53.00101,"Longitude":-1.13884},"MapView":{"TopLeft":{"Latitude":53.00336,"Longitude":-1.14108},"BottomRight":{"Latitude":52.99866,"Longitude":-1.13756}},"Address":{"Label":"Nottingham, NG1 7, United Kingdom","Country":"GBR","State":"England","County":"Nottinghamshire","City":"Nottingham","PostalCode":"NG1 7","AdditionalData":[{"value":"United Kingdom","key":"CountryName"},{"value":"England","key":"StateName"},{"value":"Nottinghamshire","key":"CountyName"}]},"MapReference":{"StateId":"20248595","CountyId":"20344764","CityId":"20356833","PlaceId":"1407320767"}}},{"Relevance":1.0,"Distance":9.8,"MatchLevel":"postalCode","MatchQuality":{"PostalCode":1.0},"MatchType":"interpolated","Location":{"LocationId":"NT_IJ4H6uVAwxnE2HyZRhwUEC_l_716549395_R_4gD","LocationType":"point","DisplayPosition":{"Latitude":53.00264,"Longitude":-1.13916},"MapView":{"TopLeft":{"Latitude":53.0116332,"Longitude":-1.1541044},"BottomRight":{"Latitude":52.9936468,"Longitude":-1.1242156}},"Address":{"Label":"NG5 6GY, Nottingham, England, United Kingdom","Country":"GBR","State":"England","County":"Nottinghamshire","City":"Nottingham","PostalCode":"NG5 6GY","AdditionalData":[{"value":"United Kingdom","key":"CountryName"},{"value":"England","key":"StateName"},{"value":"Nottinghamshire","key":"CountyName"}]},"MapReference":{"ReferenceId":"716549395","Spot":0.48,"SideOfStreet":"neither","StateId":"20248595","CountyId":"20344764","CityId":"20356833"}}},{"Relevance":1.0,"Distance":14.5,"MatchLevel":"street","MatchQuality":{"Country":1.0,"State":1.0,"County":1.0,"City":1.0,"District":1.0,"Street":[1.0],"PostalCode":1.0},"Location":{"LocationId":"NT_565AV-pLVmVJ4tK30btM4C_l_26281673_R","LocationType":"point","DisplayPosition":{"Latitude":53.00282,"Longitude":-1.13927},"MapView":{"TopLeft":{"Latitude":53.00301,"Longitude":-1.13927},"BottomRight":{"Latitude":53.00282,"Longitude":-1.13924}},"Address":{"Label":"Mansfield Road, Nottingham, NG5 6, United Kingdom","Country":"GBR","State":"England","County":"Nottinghamshire","City":"Nottingham","District":"Daybrook","Street":"Mansfield Road","PostalCode":"NG5 6","AdditionalData":[{"value":"United Kingdom","key":"CountryName"},{"value":"England","key":"StateName"},{"value":"Nottinghamshire","key":"CountyName"}]},"MapReference":{"ReferenceId":"26281673","Spot":0.0,"SideOfStreet":"right","StateId":"20248595","CountyId":"20344764","CityId":"20356833","DistrictId":"20356873"}}},{"Relevance":1.0,"Distance":16.1,"MatchLevel":"street","MatchQuality":{"Country":1.0,"State":1.0,"County":1.0,"City":1.0,"District":1.0,"PostalCode":1.0},"Location":{"LocationId":"NT_8-Qks1yRNCZNaoGoi1hd3A_l_78794060_R","LocationType":"point","DisplayPosition":{"Latitude":53.0028572,"Longitude":-1.1392204},"MapView":{"TopLeft":{"Latitude":53.00295,"Longitude":-1.13927},"BottomRight":{"Latitude":53.00282,"Longitude":-1.139}},"Address":{"Label":"Nottingham, NG5 6, United Kingdom","Country":"GBR","State":"England","County":"Nottinghamshire","City":"Nottingham","District":"Daybrook","PostalCode":"NG5 6","AdditionalData":[{"value":"United Kingdom","key":"CountryName"},{"value":"England","key":"StateName"},{"value":"Nottinghamshire","key":"CountyName"}]},"MapReference":{"ReferenceId":"78794060","Spot":0.2,"SideOfStreet":"right","StateId":"20248595","CountyId":"20344764","CityId":"20356833","DistrictId":"20356873"}}},{"Relevance":1.0,"Distance":20.5,"MatchLevel":"houseNumber","MatchQuality":{"Country":1.0,"State":1.0,"County":1.0,"City":1.0,"District":1.0,"Street":[1.0],"HouseNumber":1.0,"PostalCode":1.0},"MatchType":"interpolated","Location":{"LocationId":"NT_VQSq1p4iNM1.n1HEEjzmVB_l_78794058_L_xcTM","LocationType":"point","DisplayPosition":{"Latitude":53.002945,"Longitude":-1.138845},"MapView":{"TopLeft":{"Latitude":53.0040692,"Longitude":-1.1407131},"BottomRight":{"Latitude":53.0018208,"Longitude":-1.136977}},"Address":{"Label":"171 St Albans Road, Nottingham, NG5 6GT, United Kingdom","Country":"GBR","State":"England","County":"Nottinghamshire","City":"Nottingham","District":"Daybrook","Street":"St Albans Road","HouseNumber":"171","PostalCode":"NG5 6GT","AdditionalData":[{"value":"United Kingdom","key":"CountryName"},{"value":"England","key":"StateName"},{"value":"Nottinghamshire","key":"CountyName"}]},"MapReference":{"ReferenceId":"78794058","Spot":0.5,"SideOfStreet":"left","StateId":"20248595","CountyId":"20344764","CityId":"20356833","DistrictId":"20356873"}}},{"Relevance":1.0,"Distance":22.2,"MatchLevel":"street","MatchQuality":{"Country":1.0,"State":1.0,"County":1.0,"City":1.0,"District":1.0,"Street":[1.0],"PostalCode":1.0},"Location":{"LocationId":"NT_565AV-pLVmVJ4tK30btM4C_l_716549394_R","LocationType":"point","DisplayPosition":{"Latitude":53.00253,"Longitude":-1.13919},"MapView":{"TopLeft":{"Latitude":53.00253,"Longitude":-1.13919},"BottomRight":{"Latitude":53.0023,"Longitude":-1.1391}},"Address":{"Label":"Mansfield Road, Nottingham, NG5 6, United Kingdom","Country":"GBR","State":"England","County":"Nottinghamshire","City":"Nottingham","District":"Daybrook","Street":"Mansfield Road","PostalCode":"NG5 6","AdditionalData":[{"value":"United Kingdom","key":"CountryName"},{"value":"England","key":"StateName"},{"value":"Nottinghamshire","key":"CountyName"}]},"MapReference":{"ReferenceId":"716549394","Spot":1.0,"SideOfStreet":"right","StateId":"20248595","CountyId":"20344764","CityId":"20356833","DistrictId":"20356873"}}},{"Relevance":1.0,"Distance":23.0,"MatchLevel":"houseNumber","MatchQuality":{"Country":1.0,"State":1.0,"County":1.0,"City":1.0,"District":1.0,"Street":[1.0],"HouseNumber":1.0,"PostalCode":1.0},"MatchType":"interpolated","Location":{"LocationId":"NT_IJ4H6uVAwxnE2HyZRhwUEC_l_26857412_L_xkTO","LocationType":"point","DisplayPosition":{"Latitude":53.0028918,"Longitude":-1.1393508},"MapView":{"TopLeft":{"Latitude":53.0040159,"Longitude":-1.1412188},"BottomRight":{"Latitude":53.0017676,"Longitude":-1.1374827}},"Address":{"Label":"199 Mansfield Road, Nottingham, NG5 6GZ, United Kingdom","Country":"GBR","State":"England","County":"Nottinghamshire","City":"Nottingham","District":"Daybrook","Street":"Mansfield Road","HouseNumber":"199","PostalCode":"NG5 6GZ","AdditionalData":[{"value":"United Kingdom","key":"CountryName"},{"value":"England","key":"StateName"},{"value":"Nottinghamshire","key":"CountyName"}]},"MapReference":{"ReferenceId":"26857412","Spot":0.56,"SideOfStreet":"left","StateId":"20248595","CountyId":"20344764","CityId":"20356833","DistrictId":"20356873"}}},{"Relevance":1.0,"Distance":26.7,"MatchLevel":"street","MatchQuality":{"Country":1.0,"State":1.0,"County":1.0,"City":1.0,"District":1.0,"Street":[1.0],"PostalCode":1.0},"Location":{"LocationId":"NT_VQSq1p4iNM1.n1HEEjzmVB_l_78794059_L","LocationType":"point","DisplayPosition":{"Latitude":53.002963,"Longitude":-1.1390622},"MapView":{"TopLeft":{"Latitude":53.00301,"Longitude":-1.13924},"BottomRight":{"Latitude":53.00295,"Longitude":-1.139}},"Address":{"Label":"St Albans Road, Nottingham, NG5 6, United Kingdom","Country":"GBR","State":"England","County":"Nottinghamshire","City":"Nottingham","District":"Daybrook","Street":"St Albans Road","PostalCode":"NG5 6","AdditionalData":[{"value":"United Kingdom","key":"CountryName"},{"value":"England","key":"StateName"},{"value":"Nottinghamshire","key":"CountyName"}]},"MapReference":{"ReferenceId":"78794059","Spot":0.26,"SideOfStreet":"left","StateId":"20248595","CountyId":"20344764","CityId":"20356833","DistrictId":"20356873"}}}]}]}}