{"Response":{"MetaInfo":{"Timestamp":"2020-03-28T09:51:22.617+0000","NextPageInformation":"2"},"View":[{"_type":"SearchResultsViewType","ViewId":0,"Result":[{"Relevance":1.0,"Distance":0.0,"Direction":0.0,"MatchLevel":"district","MatchQuality":{"Country":1.0,"State":1.0,"County":1.0,"City":1.0,"District":1.0,"PostalCode":1.0},"Location":{"LocationId":"NT_BFgoiLY1g5cgKS9V2ghTzB","LocationType":"point","DisplayPosition":{"Latitude":53.0352335,"Longitude":-1.2063672},"MapView":{"TopLeft":{"Latitude":53.0518,"Longitude":-1.24181},"BottomRight":{"Latitude":53.01118,"Longitude":-1.18269}},"Address":{"Label":"Hucknall, Nottingham, England, United Kingdom","Country":"GBR","State":"England","County":"Nottinghamshire","City":"Nottingham","District":"Hucknall","PostalCode":"NG15 6","AdditionalData":[{"value":"United Kingdom","key":"CountryName"},{"value":"England","key":"StateName"},{"value":"Nottinghamshire","key":"CountyName"}]},"MapReference":{"ReferenceId":"26299464","SideOfStreet":"neither","StateId":"20248595","CountyId":"20344764","CityId":"20356833","DistrictId":"20356893"}}},{"Relevance":1.0,"Distance":15.1,"MatchLevel":"houseNumber","MatchQuality":{"Country":1.0,"State":1.0,"County":1.0,"City":1.0,"District":1.0,"Street":[1.0],"HouseNumber":1.0,"PostalCode":1.0},"MatchType":"interpolated","Location":{"LocationId":"NT_74m3Lv9.TY7SvFz-nJ2p.D_l_26279296_L_xMD","LocationType":"point","DisplayPosition":{"Latitude":53.0351029,"Longitude":-1.2064272},"MapView":{"TopLeft":{"Latitude":53.036227,"Longitude":-1.2082966},"BottomRight":{"Latitude":53.0339787,"Longitude":-1.2045577}},"Address":{"Label":"13 Mosley Street, Nottingham, NG15 7, United Kingdom","Country":"GBR","State":"England","County":"Nottinghamshire","City":"Nottingham","District":"Hucknall","Street":"Mosley Street","HouseNumber":"13","PostalCode":"NG15 7","AdditionalData":[{"value":"United Kingdom","key":"CountryName"},{"value":"England","key":"StateName"},{"value":"Nottinghamshire","key":"CountyName"}]},"MapReference":{"ReferenceId":"26279296","Spot":0.7,"SideOfStreet":"left","StateId":"20248595","CountyId":"20344764","CityId":"20356833","DistrictId":"20356893"}}},{"Relevance":1.0,"Distance":18.9,"MatchLevel":"street","MatchQuality":{"Country":1.0,"State":1.0,"County":1.0,"City":1.0,"District":1.0,"Street":[1.0],"PostalCode":1.0},"Location":{"LocationId":"NT_74m3Lv9.TY7SvFz-nJ2p.D_l_26279277_R","LocationType":"point","DisplayPosition":{"Latitude":53.03524,"Longitude":-1.20665},"MapView":{"TopLeft":{"Latitude":53.03539,"Longitude":-1.20732},"BottomRight":{"Latitude":53.03524,"Longitude":-1.20665}},"Address":{"Label":"Mosley Street, Nottingham, NG15 7, United Kingdom","Country":"GBR","State":"England","County":"Nottinghamshire","City":"Nottingham","District":"Hucknall","Street":"Mosley Street","PostalCode":"NG15 7","AdditionalData":[{"value":"United Kingdom","key":"CountryName"},{"value":"England","key":"StateName"},{"value":"Nottinghamshire","key":"CountyName"}]},"MapReference":{"ReferenceId":"26279277","Spot":0.0,"SideOfStreet":"right","StateId":"20248595","CountyId":"20344764","CityId":"20356833","DistrictId":"20356893"}}},{"Relevance":1.0,"Distance":19.4,"MatchLevel":"street","MatchQuality":{"Country":1.0,"State":1.0,"County":1.0,"City":1.0,"District":1.0,"Street":[1.0],"PostalCode":1.0},"Location":{"LocationId":"NT_ItFywD0.F8qV3.1X8UAqHD_l_26279276_R","LocationType":"point","DisplayPosition":{"Latitude":53.0353752,"Longitude":-1.2065373},"MapView":{"TopLeft":{"Latitude":53.03566,"Longitude":-1.20665},"BottomRight":{"Latitude":53.03524,"Longitude":-1.2063}},"Address":{"Label":"Belle Isle Road, Nottingham, NG15 7, United Kingdom","Country":"GBR","State":"England","County":"Nottinghamshire","City":"Nottingham","District":"Hucknall","Street":"Belle Isle Road","PostalCode":"NG15 7","AdditionalData":[{"value":"United Kingdom","key":"CountryName"},{"value":"England","key":"StateName"},{"value":"Nottinghamshire","key":"CountyName"}]},"MapReference":{"ReferenceId":"26279276","Spot":0.32,"SideOfStreet":"right","StateId":"20248595","CountyId":"20344764","CityId":"20356833","DistrictId":"20356893"}}},{"Relevance":1.0,"Distance":24.9,"MatchLevel":"postalCode","MatchQuality":{"PostalCode":1.0},"MatchType":"interpolated","Location":{"LocationId":"NT_74m3Lv9.TY7SvFz-nJ2p.D_l_26279296_L_xMD","LocationType":"point","DisplayPosition":{"Latitude":53.03501,"Longitude":-1.20635},"MapView":{"TopLeft":{"Latitude":53.0440032,"Longitude":-1.2213056},"BottomRight":{"Latitude":53.0260168,"Longitude":-1.1913944}},"Address":{"Label":"NG15 7JG, Nottingham, England, United Kingdom","Country":"GBR","State":"England","County":"Nottinghamshire","City":"Nottingham","PostalCode":"NG15 7JG","AdditionalData":[{"value":"United Kingdom","key":"CountryName"},{"value":"England","key":"StateName"},{"value":"Nottinghamshire","key":"CountyName"}]},"MapReference":{"ReferenceId":"26279296","Spot":0.7,"SideOfStreet":"neither","StateId":"20248595","CountyId":"20344764","CityId":"20356833"}}},{"Relevance":1.0,"Distance":38.9,"MatchLevel":"postalCode","MatchQuality":{"PostalCode":1.0},"MatchType":"interpolated","Location":{"LocationId":"NT_NV-p73LDUWZ2ThONuQLC7A_l_26279281_R_yQD","LocationType":"point","DisplayPosition":{"Latitude":53.0355,"Longitude":-1.20599},"MapView":{"TopLeft":{"Latitude":53.0444932,"Longitude":-1.2209458},"BottomRight":{"Latitude":53.0265068,"Longitude":-1.1910342}},"Address":{"Label":"NG15 7JE, Nottingham, England, United Kingdom","Country":"GBR","State":"England","County":"Nottinghamshire","City":"Nottingham","PostalCode":"NG15 7JE","AdditionalData":[{"value":"United Kingdom","key":"CountryName"},{"value":"England","key":"StateName"},{"value":"Nottinghamshire","key":"CountyName"}]},"MapReference":{"ReferenceId":"26279281","Spot":0.79,"SideOfStreet":"neither","StateId":"20248595","CountyId":"20344764","CityId":"20356833"}}},{"Relevance":1.0,"Distance":43.1,"MatchLevel":"houseNumber","MatchQuality":{"Country":1.0,"State":1.0,"County":1.0,"City":1.0,"District":1.0,"Street":[1.0],"HouseNumber":1.0,"PostalCode":1.0},"MatchType":"interpolated","Location":{"LocationId":"NT_NV-p73LDUWZ2ThONuQLC7A_l_26279281_R_yQD","LocationType":"point","DisplayPosition":{"Latitude":53.03556,"Longitude":-1.20602},"MapView":{"TopLeft":{"Latitude":53.0366842,"Longitude":-1.2078895},"BottomRight":{"Latitude":53.0344359,"Longitude":-1.2041505}},"Address":{"Label":"24 Curtis Street, Nottingham, NG15 7, United Kingdom","Country":"GBR","State":"England","County":"Nottinghamshire","City":"Nottingham","District":"Hucknall","Street":"Curtis Street","HouseNumber":"24","PostalCode":"NG15 7","AdditionalData":[{"value":"United Kingdom","key":"CountryName"},{"value":"England","key":"StateName"},{"value":"Nottinghamshire","key":"CountyName"}]},"MapReference":{"ReferenceId":"26279281","Spot":0.79,"SideOfStreet":"right","StateId":"20248595","CountyId":"20344764","CityId":"20356833","DistrictId":"20356893"}}},{"Relevance":1.0,"Distance":46.9,"MatchLevel":"houseNumber","MatchQuality":{"Country":1.0,"State":1.0,"County":1.0,"City":1.0,"District":1.0,"Street":[1.0],"HouseNumber":1.0,"PostalCode":1.0},"MatchType":"interpolated","Location":{"LocationId":"NT_kFhUZesZ-ZoVlw95zTZJ8B_l_26279295_L_xMDM","LocationType":"point","DisplayPosition":{"Latitude":53.0348701,"Longitude":-1.2057199},"MapView":{"TopLeft":{"Latitude":53.0359942,"Longitude":-1.2075893},"BottomRight":{"Latitude":53.0337459,"Longitude":-1.2038504}},"Address":{"Label":"130 Watnall Road, Nottingham, NG15 7, United Kingdom","Country":"GBR","State":"England","County":"Nottinghamshire","City":"Nottingham","District":"Hucknall","Street":"Watnall Road","HouseNumber":"130","PostalCode":"NG15 7","AdditionalData":[{"value":"United Kingdom","key":"CountryName"},{"value":"England","key":"StateName"},{"value":"Nottinghamshire","key":"CountyName"}]},"MapReference":{"ReferenceId":"26279295","Spot":0.19,"SideOfStreet":"left","StateId":"20248595","CountyId":"20344764","CityId":"20356833","DistrictId":"20356893"}}},{"Relevance":1.0,"Distance":47.6,"MatchLevel":"street","MatchQuality":{"Country":1.0,"State":1.0,"County":1.0,"City":1.0,"District":1.0,"Street":[1.0],"PostalCode":1.0},"Location":{"LocationId":"NT_ItFywD0.F8qV3.1X8UAqHD_l_26279247_R","LocationType":"point","DisplayPosition":{"Latitude":53.03566,"Longitude":-1.2063},"MapView":{"TopLeft":{"Latitude":53.03662,"Longitude":-1.2063},"BottomRight":{"Latitude":53.03566,"Longitude":-1.20574}},"Address":{"Label":"Belle Isle Road, Nottingham, NG15 7, United Kingdom","Country":"GBR","State":"England","County":"Nottinghamshire","City":"Nottingham","District":"Hucknall","Street":"Belle Isle Road","PostalCode":"NG15 7","AdditionalData":[{"value":"United Kingdom","key":"CountryName"},{"value":"England","key":"StateName"},{"value":"Nottinghamshire","key":"CountyName"}]},"MapReference":{"ReferenceId":"26279247","Spot":0.0,"SideOfStreet":"right","StateId":"20248595","CountyId":"20344764","CityId":"20356833","DistrictId":"20356893"}}},{"Relevance":1.0,"Distance":50.0,"MatchLevel":"houseNumber","MatchQuality":{"Country":1.0,"State":1.0,"County":1.0,"City":1.0,"District":1.0,"Street":[1.0],"HouseNumber":1.0,"PostalCode":1.0},"MatchType":"interpolated","Location":{"LocationId":"NT_kFhUZesZ-ZoVlw95zTZJ8B_l_26279313_L_xMjM","LocationType":"point","DisplayPosition":{"Latitude":53.0346621,"Longitude":-1.2061659},"MapView":{"TopLeft":{"Latitude":53.0357862,"Longitude":-1.2080353},"BottomRight":{"Latitude":53.0335379,"Longitude":-1.2042965}},"Address":{"Label":"132 Watnall Road, Nottingham, NG15 7NH, United Kingdom","Country":"GBR","State":"England","County":"Nottinghamshire","City":"Nottingham","District":"Hucknall","Street":"Watnall Road","HouseNumber":"132","PostalCode":"NG15 7NH","AdditionalData":[{"value":"United Kingdom","key":"CountryName"},{"value":"England","key":"StateName"},{"value":"Nottinghamshire","key":"CountyName"}]},"MapReference":{"ReferenceId":"26279313","Spot":0.79,"SideOfStreet":"left","StateId":"20248595","CountyId":"20344764","CityId":"20356833","DistrictId":"20356893"}}}]}]}}