{"Response":{"MetaInfo":{"Timestamp":"2020-03-28T10:47:22.698+0000","NextPageInformation":"2"},"View":[{"_type":"SearchResultsViewType","ViewId":0,"Result":[{"Relevance":1.0,"Distance":0.0,"Direction":0.0,"MatchLevel":"district","MatchQuality":{"Country":1.0,"State":1.0,"County":1.0,"City":1.0,"District":1.0,"PostalCode":1.0},"Location":{"LocationId":"NT_Pz2rS264kyM9EgBxooNKSD","LocationType":"point","DisplayPosition":{"Latitude":53.0160145,"Longitude":20.8750182},"MapView":{"TopLeft":{"Latitude":53.04838,"Longitude":20.84399},"BottomRight":{"Latitude":52.98884,"Longitude":20.92562}},"Address":{"Label":"Przasnysz, Woj. Mazowieckie, Polska","Country":"POL","State":"Woj. Mazowieckie","County":"Powiat Przasnyski","City":"Przasnysz","District":"Przasnysz","PostalCode":"06-300","AdditionalData":[{"value":"Polska","key":"CountryName"},{"value":"Woj. Mazowieckie","key":"StateName"},{"value":"Powiat Przasnyski","key":"CountyName"}]},"MapReference":{"ReferenceId":"901342633","SideOfStreet":"neither","CountryId":"20624059","StateId":"20627182","CountyId":"20627598","CityId":"20688998","DistrictId":"20688999"}}},{"Relevance":1.0,"Distance":33.2,"MatchLevel":"houseNumber","MatchQuality":{"Country":1.0,"State":1.0,"County":1.0,"City":1.0,"District":1.0,"Street":[1.0],"HouseNumber":1.0,"PostalCode":1.0},"MatchType":"interpolated","Location":{"LocationId":"NT_b9Ow9mpgWnTKj1qVe7Oc8D_2MD","LocationType":"point","DisplayPosition":{"Latitude":53.01646,"Longitude":20.87526},"MapView":{"TopLeft":{"Latitude":53.0175842,"Longitude":20.8733914},"BottomRight":{"Latitude":53.0153358,"Longitude":20.8771286}},"Address":{"Label":"ulica Mazowiecka 63, 06-300 Przasnysz, Polska","Country":"POL","State":"Woj. Mazowieckie","County":"Powiat Przasnyski","City":"Przasnysz","District":"Przasnysz","Street":"ulica Mazowiecka","HouseNumber":"63","PostalCode":"06-300","AdditionalData":[{"value":"Polska","key":"CountryName"},{"value":"Woj. Mazowieckie","key":"StateName"},{"value":"Powiat Przasnyski","key":"CountyName"}]},"MapReference":{"ReferenceId":"974550986","Spot":0.1,"SideOfStreet":"right","CountryId":"20624059","StateId":"20627182","CountyId":"20627598","CityId":"20688998","DistrictId":"20688999","AddressId":"703655450","RoadLinkId":"310131982"}}},{"Relevance":1.0,"Distance":39.6,"MatchLevel":"houseNumber","MatchQuality":{"Country":1.0,"State":1.0,"County":1.0,"City":1.0,"District":1.0,"Street":[1.0],"HouseNumber":1.0,"PostalCode":1.0},"MatchType":"interpolated","Location":{"LocationId":"NT_HZGpaEJzB6EYEwwp9sig3D_xID","LocationType":"point","DisplayPosition":{"Latitude":53.01552,"Longitude":20.87493},"MapView":{"TopLeft":{"Latitude":53.0166442,"Longitude":20.8730614},"BottomRight":{"Latitude":53.0143958,"Longitude":20.8767986}},"Address":{"Label":"ulica Obrońców Westerplatte 12, 06-300 Przasnysz, Polska","Country":"POL","State":"Woj. Mazowieckie","County":"Powiat Przasnyski","City":"Przasnysz","District":"Przasnysz","Street":"ulica Obrońców Westerplatte","HouseNumber":"12","PostalCode":"06-300","AdditionalData":[{"value":"Polska","key":"CountryName"},{"value":"Woj. Mazowieckie","key":"StateName"},{"value":"Powiat Przasnyski","key":"CountyName"}]},"MapReference":{"ReferenceId":"762050818","Spot":0.56,"SideOfStreet":"right","CountryId":"20624059","StateId":"20627182","CountyId":"20627598","CityId":"20688998","DistrictId":"20688999","AddressId":"211072860","RoadLinkId":"156266374"}}},{"Relevance":1.0,"Distance":52.7,"MatchLevel":"houseNumber","MatchQuality":{"Country":1.0,"State":1.0,"County":1.0,"City":1.0,"District":1.0,"Street":[1.0],"HouseNumber":1.0,"PostalCode":1.0},"MatchType":"interpolated","Location":{"LocationId":"NT_b9Ow9mpgWnTKj1qVe7Oc8D_2UD","LocationType":"point","DisplayPosition":{"Latitude":53.01629,"Longitude":20.87426},"MapView":{"TopLeft":{"Latitude":53.0174142,"Longitude":20.8723914},"BottomRight":{"Latitude":53.0151658,"Longitude":20.8761286}},"Address":{"Label":"ulica Mazowiecka 65, 06-300 Przasnysz, Polska","Country":"POL","State":"Woj. Mazowieckie","County":"Powiat Przasnyski","City":"Przasnysz","District":"Przasnysz","Street":"ulica Mazowiecka","HouseNumber":"65","PostalCode":"06-300","AdditionalData":[{"value":"Polska","key":"CountryName"},{"value":"Woj. Mazowieckie","key":"StateName"},{"value":"Powiat Przasnyski","key":"CountyName"}]},"MapReference":{"ReferenceId":"762050792","Spot":0.58,"SideOfStreet":"right","CountryId":"20624059","StateId":"20627182","CountyId":"20627598","CityId":"20688998","DistrictId":"20688999","AddressId":"701818547","RoadLinkId":"156266344"}}},{"Relevance":1.0,"Distance":68.2,"MatchLevel":"houseNumber","MatchQuality":{"Country":1.0,"State":1.0,"County":1.0,"City":1.0,"District":1.0,"Street":[1.0],"HouseNumber":1.0,"PostalCode":1.0},"MatchType":"interpolated","Location":{"LocationId":"NT_sz2mFc3HPmBu3YiBV7DE7D_2QD","LocationType":"point","DisplayPosition":{"Latitude":53.01655,"Longitude":20.87452},"MapView":{"TopLeft":{"Latitude":53.0176742,"Longitude":20.8726513},"BottomRight":{"Latitude":53.0154258,"Longitude":20.8763887}},"Address":{"Label":"ulica Gdańska 64, 06-300 Przasnysz, Polska","Country":"POL","State":"Woj. Mazowieckie","County":"Powiat Przasnyski","City":"Przasnysz","District":"Przasnysz","Street":"ulica Gdańska","HouseNumber":"64","PostalCode":"06-300","AdditionalData":[{"value":"Polska","key":"CountryName"},{"value":"Woj. Mazowieckie","key":"StateName"},{"value":"Powiat Przasnyski","key":"CountyName"}]},"MapReference":{"ReferenceId":"1175730842","Spot":0.78,"SideOfStreet":"right","CountryId":"20624059","StateId":"20627182","CountyId":"20627598","CityId":"20688998","DistrictId":"20688999","AddressId":"732126896","RoadLinkId":"483235204"}}},{"Relevance":1.0,"Distance":77.3,"MatchLevel":"street","MatchQuality":{"Country":1.0,"State":1.0,"County":1.0,"City":1.0,"District":1.0,"PostalCode":1.0},"Location":{"LocationId":"NT_Km9Cbk5FruRH0yoW.CibWB_l_1175730843_R","LocationType":"point","DisplayPosition":{"Latitude":53.01659,"Longitude":20.87437},"MapView":{"TopLeft":{"Latitude":53.01794,"Longitude":20.87437},"BottomRight":{"Latitude":53.01659,"Longitude":20.87458}},"Address":{"Label":"06-300 Przasnysz, Polska","Country":"POL","State":"Woj. Mazowieckie","County":"Powiat Przasnyski","City":"Przasnysz","District":"Przasnysz","PostalCode":"06-300","AdditionalData":[{"value":"Polska","key":"CountryName"},{"value":"Woj. Mazowieckie","key":"StateName"},{"value":"Powiat Przasnyski","key":"CountyName"}]},"MapReference":{"ReferenceId":"1175730843","Spot":0.0,"SideOfStreet":"right","CountryId":"20624059","StateId":"20627182","CountyId":"20627598","CityId":"20688998","DistrictId":"20688999"}}},{"Relevance":1.0,"Distance":93.6,"MatchLevel":"houseNumber","MatchQuality":{"Country":1.0,"State":1.0,"County":1.0,"City":1.0,"District":1.0,"Street":[1.0],"HouseNumber":1.0,"PostalCode":1.0},"MatchType":"interpolated","Location":{"LocationId":"NT_sz2mFc3HPmBu3YiBV7DE7D_ygD","LocationType":"point","DisplayPosition":{"Latitude":53.01665,"Longitude":20.8741},"MapView":{"TopLeft":{"Latitude":53.0177742,"Longitude":20.8722313},"BottomRight":{"Latitude":53.0155258,"Longitude":20.8759687}},"Address":{"Label":"ulica Gdańska 28, 06-300 Przasnysz, Polska","Country":"POL","State":"Woj. Mazowieckie","County":"Powiat Przasnyski","City":"Przasnysz","District":"Przasnysz","Street":"ulica Gdańska","HouseNumber":"28","PostalCode":"06-300","AdditionalData":[{"value":"Polska","key":"CountryName"},{"value":"Woj. Mazowieckie","key":"StateName"},{"value":"Powiat Przasnyski","key":"CountyName"}]},"MapReference":{"ReferenceId":"1175730844","Spot":0.18,"SideOfStreet":"left","CountryId":"20624059","StateId":"20627182","CountyId":"20627598","CityId":"20688998","DistrictId":"20688999","AddressId":"703634967","RoadLinkId":"483235206"}}},{"Relevance":1.0,"Distance":94.8,"MatchLevel":"street","MatchQuality":{"Country":1.0,"State":1.0,"County":1.0,"City":1.0,"District":1.0,"Street":[1.0],"PostalCode":1.0},"Location":{"LocationId":"NT_EjYTnh1dNEGA2Sy37hTMjD_l_762050820_L","LocationType":"point","DisplayPosition":{"Latitude":53.01543,"Longitude":20.87605},"MapView":{"TopLeft":{"Latitude":53.01543,"Longitude":20.87568},"BottomRight":{"Latitude":53.01473,"Longitude":20.87605}},"Address":{"Label":"ulica Polna, 06-300 Przasnysz, Polska","Country":"POL","State":"Woj. Mazowieckie","County":"Powiat Przasnyski","City":"Przasnysz","District":"Przasnysz","Street":"ulica Polna","PostalCode":"06-300","AdditionalData":[{"value":"Polska","key":"CountryName"},{"value":"Woj. Mazowieckie","key":"StateName"},{"value":"Powiat Przasnyski","key":"CountyName"}]},"MapReference":{"ReferenceId":"762050820","Spot":1.0,"SideOfStreet":"left","CountryId":"20624059","StateId":"20627182","CountyId":"20627598","CityId":"20688998","DistrictId":"20688999"}}},{"Relevance":1.0,"Distance":104.1,"MatchLevel":"houseNumber","MatchQuality":{"Country":1.0,"State":1.0,"County":1.0,"City":1.0,"District":1.0,"Street":[1.0],"HouseNumber":1.0,"PostalCode":1.0},"MatchType":"interpolated","Location":{"LocationId":"NT_EjYTnh1dNEGA2Sy37hTMjD_yIE","LocationType":"point","DisplayPosition":{"Latitude":53.01606,"Longitude":20.87677},"MapView":{"TopLeft":{"Latitude":53.0171842,"Longitude":20.8749014},"BottomRight":{"Latitude":53.0149358,"Longitude":20.8786386}},"Address":{"Label":"ulica Polna 2B, 06-300 Przasnysz, Polska","Country":"POL","State":"Woj. Mazowieckie","County":"Powiat Przasnyski","City":"Przasnysz","District":"Przasnysz","Street":"ulica Polna","HouseNumber":"2B","PostalCode":"06-300","AdditionalData":[{"value":"Polska","key":"CountryName"},{"value":"Woj. Mazowieckie","key":"StateName"},{"value":"Powiat Przasnyski","key":"CountyName"}]},"MapReference":{"ReferenceId":"762050817","Spot":0.56,"SideOfStreet":"left","CountryId":"20624059","StateId":"20627182","CountyId":"20627598","CityId":"20688998","DistrictId":"20688999","AddressId":"701818568","RoadLinkId":"156266373"}}},{"Relevance":1.0,"Distance":135.1,"MatchLevel":"houseNumber","MatchQuality":{"Country":1.0,"State":1.0,"County":1.0,"City":1.0,"District":1.0,"Street":[1.0],"HouseNumber":1.0,"PostalCode":1.0},"MatchType":"interpolated","Location":{"LocationId":"NT_LFFOPpqVmHLrDMfmCnxl2D_3AzQ","LocationType":"point","DisplayPosition":{"Latitude":53.01448,"Longitude":20.87446},"MapView":{"TopLeft":{"Latitude":53.0156042,"Longitude":20.8725914},"BottomRight":{"Latitude":53.0133558,"Longitude":20.8763286}},"Address":{"Label":"ulica Kolejowa 70C, 06-300 Przasnysz, Polska","Country":"POL","State":"Woj. Mazowieckie","County":"Powiat Przasnyski","City":"Przasnysz","District":"Przasnysz","Street":"ulica Kolejowa","HouseNumber":"70C","PostalCode":"06-300","AdditionalData":[{"value":"Polska","key":"CountryName"},{"value":"Woj. Mazowieckie","key":"StateName"},{"value":"Powiat Przasnyski","key":"CountyName"}]},"MapReference":{"ReferenceId":"779688690","Spot":0.29,"SideOfStreet":"right","CountryId":"20624059","StateId":"20627182","CountyId":"20627598","CityId":"20688998","DistrictId":"20688999","AddressId":"209568329","RoadLinkId":"172982049"}}}]}]}}