{"Response":{"MetaInfo":{"Timestamp":"2020-03-28T10:36:26.190+0000","NextPageInformation":"2"},"View":[{"_type":"SearchResultsViewType","ViewId":0,"Result":[{"Relevance":1.0,"Distance":0.0,"Direction":0.0,"MatchLevel":"district","MatchQuality":{"Country":1.0,"State":1.0,"County":1.0,"City":1.0,"District":1.0,"PostalCode":1.0},"Location":{"LocationId":"NT_gPcmqcvIQZ2acNkcCJEv2C","LocationType":"point","DisplayPosition":{"Latitude":53.0744376,"Longitude":-0.8107218},"MapView":{"TopLeft":{"Latitude":53.09573,"Longitude":-0.83092},"BottomRight":{"Latitude":53.0506,"Longitude":-0.78302}},"Address":{"Label":"Newark, England, United Kingdom","Country":"GBR","State":"England","County":"Nottinghamshire","City":"Newark","District":"Newark","PostalCode":"NG24 1","AdditionalData":[{"value":"United Kingdom","key":"CountryName"},{"value":"England","key":"StateName"},{"value":"Nottinghamshire","key":"CountyName"}]},"MapReference":{"ReferenceId":"1225916071","SideOfStreet":"neither","StateId":"20248595","CountyId":"20344764","CityId":"20356737","DistrictId":"20356738"}}},{"Relevance":1.0,"Distance":7.1,"MatchLevel":"street","MatchQuality":{"Country":1.0,"State":1.0,"County":1.0,"City":1.0,"District":1.0,"Street":[1.0],"PostalCode":1.0},"Location":{"LocationId":"NT_hSyZ1RD9MKAU-tQr0usCWC_l_1050229907_L","LocationType":"point","DisplayPosition":{"Latitude":53.0745,"Longitude":-0.8107},"MapView":{"TopLeft":{"Latitude":53.0745,"Longitude":-0.8107},"BottomRight":{"Latitude":53.07437,"Longitude":-0.8098}},"Address":{"Label":"Robin Hood Walk, Newark, NG24 1, United Kingdom","Country":"GBR","State":"England","County":"Nottinghamshire","City":"Newark","District":"Newark","Street":"Robin Hood Walk","PostalCode":"NG24 1","AdditionalData":[{"value":"United Kingdom","key":"CountryName"},{"value":"England","key":"StateName"},{"value":"Nottinghamshire","key":"CountyName"}]},"MapReference":{"ReferenceId":"1050229907","Spot":1.0,"SideOfStreet":"left","StateId":"20248595","CountyId":"20344764","CityId":"20356737","DistrictId":"20356738"}}},{"Relevance":1.0,"Distance":12.7,"MatchLevel":"postalCode","MatchQuality":{"PostalCode":1.0},"MatchType":"interpolated","Location":{"LocationId":"NT_lab2Iqeuy9K.1IqHwnLC2D_l_1166405204_L_yMD","LocationType":"point","DisplayPosition":{"Latitude":53.07455,"Longitude":-0.81069},"MapView":{"TopLeft":{"Latitude":53.0835432,"Longitude":-0.8256593},"BottomRight":{"Latitude":53.0655568,"Longitude":-0.7957207}},"Address":{"Label":"NG24 1XH, Newark, England, United Kingdom","Country":"GBR","State":"England","County":"Nottinghamshire","City":"Newark","PostalCode":"NG24 1XH","AdditionalData":[{"value":"United Kingdom","key":"CountryName"},{"value":"England","key":"StateName"},{"value":"Nottinghamshire","key":"CountyName"}]},"MapReference":{"ReferenceId":"1166405204","Spot":0.56,"SideOfStreet":"neither","StateId":"20248595","CountyId":"20344764","CityId":"20356737"}}},{"Relevance":1.0,"Distance":24.3,"MatchLevel":"houseNumber","MatchQuality":{"Country":1.0,"State":1.0,"County":1.0,"City":1.0,"District":1.0,"Street":[1.0],"HouseNumber":1.0,"PostalCode":1.0},"MatchType":"interpolated","Location":{"LocationId":"NT_5lfd2Jh1.xH5clWMvZJaoA_l_1226061285_L_0A","LocationType":"point","DisplayPosition":{"Latitude":53.074133,"Longitude":-0.8104627},"MapView":{"TopLeft":{"Latitude":53.0752571,"Longitude":-0.8123338},"BottomRight":{"Latitude":53.0730088,"Longitude":-0.8085915}},"Address":{"Label":"4 Portland Street, Newark, NG24 4XG, United Kingdom","Country":"GBR","State":"England","County":"Nottinghamshire","City":"Newark","District":"Newark","Street":"Portland Street","HouseNumber":"4","PostalCode":"NG24 4XG","AdditionalData":[{"value":"United Kingdom","key":"CountryName"},{"value":"England","key":"StateName"},{"value":"Nottinghamshire","key":"CountyName"}]},"MapReference":{"ReferenceId":"1226061285","Spot":0.54,"SideOfStreet":"left","StateId":"20248595","CountyId":"20344764","CityId":"20356737","DistrictId":"20356738"}}},{"Relevance":1.0,"Distance":29.4,"MatchLevel":"houseNumber","MatchQuality":{"Country":1.0,"State":1.0,"County":1.0,"City":1.0,"District":1.0,"Street":[1.0],"HouseNumber":1.0,"PostalCode":1.0},"MatchType":"interpolated","Location":{"LocationId":"NT_5lfd2Jh1.xH5clWMvZJaoA_l_1226061284_L_2A","LocationType":"point","DisplayPosition":{"Latitude":53.07405,"Longitude":-0.81081},"MapView":{"TopLeft":{"Latitude":53.0751742,"Longitude":-0.8126811},"BottomRight":{"Latitude":53.0729259,"Longitude":-0.8089388}},"Address":{"Label":"6 Portland Street, Newark, NG24 4, United Kingdom","Country":"GBR","State":"England","County":"Nottinghamshire","City":"Newark","District":"Newark","Street":"Portland Street","HouseNumber":"6","PostalCode":"NG24 4","AdditionalData":[{"value":"United Kingdom","key":"CountryName"},{"value":"England","key":"StateName"},{"value":"Nottinghamshire","key":"CountyName"}]},"MapReference":{"ReferenceId":"1226061284","Spot":0.5,"SideOfStreet":"left","StateId":"20248595","CountyId":"20344764","CityId":"20356737","DistrictId":"20356738"}}},{"Relevance":1.0,"Distance":30.9,"MatchLevel":"street","MatchQuality":{"Country":1.0,"State":1.0,"County":1.0,"City":1.0,"District":1.0,"PostalCode":1.0},"Location":{"LocationId":"NT_f-X2GmgUKJLVTIeGQ7z71D_l_1004347186_R","LocationType":"point","DisplayPosition":{"Latitude":53.07423,"Longitude":-0.81103},"MapView":{"TopLeft":{"Latitude":53.07423,"Longitude":-0.81103},"BottomRight":{"Latitude":53.07401,"Longitude":-0.81098}},"Address":{"Label":"Newark, NG24 4, United Kingdom","Country":"GBR","State":"England","County":"Nottinghamshire","City":"Newark","District":"Newark","PostalCode":"NG24 4","AdditionalData":[{"value":"United Kingdom","key":"CountryName"},{"value":"England","key":"StateName"},{"value":"Nottinghamshire","key":"CountyName"}]},"MapReference":{"ReferenceId":"1004347186","Spot":1.0,"SideOfStreet":"right","StateId":"20248595","CountyId":"20344764","CityId":"20356737","DistrictId":"20356738"}}},{"Relevance":1.0,"Distance":35.8,"MatchLevel":"houseNumber","MatchQuality":{"Country":1.0,"State":1.0,"County":1.0,"City":1.0,"District":1.0,"Street":[1.0],"HouseNumber":1.0,"PostalCode":1.0},"MatchType":"interpolated","Location":{"LocationId":"NT_lab2Iqeuy9K.1IqHwnLC2D_l_1166405204_L_yMD","LocationType":"point","DisplayPosition":{"Latitude":53.0748441,"Longitude":-0.8104143},"MapView":{"TopLeft":{"Latitude":53.0759682,"Longitude":-0.8122855},"BottomRight":{"Latitude":53.0737199,"Longitude":-0.8085432}},"Address":{"Label":"23 Lombard Street, Newark, NG24 1XG, United Kingdom","Country":"GBR","State":"England","County":"Nottinghamshire","City":"Newark","District":"Newark","Street":"Lombard Street","HouseNumber":"23","PostalCode":"NG24 1XG","AdditionalData":[{"value":"United Kingdom","key":"CountryName"},{"value":"England","key":"StateName"},{"value":"Nottinghamshire","key":"CountyName"}]},"MapReference":{"ReferenceId":"1166405204","Spot":0.56,"SideOfStreet":"left","StateId":"20248595","CountyId":"20344764","CityId":"20356737","DistrictId":"20356738"}}},{"Relevance":1.0,"Distance":39.0,"MatchLevel":"houseNumber","MatchQuality":{"Country":1.0,"State":1.0,"County":1.0,"City":1.0,"District":1.0,"Street":[1.0],"HouseNumber":1.0,"PostalCode":1.0},"MatchType":"interpolated","Location":{"LocationId":"NT_KT2ukLA1j66.SkUx.u0miB_l_26038051_L_yA","LocationType":"point","DisplayPosition":{"Latitude":53.0739848,"Longitude":-0.8104344},"MapView":{"TopLeft":{"Latitude":53.0751089,"Longitude":-0.8123056},"BottomRight":{"Latitude":53.0728606,"Longitude":-0.8085633}},"Address":{"Label":"2 Albert Street, Newark, NG24 4, United Kingdom","Country":"GBR","State":"England","County":"Nottinghamshire","City":"Newark","District":"Newark","Street":"Albert Street","HouseNumber":"2","PostalCode":"NG24 4","AdditionalData":[{"value":"United Kingdom","key":"CountryName"},{"value":"England","key":"StateName"},{"value":"Nottinghamshire","key":"CountyName"}]},"MapReference":{"ReferenceId":"26038051","Spot":0.81,"SideOfStreet":"left","StateId":"20248595","CountyId":"20344764","CityId":"20356737","DistrictId":"20356738"}}},{"Relevance":1.0,"Distance":40.5,"MatchLevel":"street","MatchQuality":{"Country":1.0,"State":1.0,"County":1.0,"City":1.0,"District":1.0,"Street":[1.0],"PostalCode":1.0},"Location":{"LocationId":"NT_EvgWxQQ0PUsispjK3OG85C_l_26862360_L","LocationType":"point","DisplayPosition":{"Latitude":53.07417,"Longitude":-0.81031},"MapView":{"TopLeft":{"Latitude":53.07437,"Longitude":-0.81031},"BottomRight":{"Latitude":53.07417,"Longitude":-0.8098}},"Address":{"Label":"Portland Street, Newark, NG24 1, United Kingdom","Country":"GBR","State":"England","County":"Nottinghamshire","City":"Newark","District":"Newark","Street":"Portland Street","PostalCode":"NG24 1","AdditionalData":[{"value":"United Kingdom","key":"CountryName"},{"value":"England","key":"StateName"},{"value":"Nottinghamshire","key":"CountyName"}]},"MapReference":{"ReferenceId":"26862360","Spot":0.0,"SideOfStreet":"left","StateId":"20248595","CountyId":"20344764","CityId":"20356737","DistrictId":"20356738"}}},{"Relevance":1.0,"Distance":45.9,"MatchLevel":"houseNumber","MatchQuality":{"Country":1.0,"State":1.0,"County":1.0,"City":1.0,"District":1.0,"Street":[1.0],"HouseNumber":1.0,"PostalCode":1.0},"MatchType":"interpolated","Location":{"LocationId":"NT_lab2Iqeuy9K.1IqHwnLC2D_l_1166405205_L_yUD","LocationType":"point","DisplayPosition":{"Latitude":53.07496,"Longitude":-0.81092},"MapView":{"TopLeft":{"Latitude":53.0760842,"Longitude":-0.8127912},"BottomRight":{"Latitude":53.0738359,"Longitude":-0.8090488}},"Address":{"Label":"25 Lombard Street, Newark, NG24 1, United Kingdom","Country":"GBR","State":"England","County":"Nottinghamshire","City":"Newark","District":"Newark","Street":"Lombard Street","HouseNumber":"25","PostalCode":"NG24 1","AdditionalData":[{"value":"United Kingdom","key":"CountryName"},{"value":"England","key":"StateName"},{"value":"Nottinghamshire","key":"CountyName"}]},"MapReference":{"ReferenceId":"1166405205","Spot":0.25,"SideOfStreet":"left","StateId":"20248595","CountyId":"20344764","CityId":"20356737","DistrictId":"20356738"}}}]}]}}