{"Response":{"MetaInfo":{"Timestamp":"2020-03-28T10:10:31.510+0000","NextPageInformation":"2"},"View":[{"_type":"SearchResultsViewType","ViewId":0,"Result":[{"Relevance":1.0,"Distance":0.0,"Direction":0.0,"MatchLevel":"district","MatchQuality":{"Country":1.0,"State":1.0,"County":1.0,"City":1.0,"District":1.0,"PostalCode":1.0},"Location":{"LocationId":"NT_90jZtBNvuljh.ex9ll5DAB","LocationType":"point","DisplayPosition":{"Latitude":53.0101989,"Longitude":-1.1727773},"MapView":{"TopLeft":{"Latitude":53.0187,"Longitude":-1.27314},"BottomRight":{"Latitude":52.90184,"Longitude":-1.05453}},"Address":{"Label":"Nottingham, England, United Kingdom","Country":"GBR","State":"England","County":"Nottinghamshire","City":"Nottingham","District":"Nottingham","PostalCode":"NG1 7","AdditionalData":[{"value":"United Kingdom","key":"CountryName"},{"value":"England","key":"StateName"},{"value":"Nottinghamshire","key":"CountyName"}]},"MapReference":{"ReferenceId":"1239210936","SideOfStreet":"neither","StateId":"20248595","CountyId":"20344764","CityId":"20356833","DistrictId":"20356834"}}},{"Relevance":1.0,"Distance":7.5,"MatchLevel":"street","MatchQuality":{"Country":1.0,"State":1.0,"County":1.0,"City":1.0,"District":1.0,"PostalCode":1.0},"Location":{"LocationId":"NT_ypn4Om38ajeJxL1NHeBP5C_l_1021818266_R","LocationType":"point","DisplayPosition":{"Latitude":53.0102667,"Longitude":-1.1727745},"MapView":{"TopLeft":{"Latitude":53.01038,"Longitude":-1.1731},"BottomRight":{"Latitude":53.01026,"Longitude":-1.17193}},"Address":{"Label":"Nottingham, NG5 5, United Kingdom","Country":"GBR","State":"England","County":"Nottinghamshire","City":"Nottingham","District":"Nottingham","PostalCode":"NG5 5","AdditionalData":[{"value":"United Kingdom","key":"CountryName"},{"value":"England","key":"StateName"},{"value":"Nottinghamshire","key":"CountyName"}]},"MapReference":{"ReferenceId":"1021818266","Spot":0.28,"SideOfStreet":"right","StateId":"20248595","CountyId":"20344764","CityId":"20356833","DistrictId":"20356834"}}},{"Relevance":1.0,"Distance":10.5,"MatchLevel":"houseNumber","MatchQuality":{"Country":1.0,"State":1.0,"County":1.0,"City":1.0,"District":1.0,"Street":[1.0],"HouseNumber":1.0,"PostalCode":1.0},"MatchType":"interpolated","Location":{"LocationId":"NT_l0UBeS.6jm1uePWDSJ5YIB_l_1021818264_R_yUTN","LocationType":"point","DisplayPosition":{"Latitude":53.010165,"Longitude":-1.173115},"MapView":{"TopLeft":{"Latitude":53.0112892,"Longitude":-1.1749834},"BottomRight":{"Latitude":53.0090409,"Longitude":-1.1712466}},"Address":{"Label":"255 Brownlow Drive, Nottingham, NG5 5, United Kingdom","Country":"GBR","State":"England","County":"Nottinghamshire","City":"Nottingham","District":"Nottingham","Street":"Brownlow Drive","HouseNumber":"255","PostalCode":"NG5 5","AdditionalData":[{"value":"United Kingdom","key":"CountryName"},{"value":"England","key":"StateName"},{"value":"Nottinghamshire","key":"CountyName"}]},"MapReference":{"ReferenceId":"1021818264","Spot":0.5,"SideOfStreet":"right","StateId":"20248595","CountyId":"20344764","CityId":"20356833","DistrictId":"20356834"}}},{"Relevance":1.0,"Distance":18.8,"MatchLevel":"houseNumber","MatchQuality":{"Country":1.0,"State":1.0,"County":1.0,"City":1.0,"District":1.0,"Street":[1.0],"HouseNumber":1.0,"PostalCode":1.0},"MatchType":"interpolated","Location":{"LocationId":"NT_EP9Q3yDJhMg3VwZBb9A35D_l_986554112_L_xYD","LocationType":"point","DisplayPosition":{"Latitude":53.01003,"Longitude":-1.17276},"MapView":{"TopLeft":{"Latitude":53.0111542,"Longitude":-1.1746284},"BottomRight":{"Latitude":53.0089058,"Longitude":-1.1708917}},"Address":{"Label":"16 Bestwood Park Drive West, Nottingham, NG5 5, United Kingdom","Country":"GBR","State":"England","County":"Nottinghamshire","City":"Nottingham","District":"Nottingham","Street":"Bestwood Park Drive West","HouseNumber":"16","PostalCode":"NG5 5","AdditionalData":[{"value":"United Kingdom","key":"CountryName"},{"value":"England","key":"StateName"},{"value":"Nottinghamshire","key":"CountyName"}]},"MapReference":{"ReferenceId":"986554112","Spot":0.37,"SideOfStreet":"left","StateId":"20248595","CountyId":"20344764","CityId":"20356833","DistrictId":"20356834"}}},{"Relevance":1.0,"Distance":20.6,"MatchLevel":"houseNumber","MatchQuality":{"Country":1.0,"State":1.0,"County":1.0,"City":1.0,"District":1.0,"Street":[1.0],"HouseNumber":1.0,"PostalCode":1.0},"MatchType":"interpolated","Location":{"LocationId":"NT_l0UBeS.6jm1uePWDSJ5YIB_l_1021818265_R_yUzM","LocationType":"point","DisplayPosition":{"Latitude":53.01041,"Longitude":-1.17308},"MapView":{"TopLeft":{"Latitude":53.0115342,"Longitude":-1.1749484},"BottomRight":{"Latitude":53.0092859,"Longitude":-1.1712116}},"Address":{"Label":"253 Brownlow Drive, Nottingham, NG5 5DF, United Kingdom","Country":"GBR","State":"England","County":"Nottinghamshire","City":"Nottingham","District":"Nottingham","Street":"Brownlow Drive","HouseNumber":"253","PostalCode":"NG5 5DF","AdditionalData":[{"value":"United Kingdom","key":"CountryName"},{"value":"England","key":"StateName"},{"value":"Nottinghamshire","key":"CountyName"}]},"MapReference":{"ReferenceId":"1021818265","Spot":0.18,"SideOfStreet":"right","StateId":"20248595","CountyId":"20344764","CityId":"20356833","DistrictId":"20356834"}}},{"Relevance":1.0,"Distance":26.7,"MatchLevel":"street","MatchQuality":{"Country":1.0,"State":1.0,"County":1.0,"City":1.0,"District":1.0,"PostalCode":1.0},"Location":{"LocationId":"NT_ypn4Om38ajeJxL1NHeBP5C_l_986554113_L","LocationType":"point","DisplayPosition":{"Latitude":53.0099977,"Longitude":-1.1725607},"MapView":{"TopLeft":{"Latitude":53.01002,"Longitude":-1.17664},"BottomRight":{"Latitude":53.00913,"Longitude":-1.17254}},"Address":{"Label":"Nottingham, NG5 5, United Kingdom","Country":"GBR","State":"England","County":"Nottinghamshire","City":"Nottingham","District":"Nottingham","PostalCode":"NG5 5","AdditionalData":[{"value":"United Kingdom","key":"CountryName"},{"value":"England","key":"StateName"},{"value":"Nottinghamshire","key":"CountyName"}]},"MapReference":{"ReferenceId":"986554113","Spot":0.99,"SideOfStreet":"left","StateId":"20248595","CountyId":"20344764","CityId":"20356833","DistrictId":"20356834"}}},{"Relevance":1.0,"Distance":37.9,"MatchLevel":"postalCode","MatchQuality":{"PostalCode":1.0},"MatchType":"interpolated","Location":{"LocationId":"NT_l0UBeS.6jm1uePWDSJ5YIB_l_1021818265_R_yUzM","LocationType":"point","DisplayPosition":{"Latitude":53.01051,"Longitude":-1.17301},"MapView":{"TopLeft":{"Latitude":53.0195032,"Longitude":-1.1879571},"BottomRight":{"Latitude":53.0015168,"Longitude":-1.1580629}},"Address":{"Label":"NG5 5DF, Nottingham, England, United Kingdom","Country":"GBR","State":"England","County":"Nottinghamshire","City":"Nottingham","PostalCode":"NG5 5DF","AdditionalData":[{"value":"United Kingdom","key":"CountryName"},{"value":"England","key":"StateName"},{"value":"Nottinghamshire","key":"CountyName"}]},"MapReference":{"ReferenceId":"1021818265","Spot":0.18,"SideOfStreet":"neither","StateId":"20248595","CountyId":"20344764","CityId":"20356833"}}},{"Relevance":1.0,"Distance":41.7,"MatchLevel":"houseNumber","MatchQuality":{"Country":1.0,"State":1.0,"County":1.0,"City":1.0,"District":1.0,"Street":[1.0],"HouseNumber":1.0,"PostalCode":1.0},"MatchType":"interpolated","Location":{"LocationId":"NT_EP9Q3yDJhMg3VwZBb9A35D_l_26280645_L_ygD","LocationType":"point","DisplayPosition":{"Latitude":53.01005,"Longitude":-1.17335},"MapView":{"TopLeft":{"Latitude":53.0111742,"Longitude":-1.1752184},"BottomRight":{"Latitude":53.0089258,"Longitude":-1.1714817}},"Address":{"Label":"28 Bestwood Park Drive West, Nottingham, NG5 5, United Kingdom","Country":"GBR","State":"England","County":"Nottinghamshire","City":"Nottingham","District":"Nottingham","Street":"Bestwood Park Drive West","HouseNumber":"28","PostalCode":"NG5 5","AdditionalData":[{"value":"United Kingdom","key":"CountryName"},{"value":"England","key":"StateName"},{"value":"Nottinghamshire","key":"CountyName"}]},"MapReference":{"ReferenceId":"26280645","Spot":0.43,"SideOfStreet":"left","StateId":"20248595","CountyId":"20344764","CityId":"20356833","DistrictId":"20356834"}}},{"Relevance":1.0,"Distance":49.2,"MatchLevel":"houseNumber","MatchQuality":{"Country":1.0,"State":1.0,"County":1.0,"City":1.0,"District":1.0,"Street":[1.0],"HouseNumber":1.0,"PostalCode":1.0},"MatchType":"interpolated","Location":{"LocationId":"NT_EP9Q3yDJhMg3VwZBb9A35D_l_1021818254_L_xUD","LocationType":"point","DisplayPosition":{"Latitude":53.01,"Longitude":-1.17212},"MapView":{"TopLeft":{"Latitude":53.0111242,"Longitude":-1.1739884},"BottomRight":{"Latitude":53.0088758,"Longitude":-1.1702516}},"Address":{"Label":"15 Bestwood Park Drive West, Nottingham, NG5 5EL, United Kingdom","Country":"GBR","State":"England","County":"Nottinghamshire","City":"Nottingham","District":"Nottingham","Street":"Bestwood Park Drive West","HouseNumber":"15","PostalCode":"NG5 5EL","AdditionalData":[{"value":"United Kingdom","key":"CountryName"},{"value":"England","key":"StateName"},{"value":"Nottinghamshire","key":"CountyName"}]},"MapReference":{"ReferenceId":"1021818254","Spot":0.7,"SideOfStreet":"left","StateId":"20248595","CountyId":"20344764","CityId":"20356833","DistrictId":"20356834"}}},{"Relevance":1.0,"Distance":59.7,"MatchLevel":"street","MatchQuality":{"Country":1.0,"State":1.0,"County":1.0,"City":1.0,"District":1.0,"Street":[1.0],"PostalCode":1.0},"Location":{"LocationId":"NT_4-DgpE9OxQS4M6KoxGGn9C_l_26795076_R","LocationType":"point","DisplayPosition":{"Latitude":53.01006,"Longitude":-1.17364},"MapView":{"TopLeft":{"Latitude":53.01016,"Longitude":-1.17369},"BottomRight":{"Latitude":53.01006,"Longitude":-1.17364}},"Address":{"Label":"Bestwood Park Drive, Nottingham, NG5 5, United Kingdom","Country":"GBR","State":"England","County":"Nottinghamshire","City":"Nottingham","District":"Nottingham","Street":"Bestwood Park Drive","PostalCode":"NG5 5","AdditionalData":[{"value":"United Kingdom","key":"CountryName"},{"value":"England","key":"StateName"},{"value":"Nottinghamshire","key":"CountyName"}]},"MapReference":{"ReferenceId":"26795076","Spot":0.0,"SideOfStreet":"right","StateId":"20248595","CountyId":"20344764","CityId":"20356833","DistrictId":"20356834"}}}]}]}}