{"Response":{"MetaInfo":{"Timestamp":"2020-03-28T10:10:21.269+0000","NextPageInformation":"2"},"View":[{"_type":"SearchResultsViewType","ViewId":0,"Result":[{"Relevance":1.0,"Distance":0.0,"Direction":0.0,"MatchLevel":"district","MatchQuality":{"Country":1.0,"State":1.0,"County":1.0,"City":1.0,"District":1.0,"PostalCode":1.0},"Location":{"LocationId":"NT_BFgoiLY1g5cgKS9V2ghTzB","LocationType":"point","DisplayPosition":{"Latitude":53.0367306,"Longitude":-1.1998691},"MapView":{"TopLeft":{"Latitude":53.0518,"Longitude":-1.24181},"BottomRight":{"Latitude":53.01118,"Longitude":-1.18269}},"Address":{"Label":"Hucknall, Nottingham, England, United Kingdom","Country":"GBR","State":"England","County":"Nottinghamshire","City":"Nottingham","District":"Hucknall","PostalCode":"NG15 6","AdditionalData":[{"value":"United Kingdom","key":"CountryName"},{"value":"England","key":"StateName"},{"value":"Nottinghamshire","key":"CountyName"}]},"MapReference":{"ReferenceId":"26299464","SideOfStreet":"neither","StateId":"20248595","CountyId":"20344764","CityId":"20356833","DistrictId":"20356893"}}},{"Relevance":1.0,"Distance":5.4,"MatchLevel":"houseNumber","MatchQuality":{"Country":1.0,"State":1.0,"County":1.0,"City":1.0,"District":1.0,"Street":[1.0],"HouseNumber":1.0,"PostalCode":1.0},"MatchType":"interpolated","Location":{"LocationId":"NT_YKRmUoeb2hWaOW73FR3gwD_l_26279223_R_3A","LocationType":"point","DisplayPosition":{"Latitude":53.036565,"Longitude":-1.2},"MapView":{"TopLeft":{"Latitude":53.0376892,"Longitude":-1.2018695},"BottomRight":{"Latitude":53.0354409,"Longitude":-1.1981305}},"Address":{"Label":"7 Portland Road, Nottingham, NG15 7SL, United Kingdom","Country":"GBR","State":"England","County":"Nottinghamshire","City":"Nottingham","District":"Hucknall","Street":"Portland Road","HouseNumber":"7","PostalCode":"NG15 7SL","AdditionalData":[{"value":"United Kingdom","key":"CountryName"},{"value":"England","key":"StateName"},{"value":"Nottinghamshire","key":"CountyName"}]},"MapReference":{"ReferenceId":"26279223","Spot":0.49,"SideOfStreet":"right","StateId":"20248595","CountyId":"20344764","CityId":"20356833","DistrictId":"20356893"}}},{"Relevance":1.0,"Distance":29.5,"MatchLevel":"houseNumber","MatchQuality":{"Country":1.0,"State":1.0,"County":1.0,"City":1.0,"District":1.0,"Street":[1.0],"HouseNumber":1.0,"PostalCode":1.0},"MatchType":"interpolated","Location":{"LocationId":"NT_jkTcejnOF96Q4JAbqX7kdC_l_26279222_L_zA","LocationType":"point","DisplayPosition":{"Latitude":53.0364364,"Longitude":-1.1994382},"MapView":{"TopLeft":{"Latitude":53.0375606,"Longitude":-1.2013077},"BottomRight":{"Latitude":53.0353123,"Longitude":-1.1975687}},"Address":{"Label":"3 Bolsover Street, Nottingham, NG15 7TY, United Kingdom","Country":"GBR","State":"England","County":"Nottinghamshire","City":"Nottingham","District":"Hucknall","Street":"Bolsover Street","HouseNumber":"3","PostalCode":"NG15 7TY","AdditionalData":[{"value":"United Kingdom","key":"CountryName"},{"value":"England","key":"StateName"},{"value":"Nottinghamshire","key":"CountyName"}]},"MapReference":{"ReferenceId":"26279222","Spot":0.13,"SideOfStreet":"left","StateId":"20248595","CountyId":"20344764","CityId":"20356833","DistrictId":"20356893"}}},{"Relevance":1.0,"Distance":34.9,"MatchLevel":"houseNumber","MatchQuality":{"Country":1.0,"State":1.0,"County":1.0,"City":1.0,"District":1.0,"Street":[1.0],"HouseNumber":1.0,"PostalCode":1.0},"MatchType":"interpolated","Location":{"LocationId":"NT_-bLPm7eAsCWzeCDNK.bQGB_l_565676060_R_xA","LocationType":"point","DisplayPosition":{"Latitude":53.03681,"Longitude":-1.2004533},"MapView":{"TopLeft":{"Latitude":53.0379342,"Longitude":-1.2023229},"BottomRight":{"Latitude":53.0356859,"Longitude":-1.1985838}},"Address":{"Label":"1 Duke Street, Nottingham, NG15 7HB, United Kingdom","Country":"GBR","State":"England","County":"Nottinghamshire","City":"Nottingham","District":"Hucknall","Street":"Duke Street","HouseNumber":"1","PostalCode":"NG15 7HB","AdditionalData":[{"value":"United Kingdom","key":"CountryName"},{"value":"England","key":"StateName"},{"value":"Nottinghamshire","key":"CountyName"}]},"MapReference":{"ReferenceId":"565676060","Spot":0.67,"SideOfStreet":"right","StateId":"20248595","CountyId":"20344764","CityId":"20356833","DistrictId":"20356893"}}},{"Relevance":1.0,"Distance":35.8,"MatchLevel":"street","MatchQuality":{"Country":1.0,"State":1.0,"County":1.0,"City":1.0,"District":1.0,"Street":[1.0],"PostalCode":1.0},"Location":{"LocationId":"NT_YKRmUoeb2hWaOW73FR3gwD_l_26279178_R","LocationType":"point","DisplayPosition":{"Latitude":53.03686,"Longitude":-1.20036},"MapView":{"TopLeft":{"Latitude":53.03698,"Longitude":-1.20048},"BottomRight":{"Latitude":53.03686,"Longitude":-1.20036}},"Address":{"Label":"Portland Road, Nottingham, NG15 7, United Kingdom","Country":"GBR","State":"England","County":"Nottinghamshire","City":"Nottingham","District":"Hucknall","Street":"Portland Road","PostalCode":"NG15 7","AdditionalData":[{"value":"United Kingdom","key":"CountryName"},{"value":"England","key":"StateName"},{"value":"Nottinghamshire","key":"CountyName"}]},"MapReference":{"ReferenceId":"26279178","Spot":0.0,"SideOfStreet":"right","StateId":"20248595","CountyId":"20344764","CityId":"20356833","DistrictId":"20356893"}}},{"Relevance":1.0,"Distance":39.9,"MatchLevel":"postalCode","MatchQuality":{"PostalCode":1.0},"MatchType":"interpolated","Location":{"LocationId":"NT_jkTcejnOF96Q4JAbqX7kdC_l_26279222_L_zA","LocationType":"point","DisplayPosition":{"Latitude":53.03659,"Longitude":-1.19932},"MapView":{"TopLeft":{"Latitude":53.0455832,"Longitude":-1.2142762},"BottomRight":{"Latitude":53.0275968,"Longitude":-1.1843638}},"Address":{"Label":"NG15 7UA, Nottingham, England, United Kingdom","Country":"GBR","State":"England","County":"Nottinghamshire","City":"Nottingham","PostalCode":"NG15 7UA","AdditionalData":[{"value":"United Kingdom","key":"CountryName"},{"value":"England","key":"StateName"},{"value":"Nottinghamshire","key":"CountyName"}]},"MapReference":{"ReferenceId":"26279222","Spot":0.13,"SideOfStreet":"neither","StateId":"20248595","CountyId":"20344764","CityId":"20356833"}}},{"Relevance":1.0,"Distance":50.1,"MatchLevel":"houseNumber","MatchQuality":{"Country":1.0,"State":1.0,"County":1.0,"City":1.0,"District":1.0,"Street":[1.0],"HouseNumber":1.0,"PostalCode":1.0},"MatchType":"interpolated","Location":{"LocationId":"NT_F9v0JFWovKbN14BrwEgXKD_l_26279175_L_yYD","LocationType":"point","DisplayPosition":{"Latitude":53.0371301,"Longitude":-1.2002162},"MapView":{"TopLeft":{"Latitude":53.0382543,"Longitude":-1.2020857},"BottomRight":{"Latitude":53.0360059,"Longitude":-1.1983466}},"Address":{"Label":"26 Station Road, Nottingham, NG15 7UD, United Kingdom","Country":"GBR","State":"England","County":"Nottinghamshire","City":"Nottingham","District":"Hucknall","Street":"Station Road","HouseNumber":"26","PostalCode":"NG15 7UD","AdditionalData":[{"value":"United Kingdom","key":"CountryName"},{"value":"England","key":"StateName"},{"value":"Nottinghamshire","key":"CountyName"}]},"MapReference":{"ReferenceId":"26279175","Spot":0.52,"SideOfStreet":"left","StateId":"20248595","CountyId":"20344764","CityId":"20356833","DistrictId":"20356893"}}},{"Relevance":1.0,"Distance":57.7,"MatchLevel":"houseNumber","MatchQuality":{"Country":1.0,"State":1.0,"County":1.0,"City":1.0,"District":1.0,"Street":[1.0],"HouseNumber":1.0,"PostalCode":1.0},"MatchType":"interpolated","Location":{"LocationId":"NT_F9v0JFWovKbN14BrwEgXKD_l_26279153_R_5A","LocationType":"point","DisplayPosition":{"Latitude":53.03737,"Longitude":-1.1998199},"MapView":{"TopLeft":{"Latitude":53.0384942,"Longitude":-1.2016895},"BottomRight":{"Latitude":53.0362459,"Longitude":-1.1979504}},"Address":{"Label":"9 Station Road, Nottingham, NG15 7, United Kingdom","Country":"GBR","State":"England","County":"Nottinghamshire","City":"Nottingham","District":"Hucknall","Street":"Station Road","HouseNumber":"9","PostalCode":"NG15 7","AdditionalData":[{"value":"United Kingdom","key":"CountryName"},{"value":"England","key":"StateName"},{"value":"Nottinghamshire","key":"CountyName"}]},"MapReference":{"ReferenceId":"26279153","Spot":0.26,"SideOfStreet":"right","StateId":"20248595","CountyId":"20344764","CityId":"20356833","DistrictId":"20356893"}}},{"Relevance":1.0,"Distance":61.5,"MatchLevel":"street","MatchQuality":{"Country":1.0,"State":1.0,"County":1.0,"City":1.0,"District":1.0,"Street":[1.0],"PostalCode":1.0},"Location":{"LocationId":"NT_L3m1wiQ0L06Zbxhamqdp4A_l_26279154_L","LocationType":"point","DisplayPosition":{"Latitude":53.03728,"Longitude":-1.19998},"MapView":{"TopLeft":{"Latitude":53.03763,"Longitude":-1.20058},"BottomRight":{"Latitude":53.03728,"Longitude":-1.19998}},"Address":{"Label":"Parker Street, Nottingham, NG15 7, United Kingdom","Country":"GBR","State":"England","County":"Nottinghamshire","City":"Nottingham","District":"Hucknall","Street":"Parker Street","PostalCode":"NG15 7","AdditionalData":[{"value":"United Kingdom","key":"CountryName"},{"value":"England","key":"StateName"},{"value":"Nottinghamshire","key":"CountyName"}]},"MapReference":{"ReferenceId":"26279154","Spot":0.0,"SideOfStreet":"left","StateId":"20248595","CountyId":"20344764","CityId":"20356833","DistrictId":"20356893"}}},{"Relevance":1.0,"Distance":61.7,"MatchLevel":"houseNumber","MatchQuality":{"Country":1.0,"State":1.0,"County":1.0,"City":1.0,"District":1.0,"Street":[1.0],"HouseNumber":1.0,"PostalCode":1.0},"MatchType":"interpolated","Location":{"LocationId":"NT_YKRmUoeb2hWaOW73FR3gwD_l_755260794_R_xMD","LocationType":"point","DisplayPosition":{"Latitude":53.03614,"Longitude":-1.199499},"MapView":{"TopLeft":{"Latitude":53.0372642,"Longitude":-1.2013685},"BottomRight":{"Latitude":53.0350159,"Longitude":-1.1976295}},"Address":{"Label":"13 Portland Road, Nottingham, NG15 7SL, United Kingdom","Country":"GBR","State":"England","County":"Nottinghamshire","City":"Nottingham","District":"Hucknall","Street":"Portland Road","HouseNumber":"13","PostalCode":"NG15 7SL","AdditionalData":[{"value":"United Kingdom","key":"CountryName"},{"value":"England","key":"StateName"},{"value":"Nottinghamshire","key":"CountyName"}]},"MapReference":{"ReferenceId":"755260794","Spot":0.67,"SideOfStreet":"right","StateId":"20248595","CountyId":"20344764","CityId":"20356833","DistrictId":"20356893"}}}]}]}}