{"Response":{"MetaInfo":{"Timestamp":"2020-03-28T10:59:07.875+0000","NextPageInformation":"2"},"View":[{"_type":"SearchResultsViewType","ViewId":0,"Result":[{"Relevance":1.0,"Distance":-1.2,"MatchLevel":"landmark","MatchQuality":{"Country":1.0,"State":1.0,"County":1.0,"City":1.0,"PostalCode":1.0,"Name":1.0},"Location":{"LocationId":"NT_lLfMSQQzBZyU5nTHELfESC","LocationType":"woodland","Name":"Stenumer Holz","DisplayPosition":{"Latitude":53.08149,"Longitude":8.56181},"MapView":{"TopLeft":{"Latitude":53.0861,"Longitude":8.55049},"BottomRight":{"Latitude":53.07687,"Longitude":8.57475}},"Address":{"Label":"27777 Ganderkesee, Deutschland","Country":"DEU","State":"Niedersachsen","County":"Oldenburg","City":"Ganderkesee","PostalCode":"27777","AdditionalData":[{"value":"Deutschland","key":"CountryName"},{"value":"Niedersachsen","key":"StateName"},{"value":"Oldenburg","key":"CountyName"}]},"MapReference":{"CountryId":"20147700","StateId":"20151542","CountyId":"20156811","CityId":"20156827","PlaceId":"58198346"}}},{"Relevance":1.0,"Distance":0.0,"Direction":0.0,"MatchLevel":"city","MatchQuality":{"Country":1.0,"State":1.0,"County":1.0,"City":1.0,"PostalCode":1.0},"Location":{"LocationId":"NT_nrEddeKYRq13EiDHmVS-sD","LocationType":"point","DisplayPosition":{"Latitude":53.0792095,"Longitude":8.5538702},"MapView":{"TopLeft":{"Latitude":53.12804,"Longitude":8.42729},"BottomRight":{"Latitude":52.96492,"Longitude":8.63581}},"Address":{"Label":"Ganderkesee, Niedersachsen, Deutschland","Country":"DEU","State":"Niedersachsen","County":"Oldenburg","City":"Ganderkesee","PostalCode":"27777","AdditionalData":[{"value":"Deutschland","key":"CountryName"},{"value":"Niedersachsen","key":"StateName"},{"value":"Oldenburg","key":"CountyName"}]},"MapReference":{"ReferenceId":"1223520777","SideOfStreet":"neither","CountryId":"20147700","StateId":"20151542","CountyId":"20156811","CityId":"20156827"}}},{"Relevance":1.0,"Distance":11.0,"MatchLevel":"houseNumber","MatchQuality":{"Country":1.0,"State":1.0,"County":1.0,"City":1.0,"Street":[1.0],"HouseNumber":1.0,"PostalCode":1.0},"MatchType":"interpolated","Location":{"LocationId":"NT_Nn3z4SmlaRjWsr4UecvtsA_xED","LocationType":"point","DisplayPosition":{"Latitude":53.07927,"Longitude":8.55374},"MapView":{"TopLeft":{"Latitude":53.0803942,"Longitude":8.5518686},"BottomRight":{"Latitude":53.0781458,"Longitude":8.5556114}},"Address":{"Label":"Heilstättenweg 11, 27777 Ganderkesee, Deutschland","Country":"DEU","State":"Niedersachsen","County":"Oldenburg","City":"Ganderkesee","Street":"Heilstättenweg","HouseNumber":"11","PostalCode":"27777","AdditionalData":[{"value":"Deutschland","key":"CountryName"},{"value":"Niedersachsen","key":"StateName"},{"value":"Oldenburg","key":"CountyName"}]},"MapReference":{"ReferenceId":"1081779661","Spot":0.78,"SideOfStreet":"left","CountryId":"20147700","StateId":"20151542","CountyId":"20156811","CityId":"20156827","AddressId":"673409704","RoadLinkId":"399001336"}}},{"Relevance":1.0,"Distance":149.1,"MatchLevel":"houseNumber","MatchQuality":{"Country":1.0,"State":1.0,"County":1.0,"City":1.0,"Street":[1.0],"HouseNumber":1.0,"PostalCode":1.0},"MatchType":"interpolated","Location":{"LocationId":"NT_Nn3z4SmlaRjWsr4UecvtsA_0QD","LocationType":"point","DisplayPosition":{"Latitude":53.0788,"Longitude":8.55679},"MapView":{"TopLeft":{"Latitude":53.0799242,"Longitude":8.5549186},"BottomRight":{"Latitude":53.0776758,"Longitude":8.5586614}},"Address":{"Label":"Heilstättenweg 44, 27777 Ganderkesee, Deutschland","Country":"DEU","State":"Niedersachsen","County":"Oldenburg","City":"Ganderkesee","Street":"Heilstättenweg","HouseNumber":"44","PostalCode":"27777","AdditionalData":[{"value":"Deutschland","key":"CountryName"},{"value":"Niedersachsen","key":"StateName"},{"value":"Oldenburg","key":"CountyName"}]},"MapReference":{"ReferenceId":"51850067","Spot":0.32,"SideOfStreet":"left","CountryId":"20147700","StateId":"20151542","CountyId":"20156811","CityId":"20156827","AddressId":"180653309","RoadLinkId":"37281708"}}},{"Relevance":1.0,"Distance":176.7,"MatchLevel":"houseNumber","MatchQuality":{"Country":1.0,"State":1.0,"County":1.0,"City":1.0,"Street":[1.0],"HouseNumber":1.0,"PostalCode":1.0},"MatchType":"interpolated","Location":{"LocationId":"NT_Nn3z4SmlaRjWsr4UecvtsA_yA","LocationType":"point","DisplayPosition":{"Latitude":53.07961,"Longitude":8.55643},"MapView":{"TopLeft":{"Latitude":53.0807342,"Longitude":8.5545586},"BottomRight":{"Latitude":53.0784858,"Longitude":8.5583014}},"Address":{"Label":"Heilstättenweg 2, 27777 Ganderkesee, Deutschland","Country":"DEU","State":"Niedersachsen","County":"Oldenburg","City":"Ganderkesee","Street":"Heilstättenweg","HouseNumber":"2","PostalCode":"27777","AdditionalData":[{"value":"Deutschland","key":"CountryName"},{"value":"Niedersachsen","key":"StateName"},{"value":"Oldenburg","key":"CountyName"}]},"MapReference":{"ReferenceId":"554760722","Spot":0.0,"SideOfStreet":"right","CountryId":"20147700","StateId":"20151542","CountyId":"20156811","CityId":"20156827","AddressId":"181152653","RoadLinkId":"36686389"}}},{"Relevance":1.0,"Distance":183.8,"MatchLevel":"street","MatchQuality":{"Country":1.0,"State":1.0,"County":1.0,"City":1.0,"Street":[1.0],"PostalCode":1.0},"Location":{"LocationId":"NT_Nn3z4SmlaRjWsr4UecvtsA_l_554760723_L","LocationType":"point","DisplayPosition":{"Latitude":53.079974,"Longitude":8.55631},"MapView":{"TopLeft":{"Latitude":53.08455,"Longitude":8.55488},"BottomRight":{"Latitude":53.07991,"Longitude":8.55633}},"Address":{"Label":"Heilstättenweg, 27777 Ganderkesee, Deutschland","Country":"DEU","State":"Niedersachsen","County":"Oldenburg","City":"Ganderkesee","Street":"Heilstättenweg","PostalCode":"27777","AdditionalData":[{"value":"Deutschland","key":"CountryName"},{"value":"Niedersachsen","key":"StateName"},{"value":"Oldenburg","key":"CountyName"}]},"MapReference":{"ReferenceId":"554760723","Spot":0.01,"SideOfStreet":"left","CountryId":"20147700","StateId":"20151542","CountyId":"20156811","CityId":"20156827"}}},{"Relevance":1.0,"Distance":226.3,"MatchLevel":"street","MatchQuality":{"Country":1.0,"State":1.0,"County":1.0,"City":1.0,"District":1.0,"PostalCode":1.0},"Location":{"LocationId":"NT_JX5qlUyDJd194ti792mZID_l_51849957_L","LocationType":"point","DisplayPosition":{"Latitude":53.0771881,"Longitude":8.5542632},"MapView":{"TopLeft":{"Latitude":53.07779,"Longitude":8.55372},"BottomRight":{"Latitude":53.07704,"Longitude":8.55724}},"Address":{"Label":"27777 Ganderkesee, Deutschland","Country":"DEU","State":"Niedersachsen","County":"Oldenburg","City":"Ganderkesee","District":"Stenum","PostalCode":"27777","AdditionalData":[{"value":"Deutschland","key":"CountryName"},{"value":"Niedersachsen","key":"StateName"},{"value":"Oldenburg","key":"CountyName"}]},"MapReference":{"ReferenceId":"51849957","Spot":0.15,"SideOfStreet":"left","CountryId":"20147700","StateId":"20151542","CountyId":"20156811","CityId":"20156827","DistrictId":"20156829"}}},{"Relevance":1.0,"Distance":226.3,"MatchLevel":"street","MatchQuality":{"Country":1.0,"State":1.0,"County":1.0,"City":1.0,"District":1.0,"Street":[1.0],"PostalCode":1.0},"Location":{"LocationId":"NT_oK1.RarVaxJmLph7G2hDDC_l_51849956_L","LocationType":"point","DisplayPosition":{"Latitude":53.07846,"Longitude":8.55702},"MapView":{"TopLeft":{"Latitude":53.07846,"Longitude":8.55702},"BottomRight":{"Latitude":53.07779,"Longitude":8.55724}},"Address":{"Label":"Dorfring, 27777 Ganderkesee, Deutschland","Country":"DEU","State":"Niedersachsen","County":"Oldenburg","City":"Ganderkesee","District":"Stenum","Street":"Dorfring","PostalCode":"27777","AdditionalData":[{"value":"Deutschland","key":"CountryName"},{"value":"Niedersachsen","key":"StateName"},{"value":"Oldenburg","key":"CountyName"}]},"MapReference":{"ReferenceId":"51849956","Spot":1.0,"SideOfStreet":"left","CountryId":"20147700","StateId":"20151542","CountyId":"20156811","CityId":"20156827","DistrictId":"20156829"}}},{"Relevance":1.0,"Distance":240.6,"MatchLevel":"houseNumber","MatchQuality":{"Country":1.0,"State":1.0,"County":1.0,"City":1.0,"District":1.0,"Street":[1.0],"HouseNumber":1.0,"PostalCode":1.0},"MatchType":"interpolated","Location":{"LocationId":"NT_oK1.RarVaxJmLph7G2hDDC_0AD","LocationType":"point","DisplayPosition":{"Latitude":53.07843,"Longitude":8.55723},"MapView":{"TopLeft":{"Latitude":53.0795542,"Longitude":8.5553587},"BottomRight":{"Latitude":53.0773058,"Longitude":8.5591013}},"Address":{"Label":"Dorfring 40, 27777 Ganderkesee, Deutschland","Country":"DEU","State":"Niedersachsen","County":"Oldenburg","City":"Ganderkesee","District":"Stenum","Street":"Dorfring","HouseNumber":"40","PostalCode":"27777","AdditionalData":[{"value":"Deutschland","key":"CountryName"},{"value":"Niedersachsen","key":"StateName"},{"value":"Oldenburg","key":"CountyName"}]},"MapReference":{"ReferenceId":"51850006","Spot":0.94,"SideOfStreet":"right","CountryId":"20147700","StateId":"20151542","CountyId":"20156811","CityId":"20156827","DistrictId":"20156829","AddressId":"181358850","RoadLinkId":"36792091"}}},{"Relevance":1.0,"Distance":241.4,"MatchLevel":"street","MatchQuality":{"Country":1.0,"State":1.0,"County":1.0,"City":1.0,"District":1.0,"Street":[1.0],"PostalCode":1.0},"Location":{"LocationId":"NT_O.wNoekVSmrzkiDsGgu3pA_l_554760683_R","LocationType":"point","DisplayPosition":{"Latitude":53.07704,"Longitude":8.55372},"MapView":{"TopLeft":{"Latitude":53.07704,"Longitude":8.55372},"BottomRight":{"Latitude":53.07636,"Longitude":8.55424}},"Address":{"Label":"Am Hünengrab, 27777 Ganderkesee, Deutschland","Country":"DEU","State":"Niedersachsen","County":"Oldenburg","City":"Ganderkesee","District":"Stenum","Street":"Am Hünengrab","PostalCode":"27777","AdditionalData":[{"value":"Deutschland","key":"CountryName"},{"value":"Niedersachsen","key":"StateName"},{"value":"Oldenburg","key":"CountyName"}]},"MapReference":{"ReferenceId":"554760683","Spot":1.0,"SideOfStreet":"right","CountryId":"20147700","StateId":"20151542","CountyId":"20156811","CityId":"20156827","DistrictId":"20156829"}}}]}]}}