{"Response":{"MetaInfo":{"Timestamp":"2020-03-28T10:17:02.681+0000","NextPageInformation":"2"},"View":[{"_type":"SearchResultsViewType","ViewId":0,"Result":[{"Relevance":1.0,"Distance":0.0,"Direction":0.0,"MatchLevel":"district","MatchQuality":{"Country":1.0,"State":1.0,"County":1.0,"City":1.0,"District":1.0,"PostalCode":1.0},"Location":{"LocationId":"NT_zHft3TpwE.ry9i.6Gr.uCD","LocationType":"point","DisplayPosition":{"Latitude":53.1801388,"Longitude":8.9840175},"MapView":{"TopLeft":{"Latitude":53.18572,"Longitude":8.9765},"BottomRight":{"Latitude":53.17374,"Longitude":9.00316}},"Address":{"Label":"Grasberg, Niedersachsen, Deutschland","Country":"DEU","State":"Niedersachsen","County":"Osterholz","City":"Grasberg","District":"Grasberg","PostalCode":"28879","AdditionalData":[{"value":"Deutschland","key":"CountryName"},{"value":"Niedersachsen","key":"StateName"},{"value":"Osterholz","key":"CountyName"}]},"MapReference":{"ReferenceId":"1041780568","SideOfStreet":"neither","CountryId":"20147700","StateId":"20151542","CountyId":"20154937","CityId":"20154942","DistrictId":"20154952"}}},{"Relevance":1.0,"Distance":11.5,"MatchLevel":"houseNumber","MatchQuality":{"Country":1.0,"State":1.0,"County":1.0,"City":1.0,"District":1.0,"Street":[1.0],"HouseNumber":1.0,"PostalCode":1.0},"MatchType":"interpolated","Location":{"LocationId":"NT_kD4.Hl6tWUUooBYDKdDfPD_ygD","LocationType":"point","DisplayPosition":{"Latitude":53.18024,"Longitude":8.98421},"MapView":{"TopLeft":{"Latitude":53.1813642,"Longitude":8.9823342},"BottomRight":{"Latitude":53.1791158,"Longitude":8.9860858}},"Address":{"Label":"Speckmannstraße 28, 28879 Grasberg, Deutschland","Country":"DEU","State":"Niedersachsen","County":"Osterholz","City":"Grasberg","District":"Grasberg","Street":"Speckmannstraße","HouseNumber":"28","PostalCode":"28879","AdditionalData":[{"value":"Deutschland","key":"CountryName"},{"value":"Niedersachsen","key":"StateName"},{"value":"Osterholz","key":"CountyName"}]},"MapReference":{"ReferenceId":"782486355","Spot":1.0,"SideOfStreet":"left","CountryId":"20147700","StateId":"20151542","CountyId":"20154937","CityId":"20154942","DistrictId":"20154952","AddressId":"256073066","RoadLinkId":"175393253"}}},{"Relevance":1.0,"Distance":24.1,"MatchLevel":"houseNumber","MatchQuality":{"Country":1.0,"State":1.0,"County":1.0,"City":1.0,"District":1.0,"Street":[1.0],"HouseNumber":1.0,"PostalCode":1.0},"MatchType":"interpolated","Location":{"LocationId":"NT_kD4.Hl6tWUUooBYDKdDfPD_zAD","LocationType":"point","DisplayPosition":{"Latitude":53.18015,"Longitude":8.98441},"MapView":{"TopLeft":{"Latitude":53.1812742,"Longitude":8.9825342},"BottomRight":{"Latitude":53.1790258,"Longitude":8.9862858}},"Address":{"Label":"Speckmannstraße 30, 28879 Grasberg, Deutschland","Country":"DEU","State":"Niedersachsen","County":"Osterholz","City":"Grasberg","District":"Grasberg","Street":"Speckmannstraße","HouseNumber":"30","PostalCode":"28879","AdditionalData":[{"value":"Deutschland","key":"CountryName"},{"value":"Niedersachsen","key":"StateName"},{"value":"Osterholz","key":"CountyName"}]},"MapReference":{"ReferenceId":"1253133812","Spot":0.99,"SideOfStreet":"left","CountryId":"20147700","StateId":"20151542","CountyId":"20154937","CityId":"20154942","DistrictId":"20154952","AddressId":"179472758","RoadLinkId":"576302139"}}},{"Relevance":1.0,"Distance":33.6,"MatchLevel":"houseNumber","MatchQuality":{"Country":1.0,"State":1.0,"County":1.0,"City":1.0,"District":1.0,"Street":[1.0],"HouseNumber":1.0,"PostalCode":1.0},"MatchType":"interpolated","Location":{"LocationId":"NT_kD4.Hl6tWUUooBYDKdDfPD_yYD","LocationType":"point","DisplayPosition":{"Latitude":53.18044,"Longitude":8.98398},"MapView":{"TopLeft":{"Latitude":53.1815642,"Longitude":8.9821042},"BottomRight":{"Latitude":53.1793158,"Longitude":8.9858558}},"Address":{"Label":"Speckmannstraße 26, 28879 Grasberg, Deutschland","Country":"DEU","State":"Niedersachsen","County":"Osterholz","City":"Grasberg","District":"Grasberg","Street":"Speckmannstraße","HouseNumber":"26","PostalCode":"28879","AdditionalData":[{"value":"Deutschland","key":"CountryName"},{"value":"Niedersachsen","key":"StateName"},{"value":"Osterholz","key":"CountyName"}]},"MapReference":{"ReferenceId":"79921363","Spot":0.2,"SideOfStreet":"left","CountryId":"20147700","StateId":"20151542","CountyId":"20154937","CityId":"20154942","DistrictId":"20154952","AddressId":"180684681","RoadLinkId":"36852312"}}},{"Relevance":1.0,"Distance":45.5,"MatchLevel":"houseNumber","MatchQuality":{"Country":1.0,"State":1.0,"County":1.0,"City":1.0,"District":1.0,"Street":[1.0],"HouseNumber":1.0,"PostalCode":1.0},"MatchType":"interpolated","Location":{"LocationId":"NT_mC-dvOV8BpYEph0.jzZ-TA_xA","LocationType":"point","DisplayPosition":{"Latitude":53.18014,"Longitude":8.9833},"MapView":{"TopLeft":{"Latitude":53.1812642,"Longitude":8.9814242},"BottomRight":{"Latitude":53.1790158,"Longitude":8.9851758}},"Address":{"Label":"Wiesendamm 1, 28879 Grasberg, Deutschland","Country":"DEU","State":"Niedersachsen","County":"Osterholz","City":"Grasberg","District":"Grasberg","Street":"Wiesendamm","HouseNumber":"1","PostalCode":"28879","AdditionalData":[{"value":"Deutschland","key":"CountryName"},{"value":"Niedersachsen","key":"StateName"},{"value":"Osterholz","key":"CountyName"}]},"MapReference":{"ReferenceId":"539290520","Spot":0.44,"SideOfStreet":"right","CountryId":"20147700","StateId":"20151542","CountyId":"20154937","CityId":"20154942","DistrictId":"20154952","AddressId":"179451807","RoadLinkId":"36368093"}}},{"Relevance":1.0,"Distance":84.6,"MatchLevel":"houseNumber","MatchQuality":{"Country":1.0,"State":1.0,"County":1.0,"City":1.0,"District":1.0,"Street":[1.0],"HouseNumber":1.0,"PostalCode":1.0},"MatchType":"interpolated","Location":{"LocationId":"NT_SJ3zgZpmMOhyLXXMR3LySB_xA","LocationType":"point","DisplayPosition":{"Latitude":53.17927,"Longitude":8.98322},"MapView":{"TopLeft":{"Latitude":53.1803942,"Longitude":8.9813443},"BottomRight":{"Latitude":53.1781458,"Longitude":8.9850957}},"Address":{"Label":"Lindenstraße 1, 28879 Grasberg, Deutschland","Country":"DEU","State":"Niedersachsen","County":"Osterholz","City":"Grasberg","District":"Grasberg","Street":"Lindenstraße","HouseNumber":"1","PostalCode":"28879","AdditionalData":[{"value":"Deutschland","key":"CountryName"},{"value":"Niedersachsen","key":"StateName"},{"value":"Osterholz","key":"CountyName"}]},"MapReference":{"ReferenceId":"1253145403","Spot":0.76,"SideOfStreet":"right","CountryId":"20147700","StateId":"20151542","CountyId":"20154937","CityId":"20154942","DistrictId":"20154952","AddressId":"180498627","RoadLinkId":"576309153"}}},{"Relevance":1.0,"Distance":84.6,"MatchLevel":"houseNumber","MatchQuality":{"Country":1.0,"State":1.0,"County":1.0,"City":1.0,"District":1.0,"Street":[1.0],"HouseNumber":1.0,"PostalCode":1.0},"MatchType":"interpolated","Location":{"LocationId":"NT_mC-dvOV8BpYEph0.jzZ-TA_2IE","LocationType":"point","DisplayPosition":{"Latitude":53.1805,"Longitude":8.9829},"MapView":{"TopLeft":{"Latitude":53.1816242,"Longitude":8.9810242},"BottomRight":{"Latitude":53.1793758,"Longitude":8.9847758}},"Address":{"Label":"Wiesendamm 6B, 28879 Grasberg, Deutschland","Country":"DEU","State":"Niedersachsen","County":"Osterholz","City":"Grasberg","District":"Grasberg","Street":"Wiesendamm","HouseNumber":"6B","PostalCode":"28879","AdditionalData":[{"value":"Deutschland","key":"CountryName"},{"value":"Niedersachsen","key":"StateName"},{"value":"Osterholz","key":"CountyName"}]},"MapReference":{"ReferenceId":"79921472","Spot":0.86,"SideOfStreet":"left","CountryId":"20147700","StateId":"20151542","CountyId":"20154937","CityId":"20154942","DistrictId":"20154952","AddressId":"177265755","RoadLinkId":"36394949"}}},{"Relevance":1.0,"Distance":88.2,"MatchLevel":"landmark","MatchQuality":{"Country":1.0,"State":1.0,"Name":1.0},"Location":{"LocationId":"NT_KeLC04tbjfmEUMSCNCFRlD","LocationType":"river","Name":"Wörpe","DisplayPosition":{"Latitude":53.18856,"Longitude":9.01234},"MapView":{"TopLeft":{"Latitude":53.2195,"Longitude":8.89719},"BottomRight":{"Latitude":53.13427,"Longitude":9.13584}},"Address":{"Label":"Deutschland","Country":"DEU","State":"Niedersachsen","AdditionalData":[{"value":"Deutschland","key":"CountryName"},{"value":"Niedersachsen","key":"StateName"}]},"MapReference":{"CountryId":"20147700","StateId":"20151542","PlaceId":"750480180"}}},{"Relevance":1.0,"Distance":102.3,"MatchLevel":"houseNumber","MatchQuality":{"Country":1.0,"State":1.0,"County":1.0,"City":1.0,"District":1.0,"Street":[1.0],"HouseNumber":1.0,"PostalCode":1.0},"MatchType":"interpolated","Location":{"LocationId":"NT_mC-dvOV8BpYEph0.jzZ-TA_4A","LocationType":"point","DisplayPosition":{"Latitude":53.17989,"Longitude":8.98254},"MapView":{"TopLeft":{"Latitude":53.1810142,"Longitude":8.9806642},"BottomRight":{"Latitude":53.1787658,"Longitude":8.9844158}},"Address":{"Label":"Wiesendamm 8, 28879 Grasberg, Deutschland","Country":"DEU","State":"Niedersachsen","County":"Osterholz","City":"Grasberg","District":"Grasberg","Street":"Wiesendamm","HouseNumber":"8","PostalCode":"28879","AdditionalData":[{"value":"Deutschland","key":"CountryName"},{"value":"Niedersachsen","key":"StateName"},{"value":"Osterholz","key":"CountyName"}]},"MapReference":{"ReferenceId":"79921470","Spot":0.73,"SideOfStreet":"left","CountryId":"20147700","StateId":"20151542","CountyId":"20154937","CityId":"20154942","DistrictId":"20154952","AddressId":"177739081","RoadLinkId":"36721157"}}},{"Relevance":1.0,"Distance":135.6,"MatchLevel":"houseNumber","MatchQuality":{"Country":1.0,"State":1.0,"County":1.0,"City":1.0,"District":1.0,"Street":[1.0],"HouseNumber":1.0,"PostalCode":1.0},"MatchType":"interpolated","Location":{"LocationId":"NT_qMIkMcxBdcvAvJPTasx-sB_xA","LocationType":"point","DisplayPosition":{"Latitude":53.18114,"Longitude":8.98547},"MapView":{"TopLeft":{"Latitude":53.1822642,"Longitude":8.9835942},"BottomRight":{"Latitude":53.1800158,"Longitude":8.9873458}},"Address":{"Label":"Findorffstraße 1, 28879 Grasberg, Deutschland","Country":"DEU","State":"Niedersachsen","County":"Osterholz","City":"Grasberg","District":"Grasberg","Street":"Findorffstraße","HouseNumber":"1","PostalCode":"28879","AdditionalData":[{"value":"Deutschland","key":"CountryName"},{"value":"Niedersachsen","key":"StateName"},{"value":"Osterholz","key":"CountyName"}]},"MapReference":{"ReferenceId":"79921294","Spot":0.86,"SideOfStreet":"left","CountryId":"20147700","StateId":"20151542","CountyId":"20154937","CityId":"20154942","DistrictId":"20154952","AddressId":"177112309","RoadLinkId":"36526910"}}}]}]}}