{"Response":{"MetaInfo":{"Timestamp":"2020-03-28T10:24:12.893+0000","NextPageInformation":"2"},"View":[{"_type":"SearchResultsViewType","ViewId":0,"Result":[{"Relevance":1.0,"Distance":0.0,"Direction":0.0,"MatchLevel":"district","MatchQuality":{"Country":1.0,"State":1.0,"County":1.0,"City":1.0,"District":1.0,"PostalCode":1.0},"Location":{"LocationId":"NT_9W6SCJ9c7qa3CA7sMYsppA","LocationType":"point","DisplayPosition":{"Latitude":53.1813531,"Longitude":8.0238914},"MapView":{"TopLeft":{"Latitude":53.18924,"Longitude":7.98292},"BottomRight":{"Latitude":53.17173,"Longitude":8.02888}},"Address":{"Label":"Bad Zwischenahn, Niedersachsen, Deutschland","Country":"DEU","State":"Niedersachsen","County":"Ammerland","City":"Bad Zwischenahn","District":"Bad Zwischenahn","PostalCode":"26160","AdditionalData":[{"value":"Deutschland","key":"CountryName"},{"value":"Niedersachsen","key":"StateName"},{"value":"Ammerland","key":"CountyName"}]},"MapReference":{"ReferenceId":"540612337","SideOfStreet":"neither","CountryId":"20147700","StateId":"20151542","CountyId":"20155946","CityId":"20155954","DistrictId":"20155963"}}},{"Relevance":1.0,"Distance":20.4,"MatchLevel":"houseNumber","MatchQuality":{"Country":1.0,"State":1.0,"County":1.0,"City":1.0,"District":1.0,"Street":[1.0],"HouseNumber":1.0,"PostalCode":1.0},"MatchType":"interpolated","Location":{"LocationId":"NT_rJxjCrN-zsBfKQL6orj5PA_yEE","LocationType":"point","DisplayPosition":{"Latitude":53.18095,"Longitude":8.02384},"MapView":{"TopLeft":{"Latitude":53.1820742,"Longitude":8.0219642},"BottomRight":{"Latitude":53.1798258,"Longitude":8.0257158}},"Address":{"Label":"Oldenburger Straße 2A, 26160 Bad Zwischenahn, Deutschland","Country":"DEU","State":"Niedersachsen","County":"Ammerland","City":"Bad Zwischenahn","District":"Bad Zwischenahn","Street":"Oldenburger Straße","HouseNumber":"2A","PostalCode":"26160","AdditionalData":[{"value":"Deutschland","key":"CountryName"},{"value":"Niedersachsen","key":"StateName"},{"value":"Ammerland","key":"CountyName"}]},"MapReference":{"ReferenceId":"1193158433","Spot":0.13,"SideOfStreet":"left","CountryId":"20147700","StateId":"20151542","CountyId":"20155946","CityId":"20155954","DistrictId":"20155963","AddressId":"621992883","RoadLinkId":"502938673"}}},{"Relevance":1.0,"Distance":41.3,"MatchLevel":"houseNumber","MatchQuality":{"Country":1.0,"State":1.0,"County":1.0,"City":1.0,"District":1.0,"Street":[1.0],"HouseNumber":1.0,"PostalCode":1.0},"MatchType":"interpolated","Location":{"LocationId":"NT_2b7Z7ED5X3dwQjIYh9qyYB_5A","LocationType":"point","DisplayPosition":{"Latitude":53.18186,"Longitude":8.02393},"MapView":{"TopLeft":{"Latitude":53.1829842,"Longitude":8.0220542},"BottomRight":{"Latitude":53.1807358,"Longitude":8.0258058}},"Address":{"Label":"Weißer Weg 9, 26160 Bad Zwischenahn, Deutschland","Country":"DEU","State":"Niedersachsen","County":"Ammerland","City":"Bad Zwischenahn","District":"Bad Zwischenahn","Street":"Weißer Weg","HouseNumber":"9","PostalCode":"26160","AdditionalData":[{"value":"Deutschland","key":"CountryName"},{"value":"Niedersachsen","key":"StateName"},{"value":"Ammerland","key":"CountyName"}]},"MapReference":{"ReferenceId":"83703376","Spot":0.96,"SideOfStreet":"right","CountryId":"20147700","StateId":"20151542","CountyId":"20155946","CityId":"20155954","DistrictId":"20155963","AddressId":"208508246","RoadLinkId":"36794456"}}},{"Relevance":1.0,"Distance":47.3,"MatchLevel":"street","MatchQuality":{"Country":1.0,"State":1.0,"County":1.0,"City":1.0,"District":1.0,"Street":[1.0],"PostalCode":1.0},"Location":{"LocationId":"NT_rJxjCrN-zsBfKQL6orj5PA_l_783963686_L","LocationType":"point","DisplayPosition":{"Latitude":53.18094,"Longitude":8.02372},"MapView":{"TopLeft":{"Latitude":53.18094,"Longitude":8.0232},"BottomRight":{"Latitude":53.1809,"Longitude":8.02372}},"Address":{"Label":"Oldenburger Straße, 26160 Bad Zwischenahn, Deutschland","Country":"DEU","State":"Niedersachsen","County":"Ammerland","City":"Bad Zwischenahn","District":"Bad Zwischenahn","Street":"Oldenburger Straße","PostalCode":"26160","AdditionalData":[{"value":"Deutschland","key":"CountryName"},{"value":"Niedersachsen","key":"StateName"},{"value":"Ammerland","key":"CountyName"}]},"MapReference":{"ReferenceId":"783963686","Spot":1.0,"SideOfStreet":"left","CountryId":"20147700","StateId":"20151542","CountyId":"20155946","CityId":"20155954","DistrictId":"20155963"}}},{"Relevance":1.0,"Distance":49.6,"MatchLevel":"houseNumber","MatchQuality":{"Country":1.0,"State":1.0,"County":1.0,"City":1.0,"District":1.0,"Street":[1.0],"HouseNumber":1.0,"PostalCode":1.0},"MatchType":"interpolated","Location":{"LocationId":"NT_2b7Z7ED5X3dwQjIYh9qyYB_xED","LocationType":"point","DisplayPosition":{"Latitude":53.18173,"Longitude":8.0247},"MapView":{"TopLeft":{"Latitude":53.1828542,"Longitude":8.0228242},"BottomRight":{"Latitude":53.1806058,"Longitude":8.0265758}},"Address":{"Label":"Weißer Weg 11, 26160 Bad Zwischenahn, Deutschland","Country":"DEU","State":"Niedersachsen","County":"Ammerland","City":"Bad Zwischenahn","District":"Bad Zwischenahn","Street":"Weißer Weg","HouseNumber":"11","PostalCode":"26160","AdditionalData":[{"value":"Deutschland","key":"CountryName"},{"value":"Niedersachsen","key":"StateName"},{"value":"Ammerland","key":"CountyName"}]},"MapReference":{"ReferenceId":"83703367","Spot":0.61,"SideOfStreet":"left","CountryId":"20147700","StateId":"20151542","CountyId":"20155946","CityId":"20155954","DistrictId":"20155963","AddressId":"208541959","RoadLinkId":"36983730"}}},{"Relevance":1.0,"Distance":57.3,"MatchLevel":"houseNumber","MatchQuality":{"Country":1.0,"State":1.0,"County":1.0,"City":1.0,"District":1.0,"Street":[1.0],"HouseNumber":1.0,"PostalCode":1.0},"MatchType":"interpolated","Location":{"LocationId":"NT_rJxjCrN-zsBfKQL6orj5PA_yA","LocationType":"point","DisplayPosition":{"Latitude":53.1809,"Longitude":8.02315},"MapView":{"TopLeft":{"Latitude":53.1820242,"Longitude":8.0212742},"BottomRight":{"Latitude":53.1797758,"Longitude":8.0250258}},"Address":{"Label":"Oldenburger Straße 2, 26160 Bad Zwischenahn, Deutschland","Country":"DEU","State":"Niedersachsen","County":"Ammerland","City":"Bad Zwischenahn","District":"Bad Zwischenahn","Street":"Oldenburger Straße","HouseNumber":"2","PostalCode":"26160","AdditionalData":[{"value":"Deutschland","key":"CountryName"},{"value":"Niedersachsen","key":"StateName"},{"value":"Ammerland","key":"CountyName"}]},"MapReference":{"ReferenceId":"83703383","Spot":0.91,"SideOfStreet":"left","CountryId":"20147700","StateId":"20151542","CountyId":"20155946","CityId":"20155954","DistrictId":"20155963","AddressId":"179464165","RoadLinkId":"36536623"}}},{"Relevance":1.0,"Distance":68.3,"MatchLevel":"street","MatchQuality":{"Country":1.0,"State":1.0,"County":1.0,"City":1.0,"District":1.0,"Street":[1.0],"PostalCode":1.0},"Location":{"LocationId":"NT_FRI7FUjtQrt4y9uM3-kHDB_l_540612447_R","LocationType":"point","DisplayPosition":{"Latitude":53.1809,"Longitude":8.0232},"MapView":{"TopLeft":{"Latitude":53.1809,"Longitude":8.0232},"BottomRight":{"Latitude":53.18043,"Longitude":8.02345}},"Address":{"Label":"Hermann-Löns-Straße, 26160 Bad Zwischenahn, Deutschland","Country":"DEU","State":"Niedersachsen","County":"Ammerland","City":"Bad Zwischenahn","District":"Bad Zwischenahn","Street":"Hermann-Löns-Straße","PostalCode":"26160","AdditionalData":[{"value":"Deutschland","key":"CountryName"},{"value":"Niedersachsen","key":"StateName"},{"value":"Ammerland","key":"CountyName"}]},"MapReference":{"ReferenceId":"540612447","Spot":1.0,"SideOfStreet":"right","CountryId":"20147700","StateId":"20151542","CountyId":"20155946","CityId":"20155954","DistrictId":"20155963"}}},{"Relevance":1.0,"Distance":74.5,"MatchLevel":"houseNumber","MatchQuality":{"Country":1.0,"State":1.0,"County":1.0,"City":1.0,"District":1.0,"Street":[1.0],"HouseNumber":1.0,"PostalCode":1.0},"MatchType":"interpolated","Location":{"LocationId":"NT_rJxjCrN-zsBfKQL6orj5PA_zcD","LocationType":"point","DisplayPosition":{"Latitude":53.18104,"Longitude":8.02488},"MapView":{"TopLeft":{"Latitude":53.1821642,"Longitude":8.0230042},"BottomRight":{"Latitude":53.1799158,"Longitude":8.0267558}},"Address":{"Label":"Oldenburger Straße 37, 26160 Bad Zwischenahn, Deutschland","Country":"DEU","State":"Niedersachsen","County":"Ammerland","City":"Bad Zwischenahn","District":"Bad Zwischenahn","Street":"Oldenburger Straße","HouseNumber":"37","PostalCode":"26160","AdditionalData":[{"value":"Deutschland","key":"CountryName"},{"value":"Niedersachsen","key":"StateName"},{"value":"Ammerland","key":"CountyName"}]},"MapReference":{"ReferenceId":"1193158434","Spot":0.25,"SideOfStreet":"right","CountryId":"20147700","StateId":"20151542","CountyId":"20155946","CityId":"20155954","DistrictId":"20155963","AddressId":"181109288","RoadLinkId":"502938674"}}},{"Relevance":1.0,"Distance":77.8,"MatchLevel":"houseNumber","MatchQuality":{"Country":1.0,"State":1.0,"County":1.0,"City":1.0,"District":1.0,"Street":[1.0],"HouseNumber":1.0,"PostalCode":1.0},"MatchType":"interpolated","Location":{"LocationId":"NT_2b7Z7ED5X3dwQjIYh9qyYB_2EE","LocationType":"point","DisplayPosition":{"Latitude":53.18208,"Longitude":8.0239},"MapView":{"TopLeft":{"Latitude":53.1832042,"Longitude":8.0220241},"BottomRight":{"Latitude":53.1809558,"Longitude":8.0257759}},"Address":{"Label":"Weißer Weg 6A, 26160 Bad Zwischenahn, Deutschland","Country":"DEU","State":"Niedersachsen","County":"Ammerland","City":"Bad Zwischenahn","District":"Bad Zwischenahn","Street":"Weißer Weg","HouseNumber":"6A","PostalCode":"26160","AdditionalData":[{"value":"Deutschland","key":"CountryName"},{"value":"Niedersachsen","key":"StateName"},{"value":"Ammerland","key":"CountyName"}]},"MapReference":{"ReferenceId":"83703372","Spot":0.29,"SideOfStreet":"left","CountryId":"20147700","StateId":"20151542","CountyId":"20155946","CityId":"20155954","DistrictId":"20155963","AddressId":"181051122","RoadLinkId":"37246871"}}},{"Relevance":1.0,"Distance":95.6,"MatchLevel":"street","MatchQuality":{"Country":1.0,"State":1.0,"County":1.0,"City":1.0,"District":1.0,"Street":[1.0],"PostalCode":1.0},"Location":{"LocationId":"NT_eMuNkmqQfsb4yasK8hYwyC_l_83703370_R","LocationType":"point","DisplayPosition":{"Latitude":53.1809906,"Longitude":8.0225908},"MapView":{"TopLeft":{"Latitude":53.18146,"Longitude":8.02246},"BottomRight":{"Latitude":53.18085,"Longitude":8.02263}},"Address":{"Label":"Unter den Eichen, 26160 Bad Zwischenahn, Deutschland","Country":"DEU","State":"Niedersachsen","County":"Ammerland","City":"Bad Zwischenahn","District":"Bad Zwischenahn","Street":"Unter den Eichen","PostalCode":"26160","AdditionalData":[{"value":"Deutschland","key":"CountryName"},{"value":"Niedersachsen","key":"StateName"},{"value":"Ammerland","key":"CountyName"}]},"MapReference":{"ReferenceId":"83703370","Spot":0.23,"SideOfStreet":"right","CountryId":"20147700","StateId":"20151542","CountyId":"20155946","CityId":"20155954","DistrictId":"20155963"}}}]}]}}