{"Response":{"MetaInfo":{"Timestamp":"2020-03-28T11:41:15.131+0000","NextPageInformation":"2"},"View":[{"_type":"SearchResultsViewType","ViewId":0,"Result":[{"Relevance":1.0,"Distance":0.0,"Direction":0.0,"MatchLevel":"district","MatchQuality":{"Country":1.0,"State":1.0,"County":1.0,"City":1.0,"District":1.0,"PostalCode":1.0},"Location":{"LocationId":"NT_0ZArMxHVenBkt8cltdYZmB","LocationType":"point","DisplayPosition":{"Latitude":53.165832,"Longitude":7.450128},"MapView":{"TopLeft":{"Latitude":53.17801,"Longitude":7.44536},"BottomRight":{"Latitude":53.15522,"Longitude":7.47761}},"Address":{"Label":"Ihrhove, Westoverledingen, Niedersachsen, Deutschland","Country":"DEU","State":"Niedersachsen","County":"Leer","City":"Westoverledingen","District":"Ihrhove","PostalCode":"26810","AdditionalData":[{"value":"Deutschland","key":"CountryName"},{"value":"Niedersachsen","key":"StateName"},{"value":"Leer","key":"CountyName"}]},"MapReference":{"ReferenceId":"808272866","SideOfStreet":"neither","CountryId":"20147700","StateId":"20151542","CountyId":"20156694","CityId":"20156796","DistrictId":"20156802"}}},{"Relevance":1.0,"Distance":1.2,"MatchLevel":"houseNumber","MatchQuality":{"Country":1.0,"State":1.0,"County":1.0,"City":1.0,"District":1.0,"Street":[1.0],"HouseNumber":1.0,"PostalCode":1.0},"MatchType":"interpolated","Location":{"LocationId":"NT_ZksUBpCkwWTUOzM9tKh1bC_xAD","LocationType":"point","DisplayPosition":{"Latitude":53.16597,"Longitude":7.45002},"MapView":{"TopLeft":{"Latitude":53.1670942,"Longitude":7.4481448},"BottomRight":{"Latitude":53.1648458,"Longitude":7.4518952}},"Address":{"Label":"Bahnhofstraße 10, 26810 Westoverledingen, Deutschland","Country":"DEU","State":"Niedersachsen","County":"Leer","City":"Westoverledingen","District":"Ihrhove","Street":"Bahnhofstraße","HouseNumber":"10","PostalCode":"26810","AdditionalData":[{"value":"Deutschland","key":"CountryName"},{"value":"Niedersachsen","key":"StateName"},{"value":"Leer","key":"CountyName"}]},"MapReference":{"ReferenceId":"1207233414","Spot":0.55,"SideOfStreet":"right","CountryId":"20147700","StateId":"20151542","CountyId":"20156694","CityId":"20156796","DistrictId":"20156802","AddressId":"179505169","RoadLinkId":"521383527"}}},{"Relevance":1.0,"Distance":75.1,"MatchLevel":"houseNumber","MatchQuality":{"Country":1.0,"State":1.0,"County":1.0,"City":1.0,"District":1.0,"Street":[1.0],"HouseNumber":1.0,"PostalCode":1.0},"MatchType":"interpolated","Location":{"LocationId":"NT_w4G.hfpkXozEQzqgaSdOTA_zA","LocationType":"point","DisplayPosition":{"Latitude":53.16504,"Longitude":7.45028},"MapView":{"TopLeft":{"Latitude":53.1661642,"Longitude":7.4484049},"BottomRight":{"Latitude":53.1639158,"Longitude":7.4521551}},"Address":{"Label":"An der Blinke 3, 26810 Westoverledingen, Deutschland","Country":"DEU","State":"Niedersachsen","County":"Leer","City":"Westoverledingen","District":"Ihrhove","Street":"An der Blinke","HouseNumber":"3","PostalCode":"26810","AdditionalData":[{"value":"Deutschland","key":"CountryName"},{"value":"Niedersachsen","key":"StateName"},{"value":"Leer","key":"CountyName"}]},"MapReference":{"ReferenceId":"83690003","Spot":1.0,"SideOfStreet":"left","CountryId":"20147700","StateId":"20151542","CountyId":"20156694","CityId":"20156796","DistrictId":"20156802","AddressId":"249852246","RoadLinkId":"36991969"}}},{"Relevance":1.0,"Distance":113.4,"MatchLevel":"street","MatchQuality":{"Country":1.0,"State":1.0,"County":1.0,"City":1.0,"District":1.0,"Street":[1.0],"PostalCode":1.0},"Location":{"LocationId":"NT_p3SEdUqODXPNnsdBpMGVtB_l_83690011_L","LocationType":"point","DisplayPosition":{"Latitude":53.16558,"Longitude":7.44848},"MapView":{"TopLeft":{"Latitude":53.16558,"Longitude":7.44801},"BottomRight":{"Latitude":53.16555,"Longitude":7.44848}},"Address":{"Label":"Deichstraße, 26810 Westoverledingen, Deutschland","Country":"DEU","State":"Niedersachsen","County":"Leer","City":"Westoverledingen","District":"Ihrhove","Street":"Deichstraße","PostalCode":"26810","AdditionalData":[{"value":"Deutschland","key":"CountryName"},{"value":"Niedersachsen","key":"StateName"},{"value":"Leer","key":"CountyName"}]},"MapReference":{"ReferenceId":"83690011","Spot":1.0,"SideOfStreet":"left","CountryId":"20147700","StateId":"20151542","CountyId":"20156694","CityId":"20156796","DistrictId":"20156802"}}},{"Relevance":1.0,"Distance":116.1,"MatchLevel":"street","MatchQuality":{"Country":1.0,"State":1.0,"County":1.0,"City":1.0,"District":1.0,"Street":[1.0],"PostalCode":1.0},"Location":{"LocationId":"NT_p3SEdUqODXPNnsdBpMGVtB_l_83697426_R","LocationType":"point","DisplayPosition":{"Latitude":53.16532,"Longitude":7.44861},"MapView":{"TopLeft":{"Latitude":53.16558,"Longitude":7.44848},"BottomRight":{"Latitude":53.16532,"Longitude":7.44861}},"Address":{"Label":"Blinkstraße, 26810 Westoverledingen, Deutschland","Country":"DEU","State":"Niedersachsen","County":"Leer","City":"Westoverledingen","District":"Ihrhove","Street":"Blinkstraße","PostalCode":"26810","AdditionalData":[{"value":"Deutschland","key":"CountryName"},{"value":"Niedersachsen","key":"StateName"},{"value":"Leer","key":"CountyName"}]},"MapReference":{"ReferenceId":"83697426","Spot":0.0,"SideOfStreet":"right","CountryId":"20147700","StateId":"20151542","CountyId":"20156694","CityId":"20156796","DistrictId":"20156802"}}},{"Relevance":1.0,"Distance":133.5,"MatchLevel":"houseNumber","MatchQuality":{"Country":1.0,"State":1.0,"County":1.0,"City":1.0,"District":1.0,"Street":[1.0],"HouseNumber":1.0,"PostalCode":1.0},"MatchType":"interpolated","Location":{"LocationId":"NT_tnS3nKZgV-CEHLsUnFidMD_3A","LocationType":"point","DisplayPosition":{"Latitude":53.1646,"Longitude":7.44921},"MapView":{"TopLeft":{"Latitude":53.1657242,"Longitude":7.4473349},"BottomRight":{"Latitude":53.1634758,"Longitude":7.4510851}},"Address":{"Label":"Blinkstraße 7, 26810 Westoverledingen, Deutschland","Country":"DEU","State":"Niedersachsen","County":"Leer","City":"Westoverledingen","District":"Ihrhove","Street":"Blinkstraße","HouseNumber":"7","PostalCode":"26810","AdditionalData":[{"value":"Deutschland","key":"CountryName"},{"value":"Niedersachsen","key":"StateName"},{"value":"Leer","key":"CountyName"}]},"MapReference":{"ReferenceId":"83697425","Spot":0.23,"SideOfStreet":"right","CountryId":"20147700","StateId":"20151542","CountyId":"20156694","CityId":"20156796","DistrictId":"20156802","AddressId":"181200376","RoadLinkId":"36294449"}}},{"Relevance":1.0,"Distance":134.7,"MatchLevel":"houseNumber","MatchQuality":{"Country":1.0,"State":1.0,"County":1.0,"City":1.0,"District":1.0,"Street":[1.0],"HouseNumber":1.0,"PostalCode":1.0},"MatchType":"interpolated","Location":{"LocationId":"NT_lpYamdd0Ckkxk3s9Nph2TB_xYD","LocationType":"point","DisplayPosition":{"Latitude":53.16484,"Longitude":7.45181},"MapView":{"TopLeft":{"Latitude":53.1659642,"Longitude":7.4499349},"BottomRight":{"Latitude":53.1637158,"Longitude":7.4536851}},"Address":{"Label":"Großwolder Straße 16, 26810 Westoverledingen, Deutschland","Country":"DEU","State":"Niedersachsen","County":"Leer","City":"Westoverledingen","District":"Ihrhove","Street":"Großwolder Straße","HouseNumber":"16","PostalCode":"26810","AdditionalData":[{"value":"Deutschland","key":"CountryName"},{"value":"Niedersachsen","key":"StateName"},{"value":"Leer","key":"CountyName"}]},"MapReference":{"ReferenceId":"83690008","Spot":0.35,"SideOfStreet":"left","CountryId":"20147700","StateId":"20151542","CountyId":"20156694","CityId":"20156796","DistrictId":"20156802","AddressId":"181373729","RoadLinkId":"37306478"}}},{"Relevance":1.0,"Distance":145.5,"MatchLevel":"houseNumber","MatchQuality":{"Country":1.0,"State":1.0,"County":1.0,"City":1.0,"District":1.0,"Street":[1.0],"HouseNumber":1.0,"PostalCode":1.0},"MatchType":"interpolated","Location":{"LocationId":"NT_ZksUBpCkwWTUOzM9tKh1bC_xgD","LocationType":"point","DisplayPosition":{"Latitude":53.16643,"Longitude":7.45207},"MapView":{"TopLeft":{"Latitude":53.1675542,"Longitude":7.4501948},"BottomRight":{"Latitude":53.1653058,"Longitude":7.4539452}},"Address":{"Label":"Bahnhofstraße 18, 26810 Westoverledingen, Deutschland","Country":"DEU","State":"Niedersachsen","County":"Leer","City":"Westoverledingen","District":"Ihrhove","Street":"Bahnhofstraße","HouseNumber":"18","PostalCode":"26810","AdditionalData":[{"value":"Deutschland","key":"CountryName"},{"value":"Niedersachsen","key":"StateName"},{"value":"Leer","key":"CountyName"}]},"MapReference":{"ReferenceId":"1207233415","Spot":0.47,"SideOfStreet":"right","CountryId":"20147700","StateId":"20151542","CountyId":"20156694","CityId":"20156796","DistrictId":"20156802","AddressId":"181594073","RoadLinkId":"521383528"}}},{"Relevance":1.0,"Distance":148.3,"MatchLevel":"houseNumber","MatchQuality":{"Country":1.0,"State":1.0,"County":1.0,"City":1.0,"District":1.0,"Street":[1.0],"HouseNumber":1.0,"PostalCode":1.0},"MatchType":"interpolated","Location":{"LocationId":"NT_5GwCo.xw9HxW8R-YCArmcC_yETQ","LocationType":"point","DisplayPosition":{"Latitude":53.16734,"Longitude":7.44949},"MapView":{"TopLeft":{"Latitude":53.1684642,"Longitude":7.4476148},"BottomRight":{"Latitude":53.1662158,"Longitude":7.4513652}},"Address":{"Label":"Ihrhover Kirchstraße 21A, 26810 Westoverledingen, Deutschland","Country":"DEU","State":"Niedersachsen","County":"Leer","City":"Westoverledingen","District":"Ihrhove","Street":"Ihrhover Kirchstraße","HouseNumber":"21A","PostalCode":"26810","AdditionalData":[{"value":"Deutschland","key":"CountryName"},{"value":"Niedersachsen","key":"StateName"},{"value":"Leer","key":"CountyName"}]},"MapReference":{"ReferenceId":"83689989","Spot":0.62,"SideOfStreet":"right","CountryId":"20147700","StateId":"20151542","CountyId":"20156694","CityId":"20156796","DistrictId":"20156802","AddressId":"180658481","RoadLinkId":"37055401"}}},{"Relevance":1.0,"Distance":159.9,"MatchLevel":"houseNumber","MatchQuality":{"Country":1.0,"State":1.0,"County":1.0,"City":1.0,"District":1.0,"Street":[1.0],"HouseNumber":1.0,"PostalCode":1.0},"MatchType":"interpolated","Location":{"LocationId":"NT_tnS3nKZgV-CEHLsUnFidMD_5A","LocationType":"point","DisplayPosition":{"Latitude":53.16431,"Longitude":7.44961},"MapView":{"TopLeft":{"Latitude":53.1654342,"Longitude":7.4477349},"BottomRight":{"Latitude":53.1631858,"Longitude":7.4514851}},"Address":{"Label":"Blinkstraße 9, 26810 Westoverledingen, Deutschland","Country":"DEU","State":"Niedersachsen","County":"Leer","City":"Westoverledingen","District":"Ihrhove","Street":"Blinkstraße","HouseNumber":"9","PostalCode":"26810","AdditionalData":[{"value":"Deutschland","key":"CountryName"},{"value":"Niedersachsen","key":"StateName"},{"value":"Leer","key":"CountyName"}]},"MapReference":{"ReferenceId":"83690372","Spot":0.71,"SideOfStreet":"right","CountryId":"20147700","StateId":"20151542","CountyId":"20156694","CityId":"20156796","DistrictId":"20156802","AddressId":"177688161","RoadLinkId":"37170221"}}}]}]}}