{"Response":{"MetaInfo":{"Timestamp":"2020-03-28T12:01:02.789+0000","NextPageInformation":"2"},"View":[{"_type":"SearchResultsViewType","ViewId":0,"Result":[{"Relevance":1.0,"Distance":0.0,"Direction":0.0,"MatchLevel":"district","MatchQuality":{"Country":1.0,"State":1.0,"County":1.0,"City":1.0,"District":1.0,"PostalCode":1.0},"Location":{"LocationId":"NT_jIPhci0vrqjSDLjje4zo6D","LocationType":"point","DisplayPosition":{"Latitude":53.1903056,"Longitude":-2.530732},"MapView":{"TopLeft":{"Latitude":53.2106,"Longitude":-2.56315},"BottomRight":{"Latitude":53.16814,"Longitude":-2.47817}},"Address":{"Label":"Winsford, England, United Kingdom","Country":"GBR","State":"England","County":"Cheshire","City":"Winsford","District":"Winsford","PostalCode":"CW7 1","AdditionalData":[{"value":"United Kingdom","key":"CountryName"},{"value":"England","key":"StateName"},{"value":"Cheshire","key":"CountyName"}]},"MapReference":{"ReferenceId":"773973501","SideOfStreet":"neither","StateId":"20248595","CountyId":"20343157","CityId":"20343752","DistrictId":"20343753"}}},{"Relevance":1.0,"Distance":52.8,"MatchLevel":"houseNumber","MatchQuality":{"Country":1.0,"State":1.0,"County":1.0,"City":1.0,"District":1.0,"Street":[1.0],"HouseNumber":1.0,"PostalCode":1.0},"MatchType":"interpolated","Location":{"LocationId":"NT_MANS4DYebOda40b6VmHsNA_l_27043475_L_4A","LocationType":"point","DisplayPosition":{"Latitude":53.190162,"Longitude":-2.5297508},"MapView":{"TopLeft":{"Latitude":53.1912862,"Longitude":-2.531627},"BottomRight":{"Latitude":53.1890379,"Longitude":-2.5278746}},"Address":{"Label":"8 Dene Drive, Winsford, CW7 1BP, United Kingdom","Country":"GBR","State":"England","County":"Cheshire","City":"Winsford","District":"Winsford","Street":"Dene Drive","HouseNumber":"8","PostalCode":"CW7 1BP","AdditionalData":[{"value":"United Kingdom","key":"CountryName"},{"value":"England","key":"StateName"},{"value":"Cheshire","key":"CountyName"}]},"MapReference":{"ReferenceId":"27043475","Spot":0.91,"SideOfStreet":"left","StateId":"20248595","CountyId":"20343157","CityId":"20343752","DistrictId":"20343753"}}},{"Relevance":1.0,"Distance":58.6,"MatchLevel":"houseNumber","MatchQuality":{"Country":1.0,"State":1.0,"County":1.0,"City":1.0,"District":1.0,"Street":[1.0],"HouseNumber":1.0,"PostalCode":1.0},"MatchType":"interpolated","Location":{"LocationId":"NT_MANS4DYebOda40b6VmHsNA_l_27043169_L_2A","LocationType":"point","DisplayPosition":{"Latitude":53.19052,"Longitude":-2.52973},"MapView":{"TopLeft":{"Latitude":53.1916442,"Longitude":-2.5316062},"BottomRight":{"Latitude":53.1893959,"Longitude":-2.5278538}},"Address":{"Label":"6 Dene Drive, Winsford, CW7 1BP, United Kingdom","Country":"GBR","State":"England","County":"Cheshire","City":"Winsford","District":"Winsford","Street":"Dene Drive","HouseNumber":"6","PostalCode":"CW7 1BP","AdditionalData":[{"value":"United Kingdom","key":"CountryName"},{"value":"England","key":"StateName"},{"value":"Cheshire","key":"CountyName"}]},"MapReference":{"ReferenceId":"27043169","Spot":0.22,"SideOfStreet":"left","StateId":"20248595","CountyId":"20343157","CityId":"20343752","DistrictId":"20343753"}}},{"Relevance":1.0,"Distance":66.1,"MatchLevel":"landmark","MatchQuality":{"Country":1.0,"State":1.0,"County":1.0,"City":1.0,"District":1.0,"PostalCode":1.0,"Name":1.0},"Location":{"LocationId":"NT_kYFVCxLwUYq7tVuxiqRX8D_p_HBOCO2wYmqeynryK1ckVQD","LocationType":"shoppingCentre","Name":"Winsford Cross Shopping","DisplayPosition":{"Latitude":53.19095,"Longitude":-2.52662},"MapView":{"TopLeft":{"Latitude":53.19257,"Longitude":-2.53072},"BottomRight":{"Latitude":53.19017,"Longitude":-2.52549}},"Address":{"Label":"Winsford, CW7 1, United Kingdom","Country":"GBR","State":"England","County":"Cheshire","City":"Winsford","District":"Winsford","PostalCode":"CW7 1","AdditionalData":[{"value":"United Kingdom","key":"CountryName"},{"value":"England","key":"StateName"},{"value":"Cheshire","key":"CountyName"}]},"MapReference":{"StateId":"20248595","CountyId":"20343157","CityId":"20343752","DistrictId":"20343753","PlaceId":"18167124"}}},{"Relevance":1.0,"Distance":66.1,"MatchLevel":"street","MatchQuality":{"Country":1.0,"State":1.0,"County":1.0,"City":1.0,"District":1.0,"Street":[1.0],"PostalCode":1.0},"Location":{"LocationId":"NT_r-gZXMCKeQ3ZSh8B5S0QRB_l_27043206_L","LocationType":"point","DisplayPosition":{"Latitude":53.19039,"Longitude":-2.52975},"MapView":{"TopLeft":{"Latitude":53.19039,"Longitude":-2.52975},"BottomRight":{"Latitude":53.19017,"Longitude":-2.52797}},"Address":{"Label":"The Drumber, Winsford, CW7 1, United Kingdom","Country":"GBR","State":"England","County":"Cheshire","City":"Winsford","District":"Winsford","Street":"The Drumber","PostalCode":"CW7 1","AdditionalData":[{"value":"United Kingdom","key":"CountryName"},{"value":"England","key":"StateName"},{"value":"Cheshire","key":"CountyName"}]},"MapReference":{"ReferenceId":"27043206","Spot":1.0,"SideOfStreet":"left","StateId":"20248595","CountyId":"20343157","CityId":"20343752","DistrictId":"20343753"}}},{"Relevance":1.0,"Distance":90.9,"MatchLevel":"houseNumber","MatchQuality":{"Country":1.0,"State":1.0,"County":1.0,"City":1.0,"District":1.0,"Street":[1.0],"HouseNumber":1.0,"PostalCode":1.0},"MatchType":"interpolated","Location":{"LocationId":"NT_EtEVv77qf1X4BgRbEP6VaB_l_27043168_R_zcD","LocationType":"point","DisplayPosition":{"Latitude":53.19049,"Longitude":-2.5321},"MapView":{"TopLeft":{"Latitude":53.1916142,"Longitude":-2.5339762},"BottomRight":{"Latitude":53.1893659,"Longitude":-2.5302238}},"Address":{"Label":"37 Dean Street, Winsford, CW7 1, United Kingdom","Country":"GBR","State":"England","County":"Cheshire","City":"Winsford","District":"Winsford","Street":"Dean Street","HouseNumber":"37","PostalCode":"CW7 1","AdditionalData":[{"value":"United Kingdom","key":"CountryName"},{"value":"England","key":"StateName"},{"value":"Cheshire","key":"CountyName"}]},"MapReference":{"ReferenceId":"27043168","Spot":0.27,"SideOfStreet":"right","StateId":"20248595","CountyId":"20343157","CityId":"20343752","DistrictId":"20343753"}}},{"Relevance":1.0,"Distance":97.4,"MatchLevel":"postalCode","MatchQuality":{"PostalCode":1.0},"MatchType":"interpolated","Location":{"LocationId":"NT_EtEVv77qf1X4BgRbEP6VaB_l_27043168_R_zcD","LocationType":"point","DisplayPosition":{"Latitude":53.19058,"Longitude":-2.53212},"MapView":{"TopLeft":{"Latitude":53.1995732,"Longitude":-2.5471298},"BottomRight":{"Latitude":53.1815868,"Longitude":-2.5171102}},"Address":{"Label":"CW7 1AT, Winsford, England, United Kingdom","Country":"GBR","State":"England","County":"Cheshire","City":"Winsford","PostalCode":"CW7 1AT","AdditionalData":[{"value":"United Kingdom","key":"CountryName"},{"value":"England","key":"StateName"},{"value":"Cheshire","key":"CountyName"}]},"MapReference":{"ReferenceId":"27043168","Spot":0.27,"SideOfStreet":"neither","StateId":"20248595","CountyId":"20343157","CityId":"20343752"}}},{"Relevance":1.0,"Distance":99.8,"MatchLevel":"houseNumber","MatchQuality":{"Country":1.0,"State":1.0,"County":1.0,"City":1.0,"District":1.0,"Street":[1.0],"HouseNumber":1.0,"PostalCode":1.0},"MatchType":"interpolated","Location":{"LocationId":"NT_L0f0CSa13lfIaGdcH8.QID_l_27043354_R_xYD","LocationType":"point","DisplayPosition":{"Latitude":53.1893584,"Longitude":-2.5314144},"MapView":{"TopLeft":{"Latitude":53.1904825,"Longitude":-2.5332906},"BottomRight":{"Latitude":53.1882342,"Longitude":-2.5295383}},"Address":{"Label":"16 Overdene Road, Winsford, CW7 1RU, United Kingdom","Country":"GBR","State":"England","County":"Cheshire","City":"Winsford","District":"Winsford","Street":"Overdene Road","HouseNumber":"16","PostalCode":"CW7 1RU","AdditionalData":[{"value":"United Kingdom","key":"CountryName"},{"value":"England","key":"StateName"},{"value":"Cheshire","key":"CountyName"}]},"MapReference":{"ReferenceId":"27043354","Spot":0.26,"SideOfStreet":"right","StateId":"20248595","CountyId":"20343157","CityId":"20343752","DistrictId":"20343753"}}},{"Relevance":1.0,"Distance":102.6,"MatchLevel":"street","MatchQuality":{"Country":1.0,"State":1.0,"County":1.0,"City":1.0,"District":1.0,"PostalCode":1.0},"Location":{"LocationId":"NT_0DGdYEx8XJZzvEumQTSqfC_l_27043102_R","LocationType":"point","DisplayPosition":{"Latitude":53.19098,"Longitude":-2.52968},"MapView":{"TopLeft":{"Latitude":53.19105,"Longitude":-2.52968},"BottomRight":{"Latitude":53.19098,"Longitude":-2.52927}},"Address":{"Label":"Winsford, CW7 1, United Kingdom","Country":"GBR","State":"England","County":"Cheshire","City":"Winsford","District":"Winsford","PostalCode":"CW7 1","AdditionalData":[{"value":"United Kingdom","key":"CountryName"},{"value":"England","key":"StateName"},{"value":"Cheshire","key":"CountyName"}]},"MapReference":{"ReferenceId":"27043102","Spot":0.0,"SideOfStreet":"right","StateId":"20248595","CountyId":"20343157","CityId":"20343752","DistrictId":"20343753"}}},{"Relevance":1.0,"Distance":102.7,"MatchLevel":"postalCode","MatchQuality":{"PostalCode":1.0},"MatchType":"interpolated","Location":{"LocationId":"NT_MANS4DYebOda40b6VmHsNA_l_27043475_L_4A","LocationType":"point","DisplayPosition":{"Latitude":53.18957,"Longitude":-2.5298},"MapView":{"TopLeft":{"Latitude":53.1985632,"Longitude":-2.5448095},"BottomRight":{"Latitude":53.1805768,"Longitude":-2.5147905}},"Address":{"Label":"CW7 1BP, Winsford, England, United Kingdom","Country":"GBR","State":"England","County":"Cheshire","City":"Winsford","PostalCode":"CW7 1BP","AdditionalData":[{"value":"United Kingdom","key":"CountryName"},{"value":"England","key":"StateName"},{"value":"Cheshire","key":"CountyName"}]},"MapReference":{"ReferenceId":"27043475","Spot":0.91,"SideOfStreet":"neither","StateId":"20248595","CountyId":"20343157","CityId":"20343752"}}}]}]}}