{"Response":{"MetaInfo":{"Timestamp":"2020-03-28T11:32:14.823+0000","NextPageInformation":"2"},"View":[{"_type":"SearchResultsViewType","ViewId":0,"Result":[{"Relevance":1.0,"Distance":0.0,"Direction":0.0,"MatchLevel":"district","MatchQuality":{"Country":1.0,"State":1.0,"County":1.0,"City":1.0,"District":1.0,"PostalCode":1.0},"Location":{"LocationId":"NT_ZBgYN8pk6DCR5i0huqI2jD","LocationType":"point","DisplayPosition":{"Latitude":53.1011525,"Longitude":18.0445249},"MapView":{"TopLeft":{"Latitude":53.20943,"Longitude":17.87388},"BottomRight":{"Latitude":53.07761,"Longitude":18.19858}},"Address":{"Label":"Bydgoszcz, Woj. Kujawsko-Pomorskie, Polska","Country":"POL","State":"Woj. Kujawsko-Pomorskie","County":"Bydgoszcz","City":"Bydgoszcz","District":"Bydgoszcz","PostalCode":"85-023","AdditionalData":[{"value":"Polska","key":"CountryName"},{"value":"Woj. Kujawsko-Pomorskie","key":"StateName"},{"value":"Bydgoszcz","key":"CountyName"}]},"MapReference":{"ReferenceId":"1175421744","SideOfStreet":"neither","CountryId":"20624059","StateId":"20625395","CountyId":"20625396","CityId":"20625397","DistrictId":"20646634"}}},{"Relevance":1.0,"Distance":6.9,"MatchLevel":"street","MatchQuality":{"Country":1.0,"State":1.0,"County":1.0,"City":1.0,"District":1.0,"Street":[1.0],"PostalCode":1.0},"Location":{"LocationId":"NT_T-MKi6YKbuPDhiBrj-GsYB_l_1206762547_L","LocationType":"point","DisplayPosition":{"Latitude":53.10109,"Longitude":18.0445249},"MapView":{"TopLeft":{"Latitude":53.10109,"Longitude":18.04437},"BottomRight":{"Latitude":53.10109,"Longitude":18.04503}},"Address":{"Label":"ulica Solna, 85-862 Bydgoszcz, Polska","Country":"POL","State":"Woj. Kujawsko-Pomorskie","County":"Bydgoszcz","City":"Bydgoszcz","District":"Bydgoszcz","Street":"ulica Solna","PostalCode":"85-862","AdditionalData":[{"value":"Polska","key":"CountryName"},{"value":"Woj. Kujawsko-Pomorskie","key":"StateName"},{"value":"Bydgoszcz","key":"CountyName"}]},"MapReference":{"ReferenceId":"1206762547","Spot":0.23,"SideOfStreet":"left","CountryId":"20624059","StateId":"20625395","CountyId":"20625396","CityId":"20625397","DistrictId":"20646634"}}},{"Relevance":1.0,"Distance":8.9,"MatchLevel":"street","MatchQuality":{"Country":1.0,"State":1.0,"County":1.0,"City":1.0,"District":1.0,"Street":[1.0],"PostalCode":1.0},"Location":{"LocationId":"NT_8HA.hoedFSevaIBsBRSrRC_l_966553033_R","LocationType":"point","DisplayPosition":{"Latitude":53.1011979,"Longitude":18.0444144},"MapView":{"TopLeft":{"Latitude":53.10252,"Longitude":18.04437},"BottomRight":{"Latitude":53.10109,"Longitude":18.04495}},"Address":{"Label":"ulica Szpitalna, 85-826 Bydgoszcz, Polska","Country":"POL","State":"Woj. Kujawsko-Pomorskie","County":"Bydgoszcz","City":"Bydgoszcz","District":"Bydgoszcz","Street":"ulica Szpitalna","PostalCode":"85-826","AdditionalData":[{"value":"Polska","key":"CountryName"},{"value":"Woj. Kujawsko-Pomorskie","key":"StateName"},{"value":"Bydgoszcz","key":"CountyName"}]},"MapReference":{"ReferenceId":"966553033","Spot":0.08,"SideOfStreet":"right","CountryId":"20624059","StateId":"20625395","CountyId":"20625396","CityId":"20625397","DistrictId":"20646634"}}},{"Relevance":1.0,"Distance":12.3,"MatchLevel":"street","MatchQuality":{"Country":1.0,"State":1.0,"County":1.0,"City":1.0,"District":1.0,"PostalCode":1.0},"Location":{"LocationId":"NT_EQ2K.J1KrbqLZ4fSTQkuCA_l_1205388420_L","LocationType":"point","DisplayPosition":{"Latitude":53.10122,"Longitude":18.04467},"MapView":{"TopLeft":{"Latitude":53.10242,"Longitude":18.04467},"BottomRight":{"Latitude":53.10122,"Longitude":18.04564}},"Address":{"Label":"85-826 Bydgoszcz, Polska","Country":"POL","State":"Woj. Kujawsko-Pomorskie","County":"Bydgoszcz","City":"Bydgoszcz","District":"Bydgoszcz","PostalCode":"85-826","AdditionalData":[{"value":"Polska","key":"CountryName"},{"value":"Woj. Kujawsko-Pomorskie","key":"StateName"},{"value":"Bydgoszcz","key":"CountyName"}]},"MapReference":{"ReferenceId":"1205388420","Spot":0.0,"SideOfStreet":"left","CountryId":"20624059","StateId":"20625395","CountyId":"20625396","CityId":"20625397","DistrictId":"20646634"}}},{"Relevance":1.0,"Distance":12.5,"MatchLevel":"street","MatchQuality":{"Country":1.0,"State":1.0,"County":1.0,"City":1.0,"District":1.0,"Street":[1.0],"PostalCode":1.0},"Location":{"LocationId":"NT_8HA.hoedFSevaIBsBRSrRC_l_1176576198_R","LocationType":"point","DisplayPosition":{"Latitude":53.10109,"Longitude":18.04437},"MapView":{"TopLeft":{"Latitude":53.10109,"Longitude":18.04415},"BottomRight":{"Latitude":53.10056,"Longitude":18.04437}},"Address":{"Label":"ulica Szpitalna, 85-826 Bydgoszcz, Polska","Country":"POL","State":"Woj. Kujawsko-Pomorskie","County":"Bydgoszcz","City":"Bydgoszcz","District":"Bydgoszcz","Street":"ulica Szpitalna","PostalCode":"85-826","AdditionalData":[{"value":"Polska","key":"CountryName"},{"value":"Woj. Kujawsko-Pomorskie","key":"StateName"},{"value":"Bydgoszcz","key":"CountyName"}]},"MapReference":{"ReferenceId":"1176576198","Spot":1.0,"SideOfStreet":"right","CountryId":"20624059","StateId":"20625395","CountyId":"20625396","CityId":"20625397","DistrictId":"20646634"}}},{"Relevance":1.0,"Distance":34.4,"MatchLevel":"street","MatchQuality":{"Country":1.0,"State":1.0,"County":1.0,"City":1.0,"District":1.0,"Street":[1.0],"PostalCode":1.0},"Location":{"LocationId":"NT_T-MKi6YKbuPDhiBrj-GsYB_l_1176576209_L","LocationType":"point","DisplayPosition":{"Latitude":53.10109,"Longitude":18.04503},"MapView":{"TopLeft":{"Latitude":53.10114,"Longitude":18.04503},"BottomRight":{"Latitude":53.10109,"Longitude":18.04636}},"Address":{"Label":"ulica Solna, 85-862 Bydgoszcz, Polska","Country":"POL","State":"Woj. Kujawsko-Pomorskie","County":"Bydgoszcz","City":"Bydgoszcz","District":"Bydgoszcz","Street":"ulica Solna","PostalCode":"85-862","AdditionalData":[{"value":"Polska","key":"CountryName"},{"value":"Woj. Kujawsko-Pomorskie","key":"StateName"},{"value":"Bydgoszcz","key":"CountyName"}]},"MapReference":{"ReferenceId":"1176576209","Spot":0.0,"SideOfStreet":"left","CountryId":"20624059","StateId":"20625395","CountyId":"20625396","CityId":"20625397","DistrictId":"20646634"}}},{"Relevance":1.0,"Distance":34.4,"MatchLevel":"street","MatchQuality":{"Country":1.0,"State":1.0,"County":1.0,"City":1.0,"District":1.0,"PostalCode":1.0},"Location":{"LocationId":"NT_EXg73GO3istvFPj8RrshgC_l_1176576210_L","LocationType":"point","DisplayPosition":{"Latitude":53.10109,"Longitude":18.04503},"MapView":{"TopLeft":{"Latitude":53.10109,"Longitude":18.04498},"BottomRight":{"Latitude":53.09994,"Longitude":18.04503}},"Address":{"Label":"85-863 Bydgoszcz, Polska","Country":"POL","State":"Woj. Kujawsko-Pomorskie","County":"Bydgoszcz","City":"Bydgoszcz","District":"Bydgoszcz","PostalCode":"85-863","AdditionalData":[{"value":"Polska","key":"CountryName"},{"value":"Woj. Kujawsko-Pomorskie","key":"StateName"},{"value":"Bydgoszcz","key":"CountyName"}]},"MapReference":{"ReferenceId":"1176576210","Spot":1.0,"SideOfStreet":"left","CountryId":"20624059","StateId":"20625395","CountyId":"20625396","CityId":"20625397","DistrictId":"20646634"}}},{"Relevance":1.0,"Distance":70.5,"MatchLevel":"street","MatchQuality":{"Country":1.0,"State":1.0,"County":1.0,"City":1.0,"District":1.0,"Street":[1.0],"PostalCode":1.0},"Location":{"LocationId":"NT_8HA.hoedFSevaIBsBRSrRC_l_1176576212_R","LocationType":"point","DisplayPosition":{"Latitude":53.10056,"Longitude":18.04415},"MapView":{"TopLeft":{"Latitude":53.10056,"Longitude":18.04391},"BottomRight":{"Latitude":53.09999,"Longitude":18.04415}},"Address":{"Label":"ulica Szpitalna, 85-826 Bydgoszcz, Polska","Country":"POL","State":"Woj. Kujawsko-Pomorskie","County":"Bydgoszcz","City":"Bydgoszcz","District":"Bydgoszcz","Street":"ulica Szpitalna","PostalCode":"85-826","AdditionalData":[{"value":"Polska","key":"CountryName"},{"value":"Woj. Kujawsko-Pomorskie","key":"StateName"},{"value":"Bydgoszcz","key":"CountyName"}]},"MapReference":{"ReferenceId":"1176576212","Spot":1.0,"SideOfStreet":"right","CountryId":"20624059","StateId":"20625395","CountyId":"20625396","CityId":"20625397","DistrictId":"20646634"}}},{"Relevance":1.0,"Distance":70.5,"MatchLevel":"street","MatchQuality":{"Country":1.0,"State":1.0,"County":1.0,"City":1.0,"District":1.0,"PostalCode":1.0},"Location":{"LocationId":"NT_EXg73GO3istvFPj8RrshgC_l_1176576203_R","LocationType":"point","DisplayPosition":{"Latitude":53.10056,"Longitude":18.04415},"MapView":{"TopLeft":{"Latitude":53.10061,"Longitude":18.04346},"BottomRight":{"Latitude":53.10056,"Longitude":18.04415}},"Address":{"Label":"85-863 Bydgoszcz, Polska","Country":"POL","State":"Woj. Kujawsko-Pomorskie","County":"Bydgoszcz","City":"Bydgoszcz","District":"Bydgoszcz","PostalCode":"85-863","AdditionalData":[{"value":"Polska","key":"CountryName"},{"value":"Woj. Kujawsko-Pomorskie","key":"StateName"},{"value":"Bydgoszcz","key":"CountyName"}]},"MapReference":{"ReferenceId":"1176576203","Spot":0.0,"SideOfStreet":"right","CountryId":"20624059","StateId":"20625395","CountyId":"20625396","CityId":"20625397","DistrictId":"20646634"}}},{"Relevance":1.0,"Distance":93.2,"MatchLevel":"street","MatchQuality":{"Country":1.0,"State":1.0,"County":1.0,"City":1.0,"District":1.0,"PostalCode":1.0},"Location":{"LocationId":"NT_EXg73GO3istvFPj8RrshgC_l_1176576204_R","LocationType":"point","DisplayPosition":{"Latitude":53.10061,"Longitude":18.04346},"MapView":{"TopLeft":{"Latitude":53.10084,"Longitude":18.04122},"BottomRight":{"Latitude":53.10061,"Longitude":18.04346}},"Address":{"Label":"85-863 Bydgoszcz, Polska","Country":"POL","State":"Woj. Kujawsko-Pomorskie","County":"Bydgoszcz","City":"Bydgoszcz","District":"Bydgoszcz","PostalCode":"85-863","AdditionalData":[{"value":"Polska","key":"CountryName"},{"value":"Woj. Kujawsko-Pomorskie","key":"StateName"},{"value":"Bydgoszcz","key":"CountyName"}]},"MapReference":{"ReferenceId":"1176576204","Spot":0.0,"SideOfStreet":"right","CountryId":"20624059","StateId":"20625395","CountyId":"20625396","CityId":"20625397","DistrictId":"20646634"}}}]}]}}