{"Response":{"MetaInfo":{"Timestamp":"2020-03-28T10:39:33.128+0000","NextPageInformation":"2"},"View":[{"_type":"SearchResultsViewType","ViewId":0,"Result":[{"Relevance":1.0,"Distance":0.0,"Direction":0.0,"MatchLevel":"district","MatchQuality":{"Country":1.0,"State":1.0,"County":1.0,"City":1.0,"District":1.0,"PostalCode":1.0},"Location":{"LocationId":"NT_IrjdRN464SuaVsFKAvj8eD","LocationType":"point","DisplayPosition":{"Latitude":53.1884193,"Longitude":-1.3533426},"MapView":{"TopLeft":{"Latitude":53.19745,"Longitude":-1.3729},"BottomRight":{"Latitude":53.18421,"Longitude":-1.34226}},"Address":{"Label":"Holmewood, Chesterfield, England, United Kingdom","Country":"GBR","State":"England","County":"Derbyshire","City":"Chesterfield","District":"Holmewood","PostalCode":"S42 5","AdditionalData":[{"value":"United Kingdom","key":"CountryName"},{"value":"England","key":"StateName"},{"value":"Derbyshire","key":"CountyName"}]},"MapReference":{"ReferenceId":"26055034","SideOfStreet":"neither","StateId":"20248595","CountyId":"20343933","CityId":"20353677","DistrictId":"20353701"}}},{"Relevance":1.0,"Distance":5.5,"MatchLevel":"houseNumber","MatchQuality":{"Country":1.0,"State":1.0,"County":1.0,"City":1.0,"District":1.0,"Street":[1.0],"HouseNumber":1.0,"PostalCode":1.0},"MatchType":"interpolated","Location":{"LocationId":"NT_KoBOuebBm.9zfiAfb-07fA_l_840285047_R_xMD","LocationType":"point","DisplayPosition":{"Latitude":53.188505,"Longitude":-1.353385},"MapView":{"TopLeft":{"Latitude":53.1896292,"Longitude":-1.3552611},"BottomRight":{"Latitude":53.1873809,"Longitude":-1.3515088}},"Address":{"Label":"13 Heath Road, Chesterfield, S42 5, United Kingdom","Country":"GBR","State":"England","County":"Derbyshire","City":"Chesterfield","District":"Holmewood","Street":"Heath Road","HouseNumber":"13","PostalCode":"S42 5","AdditionalData":[{"value":"United Kingdom","key":"CountryName"},{"value":"England","key":"StateName"},{"value":"Derbyshire","key":"CountyName"}]},"MapReference":{"ReferenceId":"840285047","Spot":0.51,"SideOfStreet":"right","StateId":"20248595","CountyId":"20343933","CityId":"20353677","DistrictId":"20353701"}}},{"Relevance":1.0,"Distance":16.4,"MatchLevel":"postalCode","MatchQuality":{"PostalCode":1.0},"MatchType":"interpolated","Location":{"LocationId":"NT_KoBOuebBm.9zfiAfb-07fA_l_840285047_R_xMD","LocationType":"point","DisplayPosition":{"Latitude":53.18838,"Longitude":-1.35358},"MapView":{"TopLeft":{"Latitude":53.1973732,"Longitude":-1.3685891},"BottomRight":{"Latitude":53.1793868,"Longitude":-1.3385709}},"Address":{"Label":"S42 5RB, Chesterfield, England, United Kingdom","Country":"GBR","State":"England","County":"Derbyshire","City":"Chesterfield","PostalCode":"S42 5RB","AdditionalData":[{"value":"United Kingdom","key":"CountryName"},{"value":"England","key":"StateName"},{"value":"Derbyshire","key":"CountyName"}]},"MapReference":{"ReferenceId":"840285047","Spot":0.51,"SideOfStreet":"neither","StateId":"20248595","CountyId":"20343933","CityId":"20353677"}}},{"Relevance":1.0,"Distance":21.8,"MatchLevel":"street","MatchQuality":{"Country":1.0,"State":1.0,"County":1.0,"City":1.0,"District":1.0,"Street":[1.0],"PostalCode":1.0},"Location":{"LocationId":"NT_ITd9TfmcUBiifaQBDRscnB_l_26055007_L","LocationType":"point","DisplayPosition":{"Latitude":53.1885893,"Longitude":-1.3531793},"MapView":{"TopLeft":{"Latitude":53.18859,"Longitude":-1.35318},"BottomRight":{"Latitude":53.1881,"Longitude":-1.35267}},"Address":{"Label":"Old Colliery Lane, Chesterfield, S42 5, United Kingdom","Country":"GBR","State":"England","County":"Derbyshire","City":"Chesterfield","District":"Holmewood","Street":"Old Colliery Lane","PostalCode":"S42 5","AdditionalData":[{"value":"United Kingdom","key":"CountryName"},{"value":"England","key":"StateName"},{"value":"Derbyshire","key":"CountyName"}]},"MapReference":{"ReferenceId":"26055007","Spot":1.0,"SideOfStreet":"left","StateId":"20248595","CountyId":"20343933","CityId":"20353677","DistrictId":"20353701"}}},{"Relevance":1.0,"Distance":26.1,"MatchLevel":"houseNumber","MatchQuality":{"Country":1.0,"State":1.0,"County":1.0,"City":1.0,"District":1.0,"Street":[1.0],"HouseNumber":1.0,"PostalCode":1.0},"MatchType":"interpolated","Location":{"LocationId":"NT_KoBOuebBm.9zfiAfb-07fA_l_1225200921_R_xcD","LocationType":"point","DisplayPosition":{"Latitude":53.188385,"Longitude":-1.35373},"MapView":{"TopLeft":{"Latitude":53.1895092,"Longitude":-1.3556061},"BottomRight":{"Latitude":53.1872609,"Longitude":-1.3518538}},"Address":{"Label":"17 Heath Road, Chesterfield, S42 5, United Kingdom","Country":"GBR","State":"England","County":"Derbyshire","City":"Chesterfield","District":"Holmewood","Street":"Heath Road","HouseNumber":"17","PostalCode":"S42 5","AdditionalData":[{"value":"United Kingdom","key":"CountryName"},{"value":"England","key":"StateName"},{"value":"Derbyshire","key":"CountyName"}]},"MapReference":{"ReferenceId":"1225200921","Spot":0.5,"SideOfStreet":"right","StateId":"20248595","CountyId":"20343933","CityId":"20353677","DistrictId":"20353701"}}},{"Relevance":1.0,"Distance":29.7,"MatchLevel":"houseNumber","MatchQuality":{"Country":1.0,"State":1.0,"County":1.0,"City":1.0,"District":1.0,"Street":[1.0],"HouseNumber":1.0,"PostalCode":1.0},"MatchType":"interpolated","Location":{"LocationId":"NT_KoBOuebBm.9zfiAfb-07fA_l_759669361_R_xED","LocationType":"point","DisplayPosition":{"Latitude":53.18866,"Longitude":-1.35298},"MapView":{"TopLeft":{"Latitude":53.1897842,"Longitude":-1.3548561},"BottomRight":{"Latitude":53.1875359,"Longitude":-1.3511038}},"Address":{"Label":"11 Heath Road, Chesterfield, S42 5RB, United Kingdom","Country":"GBR","State":"England","County":"Derbyshire","City":"Chesterfield","District":"Holmewood","Street":"Heath Road","HouseNumber":"11","PostalCode":"S42 5RB","AdditionalData":[{"value":"United Kingdom","key":"CountryName"},{"value":"England","key":"StateName"},{"value":"Derbyshire","key":"CountyName"}]},"MapReference":{"ReferenceId":"759669361","Spot":0.37,"SideOfStreet":"right","StateId":"20248595","CountyId":"20343933","CityId":"20353677","DistrictId":"20353701"}}},{"Relevance":1.0,"Distance":57.2,"MatchLevel":"street","MatchQuality":{"Country":1.0,"State":1.0,"County":1.0,"City":1.0,"District":1.0,"PostalCode":1.0},"Location":{"LocationId":"NT_V-qMYjbRxsg26rTtqv0BtA_l_1066618703_L","LocationType":"point","DisplayPosition":{"Latitude":53.1881,"Longitude":-1.35267},"MapView":{"TopLeft":{"Latitude":53.1881,"Longitude":-1.35267},"BottomRight":{"Latitude":53.18767,"Longitude":-1.3521}},"Address":{"Label":"Chesterfield, S42 5, United Kingdom","Country":"GBR","State":"England","County":"Derbyshire","City":"Chesterfield","District":"Holmewood","PostalCode":"S42 5","AdditionalData":[{"value":"United Kingdom","key":"CountryName"},{"value":"England","key":"StateName"},{"value":"Derbyshire","key":"CountyName"}]},"MapReference":{"ReferenceId":"1066618703","Spot":1.0,"SideOfStreet":"left","StateId":"20248595","CountyId":"20343933","CityId":"20353677","DistrictId":"20353701"}}},{"Relevance":1.0,"Distance":59.5,"MatchLevel":"postalCode","MatchQuality":{"PostalCode":1.0},"MatchType":"interpolated","Location":{"LocationId":"NT_KoBOuebBm.9zfiAfb-07fA_l_1225200920_R_xkD","LocationType":"point","DisplayPosition":{"Latitude":53.18827,"Longitude":-1.3542},"MapView":{"TopLeft":{"Latitude":53.1972632,"Longitude":-1.369209},"BottomRight":{"Latitude":53.1792768,"Longitude":-1.339191}},"Address":{"Label":"S42 5RA, Chesterfield, England, United Kingdom","Country":"GBR","State":"England","County":"Derbyshire","City":"Chesterfield","PostalCode":"S42 5RA","AdditionalData":[{"value":"United Kingdom","key":"CountryName"},{"value":"England","key":"StateName"},{"value":"Derbyshire","key":"CountyName"}]},"MapReference":{"ReferenceId":"1225200920","Spot":0.5,"SideOfStreet":"neither","StateId":"20248595","CountyId":"20343933","CityId":"20353677"}}},{"Relevance":1.0,"Distance":71.4,"MatchLevel":"houseNumber","MatchQuality":{"Country":1.0,"State":1.0,"County":1.0,"City":1.0,"District":1.0,"Street":[1.0],"HouseNumber":1.0,"PostalCode":1.0},"MatchType":"interpolated","Location":{"LocationId":"NT_KoBOuebBm.9zfiAfb-07fA_l_759669362_R_1A","LocationType":"point","DisplayPosition":{"Latitude":53.18885,"Longitude":-1.35244},"MapView":{"TopLeft":{"Latitude":53.1899742,"Longitude":-1.3543161},"BottomRight":{"Latitude":53.1877259,"Longitude":-1.3505638}},"Address":{"Label":"5 Heath Road, Chesterfield, S42 5, United Kingdom","Country":"GBR","State":"England","County":"Derbyshire","City":"Chesterfield","District":"Holmewood","Street":"Heath Road","HouseNumber":"5","PostalCode":"S42 5","AdditionalData":[{"value":"United Kingdom","key":"CountryName"},{"value":"England","key":"StateName"},{"value":"Derbyshire","key":"CountyName"}]},"MapReference":{"ReferenceId":"759669362","Spot":0.24,"SideOfStreet":"right","StateId":"20248595","CountyId":"20343933","CityId":"20353677","DistrictId":"20353701"}}},{"Relevance":1.0,"Distance":72.0,"MatchLevel":"houseNumber","MatchQuality":{"Country":1.0,"State":1.0,"County":1.0,"City":1.0,"District":1.0,"Street":[1.0],"HouseNumber":1.0,"PostalCode":1.0},"MatchType":"interpolated","Location":{"LocationId":"NT_KoBOuebBm.9zfiAfb-07fA_l_1225200920_R_xkD","LocationType":"point","DisplayPosition":{"Latitude":53.1881702,"Longitude":-1.3543402},"MapView":{"TopLeft":{"Latitude":53.1892944,"Longitude":-1.3562163},"BottomRight":{"Latitude":53.1870461,"Longitude":-1.3524641}},"Address":{"Label":"19 Heath Road, Chesterfield, S42 5RB, United Kingdom","Country":"GBR","State":"England","County":"Derbyshire","City":"Chesterfield","District":"Holmewood","Street":"Heath Road","HouseNumber":"19","PostalCode":"S42 5RB","AdditionalData":[{"value":"United Kingdom","key":"CountryName"},{"value":"England","key":"StateName"},{"value":"Derbyshire","key":"CountyName"}]},"MapReference":{"ReferenceId":"1225200920","Spot":0.5,"SideOfStreet":"right","StateId":"20248595","CountyId":"20343933","CityId":"20353677","DistrictId":"20353701"}}}]}]}}