{"Response":{"MetaInfo":{"Timestamp":"2020-03-28T11:01:14.098+0000","NextPageInformation":"2"},"View":[{"_type":"SearchResultsViewType","ViewId":0,"Result":[{"Relevance":1.0,"Distance":-7.8,"MatchLevel":"landmark","MatchQuality":{"Country":1.0,"State":1.0,"County":1.0,"City":1.0,"District":1.0,"Street":[1.0],"HouseNumber":1.0,"PostalCode":1.0,"Name":1.0},"Location":{"LocationId":"NT_uapyZ1Fnp4DV7evDQKEL3C_p_K5ME09BjoS0UjCbU1v5uAC","LocationType":"hospital","Name":"Sana Krankenhaus Templin","DisplayPosition":{"Latitude":53.11968,"Longitude":13.50629},"MapView":{"TopLeft":{"Latitude":53.1208042,"Longitude":13.5044169},"BottomRight":{"Latitude":53.1185558,"Longitude":13.5081631}},"Address":{"Label":"Robert-Koch-Straße 24, 17268 Templin, Deutschland","Country":"DEU","State":"Brandenburg","County":"Uckermark","City":"Templin","District":"Templin","Street":"Robert-Koch-Straße","HouseNumber":"24","PostalCode":"17268","AdditionalData":[{"value":"Deutschland","key":"CountryName"},{"value":"Brandenburg","key":"StateName"},{"value":"Uckermark","key":"CountyName"}]},"MapReference":{"CountryId":"20147700","StateId":"20187428","CountyId":"20189354","CityId":"20189470","DistrictId":"20189472","PlaceId":"1058701633"}}},{"Relevance":1.0,"Distance":0.0,"Direction":0.0,"MatchLevel":"district","MatchQuality":{"Country":1.0,"State":1.0,"County":1.0,"City":1.0,"District":1.0,"PostalCode":1.0},"Location":{"LocationId":"NT_pwGUp533Q2nwHU7QEJFI9A","LocationType":"point","DisplayPosition":{"Latitude":53.1191291,"Longitude":13.5052383},"MapView":{"TopLeft":{"Latitude":53.13148,"Longitude":13.47516},"BottomRight":{"Latitude":53.10177,"Longitude":13.52805}},"Address":{"Label":"Templin, Brandenburg, Deutschland","Country":"DEU","State":"Brandenburg","County":"Uckermark","City":"Templin","District":"Templin","PostalCode":"17268","AdditionalData":[{"value":"Deutschland","key":"CountryName"},{"value":"Brandenburg","key":"StateName"},{"value":"Uckermark","key":"CountyName"}]},"MapReference":{"ReferenceId":"1255030651","SideOfStreet":"neither","CountryId":"20147700","StateId":"20187428","CountyId":"20189354","CityId":"20189470","DistrictId":"20189472"}}},{"Relevance":1.0,"Distance":8.0,"MatchLevel":"houseNumber","MatchQuality":{"Country":1.0,"State":1.0,"County":1.0,"City":1.0,"District":1.0,"Street":[1.0],"HouseNumber":1.0,"PostalCode":1.0},"MatchType":"interpolated","Location":{"LocationId":"NT_u13rqEj01XojRSZKm6KqbD_xEE","LocationType":"point","DisplayPosition":{"Latitude":53.11917,"Longitude":13.50514},"MapView":{"TopLeft":{"Latitude":53.1202942,"Longitude":13.5032669},"BottomRight":{"Latitude":53.1180458,"Longitude":13.5070131}},"Address":{"Label":"Heinestraße 1A, 17268 Templin, Deutschland","Country":"DEU","State":"Brandenburg","County":"Uckermark","City":"Templin","District":"Templin","Street":"Heinestraße","HouseNumber":"1A","PostalCode":"17268","AdditionalData":[{"value":"Deutschland","key":"CountryName"},{"value":"Brandenburg","key":"StateName"},{"value":"Uckermark","key":"CountyName"}]},"MapReference":{"ReferenceId":"855147100","Spot":0.16,"SideOfStreet":"left","CountryId":"20147700","StateId":"20187428","CountyId":"20189354","CityId":"20189470","DistrictId":"20189472","AddressId":"182701423","RoadLinkId":"233105541"}}},{"Relevance":1.0,"Distance":24.5,"MatchLevel":"street","MatchQuality":{"Country":1.0,"State":1.0,"County":1.0,"City":1.0,"District":1.0,"Street":[1.0],"PostalCode":1.0},"Location":{"LocationId":"NT_u13rqEj01XojRSZKm6KqbD_l_855147099_R","LocationType":"point","DisplayPosition":{"Latitude":53.11894,"Longitude":13.50505},"MapView":{"TopLeft":{"Latitude":53.11894,"Longitude":13.50437},"BottomRight":{"Latitude":53.11838,"Longitude":13.50505}},"Address":{"Label":"Heinestraße, 17268 Templin, Deutschland","Country":"DEU","State":"Brandenburg","County":"Uckermark","City":"Templin","District":"Templin","Street":"Heinestraße","PostalCode":"17268","AdditionalData":[{"value":"Deutschland","key":"CountryName"},{"value":"Brandenburg","key":"StateName"},{"value":"Uckermark","key":"CountyName"}]},"MapReference":{"ReferenceId":"855147099","Spot":1.0,"SideOfStreet":"right","CountryId":"20147700","StateId":"20187428","CountyId":"20189354","CityId":"20189470","DistrictId":"20189472"}}},{"Relevance":1.0,"Distance":68.4,"MatchLevel":"houseNumber","MatchQuality":{"Country":1.0,"State":1.0,"County":1.0,"City":1.0,"District":1.0,"Street":[1.0],"HouseNumber":1.0,"PostalCode":1.0},"MatchType":"interpolated","Location":{"LocationId":"NT_vYrkuQkvInH2atyRR7iCID_yQD","LocationType":"point","DisplayPosition":{"Latitude":53.11973,"Longitude":13.50614},"MapView":{"TopLeft":{"Latitude":53.1208542,"Longitude":13.5042669},"BottomRight":{"Latitude":53.1186058,"Longitude":13.5080131}},"Address":{"Label":"Robert-Koch-Straße 24, 17268 Templin, Deutschland","Country":"DEU","State":"Brandenburg","County":"Uckermark","City":"Templin","District":"Templin","Street":"Robert-Koch-Straße","HouseNumber":"24","PostalCode":"17268","AdditionalData":[{"value":"Deutschland","key":"CountryName"},{"value":"Brandenburg","key":"StateName"},{"value":"Uckermark","key":"CountyName"}]},"MapReference":{"ReferenceId":"855130240","Spot":0.28,"SideOfStreet":"left","CountryId":"20147700","StateId":"20187428","CountyId":"20189354","CityId":"20189470","DistrictId":"20189472","AddressId":"182489319","RoadLinkId":"233098332"}}},{"Relevance":1.0,"Distance":82.0,"MatchLevel":"street","MatchQuality":{"Country":1.0,"State":1.0,"County":1.0,"City":1.0,"District":1.0,"PostalCode":1.0},"Location":{"LocationId":"NT_f4GdAM9gmLQrvYPwE5PqFD_l_544426440_R","LocationType":"point","DisplayPosition":{"Latitude":53.1191291,"Longitude":13.50401},"MapView":{"TopLeft":{"Latitude":53.1196,"Longitude":13.50375},"BottomRight":{"Latitude":53.11864,"Longitude":13.50401}},"Address":{"Label":"17268 Templin, Deutschland","Country":"DEU","State":"Brandenburg","County":"Uckermark","City":"Templin","District":"Templin","PostalCode":"17268","AdditionalData":[{"value":"Deutschland","key":"CountryName"},{"value":"Brandenburg","key":"StateName"},{"value":"Uckermark","key":"CountyName"}]},"MapReference":{"ReferenceId":"544426440","Spot":0.55,"SideOfStreet":"right","CountryId":"20147700","StateId":"20187428","CountyId":"20189354","CityId":"20189470","DistrictId":"20189472"}}},{"Relevance":1.0,"Distance":95.9,"MatchLevel":"houseNumber","MatchQuality":{"Country":1.0,"State":1.0,"County":1.0,"City":1.0,"District":1.0,"Street":[1.0],"HouseNumber":1.0,"PostalCode":1.0},"MatchType":"interpolated","Location":{"LocationId":"NT_fsRggnkFJ9R6yoXb41sblD_xAjQ","LocationType":"point","DisplayPosition":{"Latitude":53.11869,"Longitude":13.5036},"MapView":{"TopLeft":{"Latitude":53.1198142,"Longitude":13.5017269},"BottomRight":{"Latitude":53.1175658,"Longitude":13.5054731}},"Address":{"Label":"Obere Mühlenstraße 10B, 17268 Templin, Deutschland","Country":"DEU","State":"Brandenburg","County":"Uckermark","City":"Templin","District":"Templin","Street":"Obere Mühlenstraße","HouseNumber":"10B","PostalCode":"17268","AdditionalData":[{"value":"Deutschland","key":"CountryName"},{"value":"Brandenburg","key":"StateName"},{"value":"Uckermark","key":"CountyName"}]},"MapReference":{"ReferenceId":"1190423561","Spot":0.41,"SideOfStreet":"right","CountryId":"20147700","StateId":"20187428","CountyId":"20189354","CityId":"20189470","DistrictId":"20189472","AddressId":"732654848","RoadLinkId":"499785932"}}},{"Relevance":1.0,"Distance":101.5,"MatchLevel":"street","MatchQuality":{"Country":1.0,"State":1.0,"County":1.0,"City":1.0,"District":1.0,"Street":[1.0],"PostalCode":1.0},"Location":{"LocationId":"NT_fsRggnkFJ9R6yoXb41sblD_l_1223893078_R","LocationType":"point","DisplayPosition":{"Latitude":53.11838,"Longitude":13.50437},"MapView":{"TopLeft":{"Latitude":53.11857,"Longitude":13.50393},"BottomRight":{"Latitude":53.11838,"Longitude":13.50437}},"Address":{"Label":"Obere Mühlenstraße, 17268 Templin, Deutschland","Country":"DEU","State":"Brandenburg","County":"Uckermark","City":"Templin","District":"Templin","Street":"Obere Mühlenstraße","PostalCode":"17268","AdditionalData":[{"value":"Deutschland","key":"CountryName"},{"value":"Brandenburg","key":"StateName"},{"value":"Uckermark","key":"CountyName"}]},"MapReference":{"ReferenceId":"1223893078","Spot":0.0,"SideOfStreet":"right","CountryId":"20147700","StateId":"20187428","CountyId":"20189354","CityId":"20189470","DistrictId":"20189472"}}},{"Relevance":1.0,"Distance":105.3,"MatchLevel":"street","MatchQuality":{"Country":1.0,"State":1.0,"County":1.0,"City":1.0,"District":1.0,"PostalCode":1.0},"Location":{"LocationId":"NT_f4GdAM9gmLQrvYPwE5PqFD_l_544589308_R","LocationType":"point","DisplayPosition":{"Latitude":53.1196,"Longitude":13.50387},"MapView":{"TopLeft":{"Latitude":53.12071,"Longitude":13.50303},"BottomRight":{"Latitude":53.1196,"Longitude":13.50387}},"Address":{"Label":"17268 Templin, Deutschland","Country":"DEU","State":"Brandenburg","County":"Uckermark","City":"Templin","District":"Templin","PostalCode":"17268","AdditionalData":[{"value":"Deutschland","key":"CountryName"},{"value":"Brandenburg","key":"StateName"},{"value":"Uckermark","key":"CountyName"}]},"MapReference":{"ReferenceId":"544589308","Spot":0.0,"SideOfStreet":"right","CountryId":"20147700","StateId":"20187428","CountyId":"20189354","CityId":"20189470","DistrictId":"20189472"}}},{"Relevance":1.0,"Distance":107.2,"MatchLevel":"street","MatchQuality":{"Country":1.0,"State":1.0,"County":1.0,"City":1.0,"District":1.0,"Street":[1.0],"PostalCode":1.0},"Location":{"LocationId":"NT_m0wlXKUzP1xgMVkjNNBD1D_l_1223893079_R","LocationType":"point","DisplayPosition":{"Latitude":53.11857,"Longitude":13.50393},"MapView":{"TopLeft":{"Latitude":53.11864,"Longitude":13.50375},"BottomRight":{"Latitude":53.11857,"Longitude":13.50393}},"Address":{"Label":"Obere Mühlenstraße, 17268 Templin, Deutschland","Country":"DEU","State":"Brandenburg","County":"Uckermark","City":"Templin","District":"Templin","Street":"Obere Mühlenstraße","PostalCode":"17268","AdditionalData":[{"value":"Deutschland","key":"CountryName"},{"value":"Brandenburg","key":"StateName"},{"value":"Uckermark","key":"CountyName"}]},"MapReference":{"ReferenceId":"1223893079","Spot":0.0,"SideOfStreet":"right","CountryId":"20147700","StateId":"20187428","CountyId":"20189354","CityId":"20189470","DistrictId":"20189472"}}}]}]}}