{"Response":{"MetaInfo":{"Timestamp":"2020-03-28T10:22:53.621+0000","NextPageInformation":"2"},"View":[{"_type":"SearchResultsViewType","ViewId":0,"Result":[{"Relevance":1.0,"Distance":0.0,"Direction":0.0,"MatchLevel":"district","MatchQuality":{"Country":1.0,"State":1.0,"County":1.0,"City":1.0,"District":1.0,"PostalCode":1.0},"Location":{"LocationId":"NT_Q.gvh6J4sE1bPt1NTk34PD","LocationType":"point","DisplayPosition":{"Latitude":53.1848786,"Longitude":8.2023773},"MapView":{"TopLeft":{"Latitude":53.20481,"Longitude":8.14412},"BottomRight":{"Latitude":53.08339,"Longitude":8.27968}},"Address":{"Label":"Oldenburg (Oldb.), Niedersachsen, Deutschland","Country":"DEU","State":"Niedersachsen","County":"Oldenburg (Oldb.)","City":"Oldenburg (Oldb.)","District":"Oldenburg (Oldb.)","PostalCode":"26122","AdditionalData":[{"value":"Deutschland","key":"CountryName"},{"value":"Niedersachsen","key":"StateName"},{"value":"Oldenburg (Oldb.)","key":"CountyName"}]},"MapReference":{"ReferenceId":"1187410446","SideOfStreet":"neither","CountryId":"20147700","StateId":"20151542","CountyId":"20155900","CityId":"20155901","DistrictId":"20155915"}}},{"Relevance":1.0,"Distance":19.8,"MatchLevel":"houseNumber","MatchQuality":{"Country":1.0,"State":1.0,"County":1.0,"City":1.0,"District":1.0,"Street":[1.0],"HouseNumber":1.0,"PostalCode":1.0},"MatchType":"interpolated","Location":{"LocationId":"NT_NHWFfG4T4nuSzFLgOJaQOC_ygTO","LocationType":"point","DisplayPosition":{"Latitude":53.18517,"Longitude":8.20269},"MapView":{"TopLeft":{"Latitude":53.1862942,"Longitude":8.200814},"BottomRight":{"Latitude":53.1840458,"Longitude":8.204566}},"Address":{"Label":"Weißenmoorstraße 289, 26125 Oldenburg (Oldb.), Deutschland","Country":"DEU","State":"Niedersachsen","County":"Oldenburg (Oldb.)","City":"Oldenburg (Oldb.)","District":"Ofenerdiek","Street":"Weißenmoorstraße","HouseNumber":"289","PostalCode":"26125","AdditionalData":[{"value":"Deutschland","key":"CountryName"},{"value":"Niedersachsen","key":"StateName"},{"value":"Oldenburg (Oldb.)","key":"CountyName"}]},"MapReference":{"ReferenceId":"1187350024","Spot":0.71,"SideOfStreet":"left","CountryId":"20147700","StateId":"20151542","CountyId":"20155900","CityId":"20155901","DistrictId":"20155908","AddressId":"180664952","RoadLinkId":"496026939"}}},{"Relevance":1.0,"Distance":31.1,"MatchLevel":"houseNumber","MatchQuality":{"Country":1.0,"State":1.0,"County":1.0,"City":1.0,"District":1.0,"Street":[1.0],"HouseNumber":1.0,"PostalCode":1.0},"MatchType":"interpolated","Location":{"LocationId":"NT_NHWFfG4T4nuSzFLgOJaQOC_ygzN","LocationType":"point","DisplayPosition":{"Latitude":53.18492,"Longitude":8.20309},"MapView":{"TopLeft":{"Latitude":53.1860442,"Longitude":8.201214},"BottomRight":{"Latitude":53.1837958,"Longitude":8.204966}},"Address":{"Label":"Weißenmoorstraße 287, 26125 Oldenburg (Oldb.), Deutschland","Country":"DEU","State":"Niedersachsen","County":"Oldenburg (Oldb.)","City":"Oldenburg (Oldb.)","District":"Ofenerdiek","Street":"Weißenmoorstraße","HouseNumber":"287","PostalCode":"26125","AdditionalData":[{"value":"Deutschland","key":"CountryName"},{"value":"Niedersachsen","key":"StateName"},{"value":"Oldenburg (Oldb.)","key":"CountyName"}]},"MapReference":{"ReferenceId":"761915721","Spot":0.93,"SideOfStreet":"left","CountryId":"20147700","StateId":"20151542","CountyId":"20155900","CityId":"20155901","DistrictId":"20155908","AddressId":"180555749","RoadLinkId":"156124276"}}},{"Relevance":1.0,"Distance":35.7,"MatchLevel":"houseNumber","MatchQuality":{"Country":1.0,"State":1.0,"County":1.0,"City":1.0,"District":1.0,"Street":[1.0],"HouseNumber":1.0,"PostalCode":1.0},"MatchType":"interpolated","Location":{"LocationId":"NT_NHWFfG4T4nuSzFLgOJaQOC_ykzM","LocationType":"point","DisplayPosition":{"Latitude":53.18527,"Longitude":8.20251},"MapView":{"TopLeft":{"Latitude":53.1863942,"Longitude":8.200634},"BottomRight":{"Latitude":53.1841458,"Longitude":8.204386}},"Address":{"Label":"Weißenmoorstraße 293, 26125 Oldenburg (Oldb.), Deutschland","Country":"DEU","State":"Niedersachsen","County":"Oldenburg (Oldb.)","City":"Oldenburg (Oldb.)","District":"Ofenerdiek","Street":"Weißenmoorstraße","HouseNumber":"293","PostalCode":"26125","AdditionalData":[{"value":"Deutschland","key":"CountryName"},{"value":"Niedersachsen","key":"StateName"},{"value":"Oldenburg (Oldb.)","key":"CountyName"}]},"MapReference":{"ReferenceId":"1187350025","Spot":0.15,"SideOfStreet":"left","CountryId":"20147700","StateId":"20151542","CountyId":"20155900","CityId":"20155901","DistrictId":"20155908","AddressId":"621989620","RoadLinkId":"496026940"}}},{"Relevance":1.0,"Distance":69.5,"MatchLevel":"landmark","MatchQuality":{"Country":1.0,"State":1.0,"County":1.0,"City":1.0,"District":1.0,"PostalCode":1.0,"Name":1.0},"Location":{"LocationId":"NT_gTkmMunfsvASxAgGTi3CpA","LocationType":"industrialComplex","Name":"Großmarkt","DisplayPosition":{"Latitude":53.18389,"Longitude":8.20032},"MapView":{"TopLeft":{"Latitude":53.18597,"Longitude":8.19864},"BottomRight":{"Latitude":53.18181,"Longitude":8.20136}},"Address":{"Label":"26122 Oldenburg (Oldb.), Deutschland","Country":"DEU","State":"Niedersachsen","County":"Oldenburg (Oldb.)","City":"Oldenburg (Oldb.)","District":"Oldenburg (Oldb.)","PostalCode":"26122","AdditionalData":[{"value":"Deutschland","key":"CountryName"},{"value":"Niedersachsen","key":"StateName"},{"value":"Oldenburg (Oldb.)","key":"CountyName"}]},"MapReference":{"CountryId":"20147700","StateId":"20151542","CountyId":"20155900","CityId":"20155901","DistrictId":"20155915","PlaceId":"58212844"}}},{"Relevance":1.0,"Distance":72.1,"MatchLevel":"houseNumber","MatchQuality":{"Country":1.0,"State":1.0,"County":1.0,"City":1.0,"District":1.0,"Street":[1.0],"HouseNumber":1.0,"PostalCode":1.0},"MatchType":"interpolated","Location":{"LocationId":"NT_viSsh35hEPTu1bCUu1XXmA_yA","LocationType":"point","DisplayPosition":{"Latitude":53.18552,"Longitude":8.20222},"MapView":{"TopLeft":{"Latitude":53.1866442,"Longitude":8.200344},"BottomRight":{"Latitude":53.1843958,"Longitude":8.204096}},"Address":{"Label":"Ofenerdieker Straße 2, 26125 Oldenburg (Oldb.), Deutschland","Country":"DEU","State":"Niedersachsen","County":"Oldenburg (Oldb.)","City":"Oldenburg (Oldb.)","District":"Ofenerdiek","Street":"Ofenerdieker Straße","HouseNumber":"2","PostalCode":"26125","AdditionalData":[{"value":"Deutschland","key":"CountryName"},{"value":"Niedersachsen","key":"StateName"},{"value":"Oldenburg (Oldb.)","key":"CountyName"}]},"MapReference":{"ReferenceId":"51859343","Spot":0.0,"SideOfStreet":"right","CountryId":"20147700","StateId":"20151542","CountyId":"20155900","CityId":"20155901","DistrictId":"20155908","AddressId":"256076089","RoadLinkId":"36913097"}}},{"Relevance":1.0,"Distance":77.0,"MatchLevel":"houseNumber","MatchQuality":{"Country":1.0,"State":1.0,"County":1.0,"City":1.0,"District":1.0,"Street":[1.0],"HouseNumber":1.0,"PostalCode":1.0},"MatchType":"interpolated","Location":{"LocationId":"NT_MkRi0tp6nhNQXic9yJrDeC_xYD","LocationType":"point","DisplayPosition":{"Latitude":53.18389,"Longitude":8.20234},"MapView":{"TopLeft":{"Latitude":53.1850142,"Longitude":8.2004641},"BottomRight":{"Latitude":53.1827658,"Longitude":8.2042159}},"Address":{"Label":"Teichhuhnweg 16, 26125 Oldenburg (Oldb.), Deutschland","Country":"DEU","State":"Niedersachsen","County":"Oldenburg (Oldb.)","City":"Oldenburg (Oldb.)","District":"Oldenburg (Oldb.)","Street":"Teichhuhnweg","HouseNumber":"16","PostalCode":"26125","AdditionalData":[{"value":"Deutschland","key":"CountryName"},{"value":"Niedersachsen","key":"StateName"},{"value":"Oldenburg (Oldb.)","key":"CountyName"}]},"MapReference":{"ReferenceId":"51859439","Spot":0.87,"SideOfStreet":"right","CountryId":"20147700","StateId":"20151542","CountyId":"20155900","CityId":"20155901","DistrictId":"20155915","AddressId":"179489957","RoadLinkId":"37205787"}}},{"Relevance":1.0,"Distance":86.6,"MatchLevel":"houseNumber","MatchQuality":{"Country":1.0,"State":1.0,"County":1.0,"City":1.0,"District":1.0,"Street":[1.0],"HouseNumber":1.0,"PostalCode":1.0},"MatchType":"interpolated","Location":{"LocationId":"NT_v4MQrOJ188M98druZUlsdC_ykzN","LocationType":"point","DisplayPosition":{"Latitude":53.1857,"Longitude":8.2019},"MapView":{"TopLeft":{"Latitude":53.1868242,"Longitude":8.200024},"BottomRight":{"Latitude":53.1845758,"Longitude":8.203776}},"Address":{"Label":"Weißenmoorstraße 297, 26125 Oldenburg (Oldb.), Deutschland","Country":"DEU","State":"Niedersachsen","County":"Oldenburg (Oldb.)","City":"Oldenburg (Oldb.)","District":"Oldenburg (Oldb.)","Street":"Weißenmoorstraße","HouseNumber":"297","PostalCode":"26125","AdditionalData":[{"value":"Deutschland","key":"CountryName"},{"value":"Niedersachsen","key":"StateName"},{"value":"Oldenburg (Oldb.)","key":"CountyName"}]},"MapReference":{"ReferenceId":"51859344","Spot":0.51,"SideOfStreet":"left","CountryId":"20147700","StateId":"20151542","CountyId":"20155900","CityId":"20155901","DistrictId":"20155915","AddressId":"256075112","RoadLinkId":"37095160"}}},{"Relevance":1.0,"Distance":123.6,"MatchLevel":"street","MatchQuality":{"Country":1.0,"State":1.0,"County":1.0,"City":1.0,"District":1.0,"Street":[1.0],"PostalCode":1.0},"Location":{"LocationId":"NT_BXuWxF88U9Vy831tWIkMVC_l_51859341_R","LocationType":"point","DisplayPosition":{"Latitude":53.18592,"Longitude":8.20173},"MapView":{"TopLeft":{"Latitude":53.18592,"Longitude":8.2016},"BottomRight":{"Latitude":53.1859,"Longitude":8.20173}},"Address":{"Label":"Am Stadtrand, 26125 Oldenburg (Oldb.), Deutschland","Country":"DEU","State":"Niedersachsen","County":"Oldenburg (Oldb.)","City":"Oldenburg (Oldb.)","District":"Oldenburg (Oldb.)","Street":"Am Stadtrand","PostalCode":"26125","AdditionalData":[{"value":"Deutschland","key":"CountryName"},{"value":"Niedersachsen","key":"StateName"},{"value":"Oldenburg (Oldb.)","key":"CountyName"}]},"MapReference":{"ReferenceId":"51859341","Spot":1.0,"SideOfStreet":"right","CountryId":"20147700","StateId":"20151542","CountyId":"20155900","CityId":"20155901","DistrictId":"20155915"}}},{"Relevance":1.0,"Distance":124.7,"MatchLevel":"street","MatchQuality":{"Country":1.0,"State":1.0,"County":1.0,"City":1.0,"District":1.0,"Street":[1.0],"PostalCode":1.0},"Location":{"LocationId":"NT_BXuWxF88U9Vy831tWIkMVC_l_51859342_R","LocationType":"point","DisplayPosition":{"Latitude":53.18599,"Longitude":8.20213},"MapView":{"TopLeft":{"Latitude":53.18599,"Longitude":8.20173},"BottomRight":{"Latitude":53.18592,"Longitude":8.20213}},"Address":{"Label":"Am Stadtrand, 26125 Oldenburg (Oldb.), Deutschland","Country":"DEU","State":"Niedersachsen","County":"Oldenburg (Oldb.)","City":"Oldenburg (Oldb.)","District":"Oldenburg (Oldb.)","Street":"Am Stadtrand","PostalCode":"26125","AdditionalData":[{"value":"Deutschland","key":"CountryName"},{"value":"Niedersachsen","key":"StateName"},{"value":"Oldenburg (Oldb.)","key":"CountyName"}]},"MapReference":{"ReferenceId":"51859342","Spot":1.0,"SideOfStreet":"right","CountryId":"20147700","StateId":"20151542","CountyId":"20155900","CityId":"20155901","DistrictId":"20155915"}}}]}]}}