{"Response":{"MetaInfo":{"Timestamp":"2020-03-28T10:31:51.211+0000","NextPageInformation":"2"},"View":[{"_type":"SearchResultsViewType","ViewId":0,"Result":[{"Relevance":1.0,"Distance":0.0,"Direction":0.0,"MatchLevel":"district","MatchQuality":{"Country":1.0,"State":1.0,"County":1.0,"City":1.0,"District":1.0,"PostalCode":1.0},"Location":{"LocationId":"NT_fDjCWDn37rvjoCAGevfPiA","LocationType":"point","DisplayPosition":{"Latitude":53.1646339,"Longitude":-1.4770488},"MapView":{"TopLeft":{"Latitude":53.20724,"Longitude":-1.58041},"BottomRight":{"Latitude":53.12983,"Longitude":-1.45412}},"Address":{"Label":"Ashover, Chesterfield, England, United Kingdom","Country":"GBR","State":"England","County":"Derbyshire","City":"Chesterfield","District":"Ashover","PostalCode":"S45 0","AdditionalData":[{"value":"United Kingdom","key":"CountryName"},{"value":"England","key":"StateName"},{"value":"Derbyshire","key":"CountyName"}]},"MapReference":{"ReferenceId":"26055991","SideOfStreet":"neither","StateId":"20248595","CountyId":"20343933","CityId":"20353677","DistrictId":"20353682"}}},{"Relevance":1.0,"Distance":50.0,"MatchLevel":"street","MatchQuality":{"Country":1.0,"State":1.0,"County":1.0,"City":1.0,"District":1.0,"Street":[1.0],"PostalCode":1.0},"Location":{"LocationId":"NT_dmU6L3qryDuY404LrdVk1B_l_1268267096_L","LocationType":"point","DisplayPosition":{"Latitude":53.1650824,"Longitude":-1.4770076},"MapView":{"TopLeft":{"Latitude":53.16509,"Longitude":-1.47781},"BottomRight":{"Latitude":53.1647,"Longitude":-1.47349}},"Address":{"Label":"Milken Lane, Chesterfield, S45 0, United Kingdom","Country":"GBR","State":"England","County":"Derbyshire","City":"Chesterfield","District":"Ashover","Street":"Milken Lane","PostalCode":"S45 0","AdditionalData":[{"value":"United Kingdom","key":"CountryName"},{"value":"England","key":"StateName"},{"value":"Derbyshire","key":"CountyName"}]},"MapReference":{"ReferenceId":"1268267096","Spot":0.81,"SideOfStreet":"left","StateId":"20248595","CountyId":"20343933","CityId":"20353677","DistrictId":"20353682"}}},{"Relevance":1.0,"Distance":66.5,"MatchLevel":"street","MatchQuality":{"Country":1.0,"State":1.0,"County":1.0,"City":1.0,"District":1.0,"Street":[1.0],"PostalCode":1.0},"Location":{"LocationId":"NT_vmpzYVWOEJ.tDkagBT2ofD_l_26083416_R","LocationType":"point","DisplayPosition":{"Latitude":53.16502,"Longitude":-1.47781},"MapView":{"TopLeft":{"Latitude":53.16502,"Longitude":-1.47839},"BottomRight":{"Latitude":53.16492,"Longitude":-1.47781}},"Address":{"Label":"Church Street, Chesterfield, S45 0, United Kingdom","Country":"GBR","State":"England","County":"Derbyshire","City":"Chesterfield","District":"Ashover","Street":"Church Street","PostalCode":"S45 0","AdditionalData":[{"value":"United Kingdom","key":"CountryName"},{"value":"England","key":"StateName"},{"value":"Derbyshire","key":"CountyName"}]},"MapReference":{"ReferenceId":"26083416","Spot":1.0,"SideOfStreet":"right","StateId":"20248595","CountyId":"20343933","CityId":"20353677","DistrictId":"20353682"}}},{"Relevance":1.0,"Distance":75.6,"MatchLevel":"street","MatchQuality":{"Country":1.0,"State":1.0,"County":1.0,"City":1.0,"District":1.0,"Street":[1.0],"PostalCode":1.0},"Location":{"LocationId":"NT_9oiLCXxU.O9YrwKQa972MD_l_26056050_R","LocationType":"point","DisplayPosition":{"Latitude":53.16438,"Longitude":-1.4781},"MapView":{"TopLeft":{"Latitude":53.16466,"Longitude":-1.47889},"BottomRight":{"Latitude":53.16434,"Longitude":-1.4781}},"Address":{"Label":"Dovecotes, Chesterfield, S45 0, United Kingdom","Country":"GBR","State":"England","County":"Derbyshire","City":"Chesterfield","District":"Ashover","Street":"Dovecotes","PostalCode":"S45 0","AdditionalData":[{"value":"United Kingdom","key":"CountryName"},{"value":"England","key":"StateName"},{"value":"Derbyshire","key":"CountyName"}]},"MapReference":{"ReferenceId":"26056050","Spot":0.0,"SideOfStreet":"right","StateId":"20248595","CountyId":"20343933","CityId":"20353677","DistrictId":"20353682"}}},{"Relevance":1.0,"Distance":83.3,"MatchLevel":"postalCode","MatchQuality":{"PostalCode":1.0},"Location":{"LocationId":"NT_vmpzYVWOEJ.tDkagBT2ofD_l_26056019_R","LocationType":"point","DisplayPosition":{"Latitude":53.16445,"Longitude":-1.47826},"MapView":{"TopLeft":{"Latitude":53.1734432,"Longitude":-1.4932607},"BottomRight":{"Latitude":53.1554568,"Longitude":-1.4632593}},"Address":{"Label":"S45 0AD, Chesterfield, England, United Kingdom","Country":"GBR","State":"England","County":"Derbyshire","City":"Chesterfield","PostalCode":"S45 0AD","AdditionalData":[{"value":"United Kingdom","key":"CountryName"},{"value":"England","key":"StateName"},{"value":"Derbyshire","key":"CountyName"}]},"MapReference":{"ReferenceId":"26056019","Spot":1.0,"SideOfStreet":"neither","StateId":"20248595","CountyId":"20343933","CityId":"20353677"}}},{"Relevance":1.0,"Distance":95.3,"MatchLevel":"street","MatchQuality":{"Country":1.0,"State":1.0,"County":1.0,"City":1.0,"District":1.0,"Street":[1.0],"PostalCode":1.0},"Location":{"LocationId":"NT_vmpzYVWOEJ.tDkagBT2ofD_l_26056019_R","LocationType":"point","DisplayPosition":{"Latitude":53.16493,"Longitude":-1.47839},"MapView":{"TopLeft":{"Latitude":53.16493,"Longitude":-1.47889},"BottomRight":{"Latitude":53.16466,"Longitude":-1.47839}},"Address":{"Label":"Church Street, Chesterfield, S45 0, United Kingdom","Country":"GBR","State":"England","County":"Derbyshire","City":"Chesterfield","District":"Ashover","Street":"Church Street","PostalCode":"S45 0","AdditionalData":[{"value":"United Kingdom","key":"CountryName"},{"value":"England","key":"StateName"},{"value":"Derbyshire","key":"CountyName"}]},"MapReference":{"ReferenceId":"26056019","Spot":1.0,"SideOfStreet":"right","StateId":"20248595","CountyId":"20343933","CityId":"20353677","DistrictId":"20353682"}}},{"Relevance":1.0,"Distance":122.8,"MatchLevel":"street","MatchQuality":{"Country":1.0,"State":1.0,"County":1.0,"City":1.0,"District":1.0,"Street":[1.0],"PostalCode":1.0},"Location":{"LocationId":"NT_vmpzYVWOEJ.tDkagBT2ofD_l_26056101_R","LocationType":"point","DisplayPosition":{"Latitude":53.16466,"Longitude":-1.47889},"MapView":{"TopLeft":{"Latitude":53.16466,"Longitude":-1.48},"BottomRight":{"Latitude":53.16375,"Longitude":-1.47889}},"Address":{"Label":"Church Street, Chesterfield, S45 0, United Kingdom","Country":"GBR","State":"England","County":"Derbyshire","City":"Chesterfield","District":"Ashover","Street":"Church Street","PostalCode":"S45 0","AdditionalData":[{"value":"United Kingdom","key":"CountryName"},{"value":"England","key":"StateName"},{"value":"Derbyshire","key":"CountyName"}]},"MapReference":{"ReferenceId":"26056101","Spot":1.0,"SideOfStreet":"right","StateId":"20248595","CountyId":"20343933","CityId":"20353677","DistrictId":"20353682"}}},{"Relevance":1.0,"Distance":137.1,"MatchLevel":"houseNumber","MatchQuality":{"Country":1.0,"State":1.0,"County":1.0,"City":1.0,"District":1.0,"Street":[1.0],"HouseNumber":1.0,"PostalCode":1.0},"MatchType":"interpolated","Location":{"LocationId":"NT_HAvAx3Yi9tgjr-273531nC_l_26055991_R_xA","LocationType":"point","DisplayPosition":{"Latitude":53.1653854,"Longitude":-1.4786801},"MapView":{"TopLeft":{"Latitude":53.1665096,"Longitude":-1.4805552},"BottomRight":{"Latitude":53.1642613,"Longitude":-1.4768049}},"Address":{"Label":"1 Moor Road, Chesterfield, S45 0AJ, United Kingdom","Country":"GBR","State":"England","County":"Derbyshire","City":"Chesterfield","District":"Ashover","Street":"Moor Road","HouseNumber":"1","PostalCode":"S45 0AJ","AdditionalData":[{"value":"United Kingdom","key":"CountryName"},{"value":"England","key":"StateName"},{"value":"Derbyshire","key":"CountyName"}]},"MapReference":{"ReferenceId":"26055991","Spot":0.51,"SideOfStreet":"right","StateId":"20248595","CountyId":"20343933","CityId":"20353677","DistrictId":"20353682"}}},{"Relevance":1.0,"Distance":150.7,"MatchLevel":"postalCode","MatchQuality":{"PostalCode":1.0},"MatchType":"interpolated","Location":{"LocationId":"NT_HAvAx3Yi9tgjr-273531nC_l_26055991_R_xA","LocationType":"point","DisplayPosition":{"Latitude":53.16554,"Longitude":-1.47873},"MapView":{"TopLeft":{"Latitude":53.1745332,"Longitude":-1.4937311},"BottomRight":{"Latitude":53.1565468,"Longitude":-1.4637289}},"Address":{"Label":"S45 0AJ, Chesterfield, England, United Kingdom","Country":"GBR","State":"England","County":"Derbyshire","City":"Chesterfield","PostalCode":"S45 0AJ","AdditionalData":[{"value":"United Kingdom","key":"CountryName"},{"value":"England","key":"StateName"},{"value":"Derbyshire","key":"CountyName"}]},"MapReference":{"ReferenceId":"26055991","Spot":0.51,"SideOfStreet":"neither","StateId":"20248595","CountyId":"20343933","CityId":"20353677"}}},{"Relevance":1.0,"Distance":158.6,"MatchLevel":"postalCode","MatchQuality":{"PostalCode":1.0},"Location":{"LocationId":"NT_vmpzYVWOEJ.tDkagBT2ofD_l_26056101_R","LocationType":"point","DisplayPosition":{"Latitude":53.16421,"Longitude":-1.47932},"MapView":{"TopLeft":{"Latitude":53.1732032,"Longitude":-1.4943206},"BottomRight":{"Latitude":53.1552168,"Longitude":-1.4643194}},"Address":{"Label":"S45 0AB, Chesterfield, England, United Kingdom","Country":"GBR","State":"England","County":"Derbyshire","City":"Chesterfield","PostalCode":"S45 0AB","AdditionalData":[{"value":"United Kingdom","key":"CountryName"},{"value":"England","key":"StateName"},{"value":"Derbyshire","key":"CountyName"}]},"MapReference":{"ReferenceId":"26056101","Spot":1.0,"SideOfStreet":"neither","StateId":"20248595","CountyId":"20343933","CityId":"20353677"}}}]}]}}