{"Response":{"MetaInfo":{"Timestamp":"2020-03-28T10:49:11.403+0000","NextPageInformation":"2"},"View":[{"_type":"SearchResultsViewType","ViewId":0,"Result":[{"Relevance":1.0,"Distance":0.0,"Direction":0.0,"MatchLevel":"district","MatchQuality":{"Country":1.0,"State":1.0,"County":1.0,"City":1.0,"District":1.0,"PostalCode":1.0},"Location":{"LocationId":"NT_ZBgYN8pk6DCR5i0huqI2jD","LocationType":"point","DisplayPosition":{"Latitude":53.1866706,"Longitude":17.9585211},"MapView":{"TopLeft":{"Latitude":53.20943,"Longitude":17.87388},"BottomRight":{"Latitude":53.07761,"Longitude":18.19858}},"Address":{"Label":"Bydgoszcz, Woj. Kujawsko-Pomorskie, Polska","Country":"POL","State":"Woj. Kujawsko-Pomorskie","County":"Bydgoszcz","City":"Bydgoszcz","District":"Bydgoszcz","PostalCode":"85-023","AdditionalData":[{"value":"Polska","key":"CountryName"},{"value":"Woj. Kujawsko-Pomorskie","key":"StateName"},{"value":"Bydgoszcz","key":"CountyName"}]},"MapReference":{"ReferenceId":"1175421744","SideOfStreet":"neither","CountryId":"20624059","StateId":"20625395","CountyId":"20625396","CityId":"20625397","DistrictId":"20646634"}}},{"Relevance":1.0,"Distance":7.7,"MatchLevel":"houseNumber","MatchQuality":{"Country":1.0,"State":1.0,"County":1.0,"City":1.0,"District":1.0,"Street":[1.0],"HouseNumber":1.0,"PostalCode":1.0},"MatchType":"interpolated","Location":{"LocationId":"NT_43Xr-J8huwj8k9l2EsFq5A_xUzM","LocationType":"point","DisplayPosition":{"Latitude":53.18665,"Longitude":17.95842},"MapView":{"TopLeft":{"Latitude":53.1877742,"Longitude":17.9565439},"BottomRight":{"Latitude":53.1855258,"Longitude":17.9602961}},"Address":{"Label":"ulica Opławiec 153, 85-469 Bydgoszcz, Polska","Country":"POL","State":"Woj. Kujawsko-Pomorskie","County":"Bydgoszcz","City":"Bydgoszcz","District":"Bydgoszcz","Street":"ulica Opławiec","HouseNumber":"153","PostalCode":"85-469","AdditionalData":[{"value":"Polska","key":"CountryName"},{"value":"Woj. Kujawsko-Pomorskie","key":"StateName"},{"value":"Bydgoszcz","key":"CountyName"}]},"MapReference":{"ReferenceId":"991159938","Spot":0.98,"SideOfStreet":"right","CountryId":"20624059","StateId":"20625395","CountyId":"20625396","CityId":"20625397","DistrictId":"20646634","AddressId":"701669750","RoadLinkId":"319814400"}}},{"Relevance":1.0,"Distance":27.5,"MatchLevel":"street","MatchQuality":{"Country":1.0,"State":1.0,"County":1.0,"City":1.0,"District":1.0,"PostalCode":1.0},"Location":{"LocationId":"NT_ER7NHC5o4c-VTG63PcsJMC_l_991159937_L","LocationType":"point","DisplayPosition":{"Latitude":53.1865,"Longitude":17.95882},"MapView":{"TopLeft":{"Latitude":53.18664,"Longitude":17.95882},"BottomRight":{"Latitude":53.1865,"Longitude":17.95895}},"Address":{"Label":"85-469 Bydgoszcz, Polska","Country":"POL","State":"Woj. Kujawsko-Pomorskie","County":"Bydgoszcz","City":"Bydgoszcz","District":"Bydgoszcz","PostalCode":"85-469","AdditionalData":[{"value":"Polska","key":"CountryName"},{"value":"Woj. Kujawsko-Pomorskie","key":"StateName"},{"value":"Bydgoszcz","key":"CountyName"}]},"MapReference":{"ReferenceId":"991159937","Spot":0.0,"SideOfStreet":"left","CountryId":"20624059","StateId":"20625395","CountyId":"20625396","CityId":"20625397","DistrictId":"20646634"}}},{"Relevance":1.0,"Distance":27.5,"MatchLevel":"street","MatchQuality":{"Country":1.0,"State":1.0,"County":1.0,"City":1.0,"District":1.0,"PostalCode":1.0},"Location":{"LocationId":"NT_ER7NHC5o4c-VTG63PcsJMC_l_991159936_R","LocationType":"point","DisplayPosition":{"Latitude":53.1865,"Longitude":17.95882},"MapView":{"TopLeft":{"Latitude":53.1865,"Longitude":17.95882},"BottomRight":{"Latitude":53.18617,"Longitude":17.95966}},"Address":{"Label":"85-469 Bydgoszcz, Polska","Country":"POL","State":"Woj. Kujawsko-Pomorskie","County":"Bydgoszcz","City":"Bydgoszcz","District":"Bydgoszcz","PostalCode":"85-469","AdditionalData":[{"value":"Polska","key":"CountryName"},{"value":"Woj. Kujawsko-Pomorskie","key":"StateName"},{"value":"Bydgoszcz","key":"CountyName"}]},"MapReference":{"ReferenceId":"991159936","Spot":1.0,"SideOfStreet":"right","CountryId":"20624059","StateId":"20625395","CountyId":"20625396","CityId":"20625397","DistrictId":"20646634"}}},{"Relevance":1.0,"Distance":80.5,"MatchLevel":"street","MatchQuality":{"Country":1.0,"State":1.0,"County":1.0,"City":1.0,"District":1.0,"Street":[1.0],"PostalCode":1.0},"Location":{"LocationId":"NT_kwurJv7ntv-SSjWqlJNvGA_l_1158101184_L","LocationType":"point","DisplayPosition":{"Latitude":53.1873744,"Longitude":17.9588065},"MapView":{"TopLeft":{"Latitude":53.18818,"Longitude":17.95682},"BottomRight":{"Latitude":53.18728,"Longitude":17.95922}},"Address":{"Label":"ulica Letniskowa, 85-476 Bydgoszcz, Polska","Country":"POL","State":"Woj. Kujawsko-Pomorskie","County":"Bydgoszcz","City":"Bydgoszcz","District":"Bydgoszcz","Street":"ulica Letniskowa","PostalCode":"85-476","AdditionalData":[{"value":"Polska","key":"CountryName"},{"value":"Woj. Kujawsko-Pomorskie","key":"StateName"},{"value":"Bydgoszcz","key":"CountyName"}]},"MapReference":{"ReferenceId":"1158101184","Spot":0.17,"SideOfStreet":"left","CountryId":"20624059","StateId":"20625395","CountyId":"20625396","CityId":"20625397","DistrictId":"20646634"}}},{"Relevance":1.0,"Distance":85.0,"MatchLevel":"street","MatchQuality":{"Country":1.0,"State":1.0,"County":1.0,"City":1.0,"District":1.0,"PostalCode":1.0},"Location":{"LocationId":"NT_UBCwIJTFg9udDAVoJHcZ9A_l_1158101185_L","LocationType":"point","DisplayPosition":{"Latitude":53.18731,"Longitude":17.95922},"MapView":{"TopLeft":{"Latitude":53.18731,"Longitude":17.95922},"BottomRight":{"Latitude":53.18684,"Longitude":17.96037}},"Address":{"Label":"85-476 Bydgoszcz, Polska","Country":"POL","State":"Woj. Kujawsko-Pomorskie","County":"Bydgoszcz","City":"Bydgoszcz","District":"Bydgoszcz","PostalCode":"85-476","AdditionalData":[{"value":"Polska","key":"CountryName"},{"value":"Woj. Kujawsko-Pomorskie","key":"StateName"},{"value":"Bydgoszcz","key":"CountyName"}]},"MapReference":{"ReferenceId":"1158101185","Spot":1.0,"SideOfStreet":"left","CountryId":"20624059","StateId":"20625395","CountyId":"20625396","CityId":"20625397","DistrictId":"20646634"}}},{"Relevance":1.0,"Distance":90.5,"MatchLevel":"houseNumber","MatchQuality":{"Country":1.0,"State":1.0,"County":1.0,"City":1.0,"District":1.0,"Street":[1.0],"HouseNumber":1.0,"PostalCode":1.0},"MatchType":"interpolated","Location":{"LocationId":"NT_kwurJv7ntv-SSjWqlJNvGA_yA","LocationType":"point","DisplayPosition":{"Latitude":53.18735,"Longitude":17.95927},"MapView":{"TopLeft":{"Latitude":53.1884742,"Longitude":17.9573939},"BottomRight":{"Latitude":53.1862258,"Longitude":17.9611461}},"Address":{"Label":"ulica Letniskowa 2, 85-476 Bydgoszcz, Polska","Country":"POL","State":"Woj. Kujawsko-Pomorskie","County":"Bydgoszcz","City":"Bydgoszcz","District":"Bydgoszcz","Street":"ulica Letniskowa","HouseNumber":"2","PostalCode":"85-476","AdditionalData":[{"value":"Polska","key":"CountryName"},{"value":"Woj. Kujawsko-Pomorskie","key":"StateName"},{"value":"Bydgoszcz","key":"CountyName"}]},"MapReference":{"ReferenceId":"1158101183","Spot":0.12,"SideOfStreet":"right","CountryId":"20624059","StateId":"20625395","CountyId":"20625396","CityId":"20625397","DistrictId":"20646634","AddressId":"210157468","RoadLinkId":"464535495"}}},{"Relevance":1.0,"Distance":94.6,"MatchLevel":"street","MatchQuality":{"Country":1.0,"State":1.0,"County":1.0,"City":1.0,"District":1.0,"Street":[1.0],"PostalCode":1.0},"Location":{"LocationId":"NT_43Xr-J8huwj8k9l2EsFq5A_l_982130515_L","LocationType":"point","DisplayPosition":{"Latitude":53.18611,"Longitude":17.95959},"MapView":{"TopLeft":{"Latitude":53.18617,"Longitude":17.95959},"BottomRight":{"Latitude":53.18611,"Longitude":17.95966}},"Address":{"Label":"ulica Opławiec, 85-469 Bydgoszcz, Polska","Country":"POL","State":"Woj. Kujawsko-Pomorskie","County":"Bydgoszcz","City":"Bydgoszcz","District":"Bydgoszcz","Street":"ulica Opławiec","PostalCode":"85-469","AdditionalData":[{"value":"Polska","key":"CountryName"},{"value":"Woj. Kujawsko-Pomorskie","key":"StateName"},{"value":"Bydgoszcz","key":"CountyName"}]},"MapReference":{"ReferenceId":"982130515","Spot":0.0,"SideOfStreet":"left","CountryId":"20624059","StateId":"20625395","CountyId":"20625396","CityId":"20625397","DistrictId":"20646634"}}},{"Relevance":1.0,"Distance":104.6,"MatchLevel":"houseNumber","MatchQuality":{"Country":1.0,"State":1.0,"County":1.0,"City":1.0,"District":1.0,"Street":[1.0],"HouseNumber":1.0,"PostalCode":1.0},"MatchType":"interpolated","Location":{"LocationId":"NT_43Xr-J8huwj8k9l2EsFq5A_xMjMBB","LocationType":"point","DisplayPosition":{"Latitude":53.18656,"Longitude":17.96008},"MapView":{"TopLeft":{"Latitude":53.1876842,"Longitude":17.9582039},"BottomRight":{"Latitude":53.1854358,"Longitude":17.9619561}},"Address":{"Label":"ulica Opławiec 132A, 85-469 Bydgoszcz, Polska","Country":"POL","State":"Woj. Kujawsko-Pomorskie","County":"Bydgoszcz","City":"Bydgoszcz","District":"Bydgoszcz","Street":"ulica Opławiec","HouseNumber":"132A","PostalCode":"85-469","AdditionalData":[{"value":"Polska","key":"CountryName"},{"value":"Woj. Kujawsko-Pomorskie","key":"StateName"},{"value":"Bydgoszcz","key":"CountyName"}]},"MapReference":{"ReferenceId":"982130516","Spot":0.59,"SideOfStreet":"right","CountryId":"20624059","StateId":"20625395","CountyId":"20625396","CityId":"20625397","DistrictId":"20646634","AddressId":"211157254","RoadLinkId":"313934292"}}},{"Relevance":1.0,"Distance":105.8,"MatchLevel":"street","MatchQuality":{"Country":1.0,"State":1.0,"County":1.0,"City":1.0,"District":1.0,"Street":[1.0],"PostalCode":1.0},"Location":{"LocationId":"NT_43Xr-J8huwj8k9l2EsFq5A_l_966736399_L","LocationType":"point","DisplayPosition":{"Latitude":53.1858477,"Longitude":17.9593198},"MapView":{"TopLeft":{"Latitude":53.18611,"Longitude":17.95879},"BottomRight":{"Latitude":53.1853,"Longitude":17.95959}},"Address":{"Label":"ulica Opławiec, 85-469 Bydgoszcz, Polska","Country":"POL","State":"Woj. Kujawsko-Pomorskie","County":"Bydgoszcz","City":"Bydgoszcz","District":"Bydgoszcz","Street":"ulica Opławiec","PostalCode":"85-469","AdditionalData":[{"value":"Polska","key":"CountryName"},{"value":"Woj. Kujawsko-Pomorskie","key":"StateName"},{"value":"Bydgoszcz","key":"CountyName"}]},"MapReference":{"ReferenceId":"966736399","Spot":0.67,"SideOfStreet":"left","CountryId":"20624059","StateId":"20625395","CountyId":"20625396","CityId":"20625397","DistrictId":"20646634"}}}]}]}}