{"Response":{"MetaInfo":{"Timestamp":"2020-03-28T09:57:04.695+0000","NextPageInformation":"2"},"View":[{"_type":"SearchResultsViewType","ViewId":0,"Result":[{"Relevance":1.0,"Distance":0.0,"Direction":0.0,"MatchLevel":"city","MatchQuality":{"Country":1.0,"State":1.0,"County":1.0,"City":1.0,"PostalCode":1.0},"Location":{"LocationId":"NT_gS9oYzQRKD4zFPB0oyx5MB","LocationType":"point","DisplayPosition":{"Latitude":53.1891743,"Longitude":5.7991579},"MapView":{"TopLeft":{"Latitude":53.22418,"Longitude":5.74237},"BottomRight":{"Latitude":53.17344,"Longitude":5.86197}},"Address":{"Label":"Leeuwarden, Friesland, Nederland","Country":"NLD","State":"Friesland","County":"Leeuwarden","City":"Leeuwarden","PostalCode":"8911","AdditionalData":[{"value":"Nederland","key":"CountryName"},{"value":"Friesland","key":"StateName"},{"value":"Leeuwarden","key":"CountyName"}]},"MapReference":{"ReferenceId":"61142675","SideOfStreet":"neither","CountryId":"23055544","StateId":"23055858","CountyId":"23055904","CityId":"20200299"}}},{"Relevance":1.0,"Distance":10.9,"MatchLevel":"houseNumber","MatchQuality":{"Country":1.0,"State":1.0,"County":1.0,"City":1.0,"Street":[1.0],"HouseNumber":1.0,"PostalCode":1.0},"MatchType":"interpolated","Location":{"LocationId":"NT_aPoD5dvcbSeDtGHJfSdNmD_4A","LocationType":"point","DisplayPosition":{"Latitude":53.18908,"Longitude":5.7992},"MapView":{"TopLeft":{"Latitude":53.1902042,"Longitude":5.7973238},"BottomRight":{"Latitude":53.1879558,"Longitude":5.8010762}},"Address":{"Label":"Oostergoweg 8, 8932 PG Leeuwarden, Nederland","Country":"NLD","State":"Friesland","County":"Leeuwarden","City":"Leeuwarden","Street":"Oostergoweg","HouseNumber":"8","PostalCode":"8932 PG","AdditionalData":[{"value":"Nederland","key":"CountryName"},{"value":"Friesland","key":"StateName"},{"value":"Leeuwarden","key":"CountyName"}]},"MapReference":{"ReferenceId":"60975585","Spot":0.28,"SideOfStreet":"left","CountryId":"23055544","StateId":"23055858","CountyId":"23055904","CityId":"20200299","AddressId":"621094486","RoadLinkId":"31177022"}}},{"Relevance":1.0,"Distance":38.0,"MatchLevel":"street","MatchQuality":{"Country":1.0,"State":1.0,"County":1.0,"City":1.0,"Street":[1.0],"PostalCode":1.0},"Location":{"LocationId":"NT_n6-4zsMa5dRzYXJHnYhaPB_l_567137963_L","LocationType":"point","DisplayPosition":{"Latitude":53.1891181,"Longitude":5.7997198},"MapView":{"TopLeft":{"Latitude":53.18912,"Longitude":5.7997},"BottomRight":{"Latitude":53.18892,"Longitude":5.79972}},"Address":{"Label":"Oostergoweg, 8932 Leeuwarden, Nederland","Country":"NLD","State":"Friesland","County":"Leeuwarden","City":"Leeuwarden","Street":"Oostergoweg","PostalCode":"8932","AdditionalData":[{"value":"Nederland","key":"CountryName"},{"value":"Friesland","key":"StateName"},{"value":"Leeuwarden","key":"CountyName"}]},"MapReference":{"ReferenceId":"567137963","Spot":0.99,"SideOfStreet":"left","CountryId":"23055544","StateId":"23055858","CountyId":"23055904","CityId":"20200299"}}},{"Relevance":1.0,"Distance":45.9,"MatchLevel":"street","MatchQuality":{"Country":1.0,"State":1.0,"County":1.0,"City":1.0,"Street":[1.0],"PostalCode":1.0},"Location":{"LocationId":"NT_n6-4zsMa5dRzYXJHnYhaPB_l_567137937_L","LocationType":"point","DisplayPosition":{"Latitude":53.18892,"Longitude":5.7997},"MapView":{"TopLeft":{"Latitude":53.18892,"Longitude":5.79958},"BottomRight":{"Latitude":53.18793,"Longitude":5.7997}},"Address":{"Label":"Oostergoweg, 8932 Leeuwarden, Nederland","Country":"NLD","State":"Friesland","County":"Leeuwarden","City":"Leeuwarden","Street":"Oostergoweg","PostalCode":"8932","AdditionalData":[{"value":"Nederland","key":"CountryName"},{"value":"Friesland","key":"StateName"},{"value":"Leeuwarden","key":"CountyName"}]},"MapReference":{"ReferenceId":"567137937","Spot":1.0,"SideOfStreet":"left","CountryId":"23055544","StateId":"23055858","CountyId":"23055904","CityId":"20200299"}}},{"Relevance":1.0,"Distance":46.7,"MatchLevel":"street","MatchQuality":{"Country":1.0,"State":1.0,"County":1.0,"City":1.0,"Street":[1.0],"PostalCode":1.0},"Location":{"LocationId":"NT_IhV.w7bZwXwu3VVePNQ1DA_l_60975610_R","LocationType":"point","DisplayPosition":{"Latitude":53.18876,"Longitude":5.79904},"MapView":{"TopLeft":{"Latitude":53.18898,"Longitude":5.79724},"BottomRight":{"Latitude":53.18876,"Longitude":5.79904}},"Address":{"Label":"Jellingastraat, 8932 Leeuwarden, Nederland","Country":"NLD","State":"Friesland","County":"Leeuwarden","City":"Leeuwarden","Street":"Jellingastraat","PostalCode":"8932","AdditionalData":[{"value":"Nederland","key":"CountryName"},{"value":"Friesland","key":"StateName"},{"value":"Leeuwarden","key":"CountyName"}]},"MapReference":{"ReferenceId":"60975610","Spot":0.0,"SideOfStreet":"right","CountryId":"23055544","StateId":"23055858","CountyId":"23055904","CityId":"20200299"}}},{"Relevance":1.0,"Distance":51.3,"MatchLevel":"landmark","MatchQuality":{"Country":1.0,"State":1.0,"County":1.0,"City":1.0,"Street":[1.0],"HouseNumber":1.0,"PostalCode":1.0,"Name":1.0},"Location":{"LocationId":"NT_AZO9tXSlSO-hch7PuZflqC_p_HJ6CHMZXIuQkd2-k.KRksB","LocationType":"hospital","Name":"Medisch Centrum Leeuwarden","DisplayPosition":{"Latitude":53.18905,"Longitude":5.80739},"MapView":{"TopLeft":{"Latitude":53.1901742,"Longitude":5.8055138},"BottomRight":{"Latitude":53.1879258,"Longitude":5.8092662}},"Address":{"Label":"Henri Dunantweg 2, 8934 AD Leeuwarden, Nederland","Country":"NLD","State":"Friesland","County":"Leeuwarden","City":"Leeuwarden","Street":"Henri Dunantweg","HouseNumber":"2","PostalCode":"8934 AD","AdditionalData":[{"value":"Nederland","key":"CountryName"},{"value":"Friesland","key":"StateName"},{"value":"Leeuwarden","key":"CountyName"}]},"MapReference":{"CountryId":"23055544","StateId":"23055858","CountyId":"23055904","CityId":"20200299","PlaceId":"50895587"}}},{"Relevance":1.0,"Distance":51.3,"MatchLevel":"street","MatchQuality":{"Country":1.0,"State":1.0,"County":1.0,"City":1.0,"Street":[1.0],"PostalCode":1.0},"Location":{"LocationId":"NT_E5yJxRXFOMz.aub-HtM1WC_l_567137957_L","LocationType":"point","DisplayPosition":{"Latitude":53.1890673,"Longitude":5.7999068},"MapView":{"TopLeft":{"Latitude":53.19096,"Longitude":5.7999},"BottomRight":{"Latitude":53.18902,"Longitude":5.80023}},"Address":{"Label":"Oostergoweg, 8934 Leeuwarden, Nederland","Country":"NLD","State":"Friesland","County":"Leeuwarden","City":"Leeuwarden","Street":"Oostergoweg","PostalCode":"8934","AdditionalData":[{"value":"Nederland","key":"CountryName"},{"value":"Friesland","key":"StateName"},{"value":"Leeuwarden","key":"CountyName"}]},"MapReference":{"ReferenceId":"567137957","Spot":0.02,"SideOfStreet":"left","CountryId":"23055544","StateId":"23055858","CountyId":"23055904","CityId":"20200299"}}},{"Relevance":1.0,"Distance":52.3,"MatchLevel":"street","MatchQuality":{"Country":1.0,"State":1.0,"County":1.0,"City":1.0,"Street":[1.0],"PostalCode":1.0},"Location":{"LocationId":"NT_n6-4zsMa5dRzYXJHnYhaPB_l_567137958_L","LocationType":"point","DisplayPosition":{"Latitude":53.18902,"Longitude":5.7999},"MapView":{"TopLeft":{"Latitude":53.18902,"Longitude":5.79989},"BottomRight":{"Latitude":53.18889,"Longitude":5.7999}},"Address":{"Label":"Oostergoweg, 8932 Leeuwarden, Nederland","Country":"NLD","State":"Friesland","County":"Leeuwarden","City":"Leeuwarden","Street":"Oostergoweg","PostalCode":"8932","AdditionalData":[{"value":"Nederland","key":"CountryName"},{"value":"Friesland","key":"StateName"},{"value":"Leeuwarden","key":"CountyName"}]},"MapReference":{"ReferenceId":"567137958","Spot":1.0,"SideOfStreet":"left","CountryId":"23055544","StateId":"23055858","CountyId":"23055904","CityId":"20200299"}}},{"Relevance":1.0,"Distance":52.3,"MatchLevel":"street","MatchQuality":{"Country":1.0,"State":1.0,"County":1.0,"City":1.0,"Street":[1.0],"PostalCode":1.0},"Location":{"LocationId":"NT_vo4-BZ2dN493.rLDKg5wpB_l_567137961_R","LocationType":"point","DisplayPosition":{"Latitude":53.18902,"Longitude":5.7999},"MapView":{"TopLeft":{"Latitude":53.18902,"Longitude":5.7999},"BottomRight":{"Latitude":53.189,"Longitude":5.80029}},"Address":{"Label":"Borniastraat, 8932 Leeuwarden, Nederland","Country":"NLD","State":"Friesland","County":"Leeuwarden","City":"Leeuwarden","Street":"Borniastraat","PostalCode":"8932","AdditionalData":[{"value":"Nederland","key":"CountryName"},{"value":"Friesland","key":"StateName"},{"value":"Leeuwarden","key":"CountyName"}]},"MapReference":{"ReferenceId":"567137961","Spot":1.0,"SideOfStreet":"right","CountryId":"23055544","StateId":"23055858","CountyId":"23055904","CityId":"20200299"}}},{"Relevance":1.0,"Distance":58.1,"MatchLevel":"street","MatchQuality":{"Country":1.0,"State":1.0,"County":1.0,"City":1.0,"Street":[1.0],"PostalCode":1.0},"Location":{"LocationId":"NT_n6-4zsMa5dRzYXJHnYhaPB_l_567137912_L","LocationType":"point","DisplayPosition":{"Latitude":53.18889,"Longitude":5.79989},"MapView":{"TopLeft":{"Latitude":53.18889,"Longitude":5.79979},"BottomRight":{"Latitude":53.18798,"Longitude":5.79989}},"Address":{"Label":"Oostergoweg, 8932 Leeuwarden, Nederland","Country":"NLD","State":"Friesland","County":"Leeuwarden","City":"Leeuwarden","Street":"Oostergoweg","PostalCode":"8932","AdditionalData":[{"value":"Nederland","key":"CountryName"},{"value":"Friesland","key":"StateName"},{"value":"Leeuwarden","key":"CountyName"}]},"MapReference":{"ReferenceId":"567137912","Spot":1.0,"SideOfStreet":"left","CountryId":"23055544","StateId":"23055858","CountyId":"23055904","CityId":"20200299"}}}]}]}}