{"Response":{"MetaInfo":{"Timestamp":"2020-03-28T09:50:32.319+0000","NextPageInformation":"2"},"View":[{"_type":"SearchResultsViewType","ViewId":0,"Result":[{"Relevance":1.0,"Distance":-8.3,"MatchLevel":"landmark","MatchQuality":{"Country":1.0,"State":1.0,"County":1.0,"City":1.0,"District":1.0,"PostalCode":1.0,"Name":1.0},"Location":{"LocationId":"NT_NSYL7cHPM4b8TkIkJ6.TuA","LocationType":"industrialComplex","Name":"Millennium Business Centre","DisplayPosition":{"Latitude":53.16228,"Longitude":-1.22177},"MapView":{"TopLeft":{"Latitude":53.16527,"Longitude":-1.22714},"BottomRight":{"Latitude":53.15929,"Longitude":-1.21676}},"Address":{"Label":"Mansfield, NG18 5, United Kingdom","Country":"GBR","State":"England","County":"Nottinghamshire","City":"Mansfield","District":"Mansfield","PostalCode":"NG18 5","AdditionalData":[{"value":"United Kingdom","key":"CountryName"},{"value":"England","key":"StateName"},{"value":"Nottinghamshire","key":"CountyName"}]},"MapReference":{"StateId":"20248595","CountyId":"20344764","CityId":"20356712","DistrictId":"20356713","PlaceId":"1407320361"}}},{"Relevance":1.0,"Distance":0.0,"Direction":0.0,"MatchLevel":"district","MatchQuality":{"Country":1.0,"State":1.0,"County":1.0,"City":1.0,"District":1.0,"PostalCode":1.0},"Location":{"LocationId":"NT_mDQ4ra938S0.X2vz4Qy0ED","LocationType":"point","DisplayPosition":{"Latitude":53.1597856,"Longitude":-1.2199376},"MapView":{"TopLeft":{"Latitude":53.17142,"Longitude":-1.24082},"BottomRight":{"Latitude":53.11952,"Longitude":-1.12835}},"Address":{"Label":"Mansfield, England, United Kingdom","Country":"GBR","State":"England","County":"Nottinghamshire","City":"Mansfield","District":"Mansfield","PostalCode":"NG18 5","AdditionalData":[{"value":"United Kingdom","key":"CountryName"},{"value":"England","key":"StateName"},{"value":"Nottinghamshire","key":"CountyName"}]},"MapReference":{"ReferenceId":"854760913","SideOfStreet":"neither","StateId":"20248595","CountyId":"20344764","CityId":"20356712","DistrictId":"20356713"}}},{"Relevance":1.0,"Distance":61.2,"MatchLevel":"street","MatchQuality":{"Country":1.0,"State":1.0,"County":1.0,"City":1.0,"District":1.0,"Street":[1.0],"PostalCode":1.0},"Location":{"LocationId":"NT_b-gbkYB62EMsFYF22XfHpB_l_26273075_L","LocationType":"point","DisplayPosition":{"Latitude":53.15945,"Longitude":-1.21921},"MapView":{"TopLeft":{"Latitude":53.15975,"Longitude":-1.21921},"BottomRight":{"Latitude":53.15945,"Longitude":-1.21867}},"Address":{"Label":"Banchory Close, Mansfield, NG19 7, United Kingdom","Country":"GBR","State":"England","County":"Nottinghamshire","City":"Mansfield","District":"Mansfield","Street":"Banchory Close","PostalCode":"NG19 7","AdditionalData":[{"value":"United Kingdom","key":"CountryName"},{"value":"England","key":"StateName"},{"value":"Nottinghamshire","key":"CountyName"}]},"MapReference":{"ReferenceId":"26273075","Spot":0.0,"SideOfStreet":"left","StateId":"20248595","CountyId":"20344764","CityId":"20356712","DistrictId":"20356713"}}},{"Relevance":1.0,"Distance":70.4,"MatchLevel":"postalCode","MatchQuality":{"PostalCode":1.0},"Location":{"LocationId":"NT_b-gbkYB62EMsFYF22XfHpB_l_26273075_L","LocationType":"point","DisplayPosition":{"Latitude":53.15967,"Longitude":-1.2189},"MapView":{"TopLeft":{"Latitude":53.1686632,"Longitude":-1.233899},"BottomRight":{"Latitude":53.1506768,"Longitude":-1.203901}},"Address":{"Label":"NG19 7HD, Mansfield, England, United Kingdom","Country":"GBR","State":"England","County":"Nottinghamshire","City":"Mansfield","PostalCode":"NG19 7HD","AdditionalData":[{"value":"United Kingdom","key":"CountryName"},{"value":"England","key":"StateName"},{"value":"Nottinghamshire","key":"CountyName"}]},"MapReference":{"ReferenceId":"26273075","Spot":0.0,"SideOfStreet":"neither","StateId":"20248595","CountyId":"20344764","CityId":"20356712"}}},{"Relevance":1.0,"Distance":81.0,"MatchLevel":"houseNumber","MatchQuality":{"Country":1.0,"State":1.0,"County":1.0,"City":1.0,"District":1.0,"Street":[1.0],"HouseNumber":1.0,"PostalCode":1.0},"MatchType":"interpolated","Location":{"LocationId":"NT_-XX30oArSVcyOxM0-INTRD_l_26273113_R_1gD","LocationType":"point","DisplayPosition":{"Latitude":53.1593,"Longitude":-1.2189517},"MapView":{"TopLeft":{"Latitude":53.1604242,"Longitude":-1.2208265},"BottomRight":{"Latitude":53.1581759,"Longitude":-1.2170768}},"Address":{"Label":"58 Balmoral Drive, Mansfield, NG19 7HW, United Kingdom","Country":"GBR","State":"England","County":"Nottinghamshire","City":"Mansfield","District":"Mansfield","Street":"Balmoral Drive","HouseNumber":"58","PostalCode":"NG19 7HW","AdditionalData":[{"value":"United Kingdom","key":"CountryName"},{"value":"England","key":"StateName"},{"value":"Nottinghamshire","key":"CountyName"}]},"MapReference":{"ReferenceId":"26273113","Spot":0.7,"SideOfStreet":"right","StateId":"20248595","CountyId":"20344764","CityId":"20356712","DistrictId":"20356713"}}},{"Relevance":1.0,"Distance":107.4,"MatchLevel":"postalCode","MatchQuality":{"PostalCode":1.0},"Location":{"LocationId":"NT_xHiuEXmEvRGyelhpzY.QzA_l_755546625_R","LocationType":"point","DisplayPosition":{"Latitude":53.15882,"Longitude":-1.21991},"MapView":{"TopLeft":{"Latitude":53.1678132,"Longitude":-1.2349087},"BottomRight":{"Latitude":53.1498268,"Longitude":-1.2049113}},"Address":{"Label":"NG19 7HG, Mansfield, England, United Kingdom","Country":"GBR","State":"England","County":"Nottinghamshire","City":"Mansfield","PostalCode":"NG19 7HG","AdditionalData":[{"value":"United Kingdom","key":"CountryName"},{"value":"England","key":"StateName"},{"value":"Nottinghamshire","key":"CountyName"}]},"MapReference":{"ReferenceId":"755546625","Spot":1.0,"SideOfStreet":"neither","StateId":"20248595","CountyId":"20344764","CityId":"20356712"}}},{"Relevance":1.0,"Distance":107.4,"MatchLevel":"street","MatchQuality":{"Country":1.0,"State":1.0,"County":1.0,"City":1.0,"District":1.0,"Street":[1.0],"PostalCode":1.0},"Location":{"LocationId":"NT_xHiuEXmEvRGyelhpzY.QzA_l_755546625_R","LocationType":"point","DisplayPosition":{"Latitude":53.15882,"Longitude":-1.21999},"MapView":{"TopLeft":{"Latitude":53.15882,"Longitude":-1.22026},"BottomRight":{"Latitude":53.15839,"Longitude":-1.21993}},"Address":{"Label":"Millennium Court, Mansfield, NG19 7, United Kingdom","Country":"GBR","State":"England","County":"Nottinghamshire","City":"Mansfield","District":"Mansfield","Street":"Millennium Court","PostalCode":"NG19 7","AdditionalData":[{"value":"United Kingdom","key":"CountryName"},{"value":"England","key":"StateName"},{"value":"Nottinghamshire","key":"CountyName"}]},"MapReference":{"ReferenceId":"755546625","Spot":1.0,"SideOfStreet":"right","StateId":"20248595","CountyId":"20344764","CityId":"20356712","DistrictId":"20356713"}}},{"Relevance":1.0,"Distance":109.5,"MatchLevel":"houseNumber","MatchQuality":{"Country":1.0,"State":1.0,"County":1.0,"City":1.0,"District":1.0,"Street":[1.0],"HouseNumber":1.0,"PostalCode":1.0},"MatchType":"interpolated","Location":{"LocationId":"NT_QvBGpLjmoAKIXOeVRBjiCB_l_577334191_R_xMjM","LocationType":"point","DisplayPosition":{"Latitude":53.1598956,"Longitude":-1.2183058},"MapView":{"TopLeft":{"Latitude":53.1610197,"Longitude":-1.2201807},"BottomRight":{"Latitude":53.1587714,"Longitude":-1.2164309}},"Address":{"Label":"132 Burnside Drive, Mansfield, NG19 7HF, United Kingdom","Country":"GBR","State":"England","County":"Nottinghamshire","City":"Mansfield","District":"Mansfield","Street":"Burnside Drive","HouseNumber":"132","PostalCode":"NG19 7HF","AdditionalData":[{"value":"United Kingdom","key":"CountryName"},{"value":"England","key":"StateName"},{"value":"Nottinghamshire","key":"CountyName"}]},"MapReference":{"ReferenceId":"577334191","Spot":0.72,"SideOfStreet":"right","StateId":"20248595","CountyId":"20344764","CityId":"20356712","DistrictId":"20356713"}}},{"Relevance":1.0,"Distance":115.6,"MatchLevel":"postalCode","MatchQuality":{"PostalCode":1.0},"MatchType":"interpolated","Location":{"LocationId":"NT_QvBGpLjmoAKIXOeVRBjiCB_l_577334191_R_xMjM","LocationType":"point","DisplayPosition":{"Latitude":53.15993,"Longitude":-1.21822},"MapView":{"TopLeft":{"Latitude":53.1689232,"Longitude":-1.2332191},"BottomRight":{"Latitude":53.1509368,"Longitude":-1.2032209}},"Address":{"Label":"NG19 7HF, Mansfield, England, United Kingdom","Country":"GBR","State":"England","County":"Nottinghamshire","City":"Mansfield","PostalCode":"NG19 7HF","AdditionalData":[{"value":"United Kingdom","key":"CountryName"},{"value":"England","key":"StateName"},{"value":"Nottinghamshire","key":"CountyName"}]},"MapReference":{"ReferenceId":"577334191","Spot":0.72,"SideOfStreet":"neither","StateId":"20248595","CountyId":"20344764","CityId":"20356712"}}},{"Relevance":1.0,"Distance":128.5,"MatchLevel":"houseNumber","MatchQuality":{"Country":1.0,"State":1.0,"County":1.0,"City":1.0,"District":1.0,"Street":[1.0],"HouseNumber":1.0,"PostalCode":1.0},"MatchType":"interpolated","Location":{"LocationId":"NT_jdqXp.zEuahnK2gGSqTr2D_l_732154532_R_xEjM","LocationType":"point","DisplayPosition":{"Latitude":53.158694,"Longitude":-1.221068},"MapView":{"TopLeft":{"Latitude":53.1598182,"Longitude":-1.2229428},"BottomRight":{"Latitude":53.1575699,"Longitude":-1.2191932}},"Address":{"Label":"112 Chesterfield Road North, Mansfield, NG19 7HZ, United Kingdom","Country":"GBR","State":"England","County":"Nottinghamshire","City":"Mansfield","District":"Mansfield","Street":"Chesterfield Road North","HouseNumber":"112","PostalCode":"NG19 7HZ","AdditionalData":[{"value":"United Kingdom","key":"CountryName"},{"value":"England","key":"StateName"},{"value":"Nottinghamshire","key":"CountyName"}]},"MapReference":{"ReferenceId":"732154532","Spot":0.53,"SideOfStreet":"right","StateId":"20248595","CountyId":"20344764","CityId":"20356712","DistrictId":"20356713"}}}]}]}}