{"Response":{"MetaInfo":{"Timestamp":"2020-03-28T10:32:30.543+0000","NextPageInformation":"2"},"View":[{"_type":"SearchResultsViewType","ViewId":0,"Result":[{"Relevance":1.0,"Distance":0.0,"Direction":0.0,"MatchLevel":"district","MatchQuality":{"Country":1.0,"State":1.0,"County":1.0,"City":1.0,"District":1.0,"PostalCode":1.0},"Location":{"LocationId":"NT_Tav7ia2knctHNAux3mYM7D","LocationType":"point","DisplayPosition":{"Latitude":53.1871843,"Longitude":-0.5575896},"MapView":{"TopLeft":{"Latitude":53.25487,"Longitude":-0.58984},"BottomRight":{"Latitude":53.17403,"Longitude":-0.49255}},"Address":{"Label":"Lincoln, England, United Kingdom","Country":"GBR","State":"England","County":"Lincolnshire","City":"Lincoln","District":"Lincoln","PostalCode":"LN5 7","AdditionalData":[{"value":"United Kingdom","key":"CountryName"},{"value":"England","key":"StateName"},{"value":"Lincolnshire","key":"CountyName"}]},"MapReference":{"ReferenceId":"878023845","SideOfStreet":"neither","StateId":"20248595","CountyId":"20355210","CityId":"20355485","DistrictId":"20355486"}}},{"Relevance":1.0,"Distance":25.5,"MatchLevel":"houseNumber","MatchQuality":{"Country":1.0,"State":1.0,"County":1.0,"City":1.0,"District":1.0,"Street":[1.0],"HouseNumber":1.0,"PostalCode":1.0},"MatchType":"interpolated","Location":{"LocationId":"NT_8XjzQz8Sjke3AXcQKVCROD_l_26032472_R_ykTN","LocationType":"point","DisplayPosition":{"Latitude":53.1872528,"Longitude":-0.558147},"MapView":{"TopLeft":{"Latitude":53.188377,"Longitude":-0.5600231},"BottomRight":{"Latitude":53.1861286,"Longitude":-0.5562709}},"Address":{"Label":"295 Brant Road, Lincoln, LN5 9AB, United Kingdom","Country":"GBR","State":"England","County":"Lincolnshire","City":"Lincoln","District":"Lincoln","Street":"Brant Road","HouseNumber":"295","PostalCode":"LN5 9AB","AdditionalData":[{"value":"United Kingdom","key":"CountryName"},{"value":"England","key":"StateName"},{"value":"Lincolnshire","key":"CountyName"}]},"MapReference":{"ReferenceId":"26032472","Spot":0.63,"SideOfStreet":"right","StateId":"20248595","CountyId":"20355210","CityId":"20355485","DistrictId":"20355486"}}},{"Relevance":1.0,"Distance":55.0,"MatchLevel":"postalCode","MatchQuality":{"PostalCode":1.0},"MatchType":"interpolated","Location":{"LocationId":"NT_x5uv2hhOD4NXFinZeLY0qB_l_26032381_L_xQD","LocationType":"point","DisplayPosition":{"Latitude":53.18765,"Longitude":-0.55731},"MapView":{"TopLeft":{"Latitude":53.1966432,"Longitude":-0.5723188},"BottomRight":{"Latitude":53.1786568,"Longitude":-0.5423012}},"Address":{"Label":"LN5 9UH, Lincoln, England, United Kingdom","Country":"GBR","State":"England","County":"Lincolnshire","City":"Lincoln","PostalCode":"LN5 9UH","AdditionalData":[{"value":"United Kingdom","key":"CountryName"},{"value":"England","key":"StateName"},{"value":"Lincolnshire","key":"CountyName"}]},"MapReference":{"ReferenceId":"26032381","Spot":0.43,"SideOfStreet":"neither","StateId":"20248595","CountyId":"20355210","CityId":"20355485"}}},{"Relevance":1.0,"Distance":58.7,"MatchLevel":"houseNumber","MatchQuality":{"Country":1.0,"State":1.0,"County":1.0,"City":1.0,"District":1.0,"Street":[1.0],"HouseNumber":1.0,"PostalCode":1.0},"MatchType":"interpolated","Location":{"LocationId":"NT_bJ98XbmomZjMO0DqWqqIaB_l_26032455_R_yQD","LocationType":"point","DisplayPosition":{"Latitude":53.1867475,"Longitude":-0.556875},"MapView":{"TopLeft":{"Latitude":53.1878717,"Longitude":-0.5587511},"BottomRight":{"Latitude":53.1856233,"Longitude":-0.554999}},"Address":{"Label":"24 Birkdale, Lincoln, LN5 9UJ, United Kingdom","Country":"GBR","State":"England","County":"Lincolnshire","City":"Lincoln","District":"Lincoln","Street":"Birkdale","HouseNumber":"24","PostalCode":"LN5 9UJ","AdditionalData":[{"value":"United Kingdom","key":"CountryName"},{"value":"England","key":"StateName"},{"value":"Lincolnshire","key":"CountyName"}]},"MapReference":{"ReferenceId":"26032455","Spot":0.56,"SideOfStreet":"right","StateId":"20248595","CountyId":"20355210","CityId":"20355485","DistrictId":"20355486"}}},{"Relevance":1.0,"Distance":63.3,"MatchLevel":"houseNumber","MatchQuality":{"Country":1.0,"State":1.0,"County":1.0,"City":1.0,"District":1.0,"Street":[1.0],"HouseNumber":1.0,"PostalCode":1.0},"MatchType":"interpolated","Location":{"LocationId":"NT_bJ98XbmomZjMO0DqWqqIaB_l_26032454_L_xQD","LocationType":"point","DisplayPosition":{"Latitude":53.1869487,"Longitude":-0.5565143},"MapView":{"TopLeft":{"Latitude":53.1880728,"Longitude":-0.5583904},"BottomRight":{"Latitude":53.1858245,"Longitude":-0.5546383}},"Address":{"Label":"14 Birkdale, Lincoln, LN5 9UJ, United Kingdom","Country":"GBR","State":"England","County":"Lincolnshire","City":"Lincoln","District":"Lincoln","Street":"Birkdale","HouseNumber":"14","PostalCode":"LN5 9UJ","AdditionalData":[{"value":"United Kingdom","key":"CountryName"},{"value":"England","key":"StateName"},{"value":"Lincolnshire","key":"CountyName"}]},"MapReference":{"ReferenceId":"26032454","Spot":0.2,"SideOfStreet":"left","StateId":"20248595","CountyId":"20355210","CityId":"20355485","DistrictId":"20355486"}}},{"Relevance":1.0,"Distance":64.5,"MatchLevel":"street","MatchQuality":{"Country":1.0,"State":1.0,"County":1.0,"City":1.0,"District":1.0,"Street":[1.0],"PostalCode":1.0},"Location":{"LocationId":"NT_8XjzQz8Sjke3AXcQKVCROD_l_26032377_R","LocationType":"point","DisplayPosition":{"Latitude":53.18773,"Longitude":-0.55792},"MapView":{"TopLeft":{"Latitude":53.18808,"Longitude":-0.55792},"BottomRight":{"Latitude":53.18773,"Longitude":-0.55774}},"Address":{"Label":"Brant Road, Lincoln, LN5 9, United Kingdom","Country":"GBR","State":"England","County":"Lincolnshire","City":"Lincoln","District":"Lincoln","Street":"Brant Road","PostalCode":"LN5 9","AdditionalData":[{"value":"United Kingdom","key":"CountryName"},{"value":"England","key":"StateName"},{"value":"Lincolnshire","key":"CountyName"}]},"MapReference":{"ReferenceId":"26032377","Spot":0.0,"SideOfStreet":"right","StateId":"20248595","CountyId":"20355210","CityId":"20355485","DistrictId":"20355486"}}},{"Relevance":1.0,"Distance":64.5,"MatchLevel":"street","MatchQuality":{"Country":1.0,"State":1.0,"County":1.0,"City":1.0,"District":1.0,"Street":[1.0],"PostalCode":1.0},"Location":{"LocationId":"NT_WUfunSCYGVPx.U4WqQd08B_l_26032378_L","LocationType":"point","DisplayPosition":{"Latitude":53.18773,"Longitude":-0.55792},"MapView":{"TopLeft":{"Latitude":53.18788,"Longitude":-0.55863},"BottomRight":{"Latitude":53.18773,"Longitude":-0.55792}},"Address":{"Label":"Calder Road, Lincoln, LN5 9, United Kingdom","Country":"GBR","State":"England","County":"Lincolnshire","City":"Lincoln","District":"Lincoln","Street":"Calder Road","PostalCode":"LN5 9","AdditionalData":[{"value":"United Kingdom","key":"CountryName"},{"value":"England","key":"StateName"},{"value":"Lincolnshire","key":"CountyName"}]},"MapReference":{"ReferenceId":"26032378","Spot":0.0,"SideOfStreet":"left","StateId":"20248595","CountyId":"20355210","CityId":"20355485","DistrictId":"20355486"}}},{"Relevance":1.0,"Distance":70.4,"MatchLevel":"houseNumber","MatchQuality":{"Country":1.0,"State":1.0,"County":1.0,"City":1.0,"District":1.0,"Street":[1.0],"HouseNumber":1.0,"PostalCode":1.0},"MatchType":"interpolated","Location":{"LocationId":"NT_x5uv2hhOD4NXFinZeLY0qB_l_26032381_L_xQD","LocationType":"point","DisplayPosition":{"Latitude":53.1877701,"Longitude":-0.55719},"MapView":{"TopLeft":{"Latitude":53.1888942,"Longitude":-0.5590661},"BottomRight":{"Latitude":53.1866459,"Longitude":-0.5553139}},"Address":{"Label":"14 Larne Close, Lincoln, LN5 9UH, United Kingdom","Country":"GBR","State":"England","County":"Lincolnshire","City":"Lincoln","District":"Lincoln","Street":"Larne Close","HouseNumber":"14","PostalCode":"LN5 9UH","AdditionalData":[{"value":"United Kingdom","key":"CountryName"},{"value":"England","key":"StateName"},{"value":"Lincolnshire","key":"CountyName"}]},"MapReference":{"ReferenceId":"26032381","Spot":0.43,"SideOfStreet":"left","StateId":"20248595","CountyId":"20355210","CityId":"20355485","DistrictId":"20355486"}}},{"Relevance":1.0,"Distance":76.6,"MatchLevel":"houseNumber","MatchQuality":{"Country":1.0,"State":1.0,"County":1.0,"City":1.0,"District":1.0,"Street":[1.0],"HouseNumber":1.0,"PostalCode":1.0},"MatchType":"interpolated","Location":{"LocationId":"NT_P5HAnYbiHx42Xryn4OywOD_l_26032359_L_ygzN","LocationType":"point","DisplayPosition":{"Latitude":53.1879109,"Longitude":-0.5569739},"MapView":{"TopLeft":{"Latitude":53.1890351,"Longitude":-0.5588501},"BottomRight":{"Latitude":53.1867868,"Longitude":-0.5550978}},"Address":{"Label":"287 Larne Road, Lincoln, LN5 9UA, United Kingdom","Country":"GBR","State":"England","County":"Lincolnshire","City":"Lincoln","District":"Lincoln","Street":"Larne Road","HouseNumber":"287","PostalCode":"LN5 9UA","AdditionalData":[{"value":"United Kingdom","key":"CountryName"},{"value":"England","key":"StateName"},{"value":"Lincolnshire","key":"CountyName"}]},"MapReference":{"ReferenceId":"26032359","Spot":0.52,"SideOfStreet":"left","StateId":"20248595","CountyId":"20355210","CityId":"20355485","DistrictId":"20355486"}}},{"Relevance":1.0,"Distance":79.1,"MatchLevel":"houseNumber","MatchQuality":{"Country":1.0,"State":1.0,"County":1.0,"City":1.0,"District":1.0,"Street":[1.0],"HouseNumber":1.0,"PostalCode":1.0},"MatchType":"interpolated","Location":{"LocationId":"NT_P5HAnYbiHx42Xryn4OywOD_l_26032375_L_ygTN","LocationType":"point","DisplayPosition":{"Latitude":53.1878367,"Longitude":-0.55673},"MapView":{"TopLeft":{"Latitude":53.1889608,"Longitude":-0.5586061},"BottomRight":{"Latitude":53.1867125,"Longitude":-0.5548539}},"Address":{"Label":"285 Larne Road, Lincoln, LN5 9UA, United Kingdom","Country":"GBR","State":"England","County":"Lincolnshire","City":"Lincoln","District":"Lincoln","Street":"Larne Road","HouseNumber":"285","PostalCode":"LN5 9UA","AdditionalData":[{"value":"United Kingdom","key":"CountryName"},{"value":"England","key":"StateName"},{"value":"Lincolnshire","key":"CountyName"}]},"MapReference":{"ReferenceId":"26032375","Spot":0.67,"SideOfStreet":"left","StateId":"20248595","CountyId":"20355210","CityId":"20355485","DistrictId":"20355486"}}}]}]}}