{"Response":{"MetaInfo":{"Timestamp":"2020-03-28T11:41:56.491+0000","NextPageInformation":"2"},"View":[{"_type":"SearchResultsViewType","ViewId":0,"Result":[{"Relevance":1.0,"Distance":0.0,"Direction":0.0,"MatchLevel":"district","MatchQuality":{"Country":1.0,"State":1.0,"County":1.0,"City":1.0,"District":1.0,"PostalCode":1.0},"Location":{"LocationId":"NT_YN8xUeYCVOgBvtvUpQCavA","LocationType":"point","DisplayPosition":{"Latitude":53.1130171,"Longitude":8.4566486},"MapView":{"TopLeft":{"Latitude":53.12222,"Longitude":8.45013},"BottomRight":{"Latitude":53.09328,"Longitude":8.49646}},"Address":{"Label":"Hude (Oldb), Niedersachsen, Deutschland","Country":"DEU","State":"Niedersachsen","County":"Oldenburg","City":"Hude (Oldb)","District":"Hude (Oldb)","PostalCode":"27798","AdditionalData":[{"value":"Deutschland","key":"CountryName"},{"value":"Niedersachsen","key":"StateName"},{"value":"Oldenburg","key":"CountyName"}]},"MapReference":{"ReferenceId":"51861492","SideOfStreet":"neither","CountryId":"20147700","StateId":"20151542","CountyId":"20156811","CityId":"20156868","DistrictId":"20156871"}}},{"Relevance":1.0,"Distance":4.4,"MatchLevel":"houseNumber","MatchQuality":{"Country":1.0,"State":1.0,"County":1.0,"City":1.0,"District":1.0,"Street":[1.0],"HouseNumber":1.0,"PostalCode":1.0},"MatchType":"interpolated","Location":{"LocationId":"NT_N2QETdtqGIQrqajuYggeRA_0cD","LocationType":"point","DisplayPosition":{"Latitude":53.11306,"Longitude":8.45684},"MapView":{"TopLeft":{"Latitude":53.1141842,"Longitude":8.4549672},"BottomRight":{"Latitude":53.1119358,"Longitude":8.4587128}},"Address":{"Label":"Parkstraße 47, 27798 Hude (Oldb), Deutschland","Country":"DEU","State":"Niedersachsen","County":"Oldenburg","City":"Hude (Oldb)","District":"Hude (Oldb)","Street":"Parkstraße","HouseNumber":"47","PostalCode":"27798","AdditionalData":[{"value":"Deutschland","key":"CountryName"},{"value":"Niedersachsen","key":"StateName"},{"value":"Oldenburg","key":"CountyName"}]},"MapReference":{"ReferenceId":"51861492","Spot":0.3,"SideOfStreet":"left","CountryId":"20147700","StateId":"20151542","CountyId":"20156811","CityId":"20156868","DistrictId":"20156871","AddressId":"181638750","RoadLinkId":"36593991"}}},{"Relevance":1.0,"Distance":64.3,"MatchLevel":"houseNumber","MatchQuality":{"Country":1.0,"State":1.0,"County":1.0,"City":1.0,"District":1.0,"Street":[1.0],"HouseNumber":1.0,"PostalCode":1.0},"MatchType":"interpolated","Location":{"LocationId":"NT_SXZeB..gZsICbXtbJjCAcD_yA","LocationType":"point","DisplayPosition":{"Latitude":53.11248,"Longitude":8.45758},"MapView":{"TopLeft":{"Latitude":53.1136042,"Longitude":8.4557072},"BottomRight":{"Latitude":53.1113558,"Longitude":8.4594528}},"Address":{"Label":"Dr.-Gustav-Thye-Straße 2, 27798 Hude (Oldb), Deutschland","Country":"DEU","State":"Niedersachsen","County":"Oldenburg","City":"Hude (Oldb)","District":"Hude (Oldb)","Street":"Dr.-Gustav-Thye-Straße","HouseNumber":"2","PostalCode":"27798","AdditionalData":[{"value":"Deutschland","key":"CountryName"},{"value":"Niedersachsen","key":"StateName"},{"value":"Oldenburg","key":"CountyName"}]},"MapReference":{"ReferenceId":"709571307","Spot":0.83,"SideOfStreet":"left","CountryId":"20147700","StateId":"20151542","CountyId":"20156811","CityId":"20156868","DistrictId":"20156871","AddressId":"732699961","RoadLinkId":"114941743"}}},{"Relevance":1.0,"Distance":76.4,"MatchLevel":"houseNumber","MatchQuality":{"Country":1.0,"State":1.0,"County":1.0,"City":1.0,"District":1.0,"Street":[1.0],"HouseNumber":1.0,"PostalCode":1.0},"MatchType":"interpolated","Location":{"LocationId":"NT_OzlQcXcd4zy.6hfPGOe.-B_xME","LocationType":"point","DisplayPosition":{"Latitude":53.11308,"Longitude":8.45829},"MapView":{"TopLeft":{"Latitude":53.1142042,"Longitude":8.4564172},"BottomRight":{"Latitude":53.1119558,"Longitude":8.4601628}},"Address":{"Label":"Königstraße 1C, 27798 Hude (Oldb), Deutschland","Country":"DEU","State":"Niedersachsen","County":"Oldenburg","City":"Hude (Oldb)","District":"Hude (Oldb)","Street":"Königstraße","HouseNumber":"1C","PostalCode":"27798","AdditionalData":[{"value":"Deutschland","key":"CountryName"},{"value":"Niedersachsen","key":"StateName"},{"value":"Oldenburg","key":"CountyName"}]},"MapReference":{"ReferenceId":"51861505","Spot":0.22,"SideOfStreet":"left","CountryId":"20147700","StateId":"20151542","CountyId":"20156811","CityId":"20156868","DistrictId":"20156871","AddressId":"179460519","RoadLinkId":"36651779"}}},{"Relevance":1.0,"Distance":81.9,"MatchLevel":"houseNumber","MatchQuality":{"Country":1.0,"State":1.0,"County":1.0,"City":1.0,"District":1.0,"Street":[1.0],"HouseNumber":1.0,"PostalCode":1.0},"MatchType":"interpolated","Location":{"LocationId":"NT_N2QETdtqGIQrqajuYggeRA_0cjR","LocationType":"point","DisplayPosition":{"Latitude":53.11315,"Longitude":8.45462},"MapView":{"TopLeft":{"Latitude":53.1142742,"Longitude":8.4527472},"BottomRight":{"Latitude":53.1120258,"Longitude":8.4564928}},"Address":{"Label":"Parkstraße 47F, 27798 Hude (Oldb), Deutschland","Country":"DEU","State":"Niedersachsen","County":"Oldenburg","City":"Hude (Oldb)","District":"Hude (Oldb)","Street":"Parkstraße","HouseNumber":"47F","PostalCode":"27798","AdditionalData":[{"value":"Deutschland","key":"CountryName"},{"value":"Niedersachsen","key":"StateName"},{"value":"Oldenburg","key":"CountyName"}]},"MapReference":{"ReferenceId":"51861580","Spot":0.0,"SideOfStreet":"right","CountryId":"20147700","StateId":"20151542","CountyId":"20156811","CityId":"20156868","DistrictId":"20156871","AddressId":"180500126","RoadLinkId":"398350863"}}},{"Relevance":1.0,"Distance":85.5,"MatchLevel":"houseNumber","MatchQuality":{"Country":1.0,"State":1.0,"County":1.0,"City":1.0,"District":1.0,"Street":[1.0],"HouseNumber":1.0,"PostalCode":1.0},"MatchType":"interpolated","Location":{"LocationId":"NT_OzlQcXcd4zy.6hfPGOe.-B_xEE","LocationType":"point","DisplayPosition":{"Latitude":53.11292,"Longitude":8.4581},"MapView":{"TopLeft":{"Latitude":53.1140442,"Longitude":8.4562272},"BottomRight":{"Latitude":53.1117958,"Longitude":8.4599728}},"Address":{"Label":"Königstraße 1A, 27798 Hude (Oldb), Deutschland","Country":"DEU","State":"Niedersachsen","County":"Oldenburg","City":"Hude (Oldb)","District":"Hude (Oldb)","Street":"Königstraße","HouseNumber":"1A","PostalCode":"27798","AdditionalData":[{"value":"Deutschland","key":"CountryName"},{"value":"Niedersachsen","key":"StateName"},{"value":"Oldenburg","key":"CountyName"}]},"MapReference":{"ReferenceId":"51861506","Spot":1.0,"SideOfStreet":"left","CountryId":"20147700","StateId":"20151542","CountyId":"20156811","CityId":"20156868","DistrictId":"20156871","AddressId":"177191779","RoadLinkId":"37157284"}}},{"Relevance":1.0,"Distance":89.8,"MatchLevel":"houseNumber","MatchQuality":{"Country":1.0,"State":1.0,"County":1.0,"City":1.0,"District":1.0,"Street":[1.0],"HouseNumber":1.0,"PostalCode":1.0},"MatchType":"interpolated","Location":{"LocationId":"NT_0Qf38iK-B0pwctLuCOTkqC_zUE","LocationType":"point","DisplayPosition":{"Latitude":53.11412,"Longitude":8.45833},"MapView":{"TopLeft":{"Latitude":53.1152442,"Longitude":8.4564571},"BottomRight":{"Latitude":53.1129958,"Longitude":8.4602029}},"Address":{"Label":"An der Weide 3E, 27798 Hude (Oldb), Deutschland","Country":"DEU","State":"Niedersachsen","County":"Oldenburg","City":"Hude (Oldb)","District":"Hude (Oldb)","Street":"An der Weide","HouseNumber":"3E","PostalCode":"27798","AdditionalData":[{"value":"Deutschland","key":"CountryName"},{"value":"Niedersachsen","key":"StateName"},{"value":"Oldenburg","key":"CountyName"}]},"MapReference":{"ReferenceId":"51861504","Spot":0.23,"SideOfStreet":"left","CountryId":"20147700","StateId":"20151542","CountyId":"20156811","CityId":"20156868","DistrictId":"20156871","AddressId":"179415641","RoadLinkId":"36528514"}}},{"Relevance":1.0,"Distance":95.4,"MatchLevel":"houseNumber","MatchQuality":{"Country":1.0,"State":1.0,"County":1.0,"City":1.0,"District":1.0,"Street":[1.0],"HouseNumber":1.0,"PostalCode":1.0},"MatchType":"interpolated","Location":{"LocationId":"NT_N2QETdtqGIQrqajuYggeRA_zkD","LocationType":"point","DisplayPosition":{"Latitude":53.11253,"Longitude":8.45783},"MapView":{"TopLeft":{"Latitude":53.1136542,"Longitude":8.4559572},"BottomRight":{"Latitude":53.1114058,"Longitude":8.4597028}},"Address":{"Label":"Parkstraße 39, 27798 Hude (Oldb), Deutschland","Country":"DEU","State":"Niedersachsen","County":"Oldenburg","City":"Hude (Oldb)","District":"Hude (Oldb)","Street":"Parkstraße","HouseNumber":"39","PostalCode":"27798","AdditionalData":[{"value":"Deutschland","key":"CountryName"},{"value":"Niedersachsen","key":"StateName"},{"value":"Oldenburg","key":"CountyName"}]},"MapReference":{"ReferenceId":"51861493","Spot":0.91,"SideOfStreet":"left","CountryId":"20147700","StateId":"20151542","CountyId":"20156811","CityId":"20156868","DistrictId":"20156871","AddressId":"177704002","RoadLinkId":"36796258"}}},{"Relevance":1.0,"Distance":176.4,"MatchLevel":"houseNumber","MatchQuality":{"Country":1.0,"State":1.0,"County":1.0,"City":1.0,"District":1.0,"Street":[1.0],"HouseNumber":1.0,"PostalCode":1.0},"MatchType":"interpolated","Location":{"LocationId":"NT_kKCz8CSvJae9pTyFaU8MjA_zA","LocationType":"point","DisplayPosition":{"Latitude":53.11296,"Longitude":8.45929},"MapView":{"TopLeft":{"Latitude":53.1140842,"Longitude":8.4574172},"BottomRight":{"Latitude":53.1118358,"Longitude":8.4611628}},"Address":{"Label":"Blumenstraße 3, 27798 Hude (Oldb), Deutschland","Country":"DEU","State":"Niedersachsen","County":"Oldenburg","City":"Hude (Oldb)","District":"Hude (Oldb)","Street":"Blumenstraße","HouseNumber":"3","PostalCode":"27798","AdditionalData":[{"value":"Deutschland","key":"CountryName"},{"value":"Niedersachsen","key":"StateName"},{"value":"Oldenburg","key":"CountyName"}]},"MapReference":{"ReferenceId":"51861527","Spot":0.57,"SideOfStreet":"right","CountryId":"20147700","StateId":"20151542","CountyId":"20156811","CityId":"20156868","DistrictId":"20156871","AddressId":"178295330","RoadLinkId":"37294599"}}},{"Relevance":1.0,"Distance":198.5,"MatchLevel":"houseNumber","MatchQuality":{"Country":1.0,"State":1.0,"County":1.0,"City":1.0,"District":1.0,"Street":[1.0],"HouseNumber":1.0,"PostalCode":1.0},"MatchType":"interpolated","Location":{"LocationId":"NT_N2QETdtqGIQrqajuYggeRA_1cD","LocationType":"point","DisplayPosition":{"Latitude":53.11453,"Longitude":8.45507},"MapView":{"TopLeft":{"Latitude":53.1156542,"Longitude":8.4531971},"BottomRight":{"Latitude":53.1134058,"Longitude":8.4569429}},"Address":{"Label":"Parkstraße 57, 27798 Hude (Oldb), Deutschland","Country":"DEU","State":"Niedersachsen","County":"Oldenburg","City":"Hude (Oldb)","District":"Hude (Oldb)","Street":"Parkstraße","HouseNumber":"57","PostalCode":"27798","AdditionalData":[{"value":"Deutschland","key":"CountryName"},{"value":"Niedersachsen","key":"StateName"},{"value":"Oldenburg","key":"CountyName"}]},"MapReference":{"ReferenceId":"51861491","Spot":0.85,"SideOfStreet":"left","CountryId":"20147700","StateId":"20151542","CountyId":"20156811","CityId":"20156868","DistrictId":"20156871","AddressId":"181081584","RoadLinkId":"36779635"}}}]}]}}