{"Response":{"MetaInfo":{"Timestamp":"2020-03-28T09:57:26.835+0000","NextPageInformation":"2"},"View":[{"_type":"SearchResultsViewType","ViewId":0,"Result":[{"Relevance":1.0,"Distance":0.0,"Direction":0.0,"MatchLevel":"district","MatchQuality":{"Country":1.0,"State":1.0,"County":1.0,"City":1.0,"District":1.0,"PostalCode":1.0},"Location":{"LocationId":"NT_hl145dgH52RF3raTxguccC","LocationType":"point","DisplayPosition":{"Latitude":53.1285108,"Longitude":23.1614163},"MapView":{"TopLeft":{"Latitude":53.17852,"Longitude":23.06573},"BottomRight":{"Latitude":53.07101,"Longitude":23.24774}},"Address":{"Label":"Białystok, Woj. Podlaskie, Polska","Country":"POL","State":"Woj. Podlaskie","County":"Białystok","City":"Białystok","District":"Białystok","PostalCode":"15-007","AdditionalData":[{"value":"Polska","key":"CountryName"},{"value":"Woj. Podlaskie","key":"StateName"},{"value":"Białystok","key":"CountyName"}]},"MapReference":{"ReferenceId":"907927689","SideOfStreet":"neither","CountryId":"20624059","StateId":"20628466","CountyId":"20628467","CityId":"20628468","DistrictId":"20646560"}}},{"Relevance":1.0,"Distance":14.0,"MatchLevel":"houseNumber","MatchQuality":{"Country":1.0,"State":1.0,"County":1.0,"City":1.0,"District":1.0,"Street":[1.0],"HouseNumber":1.0,"PostalCode":1.0},"MatchType":"interpolated","Location":{"LocationId":"NT_Zhwj45W3RAC0EH1QylI2yC_yYD","LocationType":"point","DisplayPosition":{"Latitude":53.12857,"Longitude":23.16183},"MapView":{"TopLeft":{"Latitude":53.1296942,"Longitude":23.1599565},"BottomRight":{"Latitude":53.1274458,"Longitude":23.1637035}},"Address":{"Label":"ulica Akademicka 26, 15-267 Białystok, Polska","Country":"POL","State":"Woj. Podlaskie","County":"Białystok","City":"Białystok","District":"Białystok","Street":"ulica Akademicka","HouseNumber":"26","PostalCode":"15-267","AdditionalData":[{"value":"Polska","key":"CountryName"},{"value":"Woj. Podlaskie","key":"StateName"},{"value":"Białystok","key":"CountyName"}]},"MapReference":{"ReferenceId":"1230051569","Spot":0.37,"SideOfStreet":"left","CountryId":"20624059","StateId":"20628466","CountyId":"20628467","CityId":"20628468","DistrictId":"20646560","AddressId":"210351739","RoadLinkId":"549365725"}}},{"Relevance":1.0,"Distance":19.6,"MatchLevel":"street","MatchQuality":{"Country":1.0,"State":1.0,"County":1.0,"City":1.0,"District":1.0,"PostalCode":1.0},"Location":{"LocationId":"NT_y2Uzybi6zpT2JI3lkYxlOC_l_1201830200_R","LocationType":"point","DisplayPosition":{"Latitude":53.12838,"Longitude":23.16122},"MapView":{"TopLeft":{"Latitude":53.12838,"Longitude":23.16116},"BottomRight":{"Latitude":53.12833,"Longitude":23.16122}},"Address":{"Label":"15-274 Białystok, Polska","Country":"POL","State":"Woj. Podlaskie","County":"Białystok","City":"Białystok","District":"Białystok","PostalCode":"15-274","AdditionalData":[{"value":"Polska","key":"CountryName"},{"value":"Woj. Podlaskie","key":"StateName"},{"value":"Białystok","key":"CountyName"}]},"MapReference":{"ReferenceId":"1201830200","Spot":1.0,"SideOfStreet":"right","CountryId":"20624059","StateId":"20628466","CountyId":"20628467","CityId":"20628468","DistrictId":"20646560"}}},{"Relevance":1.0,"Distance":26.4,"MatchLevel":"street","MatchQuality":{"Country":1.0,"State":1.0,"County":1.0,"City":1.0,"District":1.0,"PostalCode":1.0},"Location":{"LocationId":"NT_y2Uzybi6zpT2JI3lkYxlOC_l_1201864936_L","LocationType":"point","DisplayPosition":{"Latitude":53.12833,"Longitude":23.16116},"MapView":{"TopLeft":{"Latitude":53.12833,"Longitude":23.16038},"BottomRight":{"Latitude":53.12778,"Longitude":23.16116}},"Address":{"Label":"15-274 Białystok, Polska","Country":"POL","State":"Woj. Podlaskie","County":"Białystok","City":"Białystok","District":"Białystok","PostalCode":"15-274","AdditionalData":[{"value":"Polska","key":"CountryName"},{"value":"Woj. Podlaskie","key":"StateName"},{"value":"Białystok","key":"CountyName"}]},"MapReference":{"ReferenceId":"1201864936","Spot":1.0,"SideOfStreet":"left","CountryId":"20624059","StateId":"20628466","CountyId":"20628467","CityId":"20628468","DistrictId":"20646560"}}},{"Relevance":1.0,"Distance":28.0,"MatchLevel":"street","MatchQuality":{"Country":1.0,"State":1.0,"County":1.0,"City":1.0,"District":1.0,"PostalCode":1.0},"Location":{"LocationId":"NT_y2Uzybi6zpT2JI3lkYxlOC_l_1201830201_R","LocationType":"point","DisplayPosition":{"Latitude":53.1282999,"Longitude":23.1611878},"MapView":{"TopLeft":{"Latitude":53.12833,"Longitude":23.1611},"BottomRight":{"Latitude":53.12801,"Longitude":23.1613}},"Address":{"Label":"15-274 Białystok, Polska","Country":"POL","State":"Woj. Podlaskie","County":"Białystok","City":"Białystok","District":"Białystok","PostalCode":"15-274","AdditionalData":[{"value":"Polska","key":"CountryName"},{"value":"Woj. Podlaskie","key":"StateName"},{"value":"Białystok","key":"CountyName"}]},"MapReference":{"ReferenceId":"1201830201","Spot":0.92,"SideOfStreet":"right","CountryId":"20624059","StateId":"20628466","CountyId":"20628467","CityId":"20628468","DistrictId":"20646560"}}},{"Relevance":1.0,"Distance":29.8,"MatchLevel":"landmark","MatchQuality":{"Country":1.0,"State":1.0,"County":1.0,"City":1.0,"District":1.0,"Street":[1.0],"PostalCode":1.0,"Name":1.0},"Location":{"LocationId":"NT_edRCZwEuWRtCR2PO0rUpkB_p_-NnJcDMSZHTA4flurzhcTA","LocationType":"park","Name":"Park Pałacowy Branickich","DisplayPosition":{"Latitude":53.12842,"Longitude":23.1647},"MapView":{"TopLeft":{"Latitude":53.13196,"Longitude":23.15946},"BottomRight":{"Latitude":53.12492,"Longitude":23.17059}},"Address":{"Label":"bulwar Józefa Blicharskiego, 15-182 Białystok, Polska","Country":"POL","State":"Woj. Podlaskie","County":"Białystok","City":"Białystok","District":"Białystok","Street":"bulwar Józefa Blicharskiego","PostalCode":"15-182","AdditionalData":[{"value":"Polska","key":"CountryName"},{"value":"Woj. Podlaskie","key":"StateName"},{"value":"Białystok","key":"CountyName"}]},"MapReference":{"CountryId":"20624059","StateId":"20628466","CountyId":"20628467","CityId":"20628468","DistrictId":"20646560","PlaceId":"844321401"}}},{"Relevance":1.0,"Distance":30.4,"MatchLevel":"houseNumber","MatchQuality":{"Country":1.0,"State":1.0,"County":1.0,"City":1.0,"District":1.0,"Street":[1.0],"HouseNumber":1.0,"PostalCode":1.0},"MatchType":"interpolated","Location":{"LocationId":"NT_BSnUgDUCnv5NJVEHh3PuVA_xITQ","LocationType":"point","DisplayPosition":{"Latitude":53.1286,"Longitude":23.16074},"MapView":{"TopLeft":{"Latitude":53.1297242,"Longitude":23.1588665},"BottomRight":{"Latitude":53.1274758,"Longitude":23.1626135}},"Address":{"Label":"plac Polskich Sił Zbroj. na Zachodzie 12A, 15-096 Białystok, Polska","Country":"POL","State":"Woj. Podlaskie","County":"Białystok","City":"Białystok","District":"Białystok","Street":"plac Polskich Sił Zbroj. na Zachodzie","HouseNumber":"12A","PostalCode":"15-096","AdditionalData":[{"value":"Polska","key":"CountryName"},{"value":"Woj. Podlaskie","key":"StateName"},{"value":"Białystok","key":"CountyName"}]},"MapReference":{"ReferenceId":"1229964921","Spot":0.69,"SideOfStreet":"right","CountryId":"20624059","StateId":"20628466","CountyId":"20628467","CityId":"20628468","DistrictId":"20646560","AddressId":"301993176","RoadLinkId":"549255597"}}},{"Relevance":1.0,"Distance":45.6,"MatchLevel":"houseNumber","MatchQuality":{"Country":1.0,"State":1.0,"County":1.0,"City":1.0,"District":1.0,"Street":[1.0],"HouseNumber":1.0,"PostalCode":1.0},"MatchType":"interpolated","Location":{"LocationId":"NT_GihzRhU7Hmt7S8qhuFoqHB_l_773943375_L_xAD","LocationType":"point","DisplayPosition":{"Latitude":53.1285644,"Longitude":23.1621949},"MapView":{"TopLeft":{"Latitude":53.1296886,"Longitude":23.1603214},"BottomRight":{"Latitude":53.1274403,"Longitude":23.1640684}},"Address":{"Label":"bulwary Zyndrama Kościałkowskiego 10, 15-267 Białystok, Polska","Country":"POL","State":"Woj. Podlaskie","County":"Białystok","City":"Białystok","District":"Białystok","Street":"bulwary Zyndrama Kościałkowskiego","HouseNumber":"10","PostalCode":"15-267","AdditionalData":[{"value":"Polska","key":"CountryName"},{"value":"Woj. Podlaskie","key":"StateName"},{"value":"Białystok","key":"CountyName"}]},"MapReference":{"ReferenceId":"773943375","Spot":0.51,"SideOfStreet":"left","CountryId":"20624059","StateId":"20628466","CountyId":"20628467","CityId":"20628468","DistrictId":"20646560"}}},{"Relevance":1.0,"Distance":51.8,"MatchLevel":"houseNumber","MatchQuality":{"Country":1.0,"State":1.0,"County":1.0,"City":1.0,"District":1.0,"Street":[1.0],"HouseNumber":1.0,"PostalCode":1.0},"MatchType":"interpolated","Location":{"LocationId":"NT_GihzRhU7Hmt7S8qhuFoqHB_l_1267424968_L_4A","LocationType":"point","DisplayPosition":{"Latitude":53.1291,"Longitude":23.16154},"MapView":{"TopLeft":{"Latitude":53.1302242,"Longitude":23.1596664},"BottomRight":{"Latitude":53.1279759,"Longitude":23.1634135}},"Address":{"Label":"bulwary Zyndrama Kościałkowskiego 8, 15-267 Białystok, Polska","Country":"POL","State":"Woj. Podlaskie","County":"Białystok","City":"Białystok","District":"Białystok","Street":"bulwary Zyndrama Kościałkowskiego","HouseNumber":"8","PostalCode":"15-267","AdditionalData":[{"value":"Polska","key":"CountryName"},{"value":"Woj. Podlaskie","key":"StateName"},{"value":"Białystok","key":"CountyName"}]},"MapReference":{"ReferenceId":"1267424968","Spot":0.09,"SideOfStreet":"left","CountryId":"20624059","StateId":"20628466","CountyId":"20628467","CityId":"20628468","DistrictId":"20646560"}}},{"Relevance":1.0,"Distance":57.4,"MatchLevel":"street","MatchQuality":{"Country":1.0,"State":1.0,"County":1.0,"City":1.0,"District":1.0,"Street":[1.0],"PostalCode":1.0},"Location":{"LocationId":"NT_uvGKdwX11ZOcULoTQ-QluA_l_1266743090_R","LocationType":"point","DisplayPosition":{"Latitude":53.129,"Longitude":23.16169},"MapView":{"TopLeft":{"Latitude":53.12907,"Longitude":23.16169},"BottomRight":{"Latitude":53.129,"Longitude":23.16184}},"Address":{"Label":"bulwar Tadeusza Kielanowskiego, 15-267 Białystok, Polska","Country":"POL","State":"Woj. Podlaskie","County":"Białystok","City":"Białystok","District":"Białystok","Street":"bulwar Tadeusza Kielanowskiego","PostalCode":"15-267","AdditionalData":[{"value":"Polska","key":"CountryName"},{"value":"Woj. Podlaskie","key":"StateName"},{"value":"Białystok","key":"CountyName"}]},"MapReference":{"ReferenceId":"1266743090","Spot":0.0,"SideOfStreet":"right","CountryId":"20624059","StateId":"20628466","CountyId":"20628467","CityId":"20628468","DistrictId":"20646560"}}}]}]}}