{"Response":{"MetaInfo":{"Timestamp":"2020-03-28T10:55:28.956+0000","NextPageInformation":"2"},"View":[{"_type":"SearchResultsViewType","ViewId":0,"Result":[{"Relevance":1.0,"Distance":-18.3,"MatchLevel":"landmark","MatchQuality":{"Country":1.0,"State":1.0,"County":1.0,"City":1.0,"District":1.0,"PostalCode":1.0,"Name":1.0},"Location":{"LocationId":"NT_elX.gtUwlXDgFT.SC2ejXB","LocationType":"hospital","Name":"Diako Ev. Diakonie-Krankenhaus","DisplayPosition":{"Latitude":53.12484,"Longitude":8.74465},"MapView":{"TopLeft":{"Latitude":53.12643,"Longitude":8.74137},"BottomRight":{"Latitude":53.12324,"Longitude":8.74699}},"Address":{"Label":"28237 Bremen, Deutschland","Country":"DEU","State":"Bremen","County":"Bremen","City":"Bremen","District":"Gröpelingen","PostalCode":"28237","AdditionalData":[{"value":"Deutschland","key":"CountryName"},{"value":"Bremen","key":"StateName"},{"value":"Bremen","key":"CountyName"}]},"MapReference":{"CountryId":"20147700","StateId":"20157339","CountyId":"20157340","CityId":"20157341","DistrictId":"20157346","PlaceId":"58218393"}}},{"Relevance":1.0,"Distance":0.0,"Direction":0.0,"MatchLevel":"district","MatchQuality":{"Country":1.0,"State":1.0,"County":1.0,"City":1.0,"District":1.0,"PostalCode":1.0},"Location":{"LocationId":"NT_NzEl0KbckMT9YFua5xCWLC","LocationType":"point","DisplayPosition":{"Latitude":53.1254478,"Longitude":8.7446065},"MapView":{"TopLeft":{"Latitude":53.13334,"Longitude":8.74042},"BottomRight":{"Latitude":53.11612,"Longitude":8.76521}},"Address":{"Label":"Ohlenhof, Bremen, Deutschland","Country":"DEU","State":"Bremen","County":"Bremen","City":"Bremen","District":"Ohlenhof","PostalCode":"28239","AdditionalData":[{"value":"Deutschland","key":"CountryName"},{"value":"Bremen","key":"StateName"},{"value":"Bremen","key":"CountyName"}]},"MapReference":{"ReferenceId":"51887933","SideOfStreet":"neither","CountryId":"20147700","StateId":"20157339","CountyId":"20157340","CityId":"20157341"}}},{"Relevance":1.0,"Distance":30.3,"MatchLevel":"houseNumber","MatchQuality":{"Country":1.0,"State":1.0,"County":1.0,"City":1.0,"District":1.0,"Street":[1.0],"HouseNumber":1.0,"PostalCode":1.0},"MatchType":"interpolated","Location":{"LocationId":"NT_Md4ddUXOI.syABgDQ5yERB_2A","LocationType":"point","DisplayPosition":{"Latitude":53.1256,"Longitude":8.74398},"MapView":{"TopLeft":{"Latitude":53.1267242,"Longitude":8.7421066},"BottomRight":{"Latitude":53.1244758,"Longitude":8.7458534}},"Address":{"Label":"Togoplatz 6, 28239 Bremen, Deutschland","Country":"DEU","State":"Bremen","County":"Bremen","City":"Bremen","District":"Gröpelingen","Street":"Togoplatz","HouseNumber":"6","PostalCode":"28239","AdditionalData":[{"value":"Deutschland","key":"CountryName"},{"value":"Bremen","key":"StateName"},{"value":"Bremen","key":"CountyName"}]},"MapReference":{"ReferenceId":"51887918","Spot":0.0,"SideOfStreet":"right","CountryId":"20147700","StateId":"20157339","CountyId":"20157340","CityId":"20157341","DistrictId":"20157346","AddressId":"248988402","RoadLinkId":"36516160"}}},{"Relevance":1.0,"Distance":83.9,"MatchLevel":"houseNumber","MatchQuality":{"Country":1.0,"State":1.0,"County":1.0,"City":1.0,"District":1.0,"Street":[1.0],"HouseNumber":1.0,"PostalCode":1.0},"MatchType":"interpolated","Location":{"LocationId":"NT_LF7voJJYqc2VNgAzATTfLA_0gD","LocationType":"point","DisplayPosition":{"Latitude":53.12489,"Longitude":8.74264},"MapView":{"TopLeft":{"Latitude":53.1260142,"Longitude":8.7407666},"BottomRight":{"Latitude":53.1237658,"Longitude":8.7445134}},"Address":{"Label":"Togostraße 48, 28239 Bremen, Deutschland","Country":"DEU","State":"Bremen","County":"Bremen","City":"Bremen","District":"Gröpelingen","Street":"Togostraße","HouseNumber":"48","PostalCode":"28239","AdditionalData":[{"value":"Deutschland","key":"CountryName"},{"value":"Bremen","key":"StateName"},{"value":"Bremen","key":"CountyName"}]},"MapReference":{"ReferenceId":"51887924","Spot":0.0,"SideOfStreet":"right","CountryId":"20147700","StateId":"20157339","CountyId":"20157340","CityId":"20157341","DistrictId":"20157346","AddressId":"248990961","RoadLinkId":"37259270"}}},{"Relevance":1.0,"Distance":90.9,"MatchLevel":"houseNumber","MatchQuality":{"Country":1.0,"State":1.0,"County":1.0,"City":1.0,"District":1.0,"Street":[1.0],"HouseNumber":1.0,"PostalCode":1.0},"MatchType":"interpolated","Location":{"LocationId":"NT_LF7voJJYqc2VNgAzATTfLA_xYD","LocationType":"point","DisplayPosition":{"Latitude":53.12638,"Longitude":8.74438},"MapView":{"TopLeft":{"Latitude":53.1275042,"Longitude":8.7425066},"BottomRight":{"Latitude":53.1252558,"Longitude":8.7462534}},"Address":{"Label":"Togostraße 16, 28239 Bremen, Deutschland","Country":"DEU","State":"Bremen","County":"Bremen","City":"Bremen","District":"Gröpelingen","Street":"Togostraße","HouseNumber":"16","PostalCode":"28239","AdditionalData":[{"value":"Deutschland","key":"CountryName"},{"value":"Bremen","key":"StateName"},{"value":"Bremen","key":"CountyName"}]},"MapReference":{"ReferenceId":"51887917","Spot":0.42,"SideOfStreet":"right","CountryId":"20147700","StateId":"20157339","CountyId":"20157340","CityId":"20157341","DistrictId":"20157346","AddressId":"169429311","RoadLinkId":"36317614"}}},{"Relevance":1.0,"Distance":99.0,"MatchLevel":"houseNumber","MatchQuality":{"Country":1.0,"State":1.0,"County":1.0,"City":1.0,"District":1.0,"Street":[1.0],"HouseNumber":1.0,"PostalCode":1.0},"MatchType":"interpolated","Location":{"LocationId":"NT_LF7voJJYqc2VNgAzATTfLA_yQD","LocationType":"point","DisplayPosition":{"Latitude":53.1262,"Longitude":8.74345},"MapView":{"TopLeft":{"Latitude":53.1273242,"Longitude":8.7415766},"BottomRight":{"Latitude":53.1250758,"Longitude":8.7453234}},"Address":{"Label":"Togostraße 24, 28239 Bremen, Deutschland","Country":"DEU","State":"Bremen","County":"Bremen","City":"Bremen","District":"Gröpelingen","Street":"Togostraße","HouseNumber":"24","PostalCode":"28239","AdditionalData":[{"value":"Deutschland","key":"CountryName"},{"value":"Bremen","key":"StateName"},{"value":"Bremen","key":"CountyName"}]},"MapReference":{"ReferenceId":"1244426387","Spot":0.44,"SideOfStreet":"right","CountryId":"20147700","StateId":"20157339","CountyId":"20157340","CityId":"20157341","DistrictId":"20157346","AddressId":"169342833","RoadLinkId":"565773665"}}},{"Relevance":1.0,"Distance":105.0,"MatchLevel":"houseNumber","MatchQuality":{"Country":1.0,"State":1.0,"County":1.0,"City":1.0,"District":1.0,"Street":[1.0],"HouseNumber":1.0,"PostalCode":1.0},"MatchType":"interpolated","Location":{"LocationId":"NT_fq.sLcB1iJWqQxbmUHEaaA_0ADO","LocationType":"point","DisplayPosition":{"Latitude":53.12595,"Longitude":8.74606},"MapView":{"TopLeft":{"Latitude":53.1270742,"Longitude":8.7441866},"BottomRight":{"Latitude":53.1248258,"Longitude":8.7479334}},"Address":{"Label":"Gröpelinger Heerstraße 408, 28239 Bremen, Deutschland","Country":"DEU","State":"Bremen","County":"Bremen","City":"Bremen","District":"Gröpelingen","Street":"Gröpelinger Heerstraße","HouseNumber":"408","PostalCode":"28239","AdditionalData":[{"value":"Deutschland","key":"CountryName"},{"value":"Bremen","key":"StateName"},{"value":"Bremen","key":"CountyName"}]},"MapReference":{"ReferenceId":"586504750","Spot":0.0,"SideOfStreet":"left","CountryId":"20147700","StateId":"20157339","CountyId":"20157340","CityId":"20157341","DistrictId":"20157346","AddressId":"208119398","RoadLinkId":"37228417"}}},{"Relevance":1.0,"Distance":105.9,"MatchLevel":"houseNumber","MatchQuality":{"Country":1.0,"State":1.0,"County":1.0,"City":1.0,"District":1.0,"Street":[1.0],"HouseNumber":1.0,"PostalCode":1.0},"MatchType":"interpolated","Location":{"LocationId":"NT_LF7voJJYqc2VNgAzATTfLA_yYD","LocationType":"point","DisplayPosition":{"Latitude":53.12616,"Longitude":8.74326},"MapView":{"TopLeft":{"Latitude":53.1272842,"Longitude":8.7413866},"BottomRight":{"Latitude":53.1250358,"Longitude":8.7451334}},"Address":{"Label":"Togostraße 26, 28239 Bremen, Deutschland","Country":"DEU","State":"Bremen","County":"Bremen","City":"Bremen","District":"Gröpelingen","Street":"Togostraße","HouseNumber":"26","PostalCode":"28239","AdditionalData":[{"value":"Deutschland","key":"CountryName"},{"value":"Bremen","key":"StateName"},{"value":"Bremen","key":"CountyName"}]},"MapReference":{"ReferenceId":"1244426386","Spot":0.73,"SideOfStreet":"right","CountryId":"20147700","StateId":"20157339","CountyId":"20157340","CityId":"20157341","DistrictId":"20157346","AddressId":"169342832","RoadLinkId":"565773664"}}},{"Relevance":1.0,"Distance":117.2,"MatchLevel":"houseNumber","MatchQuality":{"Country":1.0,"State":1.0,"County":1.0,"City":1.0,"District":1.0,"Street":[1.0],"HouseNumber":1.0,"PostalCode":1.0},"MatchType":"interpolated","Location":{"LocationId":"NT_LF7voJJYqc2VNgAzATTfLA_ygD","LocationType":"point","DisplayPosition":{"Latitude":53.1261,"Longitude":8.743},"MapView":{"TopLeft":{"Latitude":53.1272242,"Longitude":8.7411266},"BottomRight":{"Latitude":53.1249758,"Longitude":8.7448734}},"Address":{"Label":"Togostraße 28, 28239 Bremen, Deutschland","Country":"DEU","State":"Bremen","County":"Bremen","City":"Bremen","District":"Gröpelingen","Street":"Togostraße","HouseNumber":"28","PostalCode":"28239","AdditionalData":[{"value":"Deutschland","key":"CountryName"},{"value":"Bremen","key":"StateName"},{"value":"Bremen","key":"CountyName"}]},"MapReference":{"ReferenceId":"51887696","Spot":0.92,"SideOfStreet":"right","CountryId":"20147700","StateId":"20157339","CountyId":"20157340","CityId":"20157341","DistrictId":"20157346","AddressId":"169442367","RoadLinkId":"37138094"}}},{"Relevance":1.0,"Distance":117.5,"MatchLevel":"street","MatchQuality":{"Country":1.0,"State":1.0,"County":1.0,"City":1.0,"District":1.0,"PostalCode":1.0},"Location":{"LocationId":"NT_qPvO8dTXUrK4YFLbmsBhmC_l_1244509516_R","LocationType":"point","DisplayPosition":{"Latitude":53.12617,"Longitude":8.74332},"MapView":{"TopLeft":{"Latitude":53.12644,"Longitude":8.74316},"BottomRight":{"Latitude":53.12617,"Longitude":8.74332}},"Address":{"Label":"28239 Bremen, Deutschland","Country":"DEU","State":"Bremen","County":"Bremen","City":"Bremen","District":"Gröpelingen","PostalCode":"28239","AdditionalData":[{"value":"Deutschland","key":"CountryName"},{"value":"Bremen","key":"StateName"},{"value":"Bremen","key":"CountyName"}]},"MapReference":{"ReferenceId":"1244509516","Spot":0.0,"SideOfStreet":"right","CountryId":"20147700","StateId":"20157339","CountyId":"20157340","CityId":"20157341","DistrictId":"20157346"}}}]}]}}