{"Response":{"MetaInfo":{"Timestamp":"2020-03-28T09:57:16.449+0000","NextPageInformation":"2"},"View":[{"_type":"SearchResultsViewType","ViewId":0,"Result":[{"Relevance":1.0,"Distance":0.0,"Direction":0.0,"MatchLevel":"district","MatchQuality":{"Country":1.0,"State":1.0,"County":1.0,"City":1.0,"District":1.0,"PostalCode":1.0},"Location":{"LocationId":"NT_ZBgYN8pk6DCR5i0huqI2jD","LocationType":"point","DisplayPosition":{"Latitude":53.1482022,"Longitude":18.1125555},"MapView":{"TopLeft":{"Latitude":53.20943,"Longitude":17.87388},"BottomRight":{"Latitude":53.07761,"Longitude":18.19858}},"Address":{"Label":"Bydgoszcz, Woj. Kujawsko-Pomorskie, Polska","Country":"POL","State":"Woj. Kujawsko-Pomorskie","County":"Bydgoszcz","City":"Bydgoszcz","District":"Bydgoszcz","PostalCode":"85-023","AdditionalData":[{"value":"Polska","key":"CountryName"},{"value":"Woj. Kujawsko-Pomorskie","key":"StateName"},{"value":"Bydgoszcz","key":"CountyName"}]},"MapReference":{"ReferenceId":"1175421744","SideOfStreet":"neither","CountryId":"20624059","StateId":"20625395","CountyId":"20625396","CityId":"20625397","DistrictId":"20646634"}}},{"Relevance":1.0,"Distance":30.8,"MatchLevel":"street","MatchQuality":{"Country":1.0,"State":1.0,"County":1.0,"City":1.0,"District":1.0,"PostalCode":1.0},"Location":{"LocationId":"NT_mzp12oM0cwd5-0-89UAxBD_l_1175828406_L","LocationType":"point","DisplayPosition":{"Latitude":53.1484175,"Longitude":18.1128465},"MapView":{"TopLeft":{"Latitude":53.15,"Longitude":18.11057},"BottomRight":{"Latitude":53.14771,"Longitude":18.11337}},"Address":{"Label":"85-796 Bydgoszcz, Polska","Country":"POL","State":"Woj. Kujawsko-Pomorskie","County":"Bydgoszcz","City":"Bydgoszcz","District":"Bydgoszcz","PostalCode":"85-796","AdditionalData":[{"value":"Polska","key":"CountryName"},{"value":"Woj. Kujawsko-Pomorskie","key":"StateName"},{"value":"Bydgoszcz","key":"CountyName"}]},"MapReference":{"ReferenceId":"1175828406","Spot":0.22,"SideOfStreet":"left","CountryId":"20624059","StateId":"20625395","CountyId":"20625396","CityId":"20625397","DistrictId":"20646634"}}},{"Relevance":1.0,"Distance":58.8,"MatchLevel":"street","MatchQuality":{"Country":1.0,"State":1.0,"County":1.0,"City":1.0,"District":1.0,"PostalCode":1.0},"Location":{"LocationId":"NT_mzp12oM0cwd5-0-89UAxBD_l_1204773860_L","LocationType":"point","DisplayPosition":{"Latitude":53.14793,"Longitude":18.1118},"MapView":{"TopLeft":{"Latitude":53.14793,"Longitude":18.11162},"BottomRight":{"Latitude":53.14788,"Longitude":18.1118}},"Address":{"Label":"85-796 Bydgoszcz, Polska","Country":"POL","State":"Woj. Kujawsko-Pomorskie","County":"Bydgoszcz","City":"Bydgoszcz","District":"Bydgoszcz","PostalCode":"85-796","AdditionalData":[{"value":"Polska","key":"CountryName"},{"value":"Woj. Kujawsko-Pomorskie","key":"StateName"},{"value":"Bydgoszcz","key":"CountyName"}]},"MapReference":{"ReferenceId":"1204773860","Spot":1.0,"SideOfStreet":"left","CountryId":"20624059","StateId":"20625395","CountyId":"20625396","CityId":"20625397","DistrictId":"20646634"}}},{"Relevance":1.0,"Distance":64.9,"MatchLevel":"street","MatchQuality":{"Country":1.0,"State":1.0,"County":1.0,"City":1.0,"District":1.0,"PostalCode":1.0},"Location":{"LocationId":"NT_mzp12oM0cwd5-0-89UAxBD_l_1204773858_R","LocationType":"point","DisplayPosition":{"Latitude":53.1477642,"Longitude":18.1119131},"MapView":{"TopLeft":{"Latitude":53.14793,"Longitude":18.1118},"BottomRight":{"Latitude":53.14771,"Longitude":18.11195}},"Address":{"Label":"85-796 Bydgoszcz, Polska","Country":"POL","State":"Woj. Kujawsko-Pomorskie","County":"Bydgoszcz","City":"Bydgoszcz","District":"Bydgoszcz","PostalCode":"85-796","AdditionalData":[{"value":"Polska","key":"CountryName"},{"value":"Woj. Kujawsko-Pomorskie","key":"StateName"},{"value":"Bydgoszcz","key":"CountyName"}]},"MapReference":{"ReferenceId":"1204773858","Spot":0.25,"SideOfStreet":"right","CountryId":"20624059","StateId":"20625395","CountyId":"20625396","CityId":"20625397","DistrictId":"20646634"}}},{"Relevance":1.0,"Distance":68.0,"MatchLevel":"street","MatchQuality":{"Country":1.0,"State":1.0,"County":1.0,"City":1.0,"District":1.0,"PostalCode":1.0},"Location":{"LocationId":"NT_mzp12oM0cwd5-0-89UAxBD_l_1204786218_L","LocationType":"point","DisplayPosition":{"Latitude":53.14771,"Longitude":18.11195},"MapView":{"TopLeft":{"Latitude":53.14771,"Longitude":18.11177},"BottomRight":{"Latitude":53.14766,"Longitude":18.11195}},"Address":{"Label":"85-796 Bydgoszcz, Polska","Country":"POL","State":"Woj. Kujawsko-Pomorskie","County":"Bydgoszcz","City":"Bydgoszcz","District":"Bydgoszcz","PostalCode":"85-796","AdditionalData":[{"value":"Polska","key":"CountryName"},{"value":"Woj. Kujawsko-Pomorskie","key":"StateName"},{"value":"Bydgoszcz","key":"CountyName"}]},"MapReference":{"ReferenceId":"1204786218","Spot":1.0,"SideOfStreet":"left","CountryId":"20624059","StateId":"20625395","CountyId":"20625396","CityId":"20625397","DistrictId":"20646634"}}},{"Relevance":1.0,"Distance":68.0,"MatchLevel":"street","MatchQuality":{"Country":1.0,"State":1.0,"County":1.0,"City":1.0,"District":1.0,"PostalCode":1.0},"Location":{"LocationId":"NT_mzp12oM0cwd5-0-89UAxBD_l_1204773468_R","LocationType":"point","DisplayPosition":{"Latitude":53.14771,"Longitude":18.11195},"MapView":{"TopLeft":{"Latitude":53.14771,"Longitude":18.11195},"BottomRight":{"Latitude":53.14739,"Longitude":18.1122}},"Address":{"Label":"85-796 Bydgoszcz, Polska","Country":"POL","State":"Woj. Kujawsko-Pomorskie","County":"Bydgoszcz","City":"Bydgoszcz","District":"Bydgoszcz","PostalCode":"85-796","AdditionalData":[{"value":"Polska","key":"CountryName"},{"value":"Woj. Kujawsko-Pomorskie","key":"StateName"},{"value":"Bydgoszcz","key":"CountyName"}]},"MapReference":{"ReferenceId":"1204773468","Spot":1.0,"SideOfStreet":"right","CountryId":"20624059","StateId":"20625395","CountyId":"20625396","CityId":"20625397","DistrictId":"20646634"}}},{"Relevance":1.0,"Distance":74.3,"MatchLevel":"street","MatchQuality":{"Country":1.0,"State":1.0,"County":1.0,"City":1.0,"District":1.0,"Street":[1.0],"PostalCode":1.0},"Location":{"LocationId":"NT_7OvjHnFVr.W5dB2UUQaO8D_l_1175828404_L","LocationType":"point","DisplayPosition":{"Latitude":53.14755,"Longitude":18.1128},"MapView":{"TopLeft":{"Latitude":53.14771,"Longitude":18.1128},"BottomRight":{"Latitude":53.14755,"Longitude":18.11337}},"Address":{"Label":"ulica Izabeli Romanowskiej, 85-796 Bydgoszcz, Polska","Country":"POL","State":"Woj. Kujawsko-Pomorskie","County":"Bydgoszcz","City":"Bydgoszcz","District":"Bydgoszcz","Street":"ulica Izabeli Romanowskiej","PostalCode":"85-796","AdditionalData":[{"value":"Polska","key":"CountryName"},{"value":"Woj. Kujawsko-Pomorskie","key":"StateName"},{"value":"Bydgoszcz","key":"CountyName"}]},"MapReference":{"ReferenceId":"1175828404","Spot":0.0,"SideOfStreet":"left","CountryId":"20624059","StateId":"20625395","CountyId":"20625396","CityId":"20625397","DistrictId":"20646634"}}},{"Relevance":1.0,"Distance":74.3,"MatchLevel":"street","MatchQuality":{"Country":1.0,"State":1.0,"County":1.0,"City":1.0,"District":1.0,"Street":[1.0],"PostalCode":1.0},"Location":{"LocationId":"NT_7OvjHnFVr.W5dB2UUQaO8D_l_913141283_R","LocationType":"point","DisplayPosition":{"Latitude":53.14755,"Longitude":18.1128},"MapView":{"TopLeft":{"Latitude":53.14755,"Longitude":18.1128},"BottomRight":{"Latitude":53.1472,"Longitude":18.11315}},"Address":{"Label":"ulica Izabeli Romanowskiej, 85-796 Bydgoszcz, Polska","Country":"POL","State":"Woj. Kujawsko-Pomorskie","County":"Bydgoszcz","City":"Bydgoszcz","District":"Bydgoszcz","Street":"ulica Izabeli Romanowskiej","PostalCode":"85-796","AdditionalData":[{"value":"Polska","key":"CountryName"},{"value":"Woj. Kujawsko-Pomorskie","key":"StateName"},{"value":"Bydgoszcz","key":"CountyName"}]},"MapReference":{"ReferenceId":"913141283","Spot":1.0,"SideOfStreet":"right","CountryId":"20624059","StateId":"20625395","CountyId":"20625396","CityId":"20625397","DistrictId":"20646634"}}},{"Relevance":1.0,"Distance":75.5,"MatchLevel":"street","MatchQuality":{"Country":1.0,"State":1.0,"County":1.0,"City":1.0,"District":1.0,"Street":[1.0],"PostalCode":1.0},"Location":{"LocationId":"NT_7OvjHnFVr.W5dB2UUQaO8D_l_913141281_L","LocationType":"point","DisplayPosition":{"Latitude":53.1475308,"Longitude":18.1127233},"MapView":{"TopLeft":{"Latitude":53.14755,"Longitude":18.11248},"BottomRight":{"Latitude":53.14747,"Longitude":18.1128}},"Address":{"Label":"ulica Izabeli Romanowskiej, 85-796 Bydgoszcz, Polska","Country":"POL","State":"Woj. Kujawsko-Pomorskie","County":"Bydgoszcz","City":"Bydgoszcz","District":"Bydgoszcz","Street":"ulica Izabeli Romanowskiej","PostalCode":"85-796","AdditionalData":[{"value":"Polska","key":"CountryName"},{"value":"Woj. Kujawsko-Pomorskie","key":"StateName"},{"value":"Bydgoszcz","key":"CountyName"}]},"MapReference":{"ReferenceId":"913141281","Spot":0.76,"SideOfStreet":"left","CountryId":"20624059","StateId":"20625395","CountyId":"20625396","CityId":"20625397","DistrictId":"20646634"}}},{"Relevance":1.0,"Distance":77.1,"MatchLevel":"street","MatchQuality":{"Country":1.0,"State":1.0,"County":1.0,"City":1.0,"District":1.0,"Street":[1.0],"PostalCode":1.0},"Location":{"LocationId":"NT_7OvjHnFVr.W5dB2UUQaO8D_l_1204764526_L","LocationType":"point","DisplayPosition":{"Latitude":53.14771,"Longitude":18.11337},"MapView":{"TopLeft":{"Latitude":53.14794,"Longitude":18.11337},"BottomRight":{"Latitude":53.14771,"Longitude":18.11414}},"Address":{"Label":"ulica Izabeli Romanowskiej, 85-796 Bydgoszcz, Polska","Country":"POL","State":"Woj. Kujawsko-Pomorskie","County":"Bydgoszcz","City":"Bydgoszcz","District":"Bydgoszcz","Street":"ulica Izabeli Romanowskiej","PostalCode":"85-796","AdditionalData":[{"value":"Polska","key":"CountryName"},{"value":"Woj. Kujawsko-Pomorskie","key":"StateName"},{"value":"Bydgoszcz","key":"CountyName"}]},"MapReference":{"ReferenceId":"1204764526","Spot":0.0,"SideOfStreet":"left","CountryId":"20624059","StateId":"20625395","CountyId":"20625396","CityId":"20625397","DistrictId":"20646634"}}}]}]}}