{"Response":{"MetaInfo":{"Timestamp":"2020-03-28T11:17:55.007+0000","NextPageInformation":"2"},"View":[{"_type":"SearchResultsViewType","ViewId":0,"Result":[{"Relevance":1.0,"Distance":0.0,"Direction":0.0,"MatchLevel":"district","MatchQuality":{"Country":1.0,"State":1.0,"County":1.0,"City":1.0,"District":1.0,"PostalCode":1.0},"Location":{"LocationId":"NT_cch4doCsZM2ijsBjZOdvXA","LocationType":"point","DisplayPosition":{"Latitude":53.2900308,"Longitude":-3.7221006},"MapView":{"TopLeft":{"Latitude":53.31689,"Longitude":-3.78018},"BottomRight":{"Latitude":53.27408,"Longitude":-3.67333}},"Address":{"Label":"Colwyn Bay, Wales, United Kingdom","Country":"GBR","State":"Wales","County":"Clwyd","City":"Colwyn Bay","District":"Colwyn Bay","PostalCode":"LL29 7","AdditionalData":[{"value":"United Kingdom","key":"CountryName"},{"value":"Wales","key":"StateName"},{"value":"Clwyd","key":"CountyName"}]},"MapReference":{"ReferenceId":"17467489","SideOfStreet":"neither","StateId":"20287683","CountyId":"20340689","CityId":"20340734","DistrictId":"20340735"}}},{"Relevance":1.0,"Distance":7.2,"MatchLevel":"postalCode","MatchQuality":{"PostalCode":1.0},"MatchType":"interpolated","Location":{"LocationId":"NT_-5armWo.hnY-GMS5XLTUMD_l_17468426_R_xA","LocationType":"point","DisplayPosition":{"Latitude":53.29008,"Longitude":-3.72217},"MapView":{"TopLeft":{"Latitude":53.2990732,"Longitude":-3.7372148},"BottomRight":{"Latitude":53.2810868,"Longitude":-3.7071252}},"Address":{"Label":"LL29 7PY, Colwyn Bay, Wales, United Kingdom","Country":"GBR","State":"Wales","County":"Clwyd","City":"Colwyn Bay","PostalCode":"LL29 7PY","AdditionalData":[{"value":"United Kingdom","key":"CountryName"},{"value":"Wales","key":"StateName"},{"value":"Clwyd","key":"CountyName"}]},"MapReference":{"ReferenceId":"17468426","Spot":0.8,"SideOfStreet":"neither","StateId":"20287683","CountyId":"20340689","CityId":"20340734"}}},{"Relevance":1.0,"Distance":13.9,"MatchLevel":"houseNumber","MatchQuality":{"Country":1.0,"State":1.0,"County":1.0,"City":1.0,"District":1.0,"Street":[1.0],"HouseNumber":1.0,"PostalCode":1.0},"MatchType":"interpolated","Location":{"LocationId":"NT_-5armWo.hnY-GMS5XLTUMD_l_17468426_R_xA","LocationType":"point","DisplayPosition":{"Latitude":53.2899637,"Longitude":-3.722277},"MapView":{"TopLeft":{"Latitude":53.2910879,"Longitude":-3.7241575},"BottomRight":{"Latitude":53.2888396,"Longitude":-3.7203964}},"Address":{"Label":"1 Woodfield Avenue, Colwyn Bay, LL29 7UW, United Kingdom","Country":"GBR","State":"Wales","County":"Clwyd","City":"Colwyn Bay","District":"Colwyn Bay","Street":"Woodfield Avenue","HouseNumber":"1","PostalCode":"LL29 7UW","AdditionalData":[{"value":"United Kingdom","key":"CountryName"},{"value":"Wales","key":"StateName"},{"value":"Clwyd","key":"CountyName"}]},"MapReference":{"ReferenceId":"17468426","Spot":0.8,"SideOfStreet":"right","StateId":"20287683","CountyId":"20340689","CityId":"20340734","DistrictId":"20340735"}}},{"Relevance":1.0,"Distance":15.8,"MatchLevel":"street","MatchQuality":{"Country":1.0,"State":1.0,"County":1.0,"City":1.0,"District":1.0,"Street":[1.0],"PostalCode":1.0},"Location":{"LocationId":"NT_-5armWo.hnY-GMS5XLTUMD_l_17468242_R","LocationType":"point","DisplayPosition":{"Latitude":53.29016,"Longitude":-3.7222},"MapView":{"TopLeft":{"Latitude":53.29043,"Longitude":-3.7222},"BottomRight":{"Latitude":53.29016,"Longitude":-3.722}},"Address":{"Label":"Woodfield Avenue, Colwyn Bay, LL29 7, United Kingdom","Country":"GBR","State":"Wales","County":"Clwyd","City":"Colwyn Bay","District":"Colwyn Bay","Street":"Woodfield Avenue","PostalCode":"LL29 7","AdditionalData":[{"value":"United Kingdom","key":"CountryName"},{"value":"Wales","key":"StateName"},{"value":"Clwyd","key":"CountyName"}]},"MapReference":{"ReferenceId":"17468242","Spot":0.0,"SideOfStreet":"right","StateId":"20287683","CountyId":"20340689","CityId":"20340734","DistrictId":"20340735"}}},{"Relevance":1.0,"Distance":34.7,"MatchLevel":"houseNumber","MatchQuality":{"Country":1.0,"State":1.0,"County":1.0,"City":1.0,"District":1.0,"Street":[1.0],"HouseNumber":1.0,"PostalCode":1.0},"MatchType":"interpolated","Location":{"LocationId":"NT_ZscII9OWUVTLc9AJHI0L2A_l_17468412_R_xA","LocationType":"point","DisplayPosition":{"Latitude":53.2902432,"Longitude":-3.7225728},"MapView":{"TopLeft":{"Latitude":53.2913674,"Longitude":-3.7244534},"BottomRight":{"Latitude":53.289119,"Longitude":-3.7206922}},"Address":{"Label":"1 Kenneth Avenue, Colwyn Bay, LL29 7UN, United Kingdom","Country":"GBR","State":"Wales","County":"Clwyd","City":"Colwyn Bay","District":"Colwyn Bay","Street":"Kenneth Avenue","HouseNumber":"1","PostalCode":"LL29 7UN","AdditionalData":[{"value":"United Kingdom","key":"CountryName"},{"value":"Wales","key":"StateName"},{"value":"Clwyd","key":"CountyName"}]},"MapReference":{"ReferenceId":"17468412","Spot":0.77,"SideOfStreet":"right","StateId":"20287683","CountyId":"20340689","CityId":"20340734","DistrictId":"20340735"}}},{"Relevance":1.0,"Distance":44.3,"MatchLevel":"street","MatchQuality":{"Country":1.0,"State":1.0,"County":1.0,"City":1.0,"District":1.0,"Street":[1.0],"PostalCode":1.0},"Location":{"LocationId":"NT_ASMPG2-y-xjqqRiUzlYMxC_l_17468436_L","LocationType":"point","DisplayPosition":{"Latitude":53.2898164,"Longitude":-3.7215392},"MapView":{"TopLeft":{"Latitude":53.29027,"Longitude":-3.72166},"BottomRight":{"Latitude":53.2895,"Longitude":-3.72144}},"Address":{"Label":"Nant-Y-Glyn Road, Colwyn Bay, LL29 7, United Kingdom","Country":"GBR","State":"Wales","County":"Clwyd","City":"Colwyn Bay","District":"Colwyn Bay","Street":"Nant-Y-Glyn Road","PostalCode":"LL29 7","AdditionalData":[{"value":"United Kingdom","key":"CountryName"},{"value":"Wales","key":"StateName"},{"value":"Clwyd","key":"CountyName"}]},"MapReference":{"ReferenceId":"17468436","Spot":0.42,"SideOfStreet":"left","StateId":"20287683","CountyId":"20340689","CityId":"20340734","DistrictId":"20340735"}}},{"Relevance":1.0,"Distance":44.6,"MatchLevel":"street","MatchQuality":{"Country":1.0,"State":1.0,"County":1.0,"City":1.0,"District":1.0,"Street":[1.0],"PostalCode":1.0},"Location":{"LocationId":"NT_4Y39sMTegx1bQj52ZjsErD_l_17468218_L","LocationType":"point","DisplayPosition":{"Latitude":53.2904264,"Longitude":-3.7219876},"MapView":{"TopLeft":{"Latitude":53.29043,"Longitude":-3.722},"BottomRight":{"Latitude":53.29027,"Longitude":-3.72144}},"Address":{"Label":"Nant-Y-Glyn Avenue, Colwyn Bay, LL29 7, United Kingdom","Country":"GBR","State":"Wales","County":"Clwyd","City":"Colwyn Bay","District":"Colwyn Bay","Street":"Nant-Y-Glyn Avenue","PostalCode":"LL29 7","AdditionalData":[{"value":"United Kingdom","key":"CountryName"},{"value":"Wales","key":"StateName"},{"value":"Clwyd","key":"CountyName"}]},"MapReference":{"ReferenceId":"17468218","Spot":0.98,"SideOfStreet":"left","StateId":"20287683","CountyId":"20340689","CityId":"20340734","DistrictId":"20340735"}}},{"Relevance":1.0,"Distance":44.9,"MatchLevel":"street","MatchQuality":{"Country":1.0,"State":1.0,"County":1.0,"City":1.0,"District":1.0,"Street":[1.0],"PostalCode":1.0},"Location":{"LocationId":"NT_4Y39sMTegx1bQj52ZjsErD_l_17468178_L","LocationType":"point","DisplayPosition":{"Latitude":53.29043,"Longitude":-3.722},"MapView":{"TopLeft":{"Latitude":53.29072,"Longitude":-3.7233},"BottomRight":{"Latitude":53.29043,"Longitude":-3.722}},"Address":{"Label":"Nant-Y-Glyn Avenue, Colwyn Bay, LL29 7, United Kingdom","Country":"GBR","State":"Wales","County":"Clwyd","City":"Colwyn Bay","District":"Colwyn Bay","Street":"Nant-Y-Glyn Avenue","PostalCode":"LL29 7","AdditionalData":[{"value":"United Kingdom","key":"CountryName"},{"value":"Wales","key":"StateName"},{"value":"Clwyd","key":"CountyName"}]},"MapReference":{"ReferenceId":"17468178","Spot":0.0,"SideOfStreet":"left","StateId":"20287683","CountyId":"20340689","CityId":"20340734","DistrictId":"20340735"}}},{"Relevance":1.0,"Distance":50.7,"MatchLevel":"postalCode","MatchQuality":{"PostalCode":1.0},"Location":{"LocationId":"NT_ASMPG2-y-xjqqRiUzlYMxC_l_17468436_L","LocationType":"point","DisplayPosition":{"Latitude":53.28975,"Longitude":-3.7215},"MapView":{"TopLeft":{"Latitude":53.2987432,"Longitude":-3.7365446},"BottomRight":{"Latitude":53.2807568,"Longitude":-3.7064554}},"Address":{"Label":"LL29 7PU, Colwyn Bay, Wales, United Kingdom","Country":"GBR","State":"Wales","County":"Clwyd","City":"Colwyn Bay","PostalCode":"LL29 7PU","AdditionalData":[{"value":"United Kingdom","key":"CountryName"},{"value":"Wales","key":"StateName"},{"value":"Clwyd","key":"CountyName"}]},"MapReference":{"ReferenceId":"17468436","Spot":0.42,"SideOfStreet":"neither","StateId":"20287683","CountyId":"20340689","CityId":"20340734"}}},{"Relevance":1.0,"Distance":51.3,"MatchLevel":"street","MatchQuality":{"Country":1.0,"State":1.0,"County":1.0,"City":1.0,"District":1.0,"Street":[1.0],"PostalCode":1.0},"Location":{"LocationId":"NT_ASMPG2-y-xjqqRiUzlYMxC_l_17468217_L","LocationType":"point","DisplayPosition":{"Latitude":53.29027,"Longitude":-3.72144},"MapView":{"TopLeft":{"Latitude":53.29081,"Longitude":-3.72145},"BottomRight":{"Latitude":53.29027,"Longitude":-3.72096}},"Address":{"Label":"Nant-Y-Glyn Road, Colwyn Bay, LL29 7, United Kingdom","Country":"GBR","State":"Wales","County":"Clwyd","City":"Colwyn Bay","District":"Colwyn Bay","Street":"Nant-Y-Glyn Road","PostalCode":"LL29 7","AdditionalData":[{"value":"United Kingdom","key":"CountryName"},{"value":"Wales","key":"StateName"},{"value":"Clwyd","key":"CountyName"}]},"MapReference":{"ReferenceId":"17468217","Spot":0.0,"SideOfStreet":"left","StateId":"20287683","CountyId":"20340689","CityId":"20340734","DistrictId":"20340735"}}}]}]}}