{"Response":{"MetaInfo":{"Timestamp":"2020-03-28T12:03:17.562+0000","NextPageInformation":"2"},"View":[{"_type":"SearchResultsViewType","ViewId":0,"Result":[{"Relevance":1.0,"Distance":0.0,"Direction":0.0,"MatchLevel":"district","MatchQuality":{"Country":1.0,"County":1.0,"City":1.0,"District":1.0,"PostalCode":1.0},"Location":{"LocationId":"NT_x7Uz4yEPOlWkYZkI5xsueB","LocationType":"point","DisplayPosition":{"Latitude":53.2739078,"Longitude":-9.0511767},"MapView":{"TopLeft":{"Latitude":53.30676,"Longitude":-9.1332},"BottomRight":{"Latitude":53.25176,"Longitude":-8.95712}},"Address":{"Label":"Gaillimh, Éire","Country":"IRL","County":"County Galway","City":"Gaillimh","District":"Gaillimh","AdditionalData":[{"value":"Éire","key":"CountryName"},{"value":"County Galway","key":"CountyName"}]},"MapReference":{"ReferenceId":"778285152","SideOfStreet":"neither","CountryId":"20403667","CountyId":"20411189","CityId":"20426574","DistrictId":"20426575"}}},{"Relevance":1.0,"Distance":4.9,"MatchLevel":"houseNumber","MatchQuality":{"Country":1.0,"County":1.0,"City":1.0,"District":1.0,"Street":[1.0],"HouseNumber":1.0,"PostalCode":1.0},"MatchType":"interpolated","Location":{"LocationId":"NT_Qj4Guu6u4LrLQ9Y6RHFytB_xED","LocationType":"point","DisplayPosition":{"Latitude":53.27401,"Longitude":-9.0512},"MapView":{"TopLeft":{"Latitude":53.2751342,"Longitude":-9.0530799},"BottomRight":{"Latitude":53.2728858,"Longitude":-9.0493201}},"Address":{"Label":"11 Williamsgate Street, Gaillimh, County Galway, H91 HT21, Éire","Country":"IRL","County":"County Galway","City":"Gaillimh","District":"Gaillimh","Street":"Williamsgate Street","HouseNumber":"11","PostalCode":"H91 HT21","AdditionalData":[{"value":"Éire","key":"CountryName"},{"value":"County Galway","key":"CountyName"}]},"MapReference":{"ReferenceId":"779710590","Spot":0.32,"SideOfStreet":"right","CountryId":"20403667","CountyId":"20411189","CityId":"20426574","DistrictId":"20426575","AddressId":"214324075","RoadLinkId":"173005169"}}},{"Relevance":1.0,"Distance":8.6,"MatchLevel":"houseNumber","MatchQuality":{"Country":1.0,"County":1.0,"City":1.0,"District":1.0,"Street":[1.0],"HouseNumber":1.0,"PostalCode":1.0},"MatchType":"interpolated","Location":{"LocationId":"NT_xpX8a2MTjHMPcQTq-o6nuC_xA","LocationType":"point","DisplayPosition":{"Latitude":53.27385,"Longitude":-9.05133},"MapView":{"TopLeft":{"Latitude":53.2749742,"Longitude":-9.0532099},"BottomRight":{"Latitude":53.2727258,"Longitude":-9.0494501}},"Address":{"Label":"1 William Street, Gaillimh, County Galway, H91 V128, Éire","Country":"IRL","County":"County Galway","City":"Gaillimh","District":"Gaillimh","Street":"William Street","HouseNumber":"1","PostalCode":"H91 V128","AdditionalData":[{"value":"Éire","key":"CountryName"},{"value":"County Galway","key":"CountyName"}]},"MapReference":{"ReferenceId":"562695102","Spot":0.7,"SideOfStreet":"right","CountryId":"20403667","CountyId":"20411189","CityId":"20426574","DistrictId":"20426575","AddressId":"214247463","RoadLinkId":"86524523"}}},{"Relevance":1.0,"Distance":13.7,"MatchLevel":"postalCode","MatchQuality":{"PostalCode":1.0},"MatchType":"interpolated","Location":{"LocationId":"NT_Qj4Guu6u4LrLQ9Y6RHFytB_xED","LocationType":"point","DisplayPosition":{"Latitude":53.27403,"Longitude":-9.05115},"MapView":{"TopLeft":{"Latitude":53.2830232,"Longitude":-9.0661891},"BottomRight":{"Latitude":53.2650368,"Longitude":-9.0361109}},"Address":{"Label":"H91 TK7C, Gaillimh, Ireland","Country":"IRL","County":"County Galway","City":"Gaillimh","PostalCode":"H91 TK7C","AdditionalData":[{"value":"Ireland","key":"CountryName"},{"value":"County Galway","key":"CountyName"}]},"MapReference":{"ReferenceId":"779710590","Spot":0.32,"SideOfStreet":"neither","CountryId":"20403667","CountyId":"20411189","CityId":"20426574"}}},{"Relevance":1.0,"Distance":17.4,"MatchLevel":"houseNumber","MatchQuality":{"Country":1.0,"County":1.0,"City":1.0,"District":1.0,"Street":[1.0],"HouseNumber":1.0,"PostalCode":1.0},"MatchType":"interpolated","Location":{"LocationId":"NT_9j4Lw.bRShD4Ev-IMluAQC_l_778284568_L_zA","LocationType":"point","DisplayPosition":{"Latitude":53.2740389,"Longitude":-9.0513656},"MapView":{"TopLeft":{"Latitude":53.2751631,"Longitude":-9.0532455},"BottomRight":{"Latitude":53.2729148,"Longitude":-9.0494857}},"Address":{"Label":"3 Eglinton Street, Gaillimh, County Galway, H91, Éire","Country":"IRL","County":"County Galway","City":"Gaillimh","District":"Gaillimh","Street":"Eglinton Street","HouseNumber":"3","PostalCode":"H91","AdditionalData":[{"value":"Éire","key":"CountryName"},{"value":"County Galway","key":"CountyName"}]},"MapReference":{"ReferenceId":"778284568","Spot":0.59,"SideOfStreet":"left","CountryId":"20403667","CountyId":"20411189","CityId":"20426574","DistrictId":"20426575"}}},{"Relevance":1.0,"Distance":20.9,"MatchLevel":"postalCode","MatchQuality":{"PostalCode":1.0},"MatchType":"interpolated","Location":{"LocationId":"NT_xpX8a2MTjHMPcQTq-o6nuC_xA","LocationType":"point","DisplayPosition":{"Latitude":53.27376,"Longitude":-9.05137},"MapView":{"TopLeft":{"Latitude":53.2827532,"Longitude":-9.066409},"BottomRight":{"Latitude":53.2647668,"Longitude":-9.036331}},"Address":{"Label":"H91 Y9H3, Gaillimh, Ireland","Country":"IRL","County":"County Galway","City":"Gaillimh","PostalCode":"H91 Y9H3","AdditionalData":[{"value":"Ireland","key":"CountryName"},{"value":"County Galway","key":"CountyName"}]},"MapReference":{"ReferenceId":"562695102","Spot":0.7,"SideOfStreet":"neither","CountryId":"20403667","CountyId":"20411189","CityId":"20426574"}}},{"Relevance":1.0,"Distance":32.2,"MatchLevel":"houseNumber","MatchQuality":{"Country":1.0,"County":1.0,"City":1.0,"District":1.0,"Street":[1.0],"HouseNumber":1.0,"PostalCode":1.0},"MatchType":"interpolated","Location":{"LocationId":"NT_Qj4Guu6u4LrLQ9Y6RHFytB_5A","LocationType":"point","DisplayPosition":{"Latitude":53.27416,"Longitude":-9.05094},"MapView":{"TopLeft":{"Latitude":53.2752842,"Longitude":-9.0528199},"BottomRight":{"Latitude":53.2730358,"Longitude":-9.0490601}},"Address":{"Label":"9 Williamsgate Street, Gaillimh, County Galway, H91 X5D4, Éire","Country":"IRL","County":"County Galway","City":"Gaillimh","District":"Gaillimh","Street":"Williamsgate Street","HouseNumber":"9","PostalCode":"H91 X5D4","AdditionalData":[{"value":"Éire","key":"CountryName"},{"value":"County Galway","key":"CountyName"}]},"MapReference":{"ReferenceId":"1038478323","Spot":0.23,"SideOfStreet":"right","CountryId":"20403667","CountyId":"20411189","CityId":"20426574","DistrictId":"20426575","AddressId":"214247448","RoadLinkId":"360285311"}}},{"Relevance":1.0,"Distance":37.3,"MatchLevel":"postalCode","MatchQuality":{"PostalCode":1.0},"MatchType":"interpolated","Location":{"LocationId":"NT_Qj4Guu6u4LrLQ9Y6RHFytB_5A","LocationType":"point","DisplayPosition":{"Latitude":53.27423,"Longitude":-9.05102},"MapView":{"TopLeft":{"Latitude":53.2832232,"Longitude":-9.0660592},"BottomRight":{"Latitude":53.2652368,"Longitude":-9.0359808}},"Address":{"Label":"H91 XC93, Gaillimh, Ireland","Country":"IRL","County":"County Galway","City":"Gaillimh","PostalCode":"H91 XC93","AdditionalData":[{"value":"Ireland","key":"CountryName"},{"value":"County Galway","key":"CountyName"}]},"MapReference":{"ReferenceId":"1038478323","Spot":0.23,"SideOfStreet":"neither","CountryId":"20403667","CountyId":"20411189","CityId":"20426574"}}},{"Relevance":1.0,"Distance":38.9,"MatchLevel":"postalCode","MatchQuality":{"PostalCode":1.0},"MatchType":"interpolated","Location":{"LocationId":"NT_rMyNDASOCaYmR-ojBLlQ-B_zA","LocationType":"point","DisplayPosition":{"Latitude":53.27422,"Longitude":-9.05144},"MapView":{"TopLeft":{"Latitude":53.2832132,"Longitude":-9.0664792},"BottomRight":{"Latitude":53.2652268,"Longitude":-9.0364008}},"Address":{"Label":"H91 XWH3, Gaillimh, Ireland","Country":"IRL","County":"County Galway","City":"Gaillimh","PostalCode":"H91 XWH3","AdditionalData":[{"value":"Ireland","key":"CountryName"},{"value":"County Galway","key":"CountyName"}]},"MapReference":{"ReferenceId":"781679814","Spot":0.61,"SideOfStreet":"neither","CountryId":"20403667","CountyId":"20411189","CityId":"20426574"}}},{"Relevance":1.0,"Distance":51.7,"MatchLevel":"houseNumber","MatchQuality":{"Country":1.0,"County":1.0,"City":1.0,"District":1.0,"Street":[1.0],"HouseNumber":1.0,"PostalCode":1.0},"MatchType":"interpolated","Location":{"LocationId":"NT_xpX8a2MTjHMPcQTq-o6nuC_yYD","LocationType":"point","DisplayPosition":{"Latitude":53.27351,"Longitude":-9.05158},"MapView":{"TopLeft":{"Latitude":53.2746342,"Longitude":-9.0534599},"BottomRight":{"Latitude":53.2723858,"Longitude":-9.0497001}},"Address":{"Label":"26 William Street, Gaillimh, County Galway, H91 KW13, Éire","Country":"IRL","County":"County Galway","City":"Gaillimh","District":"Gaillimh","Street":"William Street","HouseNumber":"26","PostalCode":"H91 KW13","AdditionalData":[{"value":"Éire","key":"CountryName"},{"value":"County Galway","key":"CountyName"}]},"MapReference":{"ReferenceId":"562695104","Spot":0.94,"SideOfStreet":"left","CountryId":"20403667","CountyId":"20411189","CityId":"20426574","DistrictId":"20426575","AddressId":"214419484","RoadLinkId":"86669819"}}}]}]}}