{"Response":{"MetaInfo":{"Timestamp":"2020-03-28T12:03:13.600+0000","NextPageInformation":"2"},"View":[{"_type":"SearchResultsViewType","ViewId":0,"Result":[{"Relevance":1.0,"Distance":0.0,"Direction":0.0,"MatchLevel":"district","MatchQuality":{"Country":1.0,"County":1.0,"City":1.0,"District":1.0},"Location":{"LocationId":"NT_wh1OtvQIZsTlKylNHD0YqC","LocationType":"point","DisplayPosition":{"Latitude":53.2982184,"Longitude":-6.3036109},"MapView":{"TopLeft":{"Latitude":53.32964,"Longitude":-6.34903},"BottomRight":{"Latitude":53.28869,"Longitude":-6.27467}},"Address":{"Label":"Dublin 6w, Dublin, Ireland","Country":"IRL","County":"County Dublin","City":"Dublin","District":"Dublin 6w","AdditionalData":[{"value":"Ireland","key":"CountryName"},{"value":"County Dublin","key":"CountyName"}]},"MapReference":{"ReferenceId":"811589171","SideOfStreet":"neither","CountryId":"20403667","CountyId":"20411172","CityId":"20413526","DistrictId":"20413533"}}},{"Relevance":1.0,"Distance":3.6,"MatchLevel":"houseNumber","MatchQuality":{"Country":1.0,"County":1.0,"City":1.0,"District":1.0,"Street":[1.0],"HouseNumber":1.0,"PostalCode":1.0},"MatchType":"interpolated","Location":{"LocationId":"NT_lneNec.b6irfEKGQXF6M3C_xgjM","LocationType":"point","DisplayPosition":{"Latitude":53.29843,"Longitude":-6.30368},"MapView":{"TopLeft":{"Latitude":53.2995542,"Longitude":-6.305561},"BottomRight":{"Latitude":53.2973058,"Longitude":-6.301799}},"Address":{"Label":"182 Templeogue Road, Dublin, County Dublin, D6W VR04, Ireland","Country":"IRL","County":"County Dublin","City":"Dublin","District":"Dublin 6w","Street":"Templeogue Road","HouseNumber":"182","PostalCode":"D6W VR04","AdditionalData":[{"value":"Ireland","key":"CountryName"},{"value":"County Dublin","key":"CountyName"}]},"MapReference":{"ReferenceId":"1182131048","Spot":0.36,"SideOfStreet":"right","CountryId":"20403667","CountyId":"20411172","CityId":"20413526","DistrictId":"20413533","AddressId":"214728180","RoadLinkId":"490309779"}}},{"Relevance":1.0,"Distance":6.7,"MatchLevel":"postalCode","MatchQuality":{"PostalCode":1.0},"MatchType":"interpolated","Location":{"LocationId":"NT_lneNec.b6irfEKGQXF6M3C_xgjM","LocationType":"point","DisplayPosition":{"Latitude":53.29819,"Longitude":-6.3037},"MapView":{"TopLeft":{"Latitude":53.3071832,"Longitude":-6.3187476},"BottomRight":{"Latitude":53.2891968,"Longitude":-6.2886524}},"Address":{"Label":"D6W WN53, Dublin, Ireland","Country":"IRL","County":"County Dublin","City":"Dublin","PostalCode":"D6W WN53","AdditionalData":[{"value":"Ireland","key":"CountryName"},{"value":"County Dublin","key":"CountyName"}]},"MapReference":{"ReferenceId":"1182131048","Spot":0.36,"SideOfStreet":"neither","CountryId":"20403667","CountyId":"20411172","CityId":"20413526"}}},{"Relevance":1.0,"Distance":64.9,"MatchLevel":"houseNumber","MatchQuality":{"Country":1.0,"County":1.0,"City":1.0,"District":1.0,"Street":[1.0],"HouseNumber":1.0,"PostalCode":1.0},"MatchType":"interpolated","Location":{"LocationId":"NT_lneNec.b6irfEKGQXF6M3C_xkjN","LocationType":"point","DisplayPosition":{"Latitude":53.298,"Longitude":-6.30462},"MapView":{"TopLeft":{"Latitude":53.2991242,"Longitude":-6.3065009},"BottomRight":{"Latitude":53.2968758,"Longitude":-6.3027391}},"Address":{"Label":"196 Templeogue Road, Dublin, County Dublin, D6W XK12, Ireland","Country":"IRL","County":"County Dublin","City":"Dublin","District":"Dublin 6w","Street":"Templeogue Road","HouseNumber":"196","PostalCode":"D6W XK12","AdditionalData":[{"value":"Ireland","key":"CountryName"},{"value":"County Dublin","key":"CountyName"}]},"MapReference":{"ReferenceId":"1236364175","Spot":0.58,"SideOfStreet":"right","CountryId":"20403667","CountyId":"20411172","CityId":"20413526","DistrictId":"20413533","AddressId":"214143253","RoadLinkId":"556991955"}}},{"Relevance":1.0,"Distance":70.7,"MatchLevel":"postalCode","MatchQuality":{"PostalCode":1.0},"MatchType":"interpolated","Location":{"LocationId":"NT_lneNec.b6irfEKGQXF6M3C_xkjN","LocationType":"point","DisplayPosition":{"Latitude":53.29786,"Longitude":-6.30449},"MapView":{"TopLeft":{"Latitude":53.3068532,"Longitude":-6.3195375},"BottomRight":{"Latitude":53.2888668,"Longitude":-6.2894425}},"Address":{"Label":"D6W K798, Dublin, Ireland","Country":"IRL","County":"County Dublin","City":"Dublin","PostalCode":"D6W K798","AdditionalData":[{"value":"Ireland","key":"CountryName"},{"value":"County Dublin","key":"CountyName"}]},"MapReference":{"ReferenceId":"1236364175","Spot":0.58,"SideOfStreet":"neither","CountryId":"20403667","CountyId":"20411172","CityId":"20413526"}}},{"Relevance":1.0,"Distance":70.9,"MatchLevel":"houseNumber","MatchQuality":{"Country":1.0,"County":1.0,"City":1.0,"District":1.0,"Street":[1.0],"HouseNumber":1.0,"PostalCode":1.0},"MatchType":"interpolated","Location":{"LocationId":"NT_lneNec.b6irfEKGQXF6M3C_xcjM","LocationType":"point","DisplayPosition":{"Latitude":53.29856,"Longitude":-6.30271},"MapView":{"TopLeft":{"Latitude":53.2996842,"Longitude":-6.304591},"BottomRight":{"Latitude":53.2974358,"Longitude":-6.300829}},"Address":{"Label":"172 Templeogue Road, Dublin, County Dublin, D6W KW29, Ireland","Country":"IRL","County":"County Dublin","City":"Dublin","District":"Dublin 6w","Street":"Templeogue Road","HouseNumber":"172","PostalCode":"D6W KW29","AdditionalData":[{"value":"Ireland","key":"CountryName"},{"value":"County Dublin","key":"CountyName"}]},"MapReference":{"ReferenceId":"1182131049","Spot":0.76,"SideOfStreet":"right","CountryId":"20403667","CountyId":"20411172","CityId":"20413526","DistrictId":"20413533","AddressId":"743585183","RoadLinkId":"490309780"}}},{"Relevance":1.0,"Distance":71.9,"MatchLevel":"postalCode","MatchQuality":{"PostalCode":1.0},"MatchType":"interpolated","Location":{"LocationId":"NT_n8ANjfX2.ZNp71kKTYD0-A_xYD","LocationType":"point","DisplayPosition":{"Latitude":53.29832,"Longitude":-6.30468},"MapView":{"TopLeft":{"Latitude":53.3073132,"Longitude":-6.3197277},"BottomRight":{"Latitude":53.2893268,"Longitude":-6.2896323}},"Address":{"Label":"D6W RW35, Dublin, Ireland","Country":"IRL","County":"County Dublin","City":"Dublin","PostalCode":"D6W RW35","AdditionalData":[{"value":"Ireland","key":"CountryName"},{"value":"County Dublin","key":"CountyName"}]},"MapReference":{"ReferenceId":"554379900","Spot":0.51,"SideOfStreet":"neither","CountryId":"20403667","CountyId":"20411172","CityId":"20413526"}}},{"Relevance":1.0,"Distance":73.2,"MatchLevel":"street","MatchQuality":{"Country":1.0,"County":1.0,"City":1.0,"District":1.0,"PostalCode":1.0},"Location":{"LocationId":"NT_5T3Ishjk4MOVtCUqJd3IdA_l_1182131050_L","LocationType":"point","DisplayPosition":{"Latitude":53.2987802,"Longitude":-6.3030364},"MapView":{"TopLeft":{"Latitude":53.29928,"Longitude":-6.30405},"BottomRight":{"Latitude":53.29855,"Longitude":-6.30281}},"Address":{"Label":"Dublin, County Dublin, D6W, Ireland","Country":"IRL","County":"County Dublin","City":"Dublin","District":"Dublin 6w","PostalCode":"D6W","AdditionalData":[{"value":"Ireland","key":"CountryName"},{"value":"County Dublin","key":"CountyName"}]},"MapReference":{"ReferenceId":"1182131050","Spot":0.21,"SideOfStreet":"left","CountryId":"20403667","CountyId":"20411172","CityId":"20413526","DistrictId":"20413533"}}},{"Relevance":1.0,"Distance":74.9,"MatchLevel":"houseNumber","MatchQuality":{"Country":1.0,"County":1.0,"City":1.0,"District":1.0,"Street":[1.0],"HouseNumber":1.0,"PostalCode":1.0},"MatchType":"interpolated","Location":{"LocationId":"NT_lneNec.b6irfEKGQXF6M3C_xcDM","LocationType":"point","DisplayPosition":{"Latitude":53.29857,"Longitude":-6.30265},"MapView":{"TopLeft":{"Latitude":53.2996942,"Longitude":-6.304531},"BottomRight":{"Latitude":53.2974458,"Longitude":-6.300769}},"Address":{"Label":"170 Templeogue Road, Dublin, County Dublin, D6W KP89, Ireland","Country":"IRL","County":"County Dublin","City":"Dublin","District":"Dublin 6w","Street":"Templeogue Road","HouseNumber":"170","PostalCode":"D6W KP89","AdditionalData":[{"value":"Ireland","key":"CountryName"},{"value":"County Dublin","key":"CountyName"}]},"MapReference":{"ReferenceId":"811592097","Spot":0.18,"SideOfStreet":"right","CountryId":"20403667","CountyId":"20411172","CityId":"20413526","DistrictId":"20413533","AddressId":"214838721","RoadLinkId":"199023860"}}},{"Relevance":1.0,"Distance":75.7,"MatchLevel":"houseNumber","MatchQuality":{"Country":1.0,"County":1.0,"City":1.0,"District":1.0,"Street":[1.0],"HouseNumber":1.0,"PostalCode":1.0},"MatchType":"interpolated","Location":{"LocationId":"NT_n8ANjfX2.ZNp71kKTYD0-A_xYD","LocationType":"point","DisplayPosition":{"Latitude":53.29877,"Longitude":-6.30468},"MapView":{"TopLeft":{"Latitude":53.2998942,"Longitude":-6.306561},"BottomRight":{"Latitude":53.2976458,"Longitude":-6.302799}},"Address":{"Label":"16 Fortrose Park, Dublin, County Dublin, D6W CX89, Ireland","Country":"IRL","County":"County Dublin","City":"Dublin","District":"Dublin 6w","Street":"Fortrose Park","HouseNumber":"16","PostalCode":"D6W CX89","AdditionalData":[{"value":"Ireland","key":"CountryName"},{"value":"County Dublin","key":"CountyName"}]},"MapReference":{"ReferenceId":"554379900","Spot":0.51,"SideOfStreet":"right","CountryId":"20403667","CountyId":"20411172","CityId":"20413526","DistrictId":"20413533","AddressId":"214396240","RoadLinkId":"86565153"}}}]}]}}