{"Response":{"MetaInfo":{"Timestamp":"2020-03-28T10:12:23.453+0000","NextPageInformation":"2"},"View":[{"_type":"SearchResultsViewType","ViewId":0,"Result":[{"Relevance":1.0,"Distance":0.0,"Direction":0.0,"MatchLevel":"district","MatchQuality":{"Country":1.0,"County":1.0,"City":1.0,"District":1.0,"PostalCode":1.0},"Location":{"LocationId":"NT_qobJAI4pDz5AiCFbjTy8VB","LocationType":"point","DisplayPosition":{"Latitude":53.2984707,"Longitude":-6.1672251},"MapView":{"TopLeft":{"Latitude":53.31236,"Longitude":-6.22194},"BottomRight":{"Latitude":53.26496,"Longitude":-6.14765}},"Address":{"Label":"Blackrock, Ireland","Country":"IRL","County":"County Dublin","City":"Blackrock","District":"Blackrock","AdditionalData":[{"value":"Ireland","key":"CountryName"},{"value":"County Dublin","key":"CountyName"}]},"MapReference":{"ReferenceId":"554375618","SideOfStreet":"neither","CountryId":"20403667","CountyId":"20411172","CityId":"20422482","DistrictId":"20422483"}}},{"Relevance":1.0,"Distance":9.7,"MatchLevel":"houseNumber","MatchQuality":{"Country":1.0,"County":1.0,"City":1.0,"District":1.0,"Street":[1.0],"HouseNumber":1.0,"PostalCode":1.0},"MatchType":"interpolated","Location":{"LocationId":"NT_cfHHFkGFc9K60Jc6I.47TA_yMD","LocationType":"point","DisplayPosition":{"Latitude":53.29852,"Longitude":-6.16711},"MapView":{"TopLeft":{"Latitude":53.2996442,"Longitude":-6.168991},"BottomRight":{"Latitude":53.2973958,"Longitude":-6.165229}},"Address":{"Label":"23 Seapoint Avenue, Blackrock, County Dublin, A94 H2R1, Ireland","Country":"IRL","County":"County Dublin","City":"Blackrock","District":"Blackrock","Street":"Seapoint Avenue","HouseNumber":"23","PostalCode":"A94 H2R1","AdditionalData":[{"value":"Ireland","key":"CountryName"},{"value":"County Dublin","key":"CountyName"}]},"MapReference":{"ReferenceId":"551421949","Spot":0.79,"SideOfStreet":"left","CountryId":"20403667","CountyId":"20411172","CityId":"20422482","DistrictId":"20422483","AddressId":"214537706","RoadLinkId":"86707963"}}},{"Relevance":1.0,"Distance":19.8,"MatchLevel":"houseNumber","MatchQuality":{"Country":1.0,"County":1.0,"City":1.0,"District":1.0,"Street":[1.0],"HouseNumber":1.0,"PostalCode":1.0},"MatchType":"interpolated","Location":{"LocationId":"NT_cfHHFkGFc9K60Jc6I.47TA_zATY","LocationType":"point","DisplayPosition":{"Latitude":53.29854,"Longitude":-6.1675},"MapView":{"TopLeft":{"Latitude":53.2996642,"Longitude":-6.169381},"BottomRight":{"Latitude":53.2974158,"Longitude":-6.165619}},"Address":{"Label":"30a Seapoint Avenue, Blackrock, County Dublin, A94, Ireland","Country":"IRL","County":"County Dublin","City":"Blackrock","District":"Blackrock","Street":"Seapoint Avenue","HouseNumber":"30a","PostalCode":"A94","AdditionalData":[{"value":"Ireland","key":"CountryName"},{"value":"County Dublin","key":"CountyName"}]},"MapReference":{"ReferenceId":"551421804","Spot":0.04,"SideOfStreet":"right","CountryId":"20403667","CountyId":"20411172","CityId":"20422482","DistrictId":"20422483","AddressId":"743610462","RoadLinkId":"86479814"}}},{"Relevance":1.0,"Distance":28.2,"MatchLevel":"postalCode","MatchQuality":{"PostalCode":1.0},"MatchType":"interpolated","Location":{"LocationId":"NT_cfHHFkGFc9K60Jc6I.47TA_yMD","LocationType":"point","DisplayPosition":{"Latitude":53.29822,"Longitude":-6.16716},"MapView":{"TopLeft":{"Latitude":53.3072132,"Longitude":-6.1822076},"BottomRight":{"Latitude":53.2892268,"Longitude":-6.1521124}},"Address":{"Label":"A94 C6T4, Blackrock, Ireland","Country":"IRL","County":"County Dublin","City":"Blackrock","PostalCode":"A94 C6T4","AdditionalData":[{"value":"Ireland","key":"CountryName"},{"value":"County Dublin","key":"CountyName"}]},"MapReference":{"ReferenceId":"551421949","Spot":0.79,"SideOfStreet":"neither","CountryId":"20403667","CountyId":"20411172","CityId":"20422482"}}},{"Relevance":1.0,"Distance":31.1,"MatchLevel":"houseNumber","MatchQuality":{"Country":1.0,"County":1.0,"City":1.0,"District":1.0,"Street":[1.0],"HouseNumber":1.0,"PostalCode":1.0},"MatchType":"interpolated","Location":{"LocationId":"NT_A.-CAF9XscyAQ9thr8eiUC_0A","LocationType":"point","DisplayPosition":{"Latitude":53.29832,"Longitude":-6.1679},"MapView":{"TopLeft":{"Latitude":53.2994442,"Longitude":-6.169781},"BottomRight":{"Latitude":53.2971958,"Longitude":-6.166019}},"Address":{"Label":"4 Temple Park Avenue, Blackrock, County Dublin, A94 N8C6, Ireland","Country":"IRL","County":"County Dublin","City":"Blackrock","District":"Blackrock","Street":"Temple Park Avenue","HouseNumber":"4","PostalCode":"A94 N8C6","AdditionalData":[{"value":"Ireland","key":"CountryName"},{"value":"County Dublin","key":"CountyName"}]},"MapReference":{"ReferenceId":"551421964","Spot":0.44,"SideOfStreet":"right","CountryId":"20403667","CountyId":"20411172","CityId":"20422482","DistrictId":"20422483","AddressId":"214152757","RoadLinkId":"86567397"}}},{"Relevance":1.0,"Distance":34.7,"MatchLevel":"postalCode","MatchQuality":{"PostalCode":1.0},"MatchType":"interpolated","Location":{"LocationId":"NT_cfHHFkGFc9K60Jc6I.47TA_zATY","LocationType":"point","DisplayPosition":{"Latitude":53.29866,"Longitude":-6.16764},"MapView":{"TopLeft":{"Latitude":53.3076532,"Longitude":-6.1826878},"BottomRight":{"Latitude":53.2896668,"Longitude":-6.1525922}},"Address":{"Label":"A94 N4C4, Blackrock, Ireland","Country":"IRL","County":"County Dublin","City":"Blackrock","PostalCode":"A94 N4C4","AdditionalData":[{"value":"Ireland","key":"CountryName"},{"value":"County Dublin","key":"CountyName"}]},"MapReference":{"ReferenceId":"551421804","Spot":0.04,"SideOfStreet":"neither","CountryId":"20403667","CountyId":"20411172","CityId":"20422482"}}},{"Relevance":1.0,"Distance":35.7,"MatchLevel":"postalCode","MatchQuality":{"PostalCode":1.0},"MatchType":"interpolated","Location":{"LocationId":"NT_A.-CAF9XscyAQ9thr8eiUC_0A","LocationType":"point","DisplayPosition":{"Latitude":53.29826,"Longitude":-6.16763},"MapView":{"TopLeft":{"Latitude":53.3072532,"Longitude":-6.1826776},"BottomRight":{"Latitude":53.2892668,"Longitude":-6.1525824}},"Address":{"Label":"A94 K8Y0, Blackrock, Ireland","Country":"IRL","County":"County Dublin","City":"Blackrock","PostalCode":"A94 K8Y0","AdditionalData":[{"value":"Ireland","key":"CountryName"},{"value":"County Dublin","key":"CountyName"}]},"MapReference":{"ReferenceId":"551421964","Spot":0.44,"SideOfStreet":"neither","CountryId":"20403667","CountyId":"20411172","CityId":"20422482"}}},{"Relevance":1.0,"Distance":36.8,"MatchLevel":"postalCode","MatchQuality":{"PostalCode":1.0},"MatchType":"interpolated","Location":{"LocationId":"NT_q.IO3gdlfs9AyFTYPWsEvD_yA","LocationType":"point","DisplayPosition":{"Latitude":53.29878,"Longitude":-6.16742},"MapView":{"TopLeft":{"Latitude":53.3077732,"Longitude":-6.1824678},"BottomRight":{"Latitude":53.2897868,"Longitude":-6.1523722}},"Address":{"Label":"A94 W1H9, Blackrock, Ireland","Country":"IRL","County":"County Dublin","City":"Blackrock","PostalCode":"A94 W1H9","AdditionalData":[{"value":"Ireland","key":"CountryName"},{"value":"County Dublin","key":"CountyName"}]},"MapReference":{"ReferenceId":"999707852","Spot":0.72,"SideOfStreet":"neither","CountryId":"20403667","CountyId":"20411172","CityId":"20422482"}}},{"Relevance":1.0,"Distance":45.5,"MatchLevel":"houseNumber","MatchQuality":{"Country":1.0,"County":1.0,"City":1.0,"District":1.0,"Street":[1.0],"HouseNumber":1.0,"PostalCode":1.0},"MatchType":"interpolated","Location":{"LocationId":"NT_q.IO3gdlfs9AyFTYPWsEvD_yA","LocationType":"point","DisplayPosition":{"Latitude":53.2989,"Longitude":-6.16739},"MapView":{"TopLeft":{"Latitude":53.3000242,"Longitude":-6.169271},"BottomRight":{"Latitude":53.2977758,"Longitude":-6.165509}},"Address":{"Label":"2 Tobernea Terrace, Blackrock, County Dublin, A94 V6F8, Ireland","Country":"IRL","County":"County Dublin","City":"Blackrock","District":"Blackrock","Street":"Tobernea Terrace","HouseNumber":"2","PostalCode":"A94 V6F8","AdditionalData":[{"value":"Ireland","key":"CountryName"},{"value":"County Dublin","key":"CountyName"}]},"MapReference":{"ReferenceId":"999707852","Spot":0.72,"SideOfStreet":"right","CountryId":"20403667","CountyId":"20411172","CityId":"20422482","DistrictId":"20422483","AddressId":"214380987","RoadLinkId":"325972321"}}},{"Relevance":1.0,"Distance":47.1,"MatchLevel":"postalCode","MatchQuality":{"PostalCode":1.0},"MatchType":"interpolated","Location":{"LocationId":"NT_q.IO3gdlfs9AyFTYPWsEvD_zA","LocationType":"point","DisplayPosition":{"Latitude":53.29888,"Longitude":-6.16704},"MapView":{"TopLeft":{"Latitude":53.3078732,"Longitude":-6.1820879},"BottomRight":{"Latitude":53.2898868,"Longitude":-6.1519921}},"Address":{"Label":"A94 K7H6, Blackrock, Ireland","Country":"IRL","County":"County Dublin","City":"Blackrock","PostalCode":"A94 K7H6","AdditionalData":[{"value":"Ireland","key":"CountryName"},{"value":"County Dublin","key":"CountyName"}]},"MapReference":{"ReferenceId":"999707853","Spot":0.38,"SideOfStreet":"neither","CountryId":"20403667","CountyId":"20411172","CityId":"20422482"}}}]}]}}