{"Response":{"MetaInfo":{"Timestamp":"2020-03-28T10:12:21.920+0000","NextPageInformation":"2"},"View":[{"_type":"SearchResultsViewType","ViewId":0,"Result":[{"Relevance":1.0,"Distance":0.0,"Direction":0.0,"MatchLevel":"district","MatchQuality":{"Country":1.0,"County":1.0,"City":1.0,"District":1.0},"Location":{"LocationId":"NT_vSqK.ntaNid.Hvn7rjrfUB","LocationType":"point","DisplayPosition":{"Latitude":53.2841453,"Longitude":-6.3558708},"MapView":{"TopLeft":{"Latitude":53.31653,"Longitude":-6.47137},"BottomRight":{"Latitude":53.21102,"Longitude":-6.30433}},"Address":{"Label":"Dublin 24, Dublin, Ireland","Country":"IRL","County":"County Dublin","City":"Dublin","District":"Dublin 24","AdditionalData":[{"value":"Ireland","key":"CountryName"},{"value":"County Dublin","key":"CountyName"}]},"MapReference":{"ReferenceId":"554471372","SideOfStreet":"neither","CountryId":"20403667","CountyId":"20411172","CityId":"20413526","DistrictId":"20413548"}}},{"Relevance":1.0,"Distance":4.1,"MatchLevel":"houseNumber","MatchQuality":{"Country":1.0,"County":1.0,"City":1.0,"District":1.0,"Street":[1.0],"HouseNumber":1.0,"PostalCode":1.0},"MatchType":"interpolated","Location":{"LocationId":"NT_WjKON4vEsk6F0WXON-p5FD_1ID","LocationType":"point","DisplayPosition":{"Latitude":53.28455,"Longitude":-6.35604},"MapView":{"TopLeft":{"Latitude":53.2856742,"Longitude":-6.3579204},"BottomRight":{"Latitude":53.2834258,"Longitude":-6.3541596}},"Address":{"Label":"52 Mountain Park, Dublin, County Dublin, D24 PYT7, Ireland","Country":"IRL","County":"County Dublin","City":"Dublin","District":"Dublin 24","Street":"Mountain Park","HouseNumber":"52","PostalCode":"D24 PYT7","AdditionalData":[{"value":"Ireland","key":"CountryName"},{"value":"County Dublin","key":"CountyName"}]},"MapReference":{"ReferenceId":"554447409","Spot":0.11,"SideOfStreet":"left","CountryId":"20403667","CountyId":"20411172","CityId":"20413526","DistrictId":"20413548","AddressId":"214350577","RoadLinkId":"86841043"}}},{"Relevance":1.0,"Distance":4.4,"MatchLevel":"postalCode","MatchQuality":{"PostalCode":1.0},"MatchType":"interpolated","Location":{"LocationId":"NT_WjKON4vEsk6F0WXON-p5FD_1ID","LocationType":"point","DisplayPosition":{"Latitude":53.28411,"Longitude":-6.35584},"MapView":{"TopLeft":{"Latitude":53.2931032,"Longitude":-6.3708827},"BottomRight":{"Latitude":53.2751168,"Longitude":-6.3407973}},"Address":{"Label":"D24 RR28, Dublin, Ireland","Country":"IRL","County":"County Dublin","City":"Dublin","PostalCode":"D24 RR28","AdditionalData":[{"value":"Ireland","key":"CountryName"},{"value":"County Dublin","key":"CountyName"}]},"MapReference":{"ReferenceId":"554447409","Spot":0.11,"SideOfStreet":"neither","CountryId":"20403667","CountyId":"20411172","CityId":"20413526"}}},{"Relevance":1.0,"Distance":26.1,"MatchLevel":"postalCode","MatchQuality":{"PostalCode":1.0},"MatchType":"interpolated","Location":{"LocationId":"NT_1kH6Pkb1kGV-PJILk8IswD_xEzN","LocationType":"point","DisplayPosition":{"Latitude":53.28396,"Longitude":-6.35563},"MapView":{"TopLeft":{"Latitude":53.2929532,"Longitude":-6.3706726},"BottomRight":{"Latitude":53.2749668,"Longitude":-6.3405874}},"Address":{"Label":"D24 FK26, Dublin, Ireland","Country":"IRL","County":"County Dublin","City":"Dublin","PostalCode":"D24 FK26","AdditionalData":[{"value":"Ireland","key":"CountryName"},{"value":"County Dublin","key":"CountyName"}]},"MapReference":{"ReferenceId":"554447356","Spot":0.83,"SideOfStreet":"neither","CountryId":"20403667","CountyId":"20411172","CityId":"20413526"}}},{"Relevance":1.0,"Distance":28.4,"MatchLevel":"houseNumber","MatchQuality":{"Country":1.0,"County":1.0,"City":1.0,"District":1.0,"Street":[1.0],"HouseNumber":1.0,"PostalCode":1.0},"MatchType":"interpolated","Location":{"LocationId":"NT_1kH6Pkb1kGV-PJILk8IswD_xEzN","LocationType":"point","DisplayPosition":{"Latitude":53.28378,"Longitude":-6.35582},"MapView":{"TopLeft":{"Latitude":53.2849042,"Longitude":-6.3577003},"BottomRight":{"Latitude":53.2826558,"Longitude":-6.3539397}},"Address":{"Label":"117 The Crescent, Dublin, County Dublin, D24 W2CK, Ireland","Country":"IRL","County":"County Dublin","City":"Dublin","District":"Dublin 24","Street":"The Crescent","HouseNumber":"117","PostalCode":"D24 W2CK","AdditionalData":[{"value":"Ireland","key":"CountryName"},{"value":"County Dublin","key":"CountyName"}]},"MapReference":{"ReferenceId":"554447356","Spot":0.83,"SideOfStreet":"left","CountryId":"20403667","CountyId":"20411172","CityId":"20413526","DistrictId":"20413548","AddressId":"214193253","RoadLinkId":"86871173"}}},{"Relevance":1.0,"Distance":29.3,"MatchLevel":"postalCode","MatchQuality":{"PostalCode":1.0},"MatchType":"interpolated","Location":{"LocationId":"NT_KdXOIuauJ78CXiAeky8FbA","LocationType":"point","DisplayPosition":{"Latitude":53.28424,"Longitude":-6.35546},"MapView":{"TopLeft":{"Latitude":53.2932332,"Longitude":-6.3705027},"BottomRight":{"Latitude":53.2752468,"Longitude":-6.3404173}},"Address":{"Label":"D24 PXE8, Dublin, Ireland","Country":"IRL","County":"County Dublin","City":"Dublin","PostalCode":"D24 PXE8","AdditionalData":[{"value":"Ireland","key":"CountryName"},{"value":"County Dublin","key":"CountyName"}]},"MapReference":{"ReferenceId":"554447410","Spot":0.38,"SideOfStreet":"neither","CountryId":"20403667","CountyId":"20411172","CityId":"20413526"}}},{"Relevance":1.0,"Distance":29.3,"MatchLevel":"houseNumber","MatchQuality":{"Country":1.0,"County":1.0,"City":1.0,"District":1.0,"Street":[1.0],"PostalCode":1.0},"MatchType":"interpolated","Location":{"LocationId":"NT_KdXOIuauJ78CXiAeky8FbA","LocationType":"point","DisplayPosition":{"Latitude":53.28414,"Longitude":-6.35543},"MapView":{"TopLeft":{"Latitude":53.2852642,"Longitude":-6.3573103},"BottomRight":{"Latitude":53.2830158,"Longitude":-6.3535497}},"Address":{"Label":"\"Saint Dominics Church\" St Dominic's Road, Dublin, County Dublin, D24, Ireland","Country":"IRL","County":"County Dublin","City":"Dublin","District":"Dublin 24","Street":"St Dominic's Road","PostalCode":"D24","AdditionalData":[{"value":"Ireland","key":"CountryName"},{"value":"County Dublin","key":"CountyName"}],"Building":"Saint Dominics Church"},"MapReference":{"ReferenceId":"554447410","Spot":0.38,"SideOfStreet":"right","CountryId":"20403667","CountyId":"20411172","CityId":"20413526","DistrictId":"20413548","AddressId":"762101825","RoadLinkId":"86773616"}}},{"Relevance":1.0,"Distance":56.2,"MatchLevel":"houseNumber","MatchQuality":{"Country":1.0,"County":1.0,"City":1.0,"District":1.0,"Street":[1.0],"PostalCode":1.0},"MatchType":"interpolated","Location":{"LocationId":"NT_KdXOIuauJ78CXiAeky8FbA","LocationType":"point","DisplayPosition":{"Latitude":53.28463,"Longitude":-6.35563},"MapView":{"TopLeft":{"Latitude":53.2857542,"Longitude":-6.3575104},"BottomRight":{"Latitude":53.2835058,"Longitude":-6.3537496}},"Address":{"Label":"\"Millbrook Lawns Primary Care Centre\" St Dominic's Road, Dublin, County Dublin, D24 K3EV, Ireland","Country":"IRL","County":"County Dublin","City":"Dublin","District":"Dublin 24","Street":"St Dominic's Road","PostalCode":"D24 K3EV","AdditionalData":[{"value":"Ireland","key":"CountryName"},{"value":"County Dublin","key":"CountyName"}],"Building":"Millbrook Lawns Primary Care Centre"},"MapReference":{"ReferenceId":"554447411","Spot":0.0,"SideOfStreet":"right","CountryId":"20403667","CountyId":"20411172","CityId":"20413526","DistrictId":"20413548","AddressId":"762101826","RoadLinkId":"86618370"}}},{"Relevance":1.0,"Distance":58.6,"MatchLevel":"houseNumber","MatchQuality":{"Country":1.0,"County":1.0,"City":1.0,"District":1.0,"Street":[1.0],"HouseNumber":1.0,"PostalCode":1.0},"MatchType":"interpolated","Location":{"LocationId":"NT_1kH6Pkb1kGV-PJILk8IswD_xEjN","LocationType":"point","DisplayPosition":{"Latitude":53.28385,"Longitude":-6.35514},"MapView":{"TopLeft":{"Latitude":53.2849742,"Longitude":-6.3570203},"BottomRight":{"Latitude":53.2827258,"Longitude":-6.3532597}},"Address":{"Label":"116 The Crescent, Dublin, County Dublin, D24 FT7C, Ireland","Country":"IRL","County":"County Dublin","City":"Dublin","District":"Dublin 24","Street":"The Crescent","HouseNumber":"116","PostalCode":"D24 FT7C","AdditionalData":[{"value":"Ireland","key":"CountryName"},{"value":"County Dublin","key":"CountyName"}]},"MapReference":{"ReferenceId":"999328913","Spot":0.36,"SideOfStreet":"right","CountryId":"20403667","CountyId":"20411172","CityId":"20413526","DistrictId":"20413548","AddressId":"214521930","RoadLinkId":"325580317"}}},{"Relevance":1.0,"Distance":81.1,"MatchLevel":"postalCode","MatchQuality":{"PostalCode":1.0},"MatchType":"interpolated","Location":{"LocationId":"NT_1kH6Pkb1kGV-PJILk8IswD_xEjN","LocationType":"point","DisplayPosition":{"Latitude":53.2836,"Longitude":-6.35506},"MapView":{"TopLeft":{"Latitude":53.2925932,"Longitude":-6.3701025},"BottomRight":{"Latitude":53.2746068,"Longitude":-6.3400175}},"Address":{"Label":"D24 C2WA, Dublin, Ireland","Country":"IRL","County":"County Dublin","City":"Dublin","PostalCode":"D24 C2WA","AdditionalData":[{"value":"Ireland","key":"CountryName"},{"value":"County Dublin","key":"CountyName"}]},"MapReference":{"ReferenceId":"999328913","Spot":0.36,"SideOfStreet":"neither","CountryId":"20403667","CountyId":"20411172","CityId":"20413526"}}}]}]}}