{"Response":{"MetaInfo":{"Timestamp":"2020-03-28T11:16:10.439+0000","NextPageInformation":"2"},"View":[{"_type":"SearchResultsViewType","ViewId":0,"Result":[{"Relevance":1.0,"Distance":0.0,"Direction":0.0,"MatchLevel":"district","MatchQuality":{"Country":1.0,"State":1.0,"County":1.0,"City":1.0,"District":1.0,"PostalCode":1.0},"Location":{"LocationId":"NT_q9AqsfzMiA-oETPrPpZ4VB","LocationType":"point","DisplayPosition":{"Latitude":53.2134922,"Longitude":-2.8989961},"MapView":{"TopLeft":{"Latitude":53.23026,"Longitude":-2.94378},"BottomRight":{"Latitude":53.16477,"Longitude":-2.84368}},"Address":{"Label":"Chester, England, United Kingdom","Country":"GBR","State":"England","County":"Cheshire","City":"Chester","District":"Chester","PostalCode":"CH1 2","AdditionalData":[{"value":"United Kingdom","key":"CountryName"},{"value":"England","key":"StateName"},{"value":"Cheshire","key":"CountyName"}]},"MapReference":{"ReferenceId":"27043196","SideOfStreet":"neither","StateId":"20248595","CountyId":"20343157","CityId":"20343158","DistrictId":"20343159"}}},{"Relevance":1.0,"Distance":3.7,"MatchLevel":"street","MatchQuality":{"Country":1.0,"State":1.0,"County":1.0,"City":1.0,"District":1.0,"Street":[1.0],"PostalCode":1.0},"Location":{"LocationId":"NT_0cOo01STUwB.x7rkAx4jUD_l_845806252_L","LocationType":"point","DisplayPosition":{"Latitude":53.2135256,"Longitude":-2.8989922},"MapView":{"TopLeft":{"Latitude":53.21354,"Longitude":-2.89965},"BottomRight":{"Latitude":53.2134,"Longitude":-2.8981}},"Address":{"Label":"Upton Grange, Chester, CH2 1, United Kingdom","Country":"GBR","State":"England","County":"Cheshire","City":"Chester","District":"Chester","Street":"Upton Grange","PostalCode":"CH2 1","AdditionalData":[{"value":"United Kingdom","key":"CountryName"},{"value":"England","key":"StateName"},{"value":"Cheshire","key":"CountyName"}]},"MapReference":{"ReferenceId":"845806252","Spot":0.58,"SideOfStreet":"neither","StateId":"20248595","CountyId":"20343157","CityId":"20343158","DistrictId":"20343159"}}},{"Relevance":1.0,"Distance":23.0,"MatchLevel":"postalCode","MatchQuality":{"PostalCode":1.0},"Location":{"LocationId":"NT_0cOo01STUwB.x7rkAx4jUD_l_845806252_L","LocationType":"point","DisplayPosition":{"Latitude":53.21354,"Longitude":-2.89866},"MapView":{"TopLeft":{"Latitude":53.2225332,"Longitude":-2.9136779},"BottomRight":{"Latitude":53.2045468,"Longitude":-2.8836421}},"Address":{"Label":"CH2 1BF, Chester, England, United Kingdom","Country":"GBR","State":"England","County":"Cheshire","City":"Chester","PostalCode":"CH2 1BF","AdditionalData":[{"value":"United Kingdom","key":"CountryName"},{"value":"England","key":"StateName"},{"value":"Cheshire","key":"CountyName"}]},"MapReference":{"ReferenceId":"845806252","Spot":0.58,"SideOfStreet":"neither","StateId":"20248595","CountyId":"20343157","CityId":"20343158"}}},{"Relevance":1.0,"Distance":38.9,"MatchLevel":"street","MatchQuality":{"Country":1.0,"State":1.0,"County":1.0,"City":1.0,"District":1.0,"PostalCode":1.0},"Location":{"LocationId":"NT_X13hxK7tAhImoLDepaFjnB_l_1162916710_R","LocationType":"point","DisplayPosition":{"Latitude":53.21377,"Longitude":-2.89935},"MapView":{"TopLeft":{"Latitude":53.21416,"Longitude":-2.89945},"BottomRight":{"Latitude":53.21377,"Longitude":-2.89935}},"Address":{"Label":"Chester, CH2 1, United Kingdom","Country":"GBR","State":"England","County":"Cheshire","City":"Chester","District":"Chester","PostalCode":"CH2 1","AdditionalData":[{"value":"United Kingdom","key":"CountryName"},{"value":"England","key":"StateName"},{"value":"Cheshire","key":"CountyName"}]},"MapReference":{"ReferenceId":"1162916710","Spot":0.0,"SideOfStreet":"right","StateId":"20248595","CountyId":"20343157","CityId":"20343158","DistrictId":"20343159"}}},{"Relevance":1.0,"Distance":39.6,"MatchLevel":"street","MatchQuality":{"Country":1.0,"State":1.0,"County":1.0,"City":1.0,"District":1.0,"PostalCode":1.0},"Location":{"LocationId":"NT_X13hxK7tAhImoLDepaFjnB_l_1162916707_L","LocationType":"point","DisplayPosition":{"Latitude":53.2138472,"Longitude":-2.8989415},"MapView":{"TopLeft":{"Latitude":53.21415,"Longitude":-2.89898},"BottomRight":{"Latitude":53.21383,"Longitude":-2.89883}},"Address":{"Label":"Chester, CH2 1, United Kingdom","Country":"GBR","State":"England","County":"Cheshire","City":"Chester","District":"Chester","PostalCode":"CH2 1","AdditionalData":[{"value":"United Kingdom","key":"CountryName"},{"value":"England","key":"StateName"},{"value":"Cheshire","key":"CountyName"}]},"MapReference":{"ReferenceId":"1162916707","Spot":0.26,"SideOfStreet":"left","StateId":"20248595","CountyId":"20343157","CityId":"20343158","DistrictId":"20343159"}}},{"Relevance":1.0,"Distance":43.6,"MatchLevel":"street","MatchQuality":{"Country":1.0,"State":1.0,"County":1.0,"City":1.0,"District":1.0,"Street":[1.0],"PostalCode":1.0},"Location":{"LocationId":"NT_0cOo01STUwB.x7rkAx4jUD_l_845806251_R","LocationType":"point","DisplayPosition":{"Latitude":53.21351,"Longitude":-2.89965},"MapView":{"TopLeft":{"Latitude":53.21351,"Longitude":-2.90032},"BottomRight":{"Latitude":53.21341,"Longitude":-2.89965}},"Address":{"Label":"Upton Grange, Chester, CH2 1, United Kingdom","Country":"GBR","State":"England","County":"Cheshire","City":"Chester","District":"Chester","Street":"Upton Grange","PostalCode":"CH2 1","AdditionalData":[{"value":"United Kingdom","key":"CountryName"},{"value":"England","key":"StateName"},{"value":"Cheshire","key":"CountyName"}]},"MapReference":{"ReferenceId":"845806251","Spot":1.0,"SideOfStreet":"right","StateId":"20248595","CountyId":"20343157","CityId":"20343158","DistrictId":"20343159"}}},{"Relevance":1.0,"Distance":44.3,"MatchLevel":"landmark","MatchQuality":{"Country":1.0,"State":1.0,"County":1.0,"City":1.0,"District":1.0,"PostalCode":1.0,"Name":1.0},"Location":{"LocationId":"NT_7Lfa1R.24-7tjqH5cRuZnC_p_3xKBoEIL8fGSJq.euz4ZQD","LocationType":"hospital","Name":"Countess of Chester Hospital","DisplayPosition":{"Latitude":53.2089,"Longitude":-2.89728},"MapView":{"TopLeft":{"Latitude":53.21351,"Longitude":-2.90335},"BottomRight":{"Latitude":53.20542,"Longitude":-2.89462}},"Address":{"Label":"Chester, CH2 1, United Kingdom","Country":"GBR","State":"England","County":"Cheshire","City":"Chester","District":"Chester","PostalCode":"CH2 1","AdditionalData":[{"value":"United Kingdom","key":"CountryName"},{"value":"England","key":"StateName"},{"value":"Cheshire","key":"CountyName"}]},"MapReference":{"StateId":"20248595","CountyId":"20343157","CityId":"20343158","DistrictId":"20343159","PlaceId":"18167474"}}},{"Relevance":1.0,"Distance":46.7,"MatchLevel":"street","MatchQuality":{"Country":1.0,"State":1.0,"County":1.0,"City":1.0,"District":1.0,"PostalCode":1.0},"Location":{"LocationId":"NT_X13hxK7tAhImoLDepaFjnB_l_1162943959_L","LocationType":"point","DisplayPosition":{"Latitude":53.2138,"Longitude":-2.89852},"MapView":{"TopLeft":{"Latitude":53.21414,"Longitude":-2.89853},"BottomRight":{"Latitude":53.21377,"Longitude":-2.8983}},"Address":{"Label":"Chester, CH2 1, United Kingdom","Country":"GBR","State":"England","County":"Cheshire","City":"Chester","District":"Chester","PostalCode":"CH2 1","AdditionalData":[{"value":"United Kingdom","key":"CountryName"},{"value":"England","key":"StateName"},{"value":"Cheshire","key":"CountyName"}]},"MapReference":{"ReferenceId":"1162943959","Spot":0.43,"SideOfStreet":"left","StateId":"20248595","CountyId":"20343157","CityId":"20343158","DistrictId":"20343159"}}},{"Relevance":1.0,"Distance":63.7,"MatchLevel":"street","MatchQuality":{"Country":1.0,"State":1.0,"County":1.0,"City":1.0,"District":1.0,"PostalCode":1.0},"Location":{"LocationId":"NT_X13hxK7tAhImoLDepaFjnB_l_27552768_R","LocationType":"point","DisplayPosition":{"Latitude":53.21314,"Longitude":-2.89975},"MapView":{"TopLeft":{"Latitude":53.21322,"Longitude":-2.9},"BottomRight":{"Latitude":53.21307,"Longitude":-2.89975}},"Address":{"Label":"Chester, CH2 1, United Kingdom","Country":"GBR","State":"England","County":"Cheshire","City":"Chester","District":"Chester","PostalCode":"CH2 1","AdditionalData":[{"value":"United Kingdom","key":"CountryName"},{"value":"England","key":"StateName"},{"value":"Cheshire","key":"CountyName"}]},"MapReference":{"ReferenceId":"27552768","Spot":0.2,"SideOfStreet":"right","StateId":"20248595","CountyId":"20343157","CityId":"20343158","DistrictId":"20343159"}}},{"Relevance":1.0,"Distance":69.2,"MatchLevel":"street","MatchQuality":{"Country":1.0,"State":1.0,"County":1.0,"City":1.0,"District":1.0,"PostalCode":1.0},"Location":{"LocationId":"NT_X13hxK7tAhImoLDepaFjnB_l_27552767_L","LocationType":"point","DisplayPosition":{"Latitude":53.21307,"Longitude":-2.89976},"MapView":{"TopLeft":{"Latitude":53.21307,"Longitude":-2.89989},"BottomRight":{"Latitude":53.21302,"Longitude":-2.89976}},"Address":{"Label":"Chester, CH2 1, United Kingdom","Country":"GBR","State":"England","County":"Cheshire","City":"Chester","District":"Chester","PostalCode":"CH2 1","AdditionalData":[{"value":"United Kingdom","key":"CountryName"},{"value":"England","key":"StateName"},{"value":"Cheshire","key":"CountyName"}]},"MapReference":{"ReferenceId":"27552767","Spot":1.0,"SideOfStreet":"left","StateId":"20248595","CountyId":"20343157","CityId":"20343158","DistrictId":"20343159"}}}]}]}}