{"Response":{"MetaInfo":{"Timestamp":"2020-03-28T10:45:21.374+0000","NextPageInformation":"2"},"View":[{"_type":"SearchResultsViewType","ViewId":0,"Result":[{"Relevance":1.0,"Distance":0.0,"Direction":0.0,"MatchLevel":"city","MatchQuality":{"Country":1.0,"State":1.0,"County":1.0,"City":1.0,"PostalCode":1.0},"Location":{"LocationId":"NT_IlNq8a24Yyxbecy8fYBBwC","LocationType":"point","DisplayPosition":{"Latitude":53.2518884,"Longitude":5.8987471},"MapView":{"TopLeft":{"Latitude":53.25507,"Longitude":5.89438},"BottomRight":{"Latitude":53.24689,"Longitude":5.90857}},"Address":{"Label":"Oentsjerk, Friesland, Nederland","Country":"NLD","State":"Friesland","County":"Tytsjerksteradiel","City":"Oentsjerk","PostalCode":"9062","AdditionalData":[{"value":"Nederland","key":"CountryName"},{"value":"Friesland","key":"StateName"},{"value":"Tytsjerksteradiel","key":"CountyName"}]},"MapReference":{"ReferenceId":"60956507","SideOfStreet":"neither","CountryId":"23055544","StateId":"23055858","CountyId":"23055518","CityId":"20200517"}}},{"Relevance":1.0,"Distance":7.2,"MatchLevel":"houseNumber","MatchQuality":{"Country":1.0,"State":1.0,"County":1.0,"City":1.0,"Street":[1.0],"HouseNumber":1.0,"PostalCode":1.0},"MatchType":"interpolated","Location":{"LocationId":"NT_Wvv6Zi8h.pRiuOs3peEWPA_yA","LocationType":"point","DisplayPosition":{"Latitude":53.25188,"Longitude":5.89897},"MapView":{"TopLeft":{"Latitude":53.2530042,"Longitude":5.8970911},"BottomRight":{"Latitude":53.2507558,"Longitude":5.9008489}},"Address":{"Label":"Frisiastate 2, 9062 GX Oentsjerk, Nederland","Country":"NLD","State":"Friesland","County":"Tytsjerksteradiel","City":"Oentsjerk","Street":"Frisiastate","HouseNumber":"2","PostalCode":"9062 GX","AdditionalData":[{"value":"Nederland","key":"CountryName"},{"value":"Friesland","key":"StateName"},{"value":"Tytsjerksteradiel","key":"CountyName"}]},"MapReference":{"ReferenceId":"60955026","Spot":0.55,"SideOfStreet":"left","CountryId":"23055544","StateId":"23055858","CountyId":"23055518","CityId":"20200517","AddressId":"620910488","RoadLinkId":"32431645"}}},{"Relevance":1.0,"Distance":27.1,"MatchLevel":"houseNumber","MatchQuality":{"Country":1.0,"State":1.0,"County":1.0,"City":1.0,"Street":[1.0],"HouseNumber":1.0,"PostalCode":1.0},"MatchType":"interpolated","Location":{"LocationId":"NT_EZ.LtB3LpLtsYDbuG5TnwB_xA","LocationType":"point","DisplayPosition":{"Latitude":53.25157,"Longitude":5.89921},"MapView":{"TopLeft":{"Latitude":53.2526942,"Longitude":5.8973311},"BottomRight":{"Latitude":53.2504458,"Longitude":5.9010889}},"Address":{"Label":"Van Haersmasingel 1, 9062 EZ Oentsjerk, Nederland","Country":"NLD","State":"Friesland","County":"Tytsjerksteradiel","City":"Oentsjerk","Street":"Van Haersmasingel","HouseNumber":"1","PostalCode":"9062 EZ","AdditionalData":[{"value":"Nederland","key":"CountryName"},{"value":"Friesland","key":"StateName"},{"value":"Tytsjerksteradiel","key":"CountyName"}]},"MapReference":{"ReferenceId":"60954917","Spot":0.73,"SideOfStreet":"left","CountryId":"23055544","StateId":"23055858","CountyId":"23055518","CityId":"20200517","AddressId":"621110031","RoadLinkId":"31144434"}}},{"Relevance":1.0,"Distance":47.2,"MatchLevel":"houseNumber","MatchQuality":{"Country":1.0,"State":1.0,"County":1.0,"City":1.0,"Street":[1.0],"HouseNumber":1.0,"PostalCode":1.0},"MatchType":"interpolated","Location":{"LocationId":"NT_qiEuvvjWnLafWZghz057MC_2A","LocationType":"point","DisplayPosition":{"Latitude":53.2515,"Longitude":5.89846},"MapView":{"TopLeft":{"Latitude":53.2526242,"Longitude":5.8965811},"BottomRight":{"Latitude":53.2503758,"Longitude":5.9003389}},"Address":{"Label":"Van Haersmasingel 6, 9062 GB Oentsjerk, Nederland","Country":"NLD","State":"Friesland","County":"Tytsjerksteradiel","City":"Oentsjerk","Street":"Van Haersmasingel","HouseNumber":"6","PostalCode":"9062 GB","AdditionalData":[{"value":"Nederland","key":"CountryName"},{"value":"Friesland","key":"StateName"},{"value":"Tytsjerksteradiel","key":"CountyName"}]},"MapReference":{"ReferenceId":"60955445","Spot":0.55,"SideOfStreet":"right","CountryId":"23055544","StateId":"23055858","CountyId":"23055518","CityId":"20200517","AddressId":"621014711","RoadLinkId":"31696799"}}},{"Relevance":1.0,"Distance":48.0,"MatchLevel":"houseNumber","MatchQuality":{"Country":1.0,"State":1.0,"County":1.0,"City":1.0,"Street":[1.0],"HouseNumber":1.0,"PostalCode":1.0},"MatchType":"interpolated","Location":{"LocationId":"NT_Wvv6Zi8h.pRiuOs3peEWPA_yID","LocationType":"point","DisplayPosition":{"Latitude":53.25219,"Longitude":5.89823},"MapView":{"TopLeft":{"Latitude":53.2533142,"Longitude":5.8963511},"BottomRight":{"Latitude":53.2510658,"Longitude":5.9001089}},"Address":{"Label":"Frisiastate 22, 9062 GX Oentsjerk, Nederland","Country":"NLD","State":"Friesland","County":"Tytsjerksteradiel","City":"Oentsjerk","Street":"Frisiastate","HouseNumber":"22","PostalCode":"9062 GX","AdditionalData":[{"value":"Nederland","key":"CountryName"},{"value":"Friesland","key":"StateName"},{"value":"Tytsjerksteradiel","key":"CountyName"}]},"MapReference":{"ReferenceId":"1007576985","Spot":0.49,"SideOfStreet":"left","CountryId":"23055544","StateId":"23055858","CountyId":"23055518","CityId":"20200517","AddressId":"621075704","RoadLinkId":"332326464"}}},{"Relevance":1.0,"Distance":50.9,"MatchLevel":"houseNumber","MatchQuality":{"Country":1.0,"State":1.0,"County":1.0,"City":1.0,"Street":[1.0],"HouseNumber":1.0,"PostalCode":1.0},"MatchType":"interpolated","Location":{"LocationId":"NT_EZ.LtB3LpLtsYDbuG5TnwB_zA","LocationType":"point","DisplayPosition":{"Latitude":53.25159,"Longitude":5.89954},"MapView":{"TopLeft":{"Latitude":53.2527142,"Longitude":5.8976611},"BottomRight":{"Latitude":53.2504658,"Longitude":5.9014189}},"Address":{"Label":"Van Haersmasingel 3, 9062 EZ Oentsjerk, Nederland","Country":"NLD","State":"Friesland","County":"Tytsjerksteradiel","City":"Oentsjerk","Street":"Van Haersmasingel","HouseNumber":"3","PostalCode":"9062 EZ","AdditionalData":[{"value":"Nederland","key":"CountryName"},{"value":"Friesland","key":"StateName"},{"value":"Tytsjerksteradiel","key":"CountyName"}]},"MapReference":{"ReferenceId":"60955857","Spot":0.09,"SideOfStreet":"left","CountryId":"23055544","StateId":"23055858","CountyId":"23055518","CityId":"20200517","AddressId":"621173783","RoadLinkId":"32186507"}}},{"Relevance":1.0,"Distance":60.2,"MatchLevel":"houseNumber","MatchQuality":{"Country":1.0,"State":1.0,"County":1.0,"City":1.0,"Street":[1.0],"HouseNumber":1.0,"PostalCode":1.0},"MatchType":"interpolated","Location":{"LocationId":"NT_z3QjDf9.v9BKNMeu13sV8C_yMD","LocationType":"point","DisplayPosition":{"Latitude":53.25242,"Longitude":5.89902},"MapView":{"TopLeft":{"Latitude":53.2535442,"Longitude":5.8971411},"BottomRight":{"Latitude":53.2512958,"Longitude":5.9008989}},"Address":{"Label":"Frisiastate 23, 9062 GZ Oentsjerk, Nederland","Country":"NLD","State":"Friesland","County":"Tytsjerksteradiel","City":"Oentsjerk","Street":"Frisiastate","HouseNumber":"23","PostalCode":"9062 GZ","AdditionalData":[{"value":"Nederland","key":"CountryName"},{"value":"Friesland","key":"StateName"},{"value":"Tytsjerksteradiel","key":"CountyName"}]},"MapReference":{"ReferenceId":"60955335","Spot":0.35,"SideOfStreet":"left","CountryId":"23055544","StateId":"23055858","CountyId":"23055518","CityId":"20200517","AddressId":"620928630","RoadLinkId":"31646999"}}},{"Relevance":1.0,"Distance":66.2,"MatchLevel":"houseNumber","MatchQuality":{"Country":1.0,"State":1.0,"County":1.0,"City":1.0,"Street":[1.0],"HouseNumber":1.0,"PostalCode":1.0},"MatchType":"interpolated","Location":{"LocationId":"NT_kT075pe-0HKpPm.KVxWs8D_l_827017156_L_0A","LocationType":"point","DisplayPosition":{"Latitude":53.251385,"Longitude":5.8993325},"MapView":{"TopLeft":{"Latitude":53.2525092,"Longitude":5.8974536},"BottomRight":{"Latitude":53.2502609,"Longitude":5.9012114}},"Address":{"Label":"Jan de Wittstraat 4, 9062 EW Oentsjerk, Nederland","Country":"NLD","State":"Friesland","County":"Tytsjerksteradiel","City":"Oentsjerk","Street":"Jan de Wittstraat","HouseNumber":"4","PostalCode":"9062 EW","AdditionalData":[{"value":"Nederland","key":"CountryName"},{"value":"Friesland","key":"StateName"},{"value":"Tytsjerksteradiel","key":"CountyName"}]},"MapReference":{"ReferenceId":"827017156","Spot":0.6,"SideOfStreet":"left","CountryId":"23055544","StateId":"23055858","CountyId":"23055518","CityId":"20200517"}}},{"Relevance":1.0,"Distance":87.4,"MatchLevel":"houseNumber","MatchQuality":{"Country":1.0,"State":1.0,"County":1.0,"City":1.0,"Street":[1.0],"HouseNumber":1.0,"PostalCode":1.0},"MatchType":"interpolated","Location":{"LocationId":"NT_qiEuvvjWnLafWZghz057MC_0EE","LocationType":"point","DisplayPosition":{"Latitude":53.25143,"Longitude":5.89768},"MapView":{"TopLeft":{"Latitude":53.2525542,"Longitude":5.8958011},"BottomRight":{"Latitude":53.2503058,"Longitude":5.8995589}},"Address":{"Label":"Van Haersmasingel 4A, 9062 GB Oentsjerk, Nederland","Country":"NLD","State":"Friesland","County":"Tytsjerksteradiel","City":"Oentsjerk","Street":"Van Haersmasingel","HouseNumber":"4A","PostalCode":"9062 GB","AdditionalData":[{"value":"Nederland","key":"CountryName"},{"value":"Friesland","key":"StateName"},{"value":"Tytsjerksteradiel","key":"CountyName"}]},"MapReference":{"ReferenceId":"60954488","Spot":0.82,"SideOfStreet":"right","CountryId":"23055544","StateId":"23055858","CountyId":"23055518","CityId":"20200517","AddressId":"229078831","RoadLinkId":"32339368"}}},{"Relevance":1.0,"Distance":89.5,"MatchLevel":"houseNumber","MatchQuality":{"Country":1.0,"State":1.0,"County":1.0,"City":1.0,"Street":[1.0],"HouseNumber":1.0,"PostalCode":1.0},"MatchType":"interpolated","Location":{"LocationId":"NT_Wvv6Zi8h.pRiuOs3peEWPA_3YD","LocationType":"point","DisplayPosition":{"Latitude":53.25296,"Longitude":5.89857},"MapView":{"TopLeft":{"Latitude":53.2540842,"Longitude":5.896691},"BottomRight":{"Latitude":53.2518358,"Longitude":5.900449}},"Address":{"Label":"Frisiastate 76, 9062 GX Oentsjerk, Nederland","Country":"NLD","State":"Friesland","County":"Tytsjerksteradiel","City":"Oentsjerk","Street":"Frisiastate","HouseNumber":"76","PostalCode":"9062 GX","AdditionalData":[{"value":"Nederland","key":"CountryName"},{"value":"Friesland","key":"StateName"},{"value":"Tytsjerksteradiel","key":"CountyName"}]},"MapReference":{"ReferenceId":"60954715","Spot":0.66,"SideOfStreet":"left","CountryId":"23055544","StateId":"23055858","CountyId":"23055518","CityId":"20200517","AddressId":"620921703","RoadLinkId":"32242972"}}}]}]}}