{"Response":{"MetaInfo":{"Timestamp":"2020-03-28T11:57:06.205+0000","NextPageInformation":"2"},"View":[{"_type":"SearchResultsViewType","ViewId":0,"Result":[{"Relevance":1.0,"Distance":0.0,"Direction":0.0,"MatchLevel":"district","MatchQuality":{"Country":1.0,"State":1.0,"County":1.0,"City":1.0,"District":1.0,"PostalCode":1.0},"Location":{"LocationId":"NT_e.tZHgA8dauxuyM-ybnxmA","LocationType":"point","DisplayPosition":{"Latitude":53.2580139,"Longitude":-2.5115177},"MapView":{"TopLeft":{"Latitude":53.27269,"Longitude":-2.56993},"BottomRight":{"Latitude":53.23628,"Longitude":-2.46818}},"Address":{"Label":"Northwich, England, United Kingdom","Country":"GBR","State":"England","County":"Cheshire","City":"Northwich","District":"Northwich","PostalCode":"CW9 5","AdditionalData":[{"value":"United Kingdom","key":"CountryName"},{"value":"England","key":"StateName"},{"value":"Cheshire","key":"CountyName"}]},"MapReference":{"ReferenceId":"27050950","SideOfStreet":"neither","StateId":"20248595","CountyId":"20343157","CityId":"20343556","DistrictId":"20343557"}}},{"Relevance":1.0,"Distance":2.0,"MatchLevel":"postalCode","MatchQuality":{"PostalCode":1.0},"Location":{"LocationId":"NT_qwO2wjT5sQTOCmV.hpao2A_l_585774927_R","LocationType":"point","DisplayPosition":{"Latitude":53.25803,"Longitude":-2.51153},"MapView":{"TopLeft":{"Latitude":53.2670232,"Longitude":-2.5265635},"BottomRight":{"Latitude":53.2490368,"Longitude":-2.4964965}},"Address":{"Label":"CW9 5HN, Northwich, England, United Kingdom","Country":"GBR","State":"England","County":"Cheshire","City":"Northwich","PostalCode":"CW9 5HN","AdditionalData":[{"value":"United Kingdom","key":"CountryName"},{"value":"England","key":"StateName"},{"value":"Cheshire","key":"CountyName"}]},"MapReference":{"ReferenceId":"585774927","Spot":0.39,"SideOfStreet":"neither","StateId":"20248595","CountyId":"20343157","CityId":"20343556"}}},{"Relevance":1.0,"Distance":8.2,"MatchLevel":"street","MatchQuality":{"Country":1.0,"State":1.0,"County":1.0,"City":1.0,"District":1.0,"Street":[1.0],"PostalCode":1.0},"Location":{"LocationId":"NT_qwO2wjT5sQTOCmV.hpao2A_l_585774927_R","LocationType":"point","DisplayPosition":{"Latitude":53.258087,"Longitude":-2.5115274},"MapView":{"TopLeft":{"Latitude":53.25816,"Longitude":-2.51188},"BottomRight":{"Latitude":53.25804,"Longitude":-2.51098}},"Address":{"Label":"Drillfield Road, Northwich, CW9 5, United Kingdom","Country":"GBR","State":"England","County":"Cheshire","City":"Northwich","District":"Northwich","Street":"Drillfield Road","PostalCode":"CW9 5","AdditionalData":[{"value":"United Kingdom","key":"CountryName"},{"value":"England","key":"StateName"},{"value":"Cheshire","key":"CountyName"}]},"MapReference":{"ReferenceId":"585774927","Spot":0.39,"SideOfStreet":"right","StateId":"20248595","CountyId":"20343157","CityId":"20343556","DistrictId":"20343557"}}},{"Relevance":1.0,"Distance":24.1,"MatchLevel":"street","MatchQuality":{"Country":1.0,"State":1.0,"County":1.0,"City":1.0,"District":1.0,"Street":[1.0],"PostalCode":1.0},"Location":{"LocationId":"NT_WWYS6bVIYv476ckZ.RUbTD_l_585774928_R","LocationType":"point","DisplayPosition":{"Latitude":53.2579384,"Longitude":-2.5118574},"MapView":{"TopLeft":{"Latitude":53.25804,"Longitude":-2.51188},"BottomRight":{"Latitude":53.25786,"Longitude":-2.51184}},"Address":{"Label":"Drillfield Court, Northwich, CW9 5, United Kingdom","Country":"GBR","State":"England","County":"Cheshire","City":"Northwich","District":"Northwich","Street":"Drillfield Court","PostalCode":"CW9 5","AdditionalData":[{"value":"United Kingdom","key":"CountryName"},{"value":"England","key":"StateName"},{"value":"Cheshire","key":"CountyName"}]},"MapReference":{"ReferenceId":"585774928","Spot":0.44,"SideOfStreet":"right","StateId":"20248595","CountyId":"20343157","CityId":"20343556","DistrictId":"20343557"}}},{"Relevance":1.0,"Distance":24.3,"MatchLevel":"street","MatchQuality":{"Country":1.0,"State":1.0,"County":1.0,"City":1.0,"District":1.0,"Street":[1.0],"PostalCode":1.0},"Location":{"LocationId":"NT_qwO2wjT5sQTOCmV.hpao2A_l_585774926_R","LocationType":"point","DisplayPosition":{"Latitude":53.25804,"Longitude":-2.51188},"MapView":{"TopLeft":{"Latitude":53.25804,"Longitude":-2.51249},"BottomRight":{"Latitude":53.25796,"Longitude":-2.51188}},"Address":{"Label":"Drillfield Road, Northwich, CW9 5, United Kingdom","Country":"GBR","State":"England","County":"Cheshire","City":"Northwich","District":"Northwich","Street":"Drillfield Road","PostalCode":"CW9 5","AdditionalData":[{"value":"United Kingdom","key":"CountryName"},{"value":"England","key":"StateName"},{"value":"Cheshire","key":"CountyName"}]},"MapReference":{"ReferenceId":"585774926","Spot":1.0,"SideOfStreet":"right","StateId":"20248595","CountyId":"20343157","CityId":"20343556","DistrictId":"20343557"}}},{"Relevance":1.0,"Distance":28.6,"MatchLevel":"postalCode","MatchQuality":{"PostalCode":1.0},"Location":{"LocationId":"NT_WWYS6bVIYv476ckZ.RUbTD_l_585774928_R","LocationType":"point","DisplayPosition":{"Latitude":53.25782,"Longitude":-2.5118},"MapView":{"TopLeft":{"Latitude":53.2668132,"Longitude":-2.5268334},"BottomRight":{"Latitude":53.2488268,"Longitude":-2.4967666}},"Address":{"Label":"CW9 5GE, Northwich, England, United Kingdom","Country":"GBR","State":"England","County":"Cheshire","City":"Northwich","PostalCode":"CW9 5GE","AdditionalData":[{"value":"United Kingdom","key":"CountryName"},{"value":"England","key":"StateName"},{"value":"Cheshire","key":"CountyName"}]},"MapReference":{"ReferenceId":"585774928","Spot":0.44,"SideOfStreet":"neither","StateId":"20248595","CountyId":"20343157","CityId":"20343556"}}},{"Relevance":1.0,"Distance":39.3,"MatchLevel":"street","MatchQuality":{"Country":1.0,"State":1.0,"County":1.0,"City":1.0,"District":1.0,"Street":[1.0],"PostalCode":1.0},"Location":{"LocationId":"NT_qwO2wjT5sQTOCmV.hpao2A_l_585774925_L","LocationType":"point","DisplayPosition":{"Latitude":53.25816,"Longitude":-2.51098},"MapView":{"TopLeft":{"Latitude":53.25816,"Longitude":-2.51098},"BottomRight":{"Latitude":53.25784,"Longitude":-2.51088}},"Address":{"Label":"Drillfield Road, Northwich, CW9 5, United Kingdom","Country":"GBR","State":"England","County":"Cheshire","City":"Northwich","District":"Northwich","Street":"Drillfield Road","PostalCode":"CW9 5","AdditionalData":[{"value":"United Kingdom","key":"CountryName"},{"value":"England","key":"StateName"},{"value":"Cheshire","key":"CountyName"}]},"MapReference":{"ReferenceId":"585774925","Spot":1.0,"SideOfStreet":"left","StateId":"20248595","CountyId":"20343157","CityId":"20343556","DistrictId":"20343557"}}},{"Relevance":1.0,"Distance":39.3,"MatchLevel":"street","MatchQuality":{"Country":1.0,"State":1.0,"County":1.0,"City":1.0,"District":1.0,"Street":[1.0],"PostalCode":1.0},"Location":{"LocationId":"NT_qwO2wjT5sQTOCmV.hpao2A_l_585774932_L","LocationType":"point","DisplayPosition":{"Latitude":53.25816,"Longitude":-2.51098},"MapView":{"TopLeft":{"Latitude":53.25834,"Longitude":-2.51098},"BottomRight":{"Latitude":53.25816,"Longitude":-2.51}},"Address":{"Label":"Drillfield Road, Northwich, CW9 5, United Kingdom","Country":"GBR","State":"England","County":"Cheshire","City":"Northwich","District":"Northwich","Street":"Drillfield Road","PostalCode":"CW9 5","AdditionalData":[{"value":"United Kingdom","key":"CountryName"},{"value":"England","key":"StateName"},{"value":"Cheshire","key":"CountyName"}]},"MapReference":{"ReferenceId":"585774932","Spot":0.0,"SideOfStreet":"left","StateId":"20248595","CountyId":"20343157","CityId":"20343556","DistrictId":"20343557"}}},{"Relevance":1.0,"Distance":50.3,"MatchLevel":"postalCode","MatchQuality":{"PostalCode":1.0},"Location":{"LocationId":"NT_qwO2wjT5sQTOCmV.hpao2A_l_585774925_L","LocationType":"point","DisplayPosition":{"Latitude":53.25784,"Longitude":-2.51082},"MapView":{"TopLeft":{"Latitude":53.2668332,"Longitude":-2.5258534},"BottomRight":{"Latitude":53.2488468,"Longitude":-2.4957866}},"Address":{"Label":"CW9 5HT, Northwich, England, United Kingdom","Country":"GBR","State":"England","County":"Cheshire","City":"Northwich","PostalCode":"CW9 5HT","AdditionalData":[{"value":"United Kingdom","key":"CountryName"},{"value":"England","key":"StateName"},{"value":"Cheshire","key":"CountyName"}]},"MapReference":{"ReferenceId":"585774925","Spot":1.0,"SideOfStreet":"neither","StateId":"20248595","CountyId":"20343157","CityId":"20343556"}}},{"Relevance":1.0,"Distance":50.3,"MatchLevel":"houseNumber","MatchQuality":{"Country":1.0,"State":1.0,"County":1.0,"City":1.0,"District":1.0,"Street":[1.0],"HouseNumber":1.0,"PostalCode":1.0},"MatchType":"interpolated","Location":{"LocationId":"NT_dZ1XNLmCTsoCmaNXdRCciB_l_1230304402_R_zED","LocationType":"point","DisplayPosition":{"Latitude":53.2578604,"Longitude":-2.5124464},"MapView":{"TopLeft":{"Latitude":53.2589846,"Longitude":-2.5143256},"BottomRight":{"Latitude":53.2567363,"Longitude":-2.5105673}},"Address":{"Label":"31 London Road, Northwich, CW9 5HQ, United Kingdom","Country":"GBR","State":"England","County":"Cheshire","City":"Northwich","District":"Northwich","Street":"London Road","HouseNumber":"31","PostalCode":"CW9 5HQ","AdditionalData":[{"value":"United Kingdom","key":"CountryName"},{"value":"England","key":"StateName"},{"value":"Cheshire","key":"CountyName"}]},"MapReference":{"ReferenceId":"1230304402","Spot":0.5,"SideOfStreet":"right","StateId":"20248595","CountyId":"20343157","CityId":"20343556","DistrictId":"20343557"}}}]}]}}