{"Response":{"MetaInfo":{"Timestamp":"2020-03-28T10:39:39.126+0000","NextPageInformation":"2"},"View":[{"_type":"SearchResultsViewType","ViewId":0,"Result":[{"Relevance":1.0,"Distance":0.0,"Direction":0.0,"MatchLevel":"district","MatchQuality":{"Country":1.0,"State":1.0,"County":1.0,"City":1.0,"District":1.0,"PostalCode":1.0},"Location":{"LocationId":"NT_KsYYt2tNxC-K-QJjZRHYEA","LocationType":"point","DisplayPosition":{"Latitude":53.2541147,"Longitude":-1.9181093},"MapView":{"TopLeft":{"Latitude":53.27251,"Longitude":-1.94815},"BottomRight":{"Latitude":53.21827,"Longitude":-1.88862}},"Address":{"Label":"Buxton, England, United Kingdom","Country":"GBR","State":"England","County":"Derbyshire","City":"Buxton","District":"Buxton","PostalCode":"SK17 6","AdditionalData":[{"value":"United Kingdom","key":"CountryName"},{"value":"England","key":"StateName"},{"value":"Derbyshire","key":"CountyName"}]},"MapReference":{"ReferenceId":"813337673","SideOfStreet":"neither","StateId":"20248595","CountyId":"20343933","CityId":"20353632","DistrictId":"20353633"}}},{"Relevance":1.0,"Distance":6.4,"MatchLevel":"houseNumber","MatchQuality":{"Country":1.0,"State":1.0,"County":1.0,"City":1.0,"District":1.0,"Street":[1.0],"HouseNumber":1.0,"PostalCode":1.0},"MatchType":"interpolated","Location":{"LocationId":"NT_U2ASOMJAcS2-vQS2gln2bA_l_1063430236_R_xED","LocationType":"point","DisplayPosition":{"Latitude":53.25423,"Longitude":-1.91818},"MapView":{"TopLeft":{"Latitude":53.2553542,"Longitude":-1.920059},"BottomRight":{"Latitude":53.2531059,"Longitude":-1.916301}},"Address":{"Label":"11 Hartington Road, Buxton, SK17 6JW, United Kingdom","Country":"GBR","State":"England","County":"Derbyshire","City":"Buxton","District":"Buxton","Street":"Hartington Road","HouseNumber":"11","PostalCode":"SK17 6JW","AdditionalData":[{"value":"United Kingdom","key":"CountryName"},{"value":"England","key":"StateName"},{"value":"Derbyshire","key":"CountyName"}]},"MapReference":{"ReferenceId":"1063430236","Spot":0.21,"SideOfStreet":"right","StateId":"20248595","CountyId":"20343933","CityId":"20353632","DistrictId":"20353633"}}},{"Relevance":1.0,"Distance":10.0,"MatchLevel":"street","MatchQuality":{"Country":1.0,"State":1.0,"County":1.0,"City":1.0,"District":1.0,"PostalCode":1.0},"Location":{"LocationId":"NT_NVqMRY314HujRh7nmDgTTA_l_1063430233_R","LocationType":"point","DisplayPosition":{"Latitude":53.25411,"Longitude":-1.91826},"MapView":{"TopLeft":{"Latitude":53.25424,"Longitude":-1.91897},"BottomRight":{"Latitude":53.25411,"Longitude":-1.91826}},"Address":{"Label":"Buxton, SK17 6, United Kingdom","Country":"GBR","State":"England","County":"Derbyshire","City":"Buxton","District":"Buxton","PostalCode":"SK17 6","AdditionalData":[{"value":"United Kingdom","key":"CountryName"},{"value":"England","key":"StateName"},{"value":"Derbyshire","key":"CountyName"}]},"MapReference":{"ReferenceId":"1063430233","Spot":0.0,"SideOfStreet":"right","StateId":"20248595","CountyId":"20343933","CityId":"20353632","DistrictId":"20353633"}}},{"Relevance":1.0,"Distance":18.3,"MatchLevel":"houseNumber","MatchQuality":{"Country":1.0,"State":1.0,"County":1.0,"City":1.0,"District":1.0,"Street":[1.0],"HouseNumber":1.0,"PostalCode":1.0},"MatchType":"interpolated","Location":{"LocationId":"NT_mR1YDx8uSW-C-o6ByD67HA_l_26235645_L_0UD","LocationType":"point","DisplayPosition":{"Latitude":53.253836,"Longitude":-1.9179519},"MapView":{"TopLeft":{"Latitude":53.2549602,"Longitude":-1.9198309},"BottomRight":{"Latitude":53.2527119,"Longitude":-1.9160729}},"Address":{"Label":"45 Bath Road, Buxton, SK17 6HJ, United Kingdom","Country":"GBR","State":"England","County":"Derbyshire","City":"Buxton","District":"Buxton","Street":"Bath Road","HouseNumber":"45","PostalCode":"SK17 6HJ","AdditionalData":[{"value":"United Kingdom","key":"CountryName"},{"value":"England","key":"StateName"},{"value":"Derbyshire","key":"CountyName"}]},"MapReference":{"ReferenceId":"26235645","Spot":0.27,"SideOfStreet":"left","StateId":"20248595","CountyId":"20343933","CityId":"20353632","DistrictId":"20353633"}}},{"Relevance":1.0,"Distance":26.9,"MatchLevel":"postalCode","MatchQuality":{"PostalCode":1.0},"MatchType":"interpolated","Location":{"LocationId":"NT_U2ASOMJAcS2-vQS2gln2bA_l_1063430232_R_xID","LocationType":"point","DisplayPosition":{"Latitude":53.25389,"Longitude":-1.91796},"MapView":{"TopLeft":{"Latitude":53.2628832,"Longitude":-1.932992},"BottomRight":{"Latitude":53.2448968,"Longitude":-1.902928}},"Address":{"Label":"SK17 6JP, Buxton, England, United Kingdom","Country":"GBR","State":"England","County":"Derbyshire","City":"Buxton","PostalCode":"SK17 6JP","AdditionalData":[{"value":"United Kingdom","key":"CountryName"},{"value":"England","key":"StateName"},{"value":"Derbyshire","key":"CountyName"}]},"MapReference":{"ReferenceId":"1063430232","Spot":0.5,"SideOfStreet":"neither","StateId":"20248595","CountyId":"20343933","CityId":"20353632"}}},{"Relevance":1.0,"Distance":26.9,"MatchLevel":"houseNumber","MatchQuality":{"Country":1.0,"State":1.0,"County":1.0,"City":1.0,"District":1.0,"Street":[1.0],"HouseNumber":1.0,"PostalCode":1.0},"MatchType":"interpolated","Location":{"LocationId":"NT_U2ASOMJAcS2-vQS2gln2bA_l_1063430232_R_xID","LocationType":"point","DisplayPosition":{"Latitude":53.253925,"Longitude":-1.91836},"MapView":{"TopLeft":{"Latitude":53.2550492,"Longitude":-1.920239},"BottomRight":{"Latitude":53.2528009,"Longitude":-1.916481}},"Address":{"Label":"12 Hartington Road, Buxton, SK17 6JW, United Kingdom","Country":"GBR","State":"England","County":"Derbyshire","City":"Buxton","District":"Buxton","Street":"Hartington Road","HouseNumber":"12","PostalCode":"SK17 6JW","AdditionalData":[{"value":"United Kingdom","key":"CountryName"},{"value":"England","key":"StateName"},{"value":"Derbyshire","key":"CountyName"}]},"MapReference":{"ReferenceId":"1063430232","Spot":0.5,"SideOfStreet":"right","StateId":"20248595","CountyId":"20343933","CityId":"20353632","DistrictId":"20353633"}}},{"Relevance":1.0,"Distance":44.8,"MatchLevel":"houseNumber","MatchQuality":{"Country":1.0,"State":1.0,"County":1.0,"City":1.0,"District":1.0,"Street":[1.0],"HouseNumber":1.0,"PostalCode":1.0},"MatchType":"interpolated","Location":{"LocationId":"NT_9x3waXDRT6NEBILUmFUBdB_l_1063430234_R_yAD","LocationType":"point","DisplayPosition":{"Latitude":53.25436,"Longitude":-1.9189},"MapView":{"TopLeft":{"Latitude":53.2554842,"Longitude":-1.920779},"BottomRight":{"Latitude":53.2532359,"Longitude":-1.917021}},"Address":{"Label":"20 Broad Walk, Buxton, SK17 6JR, United Kingdom","Country":"GBR","State":"England","County":"Derbyshire","City":"Buxton","District":"Buxton","Street":"Broad Walk","HouseNumber":"20","PostalCode":"SK17 6JR","AdditionalData":[{"value":"United Kingdom","key":"CountryName"},{"value":"England","key":"StateName"},{"value":"Derbyshire","key":"CountyName"}]},"MapReference":{"ReferenceId":"1063430234","Spot":0.18,"SideOfStreet":"right","StateId":"20248595","CountyId":"20343933","CityId":"20353632","DistrictId":"20353633"}}},{"Relevance":1.0,"Distance":46.0,"MatchLevel":"postalCode","MatchQuality":{"PostalCode":1.0},"MatchType":"interpolated","Location":{"LocationId":"NT_mR1YDx8uSW-C-o6ByD67HA_l_26235645_L_0UD","LocationType":"point","DisplayPosition":{"Latitude":53.25399,"Longitude":-1.91745},"MapView":{"TopLeft":{"Latitude":53.2629832,"Longitude":-1.9324821},"BottomRight":{"Latitude":53.2449968,"Longitude":-1.9024179}},"Address":{"Label":"SK17 6HL, Buxton, England, United Kingdom","Country":"GBR","State":"England","County":"Derbyshire","City":"Buxton","PostalCode":"SK17 6HL","AdditionalData":[{"value":"United Kingdom","key":"CountryName"},{"value":"England","key":"StateName"},{"value":"Derbyshire","key":"CountyName"}]},"MapReference":{"ReferenceId":"26235645","Spot":0.27,"SideOfStreet":"neither","StateId":"20248595","CountyId":"20343933","CityId":"20353632"}}},{"Relevance":1.0,"Distance":55.8,"MatchLevel":"houseNumber","MatchQuality":{"Country":1.0,"State":1.0,"County":1.0,"City":1.0,"District":1.0,"Street":[1.0],"HouseNumber":1.0,"PostalCode":1.0},"MatchType":"interpolated","Location":{"LocationId":"NT_9x3waXDRT6NEBILUmFUBdB_l_1063430231_R_yED","LocationType":"point","DisplayPosition":{"Latitude":53.25402,"Longitude":-1.919072},"MapView":{"TopLeft":{"Latitude":53.2551442,"Longitude":-1.920951},"BottomRight":{"Latitude":53.2528959,"Longitude":-1.917193}},"Address":{"Label":"21 Broad Walk, Buxton, SK17 6JR, United Kingdom","Country":"GBR","State":"England","County":"Derbyshire","City":"Buxton","District":"Buxton","Street":"Broad Walk","HouseNumber":"21","PostalCode":"SK17 6JR","AdditionalData":[{"value":"United Kingdom","key":"CountryName"},{"value":"England","key":"StateName"},{"value":"Derbyshire","key":"CountyName"}]},"MapReference":{"ReferenceId":"1063430231","Spot":0.69,"SideOfStreet":"right","StateId":"20248595","CountyId":"20343933","CityId":"20353632","DistrictId":"20353633"}}},{"Relevance":1.0,"Distance":62.0,"MatchLevel":"houseNumber","MatchQuality":{"Country":1.0,"State":1.0,"County":1.0,"City":1.0,"District":1.0,"Street":[1.0],"HouseNumber":1.0,"PostalCode":1.0},"MatchType":"interpolated","Location":{"LocationId":"NT_mR1YDx8uSW-C-o6ByD67HA_l_26235660_R_xED","LocationType":"point","DisplayPosition":{"Latitude":53.2536933,"Longitude":-1.9187203},"MapView":{"TopLeft":{"Latitude":53.2548174,"Longitude":-1.9205993},"BottomRight":{"Latitude":53.2525691,"Longitude":-1.9168413}},"Address":{"Label":"11 Bath Road, Buxton, SK17 6HH, United Kingdom","Country":"GBR","State":"England","County":"Derbyshire","City":"Buxton","District":"Buxton","Street":"Bath Road","HouseNumber":"11","PostalCode":"SK17 6HH","AdditionalData":[{"value":"United Kingdom","key":"CountryName"},{"value":"England","key":"StateName"},{"value":"Derbyshire","key":"CountyName"}]},"MapReference":{"ReferenceId":"26235660","Spot":0.7,"SideOfStreet":"right","StateId":"20248595","CountyId":"20343933","CityId":"20353632","DistrictId":"20353633"}}}]}]}}