{"Response":{"MetaInfo":{"Timestamp":"2020-03-31T17:03:47.746+0000","NextPageInformation":"2"},"View":[{"_type":"SearchResultsViewType","ViewId":0,"Result":[{"Relevance":1.0,"Distance":0.0,"Direction":0.0,"MatchLevel":"district","MatchQuality":{"Country":1.0,"County":1.0,"City":1.0,"District":1.0,"PostalCode":1.0},"Location":{"LocationId":"NT_x7Uz4yEPOlWkYZkI5xsueB","LocationType":"point","DisplayPosition":{"Latitude":53.2719,"Longitude":-9.0489},"MapView":{"TopLeft":{"Latitude":53.30676,"Longitude":-9.1332},"BottomRight":{"Latitude":53.25176,"Longitude":-8.95712}},"Address":{"Label":"Gaillimh, Éire","Country":"IRL","County":"County Galway","City":"Gaillimh","District":"Gaillimh","AdditionalData":[{"value":"Éire","key":"CountryName"},{"value":"County Galway","key":"CountyName"}]},"MapReference":{"ReferenceId":"778285152","SideOfStreet":"neither","CountryId":"20403667","CountyId":"20411189","CityId":"20426574","DistrictId":"20426575"}}},{"Relevance":1.0,"Distance":26.0,"MatchLevel":"houseNumber","MatchQuality":{"Country":1.0,"County":1.0,"City":1.0,"District":1.0,"Street":[1.0],"HouseNumber":1.0,"PostalCode":1.0},"MatchType":"interpolated","Location":{"LocationId":"NT_UylSsNJm2KMXjXkBeTEm3C_yYD","LocationType":"point","DisplayPosition":{"Latitude":53.27205,"Longitude":-9.0492},"MapView":{"TopLeft":{"Latitude":53.2731742,"Longitude":-9.0510798},"BottomRight":{"Latitude":53.2709258,"Longitude":-9.0473202}},"Address":{"Label":"26 Queen Street, Gaillimh, County Galway, H91 ET3C, Éire","Country":"IRL","County":"County Galway","City":"Gaillimh","District":"Gaillimh","Street":"Queen Street","HouseNumber":"26","PostalCode":"H91 ET3C","AdditionalData":[{"value":"Éire","key":"CountryName"},{"value":"County Galway","key":"CountyName"}]},"MapReference":{"ReferenceId":"562695123","Spot":0.45,"SideOfStreet":"left","CountryId":"20403667","CountyId":"20411189","CityId":"20426574","DistrictId":"20426575","AddressId":"214728554","RoadLinkId":"86649992"}}},{"Relevance":1.0,"Distance":26.4,"MatchLevel":"postalCode","MatchQuality":{"PostalCode":1.0},"MatchType":"interpolated","Location":{"LocationId":"NT_UylSsNJm2KMXjXkBeTEm3C_yYD","LocationType":"point","DisplayPosition":{"Latitude":53.27208,"Longitude":-9.04916},"MapView":{"TopLeft":{"Latitude":53.2810732,"Longitude":-9.0641984},"BottomRight":{"Latitude":53.2630868,"Longitude":-9.0341216}},"Address":{"Label":"H91 E628, Gaillimh, Ireland","Country":"IRL","County":"County Galway","City":"Gaillimh","PostalCode":"H91 E628","AdditionalData":[{"value":"Ireland","key":"CountryName"},{"value":"County Galway","key":"CountyName"}]},"MapReference":{"ReferenceId":"562695123","Spot":0.45,"SideOfStreet":"neither","CountryId":"20403667","CountyId":"20411189","CityId":"20426574"}}},{"Relevance":1.0,"Distance":40.7,"MatchLevel":"postalCode","MatchQuality":{"PostalCode":1.0},"MatchType":"interpolated","Location":{"LocationId":"NT_xWyDfpthoKcdTONwDMdnqB","LocationType":"point","DisplayPosition":{"Latitude":53.27216,"Longitude":-9.04933},"MapView":{"TopLeft":{"Latitude":53.2811532,"Longitude":-9.0643685},"BottomRight":{"Latitude":53.2631668,"Longitude":-9.0342915}},"Address":{"Label":"H91 C899, Gaillimh, Ireland","Country":"IRL","County":"County Galway","City":"Gaillimh","PostalCode":"H91 C899","AdditionalData":[{"value":"Ireland","key":"CountryName"},{"value":"County Galway","key":"CountyName"}]},"MapReference":{"ReferenceId":"562695120","Spot":0.06,"SideOfStreet":"neither","CountryId":"20403667","CountyId":"20411189","CityId":"20426574"}}},{"Relevance":1.0,"Distance":50.5,"MatchLevel":"houseNumber","MatchQuality":{"Country":1.0,"County":1.0,"City":1.0,"District":1.0,"Street":[1.0],"HouseNumber":1.0,"PostalCode":1.0},"MatchType":"interpolated","Location":{"LocationId":"NT_UylSsNJm2KMXjXkBeTEm3C_yID","LocationType":"point","DisplayPosition":{"Latitude":53.27174,"Longitude":-9.04961},"MapView":{"TopLeft":{"Latitude":53.2728642,"Longitude":-9.0514898},"BottomRight":{"Latitude":53.2706158,"Longitude":-9.0477302}},"Address":{"Label":"22 Queen Street, Gaillimh, County Galway, H91 FK7R, Éire","Country":"IRL","County":"County Galway","City":"Gaillimh","District":"Gaillimh","Street":"Queen Street","HouseNumber":"22","PostalCode":"H91 FK7R","AdditionalData":[{"value":"Éire","key":"CountryName"},{"value":"County Galway","key":"CountyName"}]},"MapReference":{"ReferenceId":"562695122","Spot":0.5,"SideOfStreet":"left","CountryId":"20403667","CountyId":"20411189","CityId":"20426574","DistrictId":"20426575","AddressId":"214818802","RoadLinkId":"86807256"}}},{"Relevance":1.0,"Distance":52.4,"MatchLevel":"houseNumber","MatchQuality":{"Country":1.0,"County":1.0,"City":1.0,"District":1.0,"Street":[1.0],"PostalCode":1.0},"MatchType":"interpolated","Location":{"LocationId":"NT_xWyDfpthoKcdTONwDMdnqB","LocationType":"point","DisplayPosition":{"Latitude":53.27237,"Longitude":-9.04884},"MapView":{"TopLeft":{"Latitude":53.2734942,"Longitude":-9.0507198},"BottomRight":{"Latitude":53.2712458,"Longitude":-9.0469602}},"Address":{"Label":"\"Barr Taoide\" Forthill Street, Gaillimh, County Galway, H91 A328, Éire","Country":"IRL","County":"County Galway","City":"Gaillimh","District":"Gaillimh","Street":"Forthill Street","PostalCode":"H91 A328","AdditionalData":[{"value":"Éire","key":"CountryName"},{"value":"County Galway","key":"CountyName"}],"Building":"Barr Taoide"},"MapReference":{"ReferenceId":"562695120","Spot":0.06,"SideOfStreet":"left","CountryId":"20403667","CountyId":"20411189","CityId":"20426574","DistrictId":"20426575","AddressId":"359970845","RoadLinkId":"86591175"}}},{"Relevance":1.0,"Distance":52.8,"MatchLevel":"street","MatchQuality":{"Country":1.0,"County":1.0,"City":1.0,"District":1.0,"Street":[1.0],"PostalCode":1.0},"Location":{"LocationId":"NT_.YRqzw6cBdSGWYn9jjda-D_l_781686783_R","LocationType":"point","DisplayPosition":{"Latitude":53.27157,"Longitude":-9.04947},"MapView":{"TopLeft":{"Latitude":53.27168,"Longitude":-9.04969},"BottomRight":{"Latitude":53.27157,"Longitude":-9.04947}},"Address":{"Label":"Bóthar Na Long, Gaillimh, County Galway, H91, Éire","Country":"IRL","County":"County Galway","City":"Gaillimh","District":"Gaillimh","Street":"Bóthar Na Long","PostalCode":"H91","AdditionalData":[{"value":"Éire","key":"CountryName"},{"value":"County Galway","key":"CountyName"}]},"MapReference":{"ReferenceId":"781686783","Spot":0.0,"SideOfStreet":"right","CountryId":"20403667","CountyId":"20411189","CityId":"20426574","DistrictId":"20426575"}}},{"Relevance":1.0,"Distance":56.6,"MatchLevel":"street","MatchQuality":{"Country":1.0,"County":1.0,"City":1.0,"District":1.0,"Street":[1.0],"PostalCode":1.0},"Location":{"LocationId":"NT_2ErRmseFclzS.NsxtxTo2C_l_781686782_R","LocationType":"point","DisplayPosition":{"Latitude":53.2714103,"Longitude":-9.0491301},"MapView":{"TopLeft":{"Latitude":53.27157,"Longitude":-9.04947},"BottomRight":{"Latitude":53.27109,"Longitude":-9.0483}},"Address":{"Label":"Bóthar Na Long, Gaillimh, County Galway, H91, Éire","Country":"IRL","County":"County Galway","City":"Gaillimh","District":"Gaillimh","Street":"Bóthar Na Long","PostalCode":"H91","AdditionalData":[{"value":"Éire","key":"CountryName"},{"value":"County Galway","key":"CountyName"}]},"MapReference":{"ReferenceId":"781686782","Spot":0.7,"SideOfStreet":"right","CountryId":"20403667","CountyId":"20411189","CityId":"20426574","DistrictId":"20426575"}}},{"Relevance":1.0,"Distance":57.9,"MatchLevel":"houseNumber","MatchQuality":{"Country":1.0,"County":1.0,"City":1.0,"District":1.0,"Street":[1.0],"HouseNumber":1.0,"PostalCode":1.0},"MatchType":"interpolated","Location":{"LocationId":"NT_kRN-ne15.712BSA3kZif8B_yED","LocationType":"point","DisplayPosition":{"Latitude":53.27168,"Longitude":-9.04969},"MapView":{"TopLeft":{"Latitude":53.2728042,"Longitude":-9.0515698},"BottomRight":{"Latitude":53.2705558,"Longitude":-9.0478102}},"Address":{"Label":"21 Dock Road, Gaillimh, County Galway, H91 R2XY, Éire","Country":"IRL","County":"County Galway","City":"Gaillimh","District":"Gaillimh","Street":"Dock Road","HouseNumber":"21","PostalCode":"H91 R2XY","AdditionalData":[{"value":"Éire","key":"CountryName"},{"value":"County Galway","key":"CountyName"}]},"MapReference":{"ReferenceId":"779193345","Spot":1.0,"SideOfStreet":"left","CountryId":"20403667","CountyId":"20411189","CityId":"20426574","DistrictId":"20426575","AddressId":"214803077","RoadLinkId":"172691886"}}},{"Relevance":1.0,"Distance":68.9,"MatchLevel":"houseNumber","MatchQuality":{"Country":1.0,"County":1.0,"City":1.0,"District":1.0,"Street":[1.0],"HouseNumber":1.0,"PostalCode":1.0},"MatchType":"interpolated","Location":{"LocationId":"NT_eXIbIyzJwstb-4V8D0fOBA_1A","LocationType":"point","DisplayPosition":{"Latitude":53.2718,"Longitude":-9.04997},"MapView":{"TopLeft":{"Latitude":53.2729242,"Longitude":-9.0518498},"BottomRight":{"Latitude":53.2706758,"Longitude":-9.0480902}},"Address":{"Label":"5 Sroíd Nioclais Naola, Gaillimh, County Galway, H91 P86W, Éire","Country":"IRL","County":"County Galway","City":"Gaillimh","District":"Gaillimh","Street":"Sroíd Nioclais Naola","HouseNumber":"5","PostalCode":"H91 P86W","AdditionalData":[{"value":"Éire","key":"CountryName"},{"value":"County Galway","key":"CountyName"}]},"MapReference":{"ReferenceId":"851868929","Spot":0.8,"SideOfStreet":"right","CountryId":"20403667","CountyId":"20411189","CityId":"20426574","DistrictId":"20426575","AddressId":"775140549","RoadLinkId":"231260394"}}}]}]}}