{"Response":{"MetaInfo":{"Timestamp":"2020-03-28T10:20:14.308+0000","NextPageInformation":"2"},"View":[{"_type":"SearchResultsViewType","ViewId":0,"Result":[{"Relevance":1.0,"Distance":-85.3,"MatchLevel":"landmark","MatchQuality":{"Country":1.0,"State":1.0,"County":1.0,"City":1.0,"District":1.0,"PostalCode":1.0,"Name":1.0},"Location":{"LocationId":"NT_jP2x9-gdox1a.7lZVeQyeC","LocationType":"industrialComplex","Name":"Am Nüttermoorer Sieltief","DisplayPosition":{"Latitude":53.25752,"Longitude":7.45509},"MapView":{"TopLeft":{"Latitude":53.25945,"Longitude":7.45052},"BottomRight":{"Latitude":53.25558,"Longitude":7.45955}},"Address":{"Label":"26789 Leer (Ostfriesland), Deutschland","Country":"DEU","State":"Niedersachsen","County":"Leer","City":"Leer (Ostfriesland)","District":"Heisfelde","PostalCode":"26789","AdditionalData":[{"value":"Deutschland","key":"CountryName"},{"value":"Niedersachsen","key":"StateName"},{"value":"Leer","key":"CountyName"}]},"MapReference":{"CountryId":"20147700","StateId":"20151542","CountyId":"20156694","CityId":"20156736","DistrictId":"20370644","PlaceId":"1410282810"}}},{"Relevance":1.0,"Distance":0.0,"Direction":0.0,"MatchLevel":"district","MatchQuality":{"Country":1.0,"State":1.0,"County":1.0,"City":1.0,"District":1.0,"PostalCode":1.0},"Location":{"LocationId":"NT_A3SQO2MIJuinnF4nLaD-jA","LocationType":"point","DisplayPosition":{"Latitude":53.2585532,"Longitude":7.4541158},"MapView":{"TopLeft":{"Latitude":53.25945,"Longitude":7.44799},"BottomRight":{"Latitude":53.24377,"Longitude":7.46514}},"Address":{"Label":"Heisfelde, Leer (Ostfriesland), Niedersachsen, Deutschland","Country":"DEU","State":"Niedersachsen","County":"Leer","City":"Leer (Ostfriesland)","District":"Heisfelde","PostalCode":"26789","AdditionalData":[{"value":"Deutschland","key":"CountryName"},{"value":"Niedersachsen","key":"StateName"},{"value":"Leer","key":"CountyName"}]},"MapReference":{"ReferenceId":"1059233306","SideOfStreet":"neither","CountryId":"20147700","StateId":"20151542","CountyId":"20156694","CityId":"20156736","DistrictId":"20370644"}}},{"Relevance":1.0,"Distance":40.5,"MatchLevel":"houseNumber","MatchQuality":{"Country":1.0,"State":1.0,"County":1.0,"City":1.0,"District":1.0,"Street":[1.0],"HouseNumber":1.0,"PostalCode":1.0},"MatchType":"interpolated","Location":{"LocationId":"NT_aHBOy18LmiwCQAviD.AChC_yA","LocationType":"point","DisplayPosition":{"Latitude":53.25885,"Longitude":7.4545},"MapView":{"TopLeft":{"Latitude":53.2599742,"Longitude":7.4526208},"BottomRight":{"Latitude":53.2577258,"Longitude":7.4563792}},"Address":{"Label":"Am Nüttermoorer Sieltief 2, 26789 Leer (Ostfriesland), Deutschland","Country":"DEU","State":"Niedersachsen","County":"Leer","City":"Leer (Ostfriesland)","District":"Heisfelde","Street":"Am Nüttermoorer Sieltief","HouseNumber":"2","PostalCode":"26789","AdditionalData":[{"value":"Deutschland","key":"CountryName"},{"value":"Niedersachsen","key":"StateName"},{"value":"Leer","key":"CountyName"}]},"MapReference":{"ReferenceId":"554753672","Spot":0.47,"SideOfStreet":"left","CountryId":"20147700","StateId":"20151542","CountyId":"20156694","CityId":"20156736","DistrictId":"20370644","AddressId":"179433594","RoadLinkId":"36614883"}}},{"Relevance":1.0,"Distance":44.6,"MatchLevel":"houseNumber","MatchQuality":{"Country":1.0,"State":1.0,"County":1.0,"City":1.0,"District":1.0,"Street":[1.0],"HouseNumber":1.0,"PostalCode":1.0},"MatchType":"interpolated","Location":{"LocationId":"NT_aHBOy18LmiwCQAviD.AChC_0A","LocationType":"point","DisplayPosition":{"Latitude":53.25818,"Longitude":7.45387},"MapView":{"TopLeft":{"Latitude":53.2593042,"Longitude":7.4519908},"BottomRight":{"Latitude":53.2570558,"Longitude":7.4557492}},"Address":{"Label":"Am Nüttermoorer Sieltief 4, 26789 Leer (Ostfriesland), Deutschland","Country":"DEU","State":"Niedersachsen","County":"Leer","City":"Leer (Ostfriesland)","District":"Heisfelde","Street":"Am Nüttermoorer Sieltief","HouseNumber":"4","PostalCode":"26789","AdditionalData":[{"value":"Deutschland","key":"CountryName"},{"value":"Niedersachsen","key":"StateName"},{"value":"Leer","key":"CountyName"}]},"MapReference":{"ReferenceId":"554748909","Spot":0.69,"SideOfStreet":"left","CountryId":"20147700","StateId":"20151542","CountyId":"20156694","CityId":"20156736","DistrictId":"20370644","AddressId":"621977300","RoadLinkId":"36577694"}}},{"Relevance":1.0,"Distance":76.0,"MatchLevel":"street","MatchQuality":{"Country":1.0,"State":1.0,"County":1.0,"City":1.0,"District":1.0,"PostalCode":1.0},"Location":{"LocationId":"NT_tLn.FaJYMsJ1oTA-U36WuB_l_773235178_R","LocationType":"point","DisplayPosition":{"Latitude":53.25916,"Longitude":7.45464},"MapView":{"TopLeft":{"Latitude":53.25923,"Longitude":7.45464},"BottomRight":{"Latitude":53.25916,"Longitude":7.45493}},"Address":{"Label":"26789 Leer (Ostfriesland), Deutschland","Country":"DEU","State":"Niedersachsen","County":"Leer","City":"Leer (Ostfriesland)","District":"Heisfelde","PostalCode":"26789","AdditionalData":[{"value":"Deutschland","key":"CountryName"},{"value":"Niedersachsen","key":"StateName"},{"value":"Leer","key":"CountyName"}]},"MapReference":{"ReferenceId":"773235178","Spot":0.0,"SideOfStreet":"right","CountryId":"20147700","StateId":"20151542","CountyId":"20156694","CityId":"20156736","DistrictId":"20370644"}}},{"Relevance":1.0,"Distance":76.8,"MatchLevel":"street","MatchQuality":{"Country":1.0,"State":1.0,"County":1.0,"City":1.0,"District":1.0,"PostalCode":1.0},"Location":{"LocationId":"NT_tLn.FaJYMsJ1oTA-U36WuB_l_773235179_L","LocationType":"point","DisplayPosition":{"Latitude":53.2591945,"Longitude":7.4545433},"MapView":{"TopLeft":{"Latitude":53.2593,"Longitude":7.45446},"BottomRight":{"Latitude":53.25916,"Longitude":7.45464}},"Address":{"Label":"26789 Leer (Ostfriesland), Deutschland","Country":"DEU","State":"Niedersachsen","County":"Leer","City":"Leer (Ostfriesland)","District":"Heisfelde","PostalCode":"26789","AdditionalData":[{"value":"Deutschland","key":"CountryName"},{"value":"Niedersachsen","key":"StateName"},{"value":"Leer","key":"CountyName"}]},"MapReference":{"ReferenceId":"773235179","Spot":0.43,"SideOfStreet":"left","CountryId":"20147700","StateId":"20151542","CountyId":"20156694","CityId":"20156736","DistrictId":"20370644"}}},{"Relevance":1.0,"Distance":85.4,"MatchLevel":"street","MatchQuality":{"Country":1.0,"State":1.0,"County":1.0,"City":1.0,"District":1.0,"Street":[1.0],"PostalCode":1.0},"Location":{"LocationId":"NT_k5W9UazGCYm1opMT4OMw2C_l_792530531_L","LocationType":"point","DisplayPosition":{"Latitude":53.2593202,"Longitude":7.454169},"MapView":{"TopLeft":{"Latitude":53.25937,"Longitude":7.45345},"BottomRight":{"Latitude":53.2593,"Longitude":7.45446}},"Address":{"Label":"Nüttermoorer Straße, 26789 Leer (Ostfriesland), Deutschland","Country":"DEU","State":"Niedersachsen","County":"Leer","City":"Leer (Ostfriesland)","District":"Heisfelde","Street":"Nüttermoorer Straße","PostalCode":"26789","AdditionalData":[{"value":"Deutschland","key":"CountryName"},{"value":"Niedersachsen","key":"StateName"},{"value":"Leer","key":"CountyName"}]},"MapReference":{"ReferenceId":"792530531","Spot":0.29,"SideOfStreet":"left","CountryId":"20147700","StateId":"20151542","CountyId":"20156694","CityId":"20156736","DistrictId":"20370644"}}},{"Relevance":1.0,"Distance":86.1,"MatchLevel":"street","MatchQuality":{"Country":1.0,"State":1.0,"County":1.0,"City":1.0,"District":1.0,"PostalCode":1.0},"Location":{"LocationId":"NT_tLn.FaJYMsJ1oTA-U36WuB_l_773235180_L","LocationType":"point","DisplayPosition":{"Latitude":53.2593,"Longitude":7.45446},"MapView":{"TopLeft":{"Latitude":53.25945,"Longitude":7.45446},"BottomRight":{"Latitude":53.2593,"Longitude":7.45469}},"Address":{"Label":"26789 Leer (Ostfriesland), Deutschland","Country":"DEU","State":"Niedersachsen","County":"Leer","City":"Leer (Ostfriesland)","District":"Heisfelde","PostalCode":"26789","AdditionalData":[{"value":"Deutschland","key":"CountryName"},{"value":"Niedersachsen","key":"StateName"},{"value":"Leer","key":"CountyName"}]},"MapReference":{"ReferenceId":"773235180","Spot":0.0,"SideOfStreet":"left","CountryId":"20147700","StateId":"20151542","CountyId":"20156694","CityId":"20156736","DistrictId":"20370644"}}},{"Relevance":1.0,"Distance":92.7,"MatchLevel":"street","MatchQuality":{"Country":1.0,"State":1.0,"County":1.0,"City":1.0,"District":1.0,"Street":[1.0],"PostalCode":1.0},"Location":{"LocationId":"NT_YwopxrkI04nI4KfRdzsidA_l_835428444_L","LocationType":"point","DisplayPosition":{"Latitude":53.25923,"Longitude":7.45493},"MapView":{"TopLeft":{"Latitude":53.25923,"Longitude":7.45493},"BottomRight":{"Latitude":53.25919,"Longitude":7.45565}},"Address":{"Label":"Nüttermoorer Straße, 26789 Leer (Ostfriesland), Deutschland","Country":"DEU","State":"Niedersachsen","County":"Leer","City":"Leer (Ostfriesland)","District":"Heisfelde","Street":"Nüttermoorer Straße","PostalCode":"26789","AdditionalData":[{"value":"Deutschland","key":"CountryName"},{"value":"Niedersachsen","key":"StateName"},{"value":"Leer","key":"CountyName"}]},"MapReference":{"ReferenceId":"835428444","Spot":1.0,"SideOfStreet":"left","CountryId":"20147700","StateId":"20151542","CountyId":"20156694","CityId":"20156736","DistrictId":"20370644"}}},{"Relevance":1.0,"Distance":92.7,"MatchLevel":"street","MatchQuality":{"Country":1.0,"State":1.0,"County":1.0,"City":1.0,"District":1.0,"PostalCode":1.0},"Location":{"LocationId":"NT_tLn.FaJYMsJ1oTA-U36WuB_l_773235177_L","LocationType":"point","DisplayPosition":{"Latitude":53.25923,"Longitude":7.45493},"MapView":{"TopLeft":{"Latitude":53.2593,"Longitude":7.45493},"BottomRight":{"Latitude":53.25923,"Longitude":7.45496}},"Address":{"Label":"26789 Leer (Ostfriesland), Deutschland","Country":"DEU","State":"Niedersachsen","County":"Leer","City":"Leer (Ostfriesland)","District":"Heisfelde","PostalCode":"26789","AdditionalData":[{"value":"Deutschland","key":"CountryName"},{"value":"Niedersachsen","key":"StateName"},{"value":"Leer","key":"CountyName"}]},"MapReference":{"ReferenceId":"773235177","Spot":0.0,"SideOfStreet":"left","CountryId":"20147700","StateId":"20151542","CountyId":"20156694","CityId":"20156736","DistrictId":"20370644"}}}]}]}}