{"Response":{"MetaInfo":{"Timestamp":"2020-03-28T10:12:18.058+0000","NextPageInformation":"2"},"View":[{"_type":"SearchResultsViewType","ViewId":0,"Result":[{"Relevance":1.0,"Distance":0.0,"Direction":0.0,"MatchLevel":"district","MatchQuality":{"Country":1.0,"County":1.0,"City":1.0,"District":1.0},"Location":{"LocationId":"NT_I4mv.0YBk17tB3QWQl8XpA","LocationType":"point","DisplayPosition":{"Latitude":53.2894938,"Longitude":-6.2435679},"MapView":{"TopLeft":{"Latitude":53.31351,"Longitude":-6.30861},"BottomRight":{"Latitude":53.28181,"Longitude":-6.21798}},"Address":{"Label":"Dublin 14, Dublin, Ireland","Country":"IRL","County":"County Dublin","City":"Dublin","District":"Dublin 14","AdditionalData":[{"value":"Ireland","key":"CountryName"},{"value":"County Dublin","key":"CountyName"}]},"MapReference":{"ReferenceId":"918611826","SideOfStreet":"neither","CountryId":"20403667","CountyId":"20411172","CityId":"20413526","DistrictId":"20413541"}}},{"Relevance":1.0,"Distance":6.3,"MatchLevel":"houseNumber","MatchQuality":{"Country":1.0,"County":1.0,"City":1.0,"District":1.0,"Street":[1.0],"HouseNumber":1.0,"PostalCode":1.0},"MatchType":"interpolated","Location":{"LocationId":"NT_QQ2xpEdJAD85E2wjsCAtDB_xkD","LocationType":"point","DisplayPosition":{"Latitude":53.28948,"Longitude":-6.24366},"MapView":{"TopLeft":{"Latitude":53.2906042,"Longitude":-6.2455406},"BottomRight":{"Latitude":53.2883558,"Longitude":-6.2417794}},"Address":{"Label":"19 Main Street, Dublin, County Dublin, D14 W407, Ireland","Country":"IRL","County":"County Dublin","City":"Dublin","District":"Dublin 14","Street":"Main Street","HouseNumber":"19","PostalCode":"D14 W407","AdditionalData":[{"value":"Ireland","key":"CountryName"},{"value":"County Dublin","key":"CountyName"}]},"MapReference":{"ReferenceId":"1048506524","Spot":0.11,"SideOfStreet":"right","CountryId":"20403667","CountyId":"20411172","CityId":"20413526","DistrictId":"20413541","AddressId":"729587754","RoadLinkId":"368666711"}}},{"Relevance":1.0,"Distance":17.2,"MatchLevel":"houseNumber","MatchQuality":{"Country":1.0,"County":1.0,"City":1.0,"District":1.0,"Street":[1.0],"HouseNumber":1.0,"PostalCode":1.0},"MatchType":"interpolated","Location":{"LocationId":"NT_QQ2xpEdJAD85E2wjsCAtDB_1cD","LocationType":"point","DisplayPosition":{"Latitude":53.28934,"Longitude":-6.24354},"MapView":{"TopLeft":{"Latitude":53.2904642,"Longitude":-6.2454206},"BottomRight":{"Latitude":53.2882158,"Longitude":-6.2416594}},"Address":{"Label":"57 Main Street, Dublin, County Dublin, D14 X0T8, Ireland","Country":"IRL","County":"County Dublin","City":"Dublin","District":"Dublin 14","Street":"Main Street","HouseNumber":"57","PostalCode":"D14 X0T8","AdditionalData":[{"value":"Ireland","key":"CountryName"},{"value":"County Dublin","key":"CountyName"}]},"MapReference":{"ReferenceId":"778852613","Spot":0.67,"SideOfStreet":"right","CountryId":"20403667","CountyId":"20411172","CityId":"20413526","DistrictId":"20413541","AddressId":"214850912","RoadLinkId":"172341416"}}},{"Relevance":1.0,"Distance":22.6,"MatchLevel":"postalCode","MatchQuality":{"PostalCode":1.0},"MatchType":"interpolated","Location":{"LocationId":"NT_QQ2xpEdJAD85E2wjsCAtDB_1cD","LocationType":"point","DisplayPosition":{"Latitude":53.28939,"Longitude":-6.24386},"MapView":{"TopLeft":{"Latitude":53.2983832,"Longitude":-6.2589045},"BottomRight":{"Latitude":53.2803968,"Longitude":-6.2288155}},"Address":{"Label":"D14 KR66, Dublin, Ireland","Country":"IRL","County":"County Dublin","City":"Dublin","PostalCode":"D14 KR66","AdditionalData":[{"value":"Ireland","key":"CountryName"},{"value":"County Dublin","key":"CountyName"}]},"MapReference":{"ReferenceId":"778852613","Spot":0.67,"SideOfStreet":"neither","CountryId":"20403667","CountyId":"20411172","CityId":"20413526"}}},{"Relevance":1.0,"Distance":39.1,"MatchLevel":"houseNumber","MatchQuality":{"Country":1.0,"County":1.0,"City":1.0,"District":1.0,"Street":[1.0],"HouseNumber":1.0,"PostalCode":1.0},"MatchType":"interpolated","Location":{"LocationId":"NT_tr7lUd02Hot4kZJyis9rqD_xMG","LocationType":"point","DisplayPosition":{"Latitude":53.28907,"Longitude":-6.2441},"MapView":{"TopLeft":{"Latitude":53.2901942,"Longitude":-6.2459806},"BottomRight":{"Latitude":53.2879458,"Longitude":-6.2422194}},"Address":{"Label":"1c Ballinteer Road, Dublin, County Dublin, D16 Y090, Ireland","Country":"IRL","County":"County Dublin","City":"Dublin","District":"Dublin 16","Street":"Ballinteer Road","HouseNumber":"1c","PostalCode":"D16 Y090","AdditionalData":[{"value":"Ireland","key":"CountryName"},{"value":"County Dublin","key":"CountyName"}]},"MapReference":{"ReferenceId":"880494889","Spot":0.82,"SideOfStreet":"right","CountryId":"20403667","CountyId":"20411172","CityId":"20413526","DistrictId":"20413543","AddressId":"743614275","RoadLinkId":"249159138"}}},{"Relevance":1.0,"Distance":40.1,"MatchLevel":"houseNumber","MatchQuality":{"Country":1.0,"County":1.0,"City":1.0,"District":1.0,"Street":[1.0],"HouseNumber":1.0,"PostalCode":1.0},"MatchType":"interpolated","Location":{"LocationId":"NT_3h7tWq.3K42bWze72fNG0C_xEG","LocationType":"point","DisplayPosition":{"Latitude":53.28919,"Longitude":-6.24299},"MapView":{"TopLeft":{"Latitude":53.2903142,"Longitude":-6.2448706},"BottomRight":{"Latitude":53.2880658,"Longitude":-6.2411094}},"Address":{"Label":"1a Kilmacud Road Upper, Dublin, County Dublin, D14 EY13, Ireland","Country":"IRL","County":"County Dublin","City":"Dublin","District":"Dublin 14","Street":"Kilmacud Road Upper","HouseNumber":"1a","PostalCode":"D14 EY13","AdditionalData":[{"value":"Ireland","key":"CountryName"},{"value":"County Dublin","key":"CountyName"}]},"MapReference":{"ReferenceId":"778838080","Spot":0.59,"SideOfStreet":"left","CountryId":"20403667","CountyId":"20411172","CityId":"20413526","DistrictId":"20413541","AddressId":"743556098","RoadLinkId":"172324802"}}},{"Relevance":1.0,"Distance":46.1,"MatchLevel":"postalCode","MatchQuality":{"PostalCode":1.0},"MatchType":"interpolated","Location":{"LocationId":"NT_tr7lUd02Hot4kZJyis9rqD_xA","LocationType":"point","DisplayPosition":{"Latitude":53.28908,"Longitude":-6.24353},"MapView":{"TopLeft":{"Latitude":53.2980732,"Longitude":-6.2585744},"BottomRight":{"Latitude":53.2800868,"Longitude":-6.2284856}},"Address":{"Label":"D16 TD45, Dublin, Ireland","Country":"IRL","County":"County Dublin","City":"Dublin","PostalCode":"D16 TD45","AdditionalData":[{"value":"Ireland","key":"CountryName"},{"value":"County Dublin","key":"CountyName"}]},"MapReference":{"ReferenceId":"778491491","Spot":0.03,"SideOfStreet":"neither","CountryId":"20403667","CountyId":"20411172","CityId":"20413526"}}},{"Relevance":1.0,"Distance":46.3,"MatchLevel":"postalCode","MatchQuality":{"PostalCode":1.0},"MatchType":"interpolated","Location":{"LocationId":"NT_QQ2xpEdJAD85E2wjsCAtDB_xkD","LocationType":"point","DisplayPosition":{"Latitude":53.28945,"Longitude":-6.24426},"MapView":{"TopLeft":{"Latitude":53.2984432,"Longitude":-6.2593045},"BottomRight":{"Latitude":53.2804568,"Longitude":-6.2292155}},"Address":{"Label":"D14 K820, Dublin, Ireland","Country":"IRL","County":"County Dublin","City":"Dublin","PostalCode":"D14 K820","AdditionalData":[{"value":"Ireland","key":"CountryName"},{"value":"County Dublin","key":"CountyName"}]},"MapReference":{"ReferenceId":"1048506524","Spot":0.11,"SideOfStreet":"neither","CountryId":"20403667","CountyId":"20411172","CityId":"20413526"}}},{"Relevance":1.0,"Distance":48.8,"MatchLevel":"houseNumber","MatchQuality":{"Country":1.0,"County":1.0,"City":1.0,"District":1.0,"Street":[1.0],"HouseNumber":1.0,"PostalCode":1.0},"MatchType":"interpolated","Location":{"LocationId":"NT_tr7lUd02Hot4kZJyis9rqD_xA","LocationType":"point","DisplayPosition":{"Latitude":53.28906,"Longitude":-6.24368},"MapView":{"TopLeft":{"Latitude":53.2901842,"Longitude":-6.2455606},"BottomRight":{"Latitude":53.2879358,"Longitude":-6.2417994}},"Address":{"Label":"1 Ballinteer Road, Dublin, County Dublin, D16 F5T7, Ireland","Country":"IRL","County":"County Dublin","City":"Dublin","District":"Dublin 16","Street":"Ballinteer Road","HouseNumber":"1","PostalCode":"D16 F5T7","AdditionalData":[{"value":"Ireland","key":"CountryName"},{"value":"County Dublin","key":"CountyName"}]},"MapReference":{"ReferenceId":"778491491","Spot":0.03,"SideOfStreet":"right","CountryId":"20403667","CountyId":"20411172","CityId":"20413526","DistrictId":"20413543","AddressId":"214840731","RoadLinkId":"171950584"}}},{"Relevance":1.0,"Distance":49.0,"MatchLevel":"postalCode","MatchQuality":{"PostalCode":1.0},"MatchType":"interpolated","Location":{"LocationId":"NT_3h7tWq.3K42bWze72fNG0C_xEG","LocationType":"point","DisplayPosition":{"Latitude":53.28918,"Longitude":-6.24305},"MapView":{"TopLeft":{"Latitude":53.2981732,"Longitude":-6.2580944},"BottomRight":{"Latitude":53.2801868,"Longitude":-6.2280056}},"Address":{"Label":"D14 V9R3, Dublin, Ireland","Country":"IRL","County":"County Dublin","City":"Dublin","PostalCode":"D14 V9R3","AdditionalData":[{"value":"Ireland","key":"CountryName"},{"value":"County Dublin","key":"CountyName"}]},"MapReference":{"ReferenceId":"778838080","Spot":0.59,"SideOfStreet":"neither","CountryId":"20403667","CountyId":"20411172","CityId":"20413526"}}}]}]}}