{"Response":{"MetaInfo":{"Timestamp":"2020-03-28T12:03:05.279+0000","NextPageInformation":"2"},"View":[{"_type":"SearchResultsViewType","ViewId":0,"Result":[{"Relevance":1.0,"Distance":0.0,"Direction":0.0,"MatchLevel":"district","MatchQuality":{"Country":1.0,"County":1.0,"City":1.0,"District":1.0,"PostalCode":1.0},"Location":{"LocationId":"NT_U.Ugni6HlTXJIqzNkixZAD","LocationType":"point","DisplayPosition":{"Latitude":53.2772945,"Longitude":-6.103411},"MapView":{"TopLeft":{"Latitude":53.28534,"Longitude":-6.12167},"BottomRight":{"Latitude":53.26639,"Longitude":-6.09227}},"Address":{"Label":"Dalkey, Ireland","Country":"IRL","County":"County Dublin","City":"Dalkey","District":"Dalkey","AdditionalData":[{"value":"Ireland","key":"CountryName"},{"value":"County Dublin","key":"CountyName"}]},"MapReference":{"ReferenceId":"1134330881","SideOfStreet":"neither","CountryId":"20403667","CountyId":"20411172","CityId":"26943972","DistrictId":"26943973"}}},{"Relevance":1.0,"Distance":5.0,"MatchLevel":"houseNumber","MatchQuality":{"Country":1.0,"County":1.0,"City":1.0,"District":1.0,"Street":[1.0],"HouseNumber":1.0,"PostalCode":1.0},"MatchType":"interpolated","Location":{"LocationId":"NT_wv-5vqC84ylLq9qyTaviCC_ygD","LocationType":"point","DisplayPosition":{"Latitude":53.27715,"Longitude":-6.10349},"MapView":{"TopLeft":{"Latitude":53.2782742,"Longitude":-6.10537},"BottomRight":{"Latitude":53.2760258,"Longitude":-6.10161}},"Address":{"Label":"28 Castle Street, Dalkey, County Dublin, A96 W296, Ireland","Country":"IRL","County":"County Dublin","City":"Dalkey","District":"Dalkey","Street":"Castle Street","HouseNumber":"28","PostalCode":"A96 W296","AdditionalData":[{"value":"Ireland","key":"CountryName"},{"value":"County Dublin","key":"CountyName"}]},"MapReference":{"ReferenceId":"554447517","Spot":0.19,"SideOfStreet":"right","CountryId":"20403667","CountyId":"20411172","CityId":"26943972","DistrictId":"26943973","AddressId":"214109776","RoadLinkId":"86810224"}}},{"Relevance":1.0,"Distance":8.8,"MatchLevel":"postalCode","MatchQuality":{"PostalCode":1.0},"MatchType":"interpolated","Location":{"LocationId":"NT_wv-5vqC84ylLq9qyTaviCC_ygD","LocationType":"point","DisplayPosition":{"Latitude":53.27726,"Longitude":-6.10353},"MapView":{"TopLeft":{"Latitude":53.2862532,"Longitude":-6.1185702},"BottomRight":{"Latitude":53.2682668,"Longitude":-6.0884898}},"Address":{"Label":"A96 D263, Dalkey, Ireland","Country":"IRL","County":"County Dublin","City":"Dalkey","PostalCode":"A96 D263","AdditionalData":[{"value":"Ireland","key":"CountryName"},{"value":"County Dublin","key":"CountyName"}]},"MapReference":{"ReferenceId":"554447517","Spot":0.19,"SideOfStreet":"neither","CountryId":"20403667","CountyId":"20411172","CityId":"26943972"}}},{"Relevance":1.0,"Distance":10.1,"MatchLevel":"houseNumber","MatchQuality":{"Country":1.0,"County":1.0,"City":1.0,"District":1.0,"Street":[1.0],"HouseNumber":1.0,"PostalCode":1.0},"MatchType":"interpolated","Location":{"LocationId":"NT_3TFOFvw5NEYupJNHxlhdIA_xA","LocationType":"point","DisplayPosition":{"Latitude":53.27728,"Longitude":-6.10314},"MapView":{"TopLeft":{"Latitude":53.2784042,"Longitude":-6.10502},"BottomRight":{"Latitude":53.2761558,"Longitude":-6.10126}},"Address":{"Label":"1 Convent Road, Dalkey, County Dublin, A96, Ireland","Country":"IRL","County":"County Dublin","City":"Dalkey","District":"Dalkey","Street":"Convent Road","HouseNumber":"1","PostalCode":"A96","AdditionalData":[{"value":"Ireland","key":"CountryName"},{"value":"County Dublin","key":"CountyName"}]},"MapReference":{"ReferenceId":"749483848","Spot":0.08,"SideOfStreet":"left","CountryId":"20403667","CountyId":"20411172","CityId":"26943972","DistrictId":"26943973","AddressId":"606508615","RoadLinkId":"214369399"}}},{"Relevance":1.0,"Distance":17.7,"MatchLevel":"street","MatchQuality":{"Country":1.0,"County":1.0,"City":1.0,"District":1.0,"Street":[1.0],"PostalCode":1.0},"Location":{"LocationId":"NT_QcCVYsHOSoN0vCwnbhrGcD_l_554447238_L","LocationType":"point","DisplayPosition":{"Latitude":53.2771452,"Longitude":-6.1033177},"MapView":{"TopLeft":{"Latitude":53.27725,"Longitude":-6.10339},"BottomRight":{"Latitude":53.2771,"Longitude":-6.10315}},"Address":{"Label":"St Marys Terrace, Dalkey, County Dublin, A96, Ireland","Country":"IRL","County":"County Dublin","City":"Dalkey","District":"Dalkey","Street":"St Marys Terrace","PostalCode":"A96","AdditionalData":[{"value":"Ireland","key":"CountryName"},{"value":"County Dublin","key":"CountyName"}]},"MapReference":{"ReferenceId":"554447238","Spot":0.3,"SideOfStreet":"left","CountryId":"20403667","CountyId":"20411172","CityId":"26943972","DistrictId":"26943973"}}},{"Relevance":1.0,"Distance":21.7,"MatchLevel":"street","MatchQuality":{"Country":1.0,"County":1.0,"City":1.0,"District":1.0,"Street":[1.0],"PostalCode":1.0},"Location":{"LocationId":"NT_JGmSyZ3yd4S4SUBwx5oOkA_l_554447505_R","LocationType":"point","DisplayPosition":{"Latitude":53.2771,"Longitude":-6.10339},"MapView":{"TopLeft":{"Latitude":53.2771,"Longitude":-6.10339},"BottomRight":{"Latitude":53.27705,"Longitude":-6.10332}},"Address":{"Label":"Castle Street, Dalkey, County Dublin, A96, Ireland","Country":"IRL","County":"County Dublin","City":"Dalkey","District":"Dalkey","Street":"Castle Street","PostalCode":"A96","AdditionalData":[{"value":"Ireland","key":"CountryName"},{"value":"County Dublin","key":"CountyName"}]},"MapReference":{"ReferenceId":"554447505","Spot":1.0,"SideOfStreet":"right","CountryId":"20403667","CountyId":"20411172","CityId":"26943972","DistrictId":"26943973"}}},{"Relevance":1.0,"Distance":24.1,"MatchLevel":"postalCode","MatchQuality":{"PostalCode":1.0},"MatchType":"interpolated","Location":{"LocationId":"NT_Ipx3AZ3F1hty8OF62c2WpA_xA","LocationType":"point","DisplayPosition":{"Latitude":53.27722,"Longitude":-6.10307},"MapView":{"TopLeft":{"Latitude":53.2862132,"Longitude":-6.1181102},"BottomRight":{"Latitude":53.2682268,"Longitude":-6.0880298}},"Address":{"Label":"A96 A780, Dalkey, Ireland","Country":"IRL","County":"County Dublin","City":"Dalkey","PostalCode":"A96 A780","AdditionalData":[{"value":"Ireland","key":"CountryName"},{"value":"County Dublin","key":"CountyName"}]},"MapReference":{"ReferenceId":"554447239","Spot":0.23,"SideOfStreet":"neither","CountryId":"20403667","CountyId":"20411172","CityId":"26943972"}}},{"Relevance":1.0,"Distance":27.2,"MatchLevel":"postalCode","MatchQuality":{"PostalCode":1.0},"MatchType":"interpolated","Location":{"LocationId":"NT_3TFOFvw5NEYupJNHxlhdIA_xA","LocationType":"point","DisplayPosition":{"Latitude":53.27742,"Longitude":-6.10306},"MapView":{"TopLeft":{"Latitude":53.2864132,"Longitude":-6.1181003},"BottomRight":{"Latitude":53.2684268,"Longitude":-6.0880197}},"Address":{"Label":"A96 YX95, Dalkey, Ireland","Country":"IRL","County":"County Dublin","City":"Dalkey","PostalCode":"A96 YX95","AdditionalData":[{"value":"Ireland","key":"CountryName"},{"value":"County Dublin","key":"CountyName"}]},"MapReference":{"ReferenceId":"749483848","Spot":0.08,"SideOfStreet":"neither","CountryId":"20403667","CountyId":"20411172","CityId":"26943972"}}},{"Relevance":1.0,"Distance":27.9,"MatchLevel":"street","MatchQuality":{"Country":1.0,"County":1.0,"City":1.0,"District":1.0,"Street":[1.0],"PostalCode":1.0},"Location":{"LocationId":"NT_3UaHhiUrsmnZDAM27MRppD_l_554447510_R","LocationType":"point","DisplayPosition":{"Latitude":53.27705,"Longitude":-6.10332},"MapView":{"TopLeft":{"Latitude":53.27705,"Longitude":-6.10332},"BottomRight":{"Latitude":53.27701,"Longitude":-6.10328}},"Address":{"Label":"St Patrick's Avenue, Dalkey, County Dublin, A96, Ireland","Country":"IRL","County":"County Dublin","City":"Dalkey","District":"Dalkey","Street":"St Patrick's Avenue","PostalCode":"A96","AdditionalData":[{"value":"Ireland","key":"CountryName"},{"value":"County Dublin","key":"CountyName"}]},"MapReference":{"ReferenceId":"554447510","Spot":1.0,"SideOfStreet":"right","CountryId":"20403667","CountyId":"20411172","CityId":"26943972","DistrictId":"26943973"}}},{"Relevance":1.0,"Distance":30.7,"MatchLevel":"postalCode","MatchQuality":{"PostalCode":1.0},"MatchType":"interpolated","Location":{"LocationId":"NT_.AlLv9dfwSIDTiwqWeB41D_yAD","LocationType":"point","DisplayPosition":{"Latitude":53.27746,"Longitude":-6.10378},"MapView":{"TopLeft":{"Latitude":53.2864532,"Longitude":-6.1188203},"BottomRight":{"Latitude":53.2684668,"Longitude":-6.0887397}},"Address":{"Label":"A96 DX09, Dalkey, Ireland","Country":"IRL","County":"County Dublin","City":"Dalkey","PostalCode":"A96 DX09","AdditionalData":[{"value":"Ireland","key":"CountryName"},{"value":"County Dublin","key":"CountyName"}]},"MapReference":{"ReferenceId":"854879297","Spot":0.59,"SideOfStreet":"neither","CountryId":"20403667","CountyId":"20411172","CityId":"26943972"}}}]}]}}