{"Response":{"MetaInfo":{"Timestamp":"2020-03-28T10:03:06.319+0000","NextPageInformation":"2"},"View":[{"_type":"SearchResultsViewType","ViewId":0,"Result":[{"Relevance":1.0,"Distance":0.0,"Direction":0.0,"MatchLevel":"district","MatchQuality":{"Country":1.0,"State":1.0,"County":1.0,"City":1.0,"District":1.0,"PostalCode":1.0},"Location":{"LocationId":"NT_uP6tapWMjy2u5KpplpK7hA","LocationType":"point","DisplayPosition":{"Latitude":53.2502563,"Longitude":8.2032542},"MapView":{"TopLeft":{"Latitude":53.25924,"Longitude":8.16322},"BottomRight":{"Latitude":53.22782,"Longitude":8.21925}},"Address":{"Label":"Rastede, Niedersachsen, Deutschland","Country":"DEU","State":"Niedersachsen","County":"Ammerland","City":"Rastede","District":"Rastede","PostalCode":"26180","AdditionalData":[{"value":"Deutschland","key":"CountryName"},{"value":"Niedersachsen","key":"StateName"},{"value":"Ammerland","key":"CountyName"}]},"MapReference":{"ReferenceId":"1222572153","SideOfStreet":"neither","CountryId":"20147700","StateId":"20151542","CountyId":"20155946","CityId":"20155981","DistrictId":"20155989"}}},{"Relevance":1.0,"Distance":9.7,"MatchLevel":"houseNumber","MatchQuality":{"Country":1.0,"State":1.0,"County":1.0,"City":1.0,"District":1.0,"Street":[1.0],"HouseNumber":1.0,"PostalCode":1.0},"MatchType":"interpolated","Location":{"LocationId":"NT_plw5eHyj.rWO5Bjz4fGNrB_yMD","LocationType":"point","DisplayPosition":{"Latitude":53.25025,"Longitude":8.20363},"MapView":{"TopLeft":{"Latitude":53.2513742,"Longitude":8.2017512},"BottomRight":{"Latitude":53.2491258,"Longitude":8.2055088}},"Address":{"Label":"Schützenhofstraße 23, 26180 Rastede, Deutschland","Country":"DEU","State":"Niedersachsen","County":"Ammerland","City":"Rastede","District":"Rastede","Street":"Schützenhofstraße","HouseNumber":"23","PostalCode":"26180","AdditionalData":[{"value":"Deutschland","key":"CountryName"},{"value":"Niedersachsen","key":"StateName"},{"value":"Ammerland","key":"CountyName"}]},"MapReference":{"ReferenceId":"83668770","Spot":0.21,"SideOfStreet":"left","CountryId":"20147700","StateId":"20151542","CountyId":"20155946","CityId":"20155981","DistrictId":"20155989","AddressId":"180645899","RoadLinkId":"36294634"}}},{"Relevance":1.0,"Distance":32.6,"MatchLevel":"houseNumber","MatchQuality":{"Country":1.0,"State":1.0,"County":1.0,"City":1.0,"District":1.0,"Street":[1.0],"HouseNumber":1.0,"PostalCode":1.0},"MatchType":"interpolated","Location":{"LocationId":"NT_plw5eHyj.rWO5Bjz4fGNrB_yED","LocationType":"point","DisplayPosition":{"Latitude":53.24997,"Longitude":8.20362},"MapView":{"TopLeft":{"Latitude":53.2510942,"Longitude":8.2017412},"BottomRight":{"Latitude":53.2488458,"Longitude":8.2054988}},"Address":{"Label":"Schützenhofstraße 21, 26180 Rastede, Deutschland","Country":"DEU","State":"Niedersachsen","County":"Ammerland","City":"Rastede","District":"Rastede","Street":"Schützenhofstraße","HouseNumber":"21","PostalCode":"26180","AdditionalData":[{"value":"Deutschland","key":"CountryName"},{"value":"Niedersachsen","key":"StateName"},{"value":"Ammerland","key":"CountyName"}]},"MapReference":{"ReferenceId":"1249176962","Spot":0.91,"SideOfStreet":"left","CountryId":"20147700","StateId":"20151542","CountyId":"20155946","CityId":"20155981","DistrictId":"20155989","AddressId":"179359243","RoadLinkId":"571840413"}}},{"Relevance":1.0,"Distance":50.4,"MatchLevel":"houseNumber","MatchQuality":{"Country":1.0,"State":1.0,"County":1.0,"City":1.0,"District":1.0,"Street":[1.0],"HouseNumber":1.0,"PostalCode":1.0},"MatchType":"interpolated","Location":{"LocationId":"NT_hlQ0Bq-B.qjWyMfalxIILC_zATQ","LocationType":"point","DisplayPosition":{"Latitude":53.25105,"Longitude":8.20275},"MapView":{"TopLeft":{"Latitude":53.2521742,"Longitude":8.2008711},"BottomRight":{"Latitude":53.2499258,"Longitude":8.2046289}},"Address":{"Label":"Eichendorffstraße 30A, 26180 Rastede, Deutschland","Country":"DEU","State":"Niedersachsen","County":"Ammerland","City":"Rastede","District":"Rastede","Street":"Eichendorffstraße","HouseNumber":"30A","PostalCode":"26180","AdditionalData":[{"value":"Deutschland","key":"CountryName"},{"value":"Niedersachsen","key":"StateName"},{"value":"Ammerland","key":"CountyName"}]},"MapReference":{"ReferenceId":"83668762","Spot":0.57,"SideOfStreet":"right","CountryId":"20147700","StateId":"20151542","CountyId":"20155946","CityId":"20155981","DistrictId":"20155989","AddressId":"181374078","RoadLinkId":"36832719"}}},{"Relevance":1.0,"Distance":52.8,"MatchLevel":"houseNumber","MatchQuality":{"Country":1.0,"State":1.0,"County":1.0,"City":1.0,"District":1.0,"Street":[1.0],"HouseNumber":1.0,"PostalCode":1.0},"MatchType":"interpolated","Location":{"LocationId":"NT_kgwJuJc7eGHLCz7GnoT-ZD_xYjQ","LocationType":"point","DisplayPosition":{"Latitude":53.25031,"Longitude":8.20183},"MapView":{"TopLeft":{"Latitude":53.2514342,"Longitude":8.1999512},"BottomRight":{"Latitude":53.2491858,"Longitude":8.2037088}},"Address":{"Label":"Ostlandstraße 16B, 26180 Rastede, Deutschland","Country":"DEU","State":"Niedersachsen","County":"Ammerland","City":"Rastede","District":"Rastede","Street":"Ostlandstraße","HouseNumber":"16B","PostalCode":"26180","AdditionalData":[{"value":"Deutschland","key":"CountryName"},{"value":"Niedersachsen","key":"StateName"},{"value":"Ammerland","key":"CountyName"}]},"MapReference":{"ReferenceId":"83668748","Spot":0.56,"SideOfStreet":"right","CountryId":"20147700","StateId":"20151542","CountyId":"20155946","CityId":"20155981","DistrictId":"20155989","AddressId":"177137111","RoadLinkId":"37037820"}}},{"Relevance":1.0,"Distance":68.5,"MatchLevel":"houseNumber","MatchQuality":{"Country":1.0,"State":1.0,"County":1.0,"City":1.0,"District":1.0,"Street":[1.0],"HouseNumber":1.0,"PostalCode":1.0},"MatchType":"interpolated","Location":{"LocationId":"NT_X7xHJXvnV442n4Wz.bFeyC_xAD","LocationType":"point","DisplayPosition":{"Latitude":53.25004,"Longitude":8.2043},"MapView":{"TopLeft":{"Latitude":53.2511642,"Longitude":8.2024212},"BottomRight":{"Latitude":53.2489158,"Longitude":8.2061788}},"Address":{"Label":"Rudolf-Bultmann-Straße 10, 26180 Rastede, Deutschland","Country":"DEU","State":"Niedersachsen","County":"Ammerland","City":"Rastede","District":"Rastede","Street":"Rudolf-Bultmann-Straße","HouseNumber":"10","PostalCode":"26180","AdditionalData":[{"value":"Deutschland","key":"CountryName"},{"value":"Niedersachsen","key":"StateName"},{"value":"Ammerland","key":"CountyName"}]},"MapReference":{"ReferenceId":"540613134","Spot":0.73,"SideOfStreet":"left","CountryId":"20147700","StateId":"20151542","CountyId":"20155946","CityId":"20155981","DistrictId":"20155989","AddressId":"177666688","RoadLinkId":"36813974"}}},{"Relevance":1.0,"Distance":87.0,"MatchLevel":"houseNumber","MatchQuality":{"Country":1.0,"State":1.0,"County":1.0,"City":1.0,"District":1.0,"Street":[1.0],"HouseNumber":1.0,"PostalCode":1.0},"MatchType":"interpolated","Location":{"LocationId":"NT_X7xHJXvnV442n4Wz.bFeyC_4A","LocationType":"point","DisplayPosition":{"Latitude":53.25005,"Longitude":8.20459},"MapView":{"TopLeft":{"Latitude":53.2511742,"Longitude":8.2027112},"BottomRight":{"Latitude":53.2489258,"Longitude":8.2064688}},"Address":{"Label":"Rudolf-Bultmann-Straße 8, 26180 Rastede, Deutschland","Country":"DEU","State":"Niedersachsen","County":"Ammerland","City":"Rastede","District":"Rastede","Street":"Rudolf-Bultmann-Straße","HouseNumber":"8","PostalCode":"26180","AdditionalData":[{"value":"Deutschland","key":"CountryName"},{"value":"Niedersachsen","key":"StateName"},{"value":"Ammerland","key":"CountyName"}]},"MapReference":{"ReferenceId":"540613133","Spot":0.03,"SideOfStreet":"left","CountryId":"20147700","StateId":"20151542","CountyId":"20155946","CityId":"20155981","DistrictId":"20155989","AddressId":"177714342","RoadLinkId":"36377304"}}},{"Relevance":1.0,"Distance":88.5,"MatchLevel":"street","MatchQuality":{"Country":1.0,"State":1.0,"County":1.0,"City":1.0,"District":1.0,"PostalCode":1.0},"Location":{"LocationId":"NT_OTEMXzC1Mcrz4JeRAMEosD_l_1249176960_R","LocationType":"point","DisplayPosition":{"Latitude":53.2494609,"Longitude":8.2032258},"MapView":{"TopLeft":{"Latitude":53.24952,"Longitude":8.20175},"BottomRight":{"Latitude":53.24945,"Longitude":8.20353}},"Address":{"Label":"26180 Rastede, Deutschland","Country":"DEU","State":"Niedersachsen","County":"Ammerland","City":"Rastede","District":"Rastede","PostalCode":"26180","AdditionalData":[{"value":"Deutschland","key":"CountryName"},{"value":"Niedersachsen","key":"StateName"},{"value":"Ammerland","key":"CountyName"}]},"MapReference":{"ReferenceId":"1249176960","Spot":0.17,"SideOfStreet":"right","CountryId":"20147700","StateId":"20151542","CountyId":"20155946","CityId":"20155981","DistrictId":"20155989"}}},{"Relevance":1.0,"Distance":99.7,"MatchLevel":"houseNumber","MatchQuality":{"Country":1.0,"State":1.0,"County":1.0,"City":1.0,"District":1.0,"Street":[1.0],"HouseNumber":1.0,"PostalCode":1.0},"MatchType":"interpolated","Location":{"LocationId":"NT_plw5eHyj.rWO5Bjz4fGNrB_xMD","LocationType":"point","DisplayPosition":{"Latitude":53.24933,"Longitude":8.2035},"MapView":{"TopLeft":{"Latitude":53.2504542,"Longitude":8.2016212},"BottomRight":{"Latitude":53.2482058,"Longitude":8.2053788}},"Address":{"Label":"Schützenhofstraße 13, 26180 Rastede, Deutschland","Country":"DEU","State":"Niedersachsen","County":"Ammerland","City":"Rastede","District":"Rastede","Street":"Schützenhofstraße","HouseNumber":"13","PostalCode":"26180","AdditionalData":[{"value":"Deutschland","key":"CountryName"},{"value":"Niedersachsen","key":"StateName"},{"value":"Ammerland","key":"CountyName"}]},"MapReference":{"ReferenceId":"1249176961","Spot":0.89,"SideOfStreet":"left","CountryId":"20147700","StateId":"20151542","CountyId":"20155946","CityId":"20155981","DistrictId":"20155989","AddressId":"178345719","RoadLinkId":"571840412"}}},{"Relevance":1.0,"Distance":100.2,"MatchLevel":"houseNumber","MatchQuality":{"Country":1.0,"State":1.0,"County":1.0,"City":1.0,"District":1.0,"Street":[1.0],"HouseNumber":1.0,"PostalCode":1.0},"MatchType":"interpolated","Location":{"LocationId":"NT_hlQ0Bq-B.qjWyMfalxIILC_zYD","LocationType":"point","DisplayPosition":{"Latitude":53.25096,"Longitude":8.20455},"MapView":{"TopLeft":{"Latitude":53.2520842,"Longitude":8.2026711},"BottomRight":{"Latitude":53.2498358,"Longitude":8.2064289}},"Address":{"Label":"Eichendorffstraße 36, 26180 Rastede, Deutschland","Country":"DEU","State":"Niedersachsen","County":"Ammerland","City":"Rastede","District":"Rastede","Street":"Eichendorffstraße","HouseNumber":"36","PostalCode":"26180","AdditionalData":[{"value":"Deutschland","key":"CountryName"},{"value":"Niedersachsen","key":"StateName"},{"value":"Ammerland","key":"CountyName"}]},"MapReference":{"ReferenceId":"83668765","Spot":0.17,"SideOfStreet":"left","CountryId":"20147700","StateId":"20151542","CountyId":"20155946","CityId":"20155981","DistrictId":"20155989","AddressId":"179464185","RoadLinkId":"36873327"}}}]}]}}