{"Response":{"MetaInfo":{"Timestamp":"2020-03-28T10:21:51.339+0000","NextPageInformation":"2"},"View":[{"_type":"SearchResultsViewType","ViewId":0,"Result":[{"Relevance":1.0,"Distance":0.0,"Direction":0.0,"MatchLevel":"district","MatchQuality":{"Country":1.0,"State":1.0,"County":1.0,"City":1.0,"District":1.0,"PostalCode":1.0},"Location":{"LocationId":"NT_5NyeqNIKwWO1zFrWgNkykA","LocationType":"point","DisplayPosition":{"Latitude":53.20811,"Longitude":7.8847917},"MapView":{"TopLeft":{"Latitude":53.20892,"Longitude":7.8728},"BottomRight":{"Latitude":53.19935,"Longitude":7.89349}},"Address":{"Label":"Ocholt, Westerstede, Niedersachsen, Deutschland","Country":"DEU","State":"Niedersachsen","County":"Ammerland","City":"Westerstede","District":"Ocholt","PostalCode":"26655","AdditionalData":[{"value":"Deutschland","key":"CountryName"},{"value":"Niedersachsen","key":"StateName"},{"value":"Ammerland","key":"CountyName"}]},"MapReference":{"ReferenceId":"80739463","SideOfStreet":"neither","CountryId":"20147700","StateId":"20151542","CountyId":"20155946","CityId":"20155991","DistrictId":"20156001"}}},{"Relevance":1.0,"Distance":28.1,"MatchLevel":"houseNumber","MatchQuality":{"Country":1.0,"State":1.0,"County":1.0,"City":1.0,"District":1.0,"Street":[1.0],"HouseNumber":1.0,"PostalCode":1.0},"MatchType":"interpolated","Location":{"LocationId":"NT_Cvw05nn6uCsA93LQVZqoxD_xITN","LocationType":"point","DisplayPosition":{"Latitude":53.208,"Longitude":7.88572},"MapView":{"TopLeft":{"Latitude":53.2091242,"Longitude":7.883843},"BottomRight":{"Latitude":53.2068758,"Longitude":7.887597}},"Address":{"Label":"Westersteder Straße 125, 26655 Westerstede, Deutschland","Country":"DEU","State":"Niedersachsen","County":"Ammerland","City":"Westerstede","District":"Ocholt","Street":"Westersteder Straße","HouseNumber":"125","PostalCode":"26655","AdditionalData":[{"value":"Deutschland","key":"CountryName"},{"value":"Niedersachsen","key":"StateName"},{"value":"Ammerland","key":"CountyName"}]},"MapReference":{"ReferenceId":"80739472","Spot":0.61,"SideOfStreet":"left","CountryId":"20147700","StateId":"20151542","CountyId":"20155946","CityId":"20155991","DistrictId":"20156001","AddressId":"180846950","RoadLinkId":"36937123"}}},{"Relevance":1.0,"Distance":57.0,"MatchLevel":"houseNumber","MatchQuality":{"Country":1.0,"State":1.0,"County":1.0,"City":1.0,"District":1.0,"Street":[1.0],"HouseNumber":1.0,"PostalCode":1.0},"MatchType":"interpolated","Location":{"LocationId":"NT_nHQ3xJeZy7VpGLXoBrCDEA_0A","LocationType":"point","DisplayPosition":{"Latitude":53.20873,"Longitude":7.88468},"MapView":{"TopLeft":{"Latitude":53.2098542,"Longitude":7.882803},"BottomRight":{"Latitude":53.2076058,"Longitude":7.886557}},"Address":{"Label":"Am Stümmel 4, 26655 Westerstede, Deutschland","Country":"DEU","State":"Niedersachsen","County":"Ammerland","City":"Westerstede","District":"Ocholt","Street":"Am Stümmel","HouseNumber":"4","PostalCode":"26655","AdditionalData":[{"value":"Deutschland","key":"CountryName"},{"value":"Niedersachsen","key":"StateName"},{"value":"Ammerland","key":"CountyName"}]},"MapReference":{"ReferenceId":"80739434","Spot":0.55,"SideOfStreet":"right","CountryId":"20147700","StateId":"20151542","CountyId":"20155946","CityId":"20155991","DistrictId":"20156001","AddressId":"180706569","RoadLinkId":"36832787"}}},{"Relevance":1.0,"Distance":58.8,"MatchLevel":"houseNumber","MatchQuality":{"Country":1.0,"State":1.0,"County":1.0,"City":1.0,"District":1.0,"Street":[1.0],"HouseNumber":1.0,"PostalCode":1.0},"MatchType":"interpolated","Location":{"LocationId":"NT_jb1OQJOIZRkaAetP95vZED_4A","LocationType":"point","DisplayPosition":{"Latitude":53.20774,"Longitude":7.88391},"MapView":{"TopLeft":{"Latitude":53.2088642,"Longitude":7.882033},"BottomRight":{"Latitude":53.2066158,"Longitude":7.885787}},"Address":{"Label":"Spitzenmeer 8, 26655 Westerstede, Deutschland","Country":"DEU","State":"Niedersachsen","County":"Ammerland","City":"Westerstede","District":"Ocholt","Street":"Spitzenmeer","HouseNumber":"8","PostalCode":"26655","AdditionalData":[{"value":"Deutschland","key":"CountryName"},{"value":"Niedersachsen","key":"StateName"},{"value":"Ammerland","key":"CountyName"}]},"MapReference":{"ReferenceId":"83578780","Spot":0.0,"SideOfStreet":"right","CountryId":"20147700","StateId":"20151542","CountyId":"20155946","CityId":"20155991","DistrictId":"20156001","AddressId":"177230868","RoadLinkId":"36620079"}}},{"Relevance":1.0,"Distance":61.1,"MatchLevel":"houseNumber","MatchQuality":{"Country":1.0,"State":1.0,"County":1.0,"City":1.0,"District":1.0,"Street":[1.0],"HouseNumber":1.0,"PostalCode":1.0},"MatchType":"interpolated","Location":{"LocationId":"NT_jb1OQJOIZRkaAetP95vZED_xATQ","LocationType":"point","DisplayPosition":{"Latitude":53.20759,"Longitude":7.88398},"MapView":{"TopLeft":{"Latitude":53.2087142,"Longitude":7.882103},"BottomRight":{"Latitude":53.2064658,"Longitude":7.885857}},"Address":{"Label":"Spitzenmeer 10A, 26655 Westerstede, Deutschland","Country":"DEU","State":"Niedersachsen","County":"Ammerland","City":"Westerstede","District":"Ocholt","Street":"Spitzenmeer","HouseNumber":"10A","PostalCode":"26655","AdditionalData":[{"value":"Deutschland","key":"CountryName"},{"value":"Niedersachsen","key":"StateName"},{"value":"Ammerland","key":"CountyName"}]},"MapReference":{"ReferenceId":"80739449","Spot":0.9,"SideOfStreet":"right","CountryId":"20147700","StateId":"20151542","CountyId":"20155946","CityId":"20155991","DistrictId":"20156001","AddressId":"180975464","RoadLinkId":"36652377"}}},{"Relevance":1.0,"Distance":87.7,"MatchLevel":"street","MatchQuality":{"Country":1.0,"State":1.0,"County":1.0,"City":1.0,"Street":[1.0],"PostalCode":1.0},"Location":{"LocationId":"NT_mPs0QCjW8zehiG.miZSCYD_l_783529336_L","LocationType":"point","DisplayPosition":{"Latitude":53.2088,"Longitude":7.88543},"MapView":{"TopLeft":{"Latitude":53.20883,"Longitude":7.88542},"BottomRight":{"Latitude":53.2088,"Longitude":7.88543}},"Address":{"Label":"Westersteder Straße, 26655 Westerstede, Deutschland","Country":"DEU","State":"Niedersachsen","County":"Ammerland","City":"Westerstede","Street":"Westersteder Straße","PostalCode":"26655","AdditionalData":[{"value":"Deutschland","key":"CountryName"},{"value":"Niedersachsen","key":"StateName"},{"value":"Ammerland","key":"CountyName"}]},"MapReference":{"ReferenceId":"783529336","Spot":0.0,"SideOfStreet":"left","CountryId":"20147700","StateId":"20151542","CountyId":"20155946","CityId":"20155991"}}},{"Relevance":1.0,"Distance":109.0,"MatchLevel":"houseNumber","MatchQuality":{"Country":1.0,"State":1.0,"County":1.0,"City":1.0,"District":1.0,"Street":[1.0],"HouseNumber":1.0,"PostalCode":1.0},"MatchType":"interpolated","Location":{"LocationId":"NT_nHQ3xJeZy7VpGLXoBrCDEA_xID","LocationType":"point","DisplayPosition":{"Latitude":53.20845,"Longitude":7.88314},"MapView":{"TopLeft":{"Latitude":53.2095742,"Longitude":7.881263},"BottomRight":{"Latitude":53.2073258,"Longitude":7.885017}},"Address":{"Label":"Am Stümmel 12, 26655 Westerstede, Deutschland","Country":"DEU","State":"Niedersachsen","County":"Ammerland","City":"Westerstede","District":"Ocholt","Street":"Am Stümmel","HouseNumber":"12","PostalCode":"26655","AdditionalData":[{"value":"Deutschland","key":"CountryName"},{"value":"Niedersachsen","key":"StateName"},{"value":"Ammerland","key":"CountyName"}]},"MapReference":{"ReferenceId":"83578781","Spot":0.78,"SideOfStreet":"right","CountryId":"20147700","StateId":"20151542","CountyId":"20155946","CityId":"20155991","DistrictId":"20156001","AddressId":"180651113","RoadLinkId":"36360213"}}},{"Relevance":1.0,"Distance":112.7,"MatchLevel":"houseNumber","MatchQuality":{"Country":1.0,"State":1.0,"County":1.0,"City":1.0,"District":1.0,"Street":[1.0],"HouseNumber":1.0,"PostalCode":1.0},"MatchType":"interpolated","Location":{"LocationId":"NT_-k9HTBQ6022EbTX5Q5Mp2D_yQD","LocationType":"point","DisplayPosition":{"Latitude":53.20762,"Longitude":7.88331},"MapView":{"TopLeft":{"Latitude":53.2087442,"Longitude":7.881433},"BottomRight":{"Latitude":53.2064958,"Longitude":7.885187}},"Address":{"Label":"Am Streek 24, 26655 Westerstede, Deutschland","Country":"DEU","State":"Niedersachsen","County":"Ammerland","City":"Westerstede","District":"Ocholt","Street":"Am Streek","HouseNumber":"24","PostalCode":"26655","AdditionalData":[{"value":"Deutschland","key":"CountryName"},{"value":"Niedersachsen","key":"StateName"},{"value":"Ammerland","key":"CountyName"}]},"MapReference":{"ReferenceId":"80739424","Spot":0.82,"SideOfStreet":"left","CountryId":"20147700","StateId":"20151542","CountyId":"20155946","CityId":"20155991","DistrictId":"20156001","AddressId":"178319609","RoadLinkId":"36922259"}}},{"Relevance":1.0,"Distance":118.8,"MatchLevel":"houseNumber","MatchQuality":{"Country":1.0,"State":1.0,"County":1.0,"City":1.0,"Street":[1.0],"HouseNumber":1.0,"PostalCode":1.0},"MatchType":"interpolated","Location":{"LocationId":"NT_mPs0QCjW8zehiG.miZSCYD_xIjN","LocationType":"point","DisplayPosition":{"Latitude":53.20913,"Longitude":7.88532},"MapView":{"TopLeft":{"Latitude":53.2102542,"Longitude":7.883443},"BottomRight":{"Latitude":53.2080058,"Longitude":7.887197}},"Address":{"Label":"Westersteder Straße 126, 26655 Westerstede, Deutschland","Country":"DEU","State":"Niedersachsen","County":"Ammerland","City":"Westerstede","Street":"Westersteder Straße","HouseNumber":"126","PostalCode":"26655","AdditionalData":[{"value":"Deutschland","key":"CountryName"},{"value":"Niedersachsen","key":"StateName"},{"value":"Ammerland","key":"CountyName"}]},"MapReference":{"ReferenceId":"783529337","Spot":0.48,"SideOfStreet":"right","CountryId":"20147700","StateId":"20151542","CountyId":"20155946","CityId":"20155991","AddressId":"178484335","RoadLinkId":"176364611"}}},{"Relevance":1.0,"Distance":160.0,"MatchLevel":"houseNumber","MatchQuality":{"Country":1.0,"State":1.0,"County":1.0,"City":1.0,"Street":[1.0],"HouseNumber":1.0,"PostalCode":1.0},"MatchType":"interpolated","Location":{"LocationId":"NT_mPs0QCjW8zehiG.miZSCYD_xIDN","LocationType":"point","DisplayPosition":{"Latitude":53.20953,"Longitude":7.88518},"MapView":{"TopLeft":{"Latitude":53.2106542,"Longitude":7.8833029},"BottomRight":{"Latitude":53.2084058,"Longitude":7.8870571}},"Address":{"Label":"Westersteder Straße 124, 26655 Westerstede, Deutschland","Country":"DEU","State":"Niedersachsen","County":"Ammerland","City":"Westerstede","Street":"Westersteder Straße","HouseNumber":"124","PostalCode":"26655","AdditionalData":[{"value":"Deutschland","key":"CountryName"},{"value":"Niedersachsen","key":"StateName"},{"value":"Ammerland","key":"CountyName"}]},"MapReference":{"ReferenceId":"572198566","Spot":0.07,"SideOfStreet":"right","CountryId":"20147700","StateId":"20151542","CountyId":"20155946","CityId":"20155991","AddressId":"181213928","RoadLinkId":"36438746"}}}]}]}}