{"Response":{"MetaInfo":{"Timestamp":"2020-03-28T12:03:04.779+0000","NextPageInformation":"2"},"View":[{"_type":"SearchResultsViewType","ViewId":0,"Result":[{"Relevance":1.0,"Distance":0.0,"Direction":0.0,"MatchLevel":"district","MatchQuality":{"Country":1.0,"County":1.0,"City":1.0,"District":1.0},"Location":{"LocationId":"NT_vSqK.ntaNid.Hvn7rjrfUB","LocationType":"point","DisplayPosition":{"Latitude":53.2874378,"Longitude":-6.3824955},"MapView":{"TopLeft":{"Latitude":53.31653,"Longitude":-6.47137},"BottomRight":{"Latitude":53.21102,"Longitude":-6.30433}},"Address":{"Label":"Dublin 24, Dublin, Ireland","Country":"IRL","County":"County Dublin","City":"Dublin","District":"Dublin 24","AdditionalData":[{"value":"Ireland","key":"CountryName"},{"value":"County Dublin","key":"CountyName"}]},"MapReference":{"ReferenceId":"554471372","SideOfStreet":"neither","CountryId":"20403667","CountyId":"20411172","CityId":"20413526","DistrictId":"20413548"}}},{"Relevance":1.0,"Distance":14.3,"MatchLevel":"houseNumber","MatchQuality":{"Country":1.0,"County":1.0,"City":1.0,"District":1.0,"Street":[1.0],"PostalCode":1.0},"MatchType":"interpolated","Location":{"LocationId":"NT_CPM9oVlqo-cZxYujVIiCeD","LocationType":"point","DisplayPosition":{"Latitude":53.28712,"Longitude":-6.3821},"MapView":{"TopLeft":{"Latitude":53.2882442,"Longitude":-6.3839805},"BottomRight":{"Latitude":53.2859958,"Longitude":-6.3802195}},"Address":{"Label":"\"Springfield Shopping Centre\" Alderwood Court, Dublin, County Dublin, D24 AE4H, Ireland","Country":"IRL","County":"County Dublin","City":"Dublin","District":"Dublin 24","Street":"Alderwood Court","PostalCode":"D24 AE4H","AdditionalData":[{"value":"Ireland","key":"CountryName"},{"value":"County Dublin","key":"CountyName"}],"Building":"Springfield Shopping Centre"},"MapReference":{"ReferenceId":"554472990","Spot":0.37,"SideOfStreet":"left","CountryId":"20403667","CountyId":"20411172","CityId":"20413526","DistrictId":"20413548","AddressId":"743650009","RoadLinkId":"86620823"}}},{"Relevance":1.0,"Distance":14.3,"MatchLevel":"postalCode","MatchQuality":{"PostalCode":1.0},"MatchType":"interpolated","Location":{"LocationId":"NT_CPM9oVlqo-cZxYujVIiCeD","LocationType":"point","DisplayPosition":{"Latitude":53.28744,"Longitude":-6.38228},"MapView":{"TopLeft":{"Latitude":53.2964332,"Longitude":-6.3973238},"BottomRight":{"Latitude":53.2784468,"Longitude":-6.3672362}},"Address":{"Label":"D24 C9PD, Dublin, Ireland","Country":"IRL","County":"County Dublin","City":"Dublin","PostalCode":"D24 C9PD","AdditionalData":[{"value":"Ireland","key":"CountryName"},{"value":"County Dublin","key":"CountyName"}]},"MapReference":{"ReferenceId":"554472990","Spot":0.37,"SideOfStreet":"neither","CountryId":"20403667","CountyId":"20411172","CityId":"20413526"}}},{"Relevance":1.0,"Distance":19.2,"MatchLevel":"houseNumber","MatchQuality":{"Country":1.0,"County":1.0,"City":1.0,"District":1.0,"Street":[1.0],"HouseNumber":1.0,"PostalCode":1.0},"MatchType":"interpolated","Location":{"LocationId":"NT_hWxRoJukRtM6QAjBUY4GtA_yMD","LocationType":"point","DisplayPosition":{"Latitude":53.28755,"Longitude":-6.38307},"MapView":{"TopLeft":{"Latitude":53.2886742,"Longitude":-6.3849505},"BottomRight":{"Latitude":53.2864258,"Longitude":-6.3811895}},"Address":{"Label":"23 Maplewood Road, Dublin, County Dublin, D24 H5NT, Ireland","Country":"IRL","County":"County Dublin","City":"Dublin","District":"Dublin 24","Street":"Maplewood Road","HouseNumber":"23","PostalCode":"D24 H5NT","AdditionalData":[{"value":"Ireland","key":"CountryName"},{"value":"County Dublin","key":"CountyName"}]},"MapReference":{"ReferenceId":"920434513","Spot":0.16,"SideOfStreet":"right","CountryId":"20403667","CountyId":"20411172","CityId":"20413526","DistrictId":"20413548","AddressId":"214459213","RoadLinkId":"277323233"}}},{"Relevance":1.0,"Distance":20.9,"MatchLevel":"houseNumber","MatchQuality":{"Country":1.0,"County":1.0,"City":1.0,"District":1.0,"Street":[1.0],"HouseNumber":1.0,"PostalCode":1.0},"MatchType":"interpolated","Location":{"LocationId":"NT_88tcosCCXCGG-4AY8zrgwB_xATN","LocationType":"point","DisplayPosition":{"Latitude":53.28725,"Longitude":-6.38252},"MapView":{"TopLeft":{"Latitude":53.2883742,"Longitude":-6.3844005},"BottomRight":{"Latitude":53.2861258,"Longitude":-6.3806395}},"Address":{"Label":"105 Alderwood Avenue, Dublin, County Dublin, D24 C990, Ireland","Country":"IRL","County":"County Dublin","City":"Dublin","District":"Dublin 24","Street":"Alderwood Avenue","HouseNumber":"105","PostalCode":"D24 C990","AdditionalData":[{"value":"Ireland","key":"CountryName"},{"value":"County Dublin","key":"CountyName"}]},"MapReference":{"ReferenceId":"554472971","Spot":0.37,"SideOfStreet":"left","CountryId":"20403667","CountyId":"20411172","CityId":"20413526","DistrictId":"20413548","AddressId":"214442877","RoadLinkId":"86520939"}}},{"Relevance":1.0,"Distance":21.9,"MatchLevel":"postalCode","MatchQuality":{"PostalCode":1.0},"MatchType":"interpolated","Location":{"LocationId":"NT_hWxRoJukRtM6QAjBUY4GtA_yMD","LocationType":"point","DisplayPosition":{"Latitude":53.28757,"Longitude":-6.38274},"MapView":{"TopLeft":{"Latitude":53.2965632,"Longitude":-6.3977839},"BottomRight":{"Latitude":53.2785768,"Longitude":-6.3676961}},"Address":{"Label":"D24 P9X3, Dublin, Ireland","Country":"IRL","County":"County Dublin","City":"Dublin","PostalCode":"D24 P9X3","AdditionalData":[{"value":"Ireland","key":"CountryName"},{"value":"County Dublin","key":"CountyName"}]},"MapReference":{"ReferenceId":"920434513","Spot":0.16,"SideOfStreet":"neither","CountryId":"20403667","CountyId":"20411172","CityId":"20413526"}}},{"Relevance":1.0,"Distance":22.5,"MatchLevel":"houseNumber","MatchQuality":{"Country":1.0,"County":1.0,"City":1.0,"District":1.0,"Street":[1.0],"HouseNumber":1.0,"PostalCode":1.0},"MatchType":"interpolated","Location":{"LocationId":"NT_cP4IGLYQOScyEqShfPKWYD_3A","LocationType":"point","DisplayPosition":{"Latitude":53.2878,"Longitude":-6.38239},"MapView":{"TopLeft":{"Latitude":53.2889242,"Longitude":-6.3842705},"BottomRight":{"Latitude":53.2866758,"Longitude":-6.3805095}},"Address":{"Label":"7 Alderwood Rise, Dublin, County Dublin, D24 A3X0, Ireland","Country":"IRL","County":"County Dublin","City":"Dublin","District":"Dublin 24","Street":"Alderwood Rise","HouseNumber":"7","PostalCode":"D24 A3X0","AdditionalData":[{"value":"Ireland","key":"CountryName"},{"value":"County Dublin","key":"CountyName"}]},"MapReference":{"ReferenceId":"554472970","Spot":0.0,"SideOfStreet":"right","CountryId":"20403667","CountyId":"20411172","CityId":"20413526","DistrictId":"20413548","AddressId":"214728463","RoadLinkId":"86486510"}}},{"Relevance":1.0,"Distance":24.7,"MatchLevel":"postalCode","MatchQuality":{"PostalCode":1.0},"MatchType":"interpolated","Location":{"LocationId":"NT_cP4IGLYQOScyEqShfPKWYD_3A","LocationType":"point","DisplayPosition":{"Latitude":53.28763,"Longitude":-6.38231},"MapView":{"TopLeft":{"Latitude":53.2966232,"Longitude":-6.3973539},"BottomRight":{"Latitude":53.2786368,"Longitude":-6.3672661}},"Address":{"Label":"D24 A6P9, Dublin, Ireland","Country":"IRL","County":"County Dublin","City":"Dublin","PostalCode":"D24 A6P9","AdditionalData":[{"value":"Ireland","key":"CountryName"},{"value":"County Dublin","key":"CountyName"}]},"MapReference":{"ReferenceId":"554472970","Spot":0.0,"SideOfStreet":"neither","CountryId":"20403667","CountyId":"20411172","CityId":"20413526"}}},{"Relevance":1.0,"Distance":35.0,"MatchLevel":"street","MatchQuality":{"Country":1.0,"County":1.0,"City":1.0,"District":1.0,"PostalCode":1.0},"Location":{"LocationId":"NT_3T-BHBpn.M.oEvqynHmqXB_l_920232522_R","LocationType":"point","DisplayPosition":{"Latitude":53.28741,"Longitude":-6.38302},"MapView":{"TopLeft":{"Latitude":53.28746,"Longitude":-6.3831},"BottomRight":{"Latitude":53.28741,"Longitude":-6.38302}},"Address":{"Label":"Dublin, County Dublin, D24, Ireland","Country":"IRL","County":"County Dublin","City":"Dublin","District":"Dublin 24","PostalCode":"D24","AdditionalData":[{"value":"Ireland","key":"CountryName"},{"value":"County Dublin","key":"CountyName"}]},"MapReference":{"ReferenceId":"920232522","Spot":0.0,"SideOfStreet":"right","CountryId":"20403667","CountyId":"20411172","CityId":"20413526","DistrictId":"20413548"}}},{"Relevance":1.0,"Distance":35.0,"MatchLevel":"street","MatchQuality":{"Country":1.0,"County":1.0,"City":1.0,"District":1.0,"PostalCode":1.0},"Location":{"LocationId":"NT_3T-BHBpn.M.oEvqynHmqXB_l_920232519_R","LocationType":"point","DisplayPosition":{"Latitude":53.28741,"Longitude":-6.38302},"MapView":{"TopLeft":{"Latitude":53.28741,"Longitude":-6.38303},"BottomRight":{"Latitude":53.28739,"Longitude":-6.38302}},"Address":{"Label":"Dublin, County Dublin, D24, Ireland","Country":"IRL","County":"County Dublin","City":"Dublin","District":"Dublin 24","PostalCode":"D24","AdditionalData":[{"value":"Ireland","key":"CountryName"},{"value":"County Dublin","key":"CountyName"}]},"MapReference":{"ReferenceId":"920232519","Spot":1.0,"SideOfStreet":"right","CountryId":"20403667","CountyId":"20411172","CityId":"20413526","DistrictId":"20413548"}}}]}]}}