{"Response":{"MetaInfo":{"Timestamp":"2020-03-28T11:22:34.666+0000","NextPageInformation":"2"},"View":[{"_type":"SearchResultsViewType","ViewId":0,"Result":[{"Relevance":1.0,"Distance":0.0,"Direction":0.0,"MatchLevel":"district","MatchQuality":{"Country":1.0,"County":1.0,"City":1.0,"District":1.0},"Location":{"LocationId":"NT_g1YmfZoNX48YvAY-k4RHFC","LocationType":"point","DisplayPosition":{"Latitude":53.2729512,"Longitude":-6.3062087},"MapView":{"TopLeft":{"Latitude":53.29593,"Longitude":-6.3317},"BottomRight":{"Latitude":53.21391,"Longitude":-6.21993}},"Address":{"Label":"Dublin 16, Dublin, Ireland","Country":"IRL","County":"County Dublin","City":"Dublin","District":"Dublin 16","AdditionalData":[{"value":"Ireland","key":"CountryName"},{"value":"County Dublin","key":"CountyName"}]},"MapReference":{"ReferenceId":"854211491","SideOfStreet":"neither","CountryId":"20403667","CountyId":"20411172","CityId":"20413526","DistrictId":"20413543"}}},{"Relevance":1.0,"Distance":14.3,"MatchLevel":"houseNumber","MatchQuality":{"Country":1.0,"County":1.0,"City":1.0,"District":1.0,"Street":[1.0],"PostalCode":1.0},"MatchType":"interpolated","Location":{"LocationId":"NT_-a5vpzGlm6f3sEoFZTWD8A","LocationType":"point","DisplayPosition":{"Latitude":53.27301,"Longitude":-6.3064},"MapView":{"TopLeft":{"Latitude":53.2741342,"Longitude":-6.3082798},"BottomRight":{"Latitude":53.2718858,"Longitude":-6.3045202}},"Address":{"Label":"\"Quaker House\" Stocking Lane, Dublin, County Dublin, D16 V3F8, Ireland","Country":"IRL","County":"County Dublin","City":"Dublin","District":"Dublin 16","Street":"Stocking Lane","PostalCode":"D16 V3F8","AdditionalData":[{"value":"Ireland","key":"CountryName"},{"value":"County Dublin","key":"CountyName"}],"Building":"Quaker House"},"MapReference":{"ReferenceId":"920330151","Spot":0.5,"SideOfStreet":"right","CountryId":"20403667","CountyId":"20411172","CityId":"20413526","DistrictId":"20413543","AddressId":"359998791","RoadLinkId":"277205738"}}},{"Relevance":1.0,"Distance":27.7,"MatchLevel":"street","MatchQuality":{"Country":1.0,"County":1.0,"City":1.0,"District":1.0,"PostalCode":1.0},"Location":{"LocationId":"NT_FW8J3JIpDzf3WzZtmQPGPA_l_590523520_R","LocationType":"point","DisplayPosition":{"Latitude":53.27291,"Longitude":-6.30662},"MapView":{"TopLeft":{"Latitude":53.27294,"Longitude":-6.30682},"BottomRight":{"Latitude":53.27281,"Longitude":-6.30662}},"Address":{"Label":"Dublin, County Dublin, D16, Ireland","Country":"IRL","County":"County Dublin","City":"Dublin","District":"Dublin 16","PostalCode":"D16","AdditionalData":[{"value":"Ireland","key":"CountryName"},{"value":"County Dublin","key":"CountyName"}]},"MapReference":{"ReferenceId":"590523520","Spot":0.88,"SideOfStreet":"right","CountryId":"20403667","CountyId":"20411172","CityId":"20413526","DistrictId":"20413543"}}},{"Relevance":1.0,"Distance":28.0,"MatchLevel":"street","MatchQuality":{"Country":1.0,"County":1.0,"City":1.0,"District":1.0,"PostalCode":1.0},"Location":{"LocationId":"NT_FW8J3JIpDzf3WzZtmQPGPA_l_590523523_L","LocationType":"point","DisplayPosition":{"Latitude":53.27294,"Longitude":-6.30663},"MapView":{"TopLeft":{"Latitude":53.27301,"Longitude":-6.30694},"BottomRight":{"Latitude":53.27294,"Longitude":-6.30663}},"Address":{"Label":"Dublin, County Dublin, D16, Ireland","Country":"IRL","County":"County Dublin","City":"Dublin","District":"Dublin 16","PostalCode":"D16","AdditionalData":[{"value":"Ireland","key":"CountryName"},{"value":"County Dublin","key":"CountyName"}]},"MapReference":{"ReferenceId":"590523523","Spot":1.0,"SideOfStreet":"left","CountryId":"20403667","CountyId":"20411172","CityId":"20413526","DistrictId":"20413543"}}},{"Relevance":1.0,"Distance":43.6,"MatchLevel":"street","MatchQuality":{"Country":1.0,"County":1.0,"City":1.0,"District":1.0,"PostalCode":1.0},"Location":{"LocationId":"NT_FW8J3JIpDzf3WzZtmQPGPA_l_590523519_R","LocationType":"point","DisplayPosition":{"Latitude":53.27281,"Longitude":-6.30682},"MapView":{"TopLeft":{"Latitude":53.27287,"Longitude":-6.30694},"BottomRight":{"Latitude":53.27281,"Longitude":-6.30682}},"Address":{"Label":"Dublin, County Dublin, D16, Ireland","Country":"IRL","County":"County Dublin","City":"Dublin","District":"Dublin 16","PostalCode":"D16","AdditionalData":[{"value":"Ireland","key":"CountryName"},{"value":"County Dublin","key":"CountyName"}]},"MapReference":{"ReferenceId":"590523519","Spot":0.0,"SideOfStreet":"right","CountryId":"20403667","CountyId":"20411172","CityId":"20413526","DistrictId":"20413543"}}},{"Relevance":1.0,"Distance":46.4,"MatchLevel":"houseNumber","MatchQuality":{"Country":1.0,"County":1.0,"City":1.0,"District":1.0,"Street":[1.0],"PostalCode":1.0},"MatchType":"interpolated","Location":{"LocationId":"NT_-a5vpzGlm6f3sEoFZTWD8A","LocationType":"point","DisplayPosition":{"Latitude":53.27326,"Longitude":-6.30574},"MapView":{"TopLeft":{"Latitude":53.2743842,"Longitude":-6.3076199},"BottomRight":{"Latitude":53.2721358,"Longitude":-6.3038601}},"Address":{"Label":"\"Hillview\" Stocking Lane, Dublin, County Dublin, D16 Y6N1, Ireland","Country":"IRL","County":"County Dublin","City":"Dublin","District":"Dublin 16","Street":"Stocking Lane","PostalCode":"D16 Y6N1","AdditionalData":[{"value":"Ireland","key":"CountryName"},{"value":"County Dublin","key":"CountyName"}],"Building":"Hillview"},"MapReference":{"ReferenceId":"920330152","Spot":1.0,"SideOfStreet":"right","CountryId":"20403667","CountyId":"20411172","CityId":"20413526","DistrictId":"20413543","AddressId":"359993021","RoadLinkId":"277205739"}}},{"Relevance":1.0,"Distance":48.6,"MatchLevel":"street","MatchQuality":{"Country":1.0,"County":1.0,"City":1.0,"District":1.0,"Street":[1.0],"PostalCode":1.0},"Location":{"LocationId":"NT_P78P.28yuAe0IRf3-HzmyB_l_920489619_R","LocationType":"point","DisplayPosition":{"Latitude":53.27294,"Longitude":-6.30694},"MapView":{"TopLeft":{"Latitude":53.27296,"Longitude":-6.30721},"BottomRight":{"Latitude":53.27294,"Longitude":-6.30694}},"Address":{"Label":"Stocking Avenue, Dublin, County Dublin, D16, Ireland","Country":"IRL","County":"County Dublin","City":"Dublin","District":"Dublin 16","Street":"Stocking Avenue","PostalCode":"D16","AdditionalData":[{"value":"Ireland","key":"CountryName"},{"value":"County Dublin","key":"CountyName"}]},"MapReference":{"ReferenceId":"920489619","Spot":0.0,"SideOfStreet":"right","CountryId":"20403667","CountyId":"20411172","CityId":"20413526","DistrictId":"20413543"}}},{"Relevance":1.0,"Distance":48.6,"MatchLevel":"street","MatchQuality":{"Country":1.0,"County":1.0,"City":1.0,"District":1.0,"PostalCode":1.0},"Location":{"LocationId":"NT_FW8J3JIpDzf3WzZtmQPGPA_l_590523522_R","LocationType":"point","DisplayPosition":{"Latitude":53.27294,"Longitude":-6.30694},"MapView":{"TopLeft":{"Latitude":53.27294,"Longitude":-6.30695},"BottomRight":{"Latitude":53.27287,"Longitude":-6.30694}},"Address":{"Label":"Dublin, County Dublin, D16, Ireland","Country":"IRL","County":"County Dublin","City":"Dublin","District":"Dublin 16","PostalCode":"D16","AdditionalData":[{"value":"Ireland","key":"CountryName"},{"value":"County Dublin","key":"CountyName"}]},"MapReference":{"ReferenceId":"590523522","Spot":1.0,"SideOfStreet":"right","CountryId":"20403667","CountyId":"20411172","CityId":"20413526","DistrictId":"20413543"}}},{"Relevance":1.0,"Distance":51.5,"MatchLevel":"street","MatchQuality":{"Country":1.0,"County":1.0,"City":1.0,"District":1.0,"PostalCode":1.0},"Location":{"LocationId":"NT_FW8J3JIpDzf3WzZtmQPGPA_l_554449667_L","LocationType":"point","DisplayPosition":{"Latitude":53.2733802,"Longitude":-6.3059162},"MapView":{"TopLeft":{"Latitude":53.27472,"Longitude":-6.30991},"BottomRight":{"Latitude":53.27326,"Longitude":-6.30574}},"Address":{"Label":"Dublin, County Dublin, D16, Ireland","Country":"IRL","County":"County Dublin","City":"Dublin","District":"Dublin 16","PostalCode":"D16","AdditionalData":[{"value":"Ireland","key":"CountryName"},{"value":"County Dublin","key":"CountyName"}]},"MapReference":{"ReferenceId":"554449667","Spot":0.05,"SideOfStreet":"left","CountryId":"20403667","CountyId":"20411172","CityId":"20413526","DistrictId":"20413543"}}},{"Relevance":1.0,"Distance":52.6,"MatchLevel":"houseNumber","MatchQuality":{"Country":1.0,"County":1.0,"City":1.0,"District":1.0,"Street":[1.0],"PostalCode":1.0},"MatchType":"interpolated","Location":{"LocationId":"NT_-a5vpzGlm6f3sEoFZTWD8A","LocationType":"point","DisplayPosition":{"Latitude":53.27275,"Longitude":-6.30687},"MapView":{"TopLeft":{"Latitude":53.2738742,"Longitude":-6.3087498},"BottomRight":{"Latitude":53.2716258,"Longitude":-6.3049902}},"Address":{"Label":"\"Westfield House\" Stocking Lane, Dublin, County Dublin, D16 Y992, Ireland","Country":"IRL","County":"County Dublin","City":"Dublin","District":"Dublin 16","Street":"Stocking Lane","PostalCode":"D16 Y992","AdditionalData":[{"value":"Ireland","key":"CountryName"},{"value":"County Dublin","key":"CountyName"}],"Building":"Westfield House"},"MapReference":{"ReferenceId":"920475743","Spot":0.72,"SideOfStreet":"right","CountryId":"20403667","CountyId":"20411172","CityId":"20413526","DistrictId":"20413543","AddressId":"359995691","RoadLinkId":"277377207"}}}]}]}}