{"Response":{"MetaInfo":{"Timestamp":"2020-03-28T12:06:03.803+0000","NextPageInformation":"2"},"View":[{"_type":"SearchResultsViewType","ViewId":0,"Result":[{"Relevance":1.0,"Distance":0.0,"Direction":0.0,"MatchLevel":"district","MatchQuality":{"Country":1.0,"State":1.0,"County":1.0,"City":1.0,"District":1.0,"PostalCode":1.0},"Location":{"LocationId":"NT_fxmzH1-ftlaX6RSR75NAdC","LocationType":"point","DisplayPosition":{"Latitude":53.2612828,"Longitude":19.3792393},"MapView":{"TopLeft":{"Latitude":53.28706,"Longitude":19.3762},"BottomRight":{"Latitude":53.2274,"Longitude":19.43954}},"Address":{"Label":"Brodnica, Woj. Kujawsko-Pomorskie, Polska","Country":"POL","State":"Woj. Kujawsko-Pomorskie","County":"Powiat Brodnicki","City":"Brodnica","District":"Brodnica","PostalCode":"87-300","AdditionalData":[{"value":"Polska","key":"CountryName"},{"value":"Woj. Kujawsko-Pomorskie","key":"StateName"},{"value":"Powiat Brodnicki","key":"CountyName"}]},"MapReference":{"ReferenceId":"907684877","SideOfStreet":"neither","CountryId":"20624059","StateId":"20625395","CountyId":"20625421","CityId":"20681388","DistrictId":"20681389"}}},{"Relevance":1.0,"Distance":9.3,"MatchLevel":"houseNumber","MatchQuality":{"Country":1.0,"State":1.0,"County":1.0,"City":1.0,"District":1.0,"Street":[1.0],"HouseNumber":1.0,"PostalCode":1.0},"MatchType":"interpolated","Location":{"LocationId":"NT_fA3F9aNVl0hW2Bytem9VFC_1A","LocationType":"point","DisplayPosition":{"Latitude":53.26123,"Longitude":19.3795},"MapView":{"TopLeft":{"Latitude":53.2623542,"Longitude":19.3776207},"BottomRight":{"Latitude":53.2601058,"Longitude":19.3813793}},"Address":{"Label":"ulica Wojska Polskiego 5, 87-300 Brodnica, Polska","Country":"POL","State":"Woj. Kujawsko-Pomorskie","County":"Powiat Brodnicki","City":"Brodnica","District":"Brodnica","Street":"ulica Wojska Polskiego","HouseNumber":"5","PostalCode":"87-300","AdditionalData":[{"value":"Polska","key":"CountryName"},{"value":"Woj. Kujawsko-Pomorskie","key":"StateName"},{"value":"Powiat Brodnicki","key":"CountyName"}]},"MapReference":{"ReferenceId":"595170645","Spot":0.07,"SideOfStreet":"left","CountryId":"20624059","StateId":"20625395","CountyId":"20625421","CityId":"20681388","DistrictId":"20681389","AddressId":"210461662","RoadLinkId":"95061851"}}},{"Relevance":1.0,"Distance":23.3,"MatchLevel":"houseNumber","MatchQuality":{"Country":1.0,"State":1.0,"County":1.0,"City":1.0,"District":1.0,"Street":[1.0],"HouseNumber":1.0,"PostalCode":1.0},"MatchType":"interpolated","Location":{"LocationId":"NT_fA3F9aNVl0hW2Bytem9VFC_zA","LocationType":"point","DisplayPosition":{"Latitude":53.26095,"Longitude":19.37918},"MapView":{"TopLeft":{"Latitude":53.2620742,"Longitude":19.3773007},"BottomRight":{"Latitude":53.2598258,"Longitude":19.3810593}},"Address":{"Label":"ulica Wojska Polskiego 3, 87-300 Brodnica, Polska","Country":"POL","State":"Woj. Kujawsko-Pomorskie","County":"Powiat Brodnicki","City":"Brodnica","District":"Brodnica","Street":"ulica Wojska Polskiego","HouseNumber":"3","PostalCode":"87-300","AdditionalData":[{"value":"Polska","key":"CountryName"},{"value":"Woj. Kujawsko-Pomorskie","key":"StateName"},{"value":"Powiat Brodnicki","key":"CountyName"}]},"MapReference":{"ReferenceId":"779058552","Spot":0.35,"SideOfStreet":"right","CountryId":"20624059","StateId":"20625395","CountyId":"20625421","CityId":"20681388","DistrictId":"20681389","AddressId":"210461659","RoadLinkId":"340489787"}}},{"Relevance":1.0,"Distance":41.1,"MatchLevel":"street","MatchQuality":{"Country":1.0,"State":1.0,"County":1.0,"City":1.0,"District":1.0,"Street":[1.0],"PostalCode":1.0},"Location":{"LocationId":"NT_fA3F9aNVl0hW2Bytem9VFC_l_595170679_L","LocationType":"point","DisplayPosition":{"Latitude":53.26094,"Longitude":19.37947},"MapView":{"TopLeft":{"Latitude":53.26094,"Longitude":19.37938},"BottomRight":{"Latitude":53.2606,"Longitude":19.37947}},"Address":{"Label":"ulica Wojska Polskiego, 87-300 Brodnica, Polska","Country":"POL","State":"Woj. Kujawsko-Pomorskie","County":"Powiat Brodnicki","City":"Brodnica","District":"Brodnica","Street":"ulica Wojska Polskiego","PostalCode":"87-300","AdditionalData":[{"value":"Polska","key":"CountryName"},{"value":"Woj. Kujawsko-Pomorskie","key":"StateName"},{"value":"Powiat Brodnicki","key":"CountyName"}]},"MapReference":{"ReferenceId":"595170679","Spot":1.0,"SideOfStreet":"left","CountryId":"20624059","StateId":"20625395","CountyId":"20625421","CityId":"20681388","DistrictId":"20681389"}}},{"Relevance":1.0,"Distance":42.5,"MatchLevel":"houseNumber","MatchQuality":{"Country":1.0,"State":1.0,"County":1.0,"City":1.0,"District":1.0,"Street":[1.0],"HouseNumber":1.0,"PostalCode":1.0},"MatchType":"interpolated","Location":{"LocationId":"NT_fA3F9aNVl0hW2Bytem9VFC_xQD","LocationType":"point","DisplayPosition":{"Latitude":53.26093,"Longitude":19.37973},"MapView":{"TopLeft":{"Latitude":53.2620542,"Longitude":19.3778507},"BottomRight":{"Latitude":53.2598058,"Longitude":19.3816093}},"Address":{"Label":"ulica Wojska Polskiego 14, 87-300 Brodnica, Polska","Country":"POL","State":"Woj. Kujawsko-Pomorskie","County":"Powiat Brodnicki","City":"Brodnica","District":"Brodnica","Street":"ulica Wojska Polskiego","HouseNumber":"14","PostalCode":"87-300","AdditionalData":[{"value":"Polska","key":"CountryName"},{"value":"Woj. Kujawsko-Pomorskie","key":"StateName"},{"value":"Powiat Brodnicki","key":"CountyName"}]},"MapReference":{"ReferenceId":"595170648","Spot":0.75,"SideOfStreet":"right","CountryId":"20624059","StateId":"20625395","CountyId":"20625421","CityId":"20681388","DistrictId":"20681389","AddressId":"211081722","RoadLinkId":"95332291"}}},{"Relevance":1.0,"Distance":45.0,"MatchLevel":"street","MatchQuality":{"Country":1.0,"State":1.0,"County":1.0,"City":1.0,"District":1.0,"Street":[1.0],"PostalCode":1.0},"Location":{"LocationId":"NT_.04.ogBqABnBvqcUXfipdA_l_779058551_R","LocationType":"point","DisplayPosition":{"Latitude":53.2614308,"Longitude":19.3786102},"MapView":{"TopLeft":{"Latitude":53.26324,"Longitude":19.37853},"BottomRight":{"Latitude":53.26096,"Longitude":19.3811}},"Address":{"Label":"ulica Macieja Rataja, 87-300 Brodnica, Polska","Country":"POL","State":"Woj. Kujawsko-Pomorskie","County":"Powiat Brodnicki","City":"Brodnica","District":"Brodnica","Street":"ulica Macieja Rataja","PostalCode":"87-300","AdditionalData":[{"value":"Polska","key":"CountryName"},{"value":"Woj. Kujawsko-Pomorskie","key":"StateName"},{"value":"Powiat Brodnicki","key":"CountyName"}]},"MapReference":{"ReferenceId":"779058551","Spot":0.14,"SideOfStreet":"right","CountryId":"20624059","StateId":"20625395","CountyId":"20625421","CityId":"20681388","DistrictId":"20681389"}}},{"Relevance":1.0,"Distance":64.5,"MatchLevel":"houseNumber","MatchQuality":{"Country":1.0,"State":1.0,"County":1.0,"City":1.0,"District":1.0,"Street":[1.0],"HouseNumber":1.0,"PostalCode":1.0},"MatchType":"interpolated","Location":{"LocationId":"NT_19HfudT0ucEBf0O31BfwMA_l_907684889_R_zgD","LocationType":"point","DisplayPosition":{"Latitude":53.2605954,"Longitude":19.3795302},"MapView":{"TopLeft":{"Latitude":53.2617196,"Longitude":19.3776509},"BottomRight":{"Latitude":53.2594713,"Longitude":19.3814094}},"Address":{"Label":"ulica Sądowa 38, 87-300 Brodnica, Polska","Country":"POL","State":"Woj. Kujawsko-Pomorskie","County":"Powiat Brodnicki","City":"Brodnica","District":"Brodnica","Street":"ulica Sądowa","HouseNumber":"38","PostalCode":"87-300","AdditionalData":[{"value":"Polska","key":"CountryName"},{"value":"Woj. Kujawsko-Pomorskie","key":"StateName"},{"value":"Powiat Brodnicki","key":"CountyName"}]},"MapReference":{"ReferenceId":"907684889","Spot":0.54,"SideOfStreet":"right","CountryId":"20624059","StateId":"20625395","CountyId":"20625421","CityId":"20681388","DistrictId":"20681389"}}},{"Relevance":1.0,"Distance":67.3,"MatchLevel":"houseNumber","MatchQuality":{"Country":1.0,"State":1.0,"County":1.0,"City":1.0,"District":1.0,"Street":[1.0],"HouseNumber":1.0,"PostalCode":1.0},"MatchType":"interpolated","Location":{"LocationId":"NT_tbSK7f3FaWQmploKr8S23A_zA","LocationType":"point","DisplayPosition":{"Latitude":53.26123,"Longitude":19.38055},"MapView":{"TopLeft":{"Latitude":53.2623542,"Longitude":19.3786707},"BottomRight":{"Latitude":53.2601058,"Longitude":19.3824293}},"Address":{"Label":"ulica 15 Lipca 3, 87-300 Brodnica, Polska","Country":"POL","State":"Woj. Kujawsko-Pomorskie","County":"Powiat Brodnicki","City":"Brodnica","District":"Brodnica","Street":"ulica 15 Lipca","HouseNumber":"3","PostalCode":"87-300","AdditionalData":[{"value":"Polska","key":"CountryName"},{"value":"Woj. Kujawsko-Pomorskie","key":"StateName"},{"value":"Powiat Brodnicki","key":"CountyName"}]},"MapReference":{"ReferenceId":"595170647","Spot":0.08,"SideOfStreet":"left","CountryId":"20624059","StateId":"20625395","CountyId":"20625421","CityId":"20681388","DistrictId":"20681389","AddressId":"210105257","RoadLinkId":"94903418"}}},{"Relevance":1.0,"Distance":69.1,"MatchLevel":"houseNumber","MatchQuality":{"Country":1.0,"State":1.0,"County":1.0,"City":1.0,"District":1.0,"Street":[1.0],"HouseNumber":1.0,"PostalCode":1.0},"MatchType":"interpolated","Location":{"LocationId":"NT_yOlOsSYNdY2NxTXw1lRteA_l_1192823568_R_0AD","LocationType":"point","DisplayPosition":{"Latitude":53.26063,"Longitude":19.378665},"MapView":{"TopLeft":{"Latitude":53.2617542,"Longitude":19.3767857},"BottomRight":{"Latitude":53.2595058,"Longitude":19.3805443}},"Address":{"Label":"ulica Sądowa 40, 87-300 Brodnica, Polska","Country":"POL","State":"Woj. Kujawsko-Pomorskie","County":"Powiat Brodnicki","City":"Brodnica","District":"Brodnica","Street":"ulica Sądowa","HouseNumber":"40","PostalCode":"87-300","AdditionalData":[{"value":"Polska","key":"CountryName"},{"value":"Woj. Kujawsko-Pomorskie","key":"StateName"},{"value":"Powiat Brodnicki","key":"CountyName"}]},"MapReference":{"ReferenceId":"1192823568","Spot":0.52,"SideOfStreet":"right","CountryId":"20624059","StateId":"20625395","CountyId":"20625421","CityId":"20681388","DistrictId":"20681389"}}},{"Relevance":1.0,"Distance":74.7,"MatchLevel":"street","MatchQuality":{"Country":1.0,"State":1.0,"County":1.0,"City":1.0,"District":1.0,"Street":[1.0],"PostalCode":1.0},"Location":{"LocationId":"NT_19HfudT0ucEBf0O31BfwMA_l_1192823567_R","LocationType":"point","DisplayPosition":{"Latitude":53.2606109,"Longitude":19.3792189},"MapView":{"TopLeft":{"Latitude":53.26062,"Longitude":19.37892},"BottomRight":{"Latitude":53.26061,"Longitude":19.37925}},"Address":{"Label":"ulica Sądowa, 87-300 Brodnica, Polska","Country":"POL","State":"Woj. Kujawsko-Pomorskie","County":"Powiat Brodnicki","City":"Brodnica","District":"Brodnica","Street":"ulica Sądowa","PostalCode":"87-300","AdditionalData":[{"value":"Polska","key":"CountryName"},{"value":"Woj. Kujawsko-Pomorskie","key":"StateName"},{"value":"Powiat Brodnicki","key":"CountyName"}]},"MapReference":{"ReferenceId":"1192823567","Spot":0.09,"SideOfStreet":"right","CountryId":"20624059","StateId":"20625395","CountyId":"20625421","CityId":"20681388","DistrictId":"20681389"}}}]}]}}