{"Response":{"MetaInfo":{"Timestamp":"2020-03-28T10:33:22.171+0000","NextPageInformation":"2"},"View":[{"_type":"SearchResultsViewType","ViewId":0,"Result":[{"Relevance":1.0,"Distance":0.0,"Direction":0.0,"MatchLevel":"district","MatchQuality":{"Country":1.0,"State":1.0,"County":1.0,"City":1.0,"District":1.0,"PostalCode":1.0},"Location":{"LocationId":"NT_Tav7ia2knctHNAux3mYM7D","LocationType":"point","DisplayPosition":{"Latitude":53.2387862,"Longitude":-0.5449724},"MapView":{"TopLeft":{"Latitude":53.25487,"Longitude":-0.58984},"BottomRight":{"Latitude":53.17403,"Longitude":-0.49255}},"Address":{"Label":"Lincoln, England, United Kingdom","Country":"GBR","State":"England","County":"Lincolnshire","City":"Lincoln","District":"Lincoln","PostalCode":"LN5 7","AdditionalData":[{"value":"United Kingdom","key":"CountryName"},{"value":"England","key":"StateName"},{"value":"Lincolnshire","key":"CountyName"}]},"MapReference":{"ReferenceId":"878023845","SideOfStreet":"neither","StateId":"20248595","CountyId":"20355210","CityId":"20355485","DistrictId":"20355486"}}},{"Relevance":1.0,"Distance":5.8,"MatchLevel":"houseNumber","MatchQuality":{"Country":1.0,"State":1.0,"County":1.0,"City":1.0,"District":1.0,"Street":[1.0],"HouseNumber":1.0,"PostalCode":1.0},"MatchType":"interpolated","Location":{"LocationId":"NT_2jlf-WBS27XUFIBr8Ry5FC_l_26027575_L_4YD","LocationType":"point","DisplayPosition":{"Latitude":53.2389075,"Longitude":-0.5447575},"MapView":{"TopLeft":{"Latitude":53.2400317,"Longitude":-0.5466359},"BottomRight":{"Latitude":53.2377834,"Longitude":-0.5428792}},"Address":{"Label":"86 Burton Road, Lincoln, LN1 3LJ, United Kingdom","Country":"GBR","State":"England","County":"Lincolnshire","City":"Lincoln","District":"Lincoln","Street":"Burton Road","HouseNumber":"86","PostalCode":"LN1 3LJ","AdditionalData":[{"value":"United Kingdom","key":"CountryName"},{"value":"England","key":"StateName"},{"value":"Lincolnshire","key":"CountyName"}]},"MapReference":{"ReferenceId":"26027575","Spot":0.36,"SideOfStreet":"left","StateId":"20248595","CountyId":"20355210","CityId":"20355485","DistrictId":"20355486"}}},{"Relevance":1.0,"Distance":18.0,"MatchLevel":"postalCode","MatchQuality":{"PostalCode":1.0},"MatchType":"interpolated","Location":{"LocationId":"NT_2jlf-WBS27XUFIBr8Ry5FC_l_26027575_L_4YD","LocationType":"point","DisplayPosition":{"Latitude":53.23892,"Longitude":-0.54482},"MapView":{"TopLeft":{"Latitude":53.2479132,"Longitude":-0.5598468},"BottomRight":{"Latitude":53.2299268,"Longitude":-0.5297932}},"Address":{"Label":"LN1 3LJ, Lincoln, England, United Kingdom","Country":"GBR","State":"England","County":"Lincolnshire","City":"Lincoln","PostalCode":"LN1 3LJ","AdditionalData":[{"value":"United Kingdom","key":"CountryName"},{"value":"England","key":"StateName"},{"value":"Lincolnshire","key":"CountyName"}]},"MapReference":{"ReferenceId":"26027575","Spot":0.36,"SideOfStreet":"neither","StateId":"20248595","CountyId":"20355210","CityId":"20355485"}}},{"Relevance":1.0,"Distance":37.8,"MatchLevel":"houseNumber","MatchQuality":{"Country":1.0,"State":1.0,"County":1.0,"City":1.0,"District":1.0,"Street":[1.0],"HouseNumber":1.0,"PostalCode":1.0},"MatchType":"interpolated","Location":{"LocationId":"NT_2jlf-WBS27XUFIBr8Ry5FC_l_565698848_L_4AD","LocationType":"point","DisplayPosition":{"Latitude":53.2385814,"Longitude":-0.5445057},"MapView":{"TopLeft":{"Latitude":53.2397055,"Longitude":-0.546384},"BottomRight":{"Latitude":53.2374572,"Longitude":-0.5426274}},"Address":{"Label":"80 Burton Road, Lincoln, LN1 3LJ, United Kingdom","Country":"GBR","State":"England","County":"Lincolnshire","City":"Lincoln","District":"Lincoln","Street":"Burton Road","HouseNumber":"80","PostalCode":"LN1 3LJ","AdditionalData":[{"value":"United Kingdom","key":"CountryName"},{"value":"England","key":"StateName"},{"value":"Lincolnshire","key":"CountyName"}]},"MapReference":{"ReferenceId":"565698848","Spot":0.48,"SideOfStreet":"left","StateId":"20248595","CountyId":"20355210","CityId":"20355485","DistrictId":"20355486"}}},{"Relevance":1.0,"Distance":38.9,"MatchLevel":"houseNumber","MatchQuality":{"Country":1.0,"State":1.0,"County":1.0,"City":1.0,"District":1.0,"Street":[1.0],"HouseNumber":1.0,"PostalCode":1.0},"MatchType":"interpolated","Location":{"LocationId":"NT_4Zh0SGixQ0lLmJtylFhqLA_l_26027574_L_yA","LocationType":"point","DisplayPosition":{"Latitude":53.2387601,"Longitude":-0.5443895},"MapView":{"TopLeft":{"Latitude":53.2398842,"Longitude":-0.5462679},"BottomRight":{"Latitude":53.2376359,"Longitude":-0.5425112}},"Address":{"Label":"2 Gray Street, Lincoln, LN1 3, United Kingdom","Country":"GBR","State":"England","County":"Lincolnshire","City":"Lincoln","District":"Lincoln","Street":"Gray Street","HouseNumber":"2","PostalCode":"LN1 3","AdditionalData":[{"value":"United Kingdom","key":"CountryName"},{"value":"England","key":"StateName"},{"value":"Lincolnshire","key":"CountyName"}]},"MapReference":{"ReferenceId":"26027574","Spot":0.13,"SideOfStreet":"left","StateId":"20248595","CountyId":"20355210","CityId":"20355485","DistrictId":"20355486"}}},{"Relevance":1.0,"Distance":41.9,"MatchLevel":"houseNumber","MatchQuality":{"Country":1.0,"State":1.0,"County":1.0,"City":1.0,"District":1.0,"Street":[1.0],"HouseNumber":1.0,"PostalCode":1.0},"MatchType":"interpolated","Location":{"LocationId":"NT_qMz-Z4j9DwpgO1IpvXCepC_l_26027547_R_xID","LocationType":"point","DisplayPosition":{"Latitude":53.2392801,"Longitude":-0.5448096},"MapView":{"TopLeft":{"Latitude":53.2404042,"Longitude":-0.546688},"BottomRight":{"Latitude":53.2381559,"Longitude":-0.5429312}},"Address":{"Label":"12 Kingsley Street, Lincoln, LN1 3, United Kingdom","Country":"GBR","State":"England","County":"Lincolnshire","City":"Lincoln","District":"Lincoln","Street":"Kingsley Street","HouseNumber":"12","PostalCode":"LN1 3","AdditionalData":[{"value":"United Kingdom","key":"CountryName"},{"value":"England","key":"StateName"},{"value":"Lincolnshire","key":"CountyName"}]},"MapReference":{"ReferenceId":"26027547","Spot":0.09,"SideOfStreet":"right","StateId":"20248595","CountyId":"20355210","CityId":"20355485","DistrictId":"20355486"}}},{"Relevance":1.0,"Distance":49.1,"MatchLevel":"street","MatchQuality":{"Country":1.0,"State":1.0,"County":1.0,"City":1.0,"District":1.0,"Street":[1.0],"PostalCode":1.0},"Location":{"LocationId":"NT_YUEeYRao7Dp1WWoZkgasZC_l_26027568_R","LocationType":"point","DisplayPosition":{"Latitude":53.2392211,"Longitude":-0.5450963},"MapView":{"TopLeft":{"Latitude":53.23924,"Longitude":-0.54661},"BottomRight":{"Latitude":53.23879,"Longitude":-0.54503}},"Address":{"Label":"Turner Street, Lincoln, LN1 3, United Kingdom","Country":"GBR","State":"England","County":"Lincolnshire","City":"Lincoln","District":"Lincoln","Street":"Turner Street","PostalCode":"LN1 3","AdditionalData":[{"value":"United Kingdom","key":"CountryName"},{"value":"England","key":"StateName"},{"value":"Lincolnshire","key":"CountyName"}]},"MapReference":{"ReferenceId":"26027568","Spot":0.96,"SideOfStreet":"right","StateId":"20248595","CountyId":"20355210","CityId":"20355485","DistrictId":"20355486"}}},{"Relevance":1.0,"Distance":54.6,"MatchLevel":"street","MatchQuality":{"Country":1.0,"State":1.0,"County":1.0,"City":1.0,"District":1.0,"Street":[1.0],"PostalCode":1.0},"Location":{"LocationId":"NT_7eYnmhF34OZom16wTZrx1B_l_565698849_L","LocationType":"point","DisplayPosition":{"Latitude":53.23833,"Longitude":-0.54467},"MapView":{"TopLeft":{"Latitude":53.23845,"Longitude":-0.54467},"BottomRight":{"Latitude":53.23833,"Longitude":-0.54441}},"Address":{"Label":"Cliff Court, Lincoln, LN1 3, United Kingdom","Country":"GBR","State":"England","County":"Lincolnshire","City":"Lincoln","District":"Lincoln","Street":"Cliff Court","PostalCode":"LN1 3","AdditionalData":[{"value":"United Kingdom","key":"CountryName"},{"value":"England","key":"StateName"},{"value":"Lincolnshire","key":"CountyName"}]},"MapReference":{"ReferenceId":"565698849","Spot":0.0,"SideOfStreet":"left","StateId":"20248595","CountyId":"20355210","CityId":"20355485","DistrictId":"20355486"}}},{"Relevance":1.0,"Distance":55.3,"MatchLevel":"houseNumber","MatchQuality":{"Country":1.0,"State":1.0,"County":1.0,"City":1.0,"District":1.0,"Street":[1.0],"HouseNumber":1.0,"PostalCode":1.0},"MatchType":"interpolated","Location":{"LocationId":"NT_2jlf-WBS27XUFIBr8Ry5FC_l_26027548_L_5gD","LocationType":"point","DisplayPosition":{"Latitude":53.2393601,"Longitude":-0.5451201},"MapView":{"TopLeft":{"Latitude":53.2404842,"Longitude":-0.5469984},"BottomRight":{"Latitude":53.2382359,"Longitude":-0.5432417}},"Address":{"Label":"98 Burton Road, Lincoln, LN1 3, United Kingdom","Country":"GBR","State":"England","County":"Lincolnshire","City":"Lincoln","District":"Lincoln","Street":"Burton Road","HouseNumber":"98","PostalCode":"LN1 3","AdditionalData":[{"value":"United Kingdom","key":"CountryName"},{"value":"England","key":"StateName"},{"value":"Lincolnshire","key":"CountyName"}]},"MapReference":{"ReferenceId":"26027548","Spot":0.23,"SideOfStreet":"left","StateId":"20248595","CountyId":"20355210","CityId":"20355485","DistrictId":"20355486"}}},{"Relevance":1.0,"Distance":61.8,"MatchLevel":"houseNumber","MatchQuality":{"Country":1.0,"State":1.0,"County":1.0,"City":1.0,"District":1.0,"Street":[1.0],"HouseNumber":1.0,"PostalCode":1.0},"MatchType":"interpolated","Location":{"LocationId":"NT_2jlf-WBS27XUFIBr8Ry5FC_l_1000830534_R_3kD","LocationType":"point","DisplayPosition":{"Latitude":53.23837,"Longitude":-0.544355},"MapView":{"TopLeft":{"Latitude":53.2394942,"Longitude":-0.5462333},"BottomRight":{"Latitude":53.2372459,"Longitude":-0.5424767}},"Address":{"Label":"79 Burton Road, Lincoln, LN1 3JZ, United Kingdom","Country":"GBR","State":"England","County":"Lincolnshire","City":"Lincoln","District":"Lincoln","Street":"Burton Road","HouseNumber":"79","PostalCode":"LN1 3JZ","AdditionalData":[{"value":"United Kingdom","key":"CountryName"},{"value":"England","key":"StateName"},{"value":"Lincolnshire","key":"CountyName"}]},"MapReference":{"ReferenceId":"1000830534","Spot":0.5,"SideOfStreet":"right","StateId":"20248595","CountyId":"20355210","CityId":"20355485","DistrictId":"20355486"}}}]}]}}