{"Response":{"MetaInfo":{"Timestamp":"2020-03-28T12:00:51.049+0000","NextPageInformation":"2"},"View":[{"_type":"SearchResultsViewType","ViewId":0,"Result":[{"Relevance":1.0,"Distance":-42.1,"MatchLevel":"landmark","MatchQuality":{"Country":1.0,"State":1.0,"County":1.0,"City":1.0,"District":1.0,"PostalCode":1.0,"Name":1.0},"Location":{"LocationId":"NT_bcBgrsMRvdvfXKZI2FYvfD_p_TLpK-3DS201imA-3H-ydtA","LocationType":"shoppingCentre","Name":"Albert Square Shopping Complex","DisplayPosition":{"Latitude":53.36871,"Longitude":-2.72728},"MapView":{"TopLeft":{"Latitude":53.36954,"Longitude":-2.72847},"BottomRight":{"Latitude":53.36787,"Longitude":-2.72592}},"Address":{"Label":"Widnes, WA8 6, United Kingdom","Country":"GBR","State":"England","County":"Cheshire","City":"Widnes","District":"Widnes","PostalCode":"WA8 6","AdditionalData":[{"value":"United Kingdom","key":"CountryName"},{"value":"England","key":"StateName"},{"value":"Cheshire","key":"CountyName"}]},"MapReference":{"StateId":"20248595","CountyId":"20343157","CityId":"20343743","DistrictId":"20343744","PlaceId":"1001001990"}}},{"Relevance":1.0,"Distance":0.0,"Direction":0.0,"MatchLevel":"district","MatchQuality":{"Country":1.0,"State":1.0,"County":1.0,"City":1.0,"District":1.0,"PostalCode":1.0},"Location":{"LocationId":"NT_-VMdH7mdMGY1CVG3ld4sPD","LocationType":"point","DisplayPosition":{"Latitude":53.3686943,"Longitude":-2.7268213},"MapView":{"TopLeft":{"Latitude":53.39593,"Longitude":-2.78287},"BottomRight":{"Latitude":53.34362,"Longitude":-2.69716}},"Address":{"Label":"Widnes, England, United Kingdom","Country":"GBR","State":"England","County":"Cheshire","City":"Widnes","District":"Widnes","PostalCode":"WA8 7","AdditionalData":[{"value":"United Kingdom","key":"CountryName"},{"value":"England","key":"StateName"},{"value":"Cheshire","key":"CountyName"}]},"MapReference":{"ReferenceId":"837097001","SideOfStreet":"neither","StateId":"20248595","CountyId":"20343157","CityId":"20343743","DistrictId":"20343744"}}},{"Relevance":1.0,"Distance":4.3,"MatchLevel":"street","MatchQuality":{"Country":1.0,"State":1.0,"County":1.0,"City":1.0,"District":1.0,"PostalCode":1.0},"Location":{"LocationId":"NT_2KWgXijvQLm0YHSA8g-eRB_l_801427604_R","LocationType":"point","DisplayPosition":{"Latitude":53.36872,"Longitude":-2.72687},"MapView":{"TopLeft":{"Latitude":53.36872,"Longitude":-2.72709},"BottomRight":{"Latitude":53.36835,"Longitude":-2.72687}},"Address":{"Label":"Widnes, WA8 6, United Kingdom","Country":"GBR","State":"England","County":"Cheshire","City":"Widnes","District":"Widnes","PostalCode":"WA8 6","AdditionalData":[{"value":"United Kingdom","key":"CountryName"},{"value":"England","key":"StateName"},{"value":"Cheshire","key":"CountyName"}]},"MapReference":{"ReferenceId":"801427604","Spot":1.0,"SideOfStreet":"right","StateId":"20248595","CountyId":"20343157","CityId":"20343743","DistrictId":"20343744"}}},{"Relevance":1.0,"Distance":15.2,"MatchLevel":"street","MatchQuality":{"Country":1.0,"State":1.0,"County":1.0,"City":1.0,"District":1.0,"PostalCode":1.0},"Location":{"LocationId":"NT_2KWgXijvQLm0YHSA8g-eRB_l_801427606_L","LocationType":"point","DisplayPosition":{"Latitude":53.36883,"Longitude":-2.72679},"MapView":{"TopLeft":{"Latitude":53.36883,"Longitude":-2.72679},"BottomRight":{"Latitude":53.36869,"Longitude":-2.72613}},"Address":{"Label":"Widnes, WA8 6, United Kingdom","Country":"GBR","State":"England","County":"Cheshire","City":"Widnes","District":"Widnes","PostalCode":"WA8 6","AdditionalData":[{"value":"United Kingdom","key":"CountryName"},{"value":"England","key":"StateName"},{"value":"Cheshire","key":"CountyName"}]},"MapReference":{"ReferenceId":"801427606","Spot":1.0,"SideOfStreet":"left","StateId":"20248595","CountyId":"20343157","CityId":"20343743","DistrictId":"20343744"}}},{"Relevance":1.0,"Distance":26.5,"MatchLevel":"street","MatchQuality":{"Country":1.0,"State":1.0,"County":1.0,"City":1.0,"District":1.0,"PostalCode":1.0},"Location":{"LocationId":"NT_2KWgXijvQLm0YHSA8g-eRB_l_801427607_R","LocationType":"point","DisplayPosition":{"Latitude":53.36852,"Longitude":-2.72655},"MapView":{"TopLeft":{"Latitude":53.36852,"Longitude":-2.72655},"BottomRight":{"Latitude":53.36846,"Longitude":-2.72626}},"Address":{"Label":"Widnes, WA8 6, United Kingdom","Country":"GBR","State":"England","County":"Cheshire","City":"Widnes","District":"Widnes","PostalCode":"WA8 6","AdditionalData":[{"value":"United Kingdom","key":"CountryName"},{"value":"England","key":"StateName"},{"value":"Cheshire","key":"CountyName"}]},"MapReference":{"ReferenceId":"801427607","Spot":1.0,"SideOfStreet":"right","StateId":"20248595","CountyId":"20343157","CityId":"20343743","DistrictId":"20343744"}}},{"Relevance":1.0,"Distance":37.7,"MatchLevel":"street","MatchQuality":{"Country":1.0,"State":1.0,"County":1.0,"City":1.0,"District":1.0,"PostalCode":1.0},"Location":{"LocationId":"NT_2KWgXijvQLm0YHSA8g-eRB_l_801427590_R","LocationType":"point","DisplayPosition":{"Latitude":53.36891,"Longitude":-2.72726},"MapView":{"TopLeft":{"Latitude":53.36891,"Longitude":-2.72742},"BottomRight":{"Latitude":53.36862,"Longitude":-2.72726}},"Address":{"Label":"Widnes, WA8 6, United Kingdom","Country":"GBR","State":"England","County":"Cheshire","City":"Widnes","District":"Widnes","PostalCode":"WA8 6","AdditionalData":[{"value":"United Kingdom","key":"CountryName"},{"value":"England","key":"StateName"},{"value":"Cheshire","key":"CountyName"}]},"MapReference":{"ReferenceId":"801427590","Spot":1.0,"SideOfStreet":"right","StateId":"20248595","CountyId":"20343157","CityId":"20343743","DistrictId":"20343744"}}},{"Relevance":1.0,"Distance":37.7,"MatchLevel":"street","MatchQuality":{"Country":1.0,"State":1.0,"County":1.0,"City":1.0,"District":1.0,"PostalCode":1.0},"Location":{"LocationId":"NT_2KWgXijvQLm0YHSA8g-eRB_l_801427589_L","LocationType":"point","DisplayPosition":{"Latitude":53.36891,"Longitude":-2.72726},"MapView":{"TopLeft":{"Latitude":53.36896,"Longitude":-2.72751},"BottomRight":{"Latitude":53.36891,"Longitude":-2.72726}},"Address":{"Label":"Widnes, WA8 6, United Kingdom","Country":"GBR","State":"England","County":"Cheshire","City":"Widnes","District":"Widnes","PostalCode":"WA8 6","AdditionalData":[{"value":"United Kingdom","key":"CountryName"},{"value":"England","key":"StateName"},{"value":"Cheshire","key":"CountyName"}]},"MapReference":{"ReferenceId":"801427589","Spot":0.0,"SideOfStreet":"left","StateId":"20248595","CountyId":"20343157","CityId":"20343743","DistrictId":"20343744"}}},{"Relevance":1.0,"Distance":38.2,"MatchLevel":"street","MatchQuality":{"Country":1.0,"State":1.0,"County":1.0,"City":1.0,"District":1.0,"PostalCode":1.0},"Location":{"LocationId":"NT_2KWgXijvQLm0YHSA8g-eRB_l_801427591_R","LocationType":"point","DisplayPosition":{"Latitude":53.3689198,"Longitude":-2.7272549},"MapView":{"TopLeft":{"Latitude":53.36924,"Longitude":-2.72726},"BottomRight":{"Latitude":53.36891,"Longitude":-2.72706}},"Address":{"Label":"Widnes, WA8 6, United Kingdom","Country":"GBR","State":"England","County":"Cheshire","City":"Widnes","District":"Widnes","PostalCode":"WA8 6","AdditionalData":[{"value":"United Kingdom","key":"CountryName"},{"value":"England","key":"StateName"},{"value":"Cheshire","key":"CountyName"}]},"MapReference":{"ReferenceId":"801427591","Spot":0.03,"SideOfStreet":"right","StateId":"20248595","CountyId":"20343157","CityId":"20343743","DistrictId":"20343744"}}},{"Relevance":1.0,"Distance":42.2,"MatchLevel":"street","MatchQuality":{"Country":1.0,"State":1.0,"County":1.0,"City":1.0,"District":1.0,"PostalCode":1.0},"Location":{"LocationId":"NT_2KWgXijvQLm0YHSA8g-eRB_l_801427596_R","LocationType":"point","DisplayPosition":{"Latitude":53.36835,"Longitude":-2.72709},"MapView":{"TopLeft":{"Latitude":53.36844,"Longitude":-2.72761},"BottomRight":{"Latitude":53.36835,"Longitude":-2.72709}},"Address":{"Label":"Widnes, WA8 6, United Kingdom","Country":"GBR","State":"England","County":"Cheshire","City":"Widnes","District":"Widnes","PostalCode":"WA8 6","AdditionalData":[{"value":"United Kingdom","key":"CountryName"},{"value":"England","key":"StateName"},{"value":"Cheshire","key":"CountyName"}]},"MapReference":{"ReferenceId":"801427596","Spot":0.0,"SideOfStreet":"right","StateId":"20248595","CountyId":"20343157","CityId":"20343743","DistrictId":"20343744"}}},{"Relevance":1.0,"Distance":42.6,"MatchLevel":"street","MatchQuality":{"Country":1.0,"State":1.0,"County":1.0,"City":1.0,"District":1.0,"PostalCode":1.0},"Location":{"LocationId":"NT_2KWgXijvQLm0YHSA8g-eRB_l_801427605_R","LocationType":"point","DisplayPosition":{"Latitude":53.3683132,"Longitude":-2.7268921},"MapView":{"TopLeft":{"Latitude":53.36835,"Longitude":-2.72709},"BottomRight":{"Latitude":53.36822,"Longitude":-2.72639}},"Address":{"Label":"Widnes, WA8 6, United Kingdom","Country":"GBR","State":"England","County":"Cheshire","City":"Widnes","District":"Widnes","PostalCode":"WA8 6","AdditionalData":[{"value":"United Kingdom","key":"CountryName"},{"value":"England","key":"StateName"},{"value":"Cheshire","key":"CountyName"}]},"MapReference":{"ReferenceId":"801427605","Spot":0.72,"SideOfStreet":"right","StateId":"20248595","CountyId":"20343157","CityId":"20343743","DistrictId":"20343744"}}}]}]}}