{"Response":{"MetaInfo":{"Timestamp":"2020-03-28T12:03:16.760+0000","NextPageInformation":"2"},"View":[{"_type":"SearchResultsViewType","ViewId":0,"Result":[{"Relevance":1.0,"Distance":0.0,"Direction":0.0,"MatchLevel":"district","MatchQuality":{"Country":1.0,"County":1.0,"City":1.0,"District":1.0},"Location":{"LocationId":"NT_3jDvNIoQh-bg-9emTYlztB","LocationType":"point","DisplayPosition":{"Latitude":53.3801688,"Longitude":-6.1721212},"MapView":{"TopLeft":{"Latitude":53.39782,"Longitude":-6.23419},"BottomRight":{"Latitude":53.36692,"Longitude":-6.13699}},"Address":{"Label":"Dublin 5, Dublin, Ireland","Country":"IRL","County":"County Dublin","City":"Dublin","District":"Dublin 5","AdditionalData":[{"value":"Ireland","key":"CountryName"},{"value":"County Dublin","key":"CountyName"}]},"MapReference":{"ReferenceId":"1186749305","SideOfStreet":"neither","CountryId":"20403667","CountyId":"20411172","CityId":"20413526","DistrictId":"20413531"}}},{"Relevance":1.0,"Distance":5.8,"MatchLevel":"houseNumber","MatchQuality":{"Country":1.0,"County":1.0,"City":1.0,"District":1.0,"Street":[1.0],"HouseNumber":1.0,"PostalCode":1.0},"MatchType":"interpolated","Location":{"LocationId":"NT_31grRk9sej4xs95JPWrl0D_0MTO","LocationType":"point","DisplayPosition":{"Latitude":53.38027,"Longitude":-6.17208},"MapView":{"TopLeft":{"Latitude":53.3813942,"Longitude":-6.1739646},"BottomRight":{"Latitude":53.3791458,"Longitude":-6.1701954}},"Address":{"Label":"439 Howth Road, Dublin, County Dublin, D05 HC56, Ireland","Country":"IRL","County":"County Dublin","City":"Dublin","District":"Dublin 5","Street":"Howth Road","HouseNumber":"439","PostalCode":"D05 HC56","AdditionalData":[{"value":"Ireland","key":"CountryName"},{"value":"County Dublin","key":"CountyName"}]},"MapReference":{"ReferenceId":"1212599514","Spot":0.22,"SideOfStreet":"left","CountryId":"20403667","CountyId":"20411172","CityId":"20413526","DistrictId":"20413531","AddressId":"214340992","RoadLinkId":"528135955"}}},{"Relevance":1.0,"Distance":14.1,"MatchLevel":"postalCode","MatchQuality":{"PostalCode":1.0},"MatchType":"interpolated","Location":{"LocationId":"NT_31grRk9sej4xs95JPWrl0D_0MTO","LocationType":"point","DisplayPosition":{"Latitude":53.38011,"Longitude":-6.17231},"MapView":{"TopLeft":{"Latitude":53.3891032,"Longitude":-6.1873866},"BottomRight":{"Latitude":53.3711168,"Longitude":-6.1572334}},"Address":{"Label":"D05 X990, Dublin, Ireland","Country":"IRL","County":"County Dublin","City":"Dublin","PostalCode":"D05 X990","AdditionalData":[{"value":"Ireland","key":"CountryName"},{"value":"County Dublin","key":"CountyName"}]},"MapReference":{"ReferenceId":"1212599514","Spot":0.22,"SideOfStreet":"neither","CountryId":"20403667","CountyId":"20411172","CityId":"20413526"}}},{"Relevance":1.0,"Distance":19.9,"MatchLevel":"houseNumber","MatchQuality":{"Country":1.0,"County":1.0,"City":1.0,"District":1.0,"Street":[1.0],"HouseNumber":1.0,"PostalCode":1.0},"MatchType":"interpolated","Location":{"LocationId":"NT_31grRk9sej4xs95JPWrl0D_0QTM","LocationType":"point","DisplayPosition":{"Latitude":53.38025,"Longitude":-6.17193},"MapView":{"TopLeft":{"Latitude":53.3813742,"Longitude":-6.1738146},"BottomRight":{"Latitude":53.3791258,"Longitude":-6.1700454}},"Address":{"Label":"441 Howth Road, Dublin, County Dublin, D05 A9X4, Ireland","Country":"IRL","County":"County Dublin","City":"Dublin","District":"Dublin 5","Street":"Howth Road","HouseNumber":"441","PostalCode":"D05 A9X4","AdditionalData":[{"value":"Ireland","key":"CountryName"},{"value":"County Dublin","key":"CountyName"}]},"MapReference":{"ReferenceId":"1212599513","Spot":0.96,"SideOfStreet":"left","CountryId":"20403667","CountyId":"20411172","CityId":"20413526","DistrictId":"20413531","AddressId":"214340996","RoadLinkId":"528135954"}}},{"Relevance":1.0,"Distance":23.6,"MatchLevel":"postalCode","MatchQuality":{"PostalCode":1.0},"MatchType":"interpolated","Location":{"LocationId":"NT_31grRk9sej4xs95JPWrl0D_0QTM","LocationType":"point","DisplayPosition":{"Latitude":53.37999,"Longitude":-6.17193},"MapView":{"TopLeft":{"Latitude":53.3889832,"Longitude":-6.1870065},"BottomRight":{"Latitude":53.3709968,"Longitude":-6.1568535}},"Address":{"Label":"D05 Y432, Dublin, Ireland","Country":"IRL","County":"County Dublin","City":"Dublin","PostalCode":"D05 Y432","AdditionalData":[{"value":"Ireland","key":"CountryName"},{"value":"County Dublin","key":"CountyName"}]},"MapReference":{"ReferenceId":"1212599513","Spot":0.96,"SideOfStreet":"neither","CountryId":"20403667","CountyId":"20411172","CityId":"20413526"}}},{"Relevance":1.0,"Distance":27.5,"MatchLevel":"houseNumber","MatchQuality":{"Country":1.0,"County":1.0,"City":1.0,"District":1.0,"Street":[1.0],"HouseNumber":1.0,"PostalCode":1.0},"MatchType":"interpolated","Location":{"LocationId":"NT_31grRk9sej4xs95JPWrl0D_0MzNiB","LocationType":"point","DisplayPosition":{"Latitude":53.38032,"Longitude":-6.17245},"MapView":{"TopLeft":{"Latitude":53.3814442,"Longitude":-6.1743346},"BottomRight":{"Latitude":53.3791958,"Longitude":-6.1705654}},"Address":{"Label":"437b Howth Road, Dublin, County Dublin, D05 P9D0, Ireland","Country":"IRL","County":"County Dublin","City":"Dublin","District":"Dublin 5","Street":"Howth Road","HouseNumber":"437b","PostalCode":"D05 P9D0","AdditionalData":[{"value":"Ireland","key":"CountryName"},{"value":"County Dublin","key":"CountyName"}]},"MapReference":{"ReferenceId":"920211883","Spot":0.46,"SideOfStreet":"left","CountryId":"20403667","CountyId":"20411172","CityId":"20413526","DistrictId":"20413531","AddressId":"743618918","RoadLinkId":"277037520"}}},{"Relevance":1.0,"Distance":28.7,"MatchLevel":"postalCode","MatchQuality":{"PostalCode":1.0},"MatchType":"interpolated","Location":{"LocationId":"NT_31grRk9sej4xs95JPWrl0D_0MzNiB","LocationType":"point","DisplayPosition":{"Latitude":53.38033,"Longitude":-6.17246},"MapView":{"TopLeft":{"Latitude":53.3893232,"Longitude":-6.1875366},"BottomRight":{"Latitude":53.3713368,"Longitude":-6.1573834}},"Address":{"Label":"D05 CK70, Dublin, Ireland","Country":"IRL","County":"County Dublin","City":"Dublin","PostalCode":"D05 CK70","AdditionalData":[{"value":"Ireland","key":"CountryName"},{"value":"County Dublin","key":"CountyName"}]},"MapReference":{"ReferenceId":"920211883","Spot":0.46,"SideOfStreet":"neither","CountryId":"20403667","CountyId":"20411172","CityId":"20413526"}}},{"Relevance":1.0,"Distance":67.1,"MatchLevel":"houseNumber","MatchQuality":{"Country":1.0,"County":1.0,"City":1.0,"District":1.0,"Street":[1.0],"PostalCode":1.0},"MatchType":"interpolated","Location":{"LocationId":"NT_31grRk9sej4xs95JPWrl0D","LocationType":"point","DisplayPosition":{"Latitude":53.38036,"Longitude":-6.17308},"MapView":{"TopLeft":{"Latitude":53.3814842,"Longitude":-6.1749646},"BottomRight":{"Latitude":53.3792358,"Longitude":-6.1711954}},"Address":{"Label":"\"Raheny Library\" Howth Road, Dublin, County Dublin, D05 VY99, Ireland","Country":"IRL","County":"County Dublin","City":"Dublin","District":"Dublin 5","Street":"Howth Road","PostalCode":"D05 VY99","AdditionalData":[{"value":"Ireland","key":"CountryName"},{"value":"County Dublin","key":"CountyName"}],"Building":"Raheny Library"},"MapReference":{"ReferenceId":"925801179","Spot":0.67,"SideOfStreet":"left","CountryId":"20403667","CountyId":"20411172","CityId":"20413526","DistrictId":"20413531","AddressId":"743665300","RoadLinkId":"281309294"}}},{"Relevance":1.0,"Distance":69.1,"MatchLevel":"postalCode","MatchQuality":{"PostalCode":1.0},"MatchType":"interpolated","Location":{"LocationId":"NT_31grRk9sej4xs95JPWrl0D","LocationType":"point","DisplayPosition":{"Latitude":53.38056,"Longitude":-6.17293},"MapView":{"TopLeft":{"Latitude":53.3895532,"Longitude":-6.1880067},"BottomRight":{"Latitude":53.3715668,"Longitude":-6.1578533}},"Address":{"Label":"D05 F6P1, Dublin, Ireland","Country":"IRL","County":"County Dublin","City":"Dublin","PostalCode":"D05 F6P1","AdditionalData":[{"value":"Ireland","key":"CountryName"},{"value":"County Dublin","key":"CountyName"}]},"MapReference":{"ReferenceId":"925801179","Spot":0.67,"SideOfStreet":"neither","CountryId":"20403667","CountyId":"20411172","CityId":"20413526"}}},{"Relevance":1.0,"Distance":74.1,"MatchLevel":"postalCode","MatchQuality":{"PostalCode":1.0},"MatchType":"interpolated","Location":{"LocationId":"NT_ODr89i-DO1NkRQLLEm5e2D_zED","LocationType":"point","DisplayPosition":{"Latitude":53.37954,"Longitude":-6.17249},"MapView":{"TopLeft":{"Latitude":53.3885332,"Longitude":-6.1875663},"BottomRight":{"Latitude":53.3705468,"Longitude":-6.1574137}},"Address":{"Label":"D05 Y103, Dublin, Ireland","Country":"IRL","County":"County Dublin","City":"Dublin","PostalCode":"D05 Y103","AdditionalData":[{"value":"Ireland","key":"CountryName"},{"value":"County Dublin","key":"CountyName"}]},"MapReference":{"ReferenceId":"554388589","Spot":0.26,"SideOfStreet":"neither","CountryId":"20403667","CountyId":"20411172","CityId":"20413526"}}}]}]}}