{"Response":{"MetaInfo":{"Timestamp":"2020-03-28T12:02:50.505+0000","NextPageInformation":"2"},"View":[{"_type":"SearchResultsViewType","ViewId":0,"Result":[{"Relevance":1.0,"Distance":0.0,"Direction":0.0,"MatchLevel":"district","MatchQuality":{"Country":1.0,"County":1.0,"City":1.0,"District":1.0},"Location":{"LocationId":"NT_ZAmiA5GhKm24jlP48U8ylA","LocationType":"point","DisplayPosition":{"Latitude":53.359375,"Longitude":-6.1964343},"MapView":{"TopLeft":{"Latitude":53.37548,"Longitude":-6.25941},"BottomRight":{"Latitude":53.35023,"Longitude":-6.15401}},"Address":{"Label":"Dublin 3, Dublin, Ireland","Country":"IRL","County":"County Dublin","City":"Dublin","District":"Dublin 3","AdditionalData":[{"value":"Ireland","key":"CountryName"},{"value":"County Dublin","key":"CountyName"}]},"MapReference":{"ReferenceId":"919721612","SideOfStreet":"neither","CountryId":"20403667","CountyId":"20411172","CityId":"20413526","DistrictId":"20413529"}}},{"Relevance":1.0,"Distance":2.3,"MatchLevel":"houseNumber","MatchQuality":{"Country":1.0,"County":1.0,"City":1.0,"District":1.0,"Street":[1.0],"HouseNumber":1.0,"PostalCode":1.0},"MatchType":"interpolated","Location":{"LocationId":"NT_tUkWMtzvLVcQiY0udtZQUA_xkzM","LocationType":"point","DisplayPosition":{"Latitude":53.35915,"Longitude":-6.19658},"MapView":{"TopLeft":{"Latitude":53.3602742,"Longitude":-6.1984636},"BottomRight":{"Latitude":53.3580258,"Longitude":-6.1946964}},"Address":{"Label":"193 Clontarf Road, Dublin, County Dublin, D03 E9P6, Ireland","Country":"IRL","County":"County Dublin","City":"Dublin","District":"Dublin 3","Street":"Clontarf Road","HouseNumber":"193","PostalCode":"D03 E9P6","AdditionalData":[{"value":"Ireland","key":"CountryName"},{"value":"County Dublin","key":"CountyName"}]},"MapReference":{"ReferenceId":"1212658090","Spot":0.04,"SideOfStreet":"right","CountryId":"20403667","CountyId":"20411172","CityId":"20413526","DistrictId":"20413529","AddressId":"214164207","RoadLinkId":"528203958"}}},{"Relevance":1.0,"Distance":7.7,"MatchLevel":"postalCode","MatchQuality":{"PostalCode":1.0},"MatchType":"interpolated","Location":{"LocationId":"NT_tUkWMtzvLVcQiY0udtZQUA_xkzM","LocationType":"point","DisplayPosition":{"Latitude":53.35937,"Longitude":-6.19655},"MapView":{"TopLeft":{"Latitude":53.3683632,"Longitude":-6.2116192},"BottomRight":{"Latitude":53.3503768,"Longitude":-6.1814808}},"Address":{"Label":"D03 FY53, Dublin, Ireland","Country":"IRL","County":"County Dublin","City":"Dublin","PostalCode":"D03 FY53","AdditionalData":[{"value":"Ireland","key":"CountryName"},{"value":"County Dublin","key":"CountyName"}]},"MapReference":{"ReferenceId":"1212658090","Spot":0.04,"SideOfStreet":"neither","CountryId":"20403667","CountyId":"20411172","CityId":"20413526"}}},{"Relevance":1.0,"Distance":14.2,"MatchLevel":"houseNumber","MatchQuality":{"Country":1.0,"County":1.0,"City":1.0,"District":1.0,"Street":[1.0],"HouseNumber":1.0,"PostalCode":1.0},"MatchType":"interpolated","Location":{"LocationId":"NT_MBjZZfFW17zSQRSC0nTZrB_yEG","LocationType":"point","DisplayPosition":{"Latitude":53.35935,"Longitude":-6.19605},"MapView":{"TopLeft":{"Latitude":53.3604742,"Longitude":-6.1979337},"BottomRight":{"Latitude":53.3582258,"Longitude":-6.1941663}},"Address":{"Label":"2a Vernon Avenue, Dublin, County Dublin, D03 HT29, Ireland","Country":"IRL","County":"County Dublin","City":"Dublin","District":"Dublin 3","Street":"Vernon Avenue","HouseNumber":"2a","PostalCode":"D03 HT29","AdditionalData":[{"value":"Ireland","key":"CountryName"},{"value":"County Dublin","key":"CountyName"}]},"MapReference":{"ReferenceId":"779334414","Spot":0.8,"SideOfStreet":"left","CountryId":"20403667","CountyId":"20411172","CityId":"20413526","DistrictId":"20413529","AddressId":"214644439","RoadLinkId":"172812669"}}},{"Relevance":1.0,"Distance":14.2,"MatchLevel":"postalCode","MatchQuality":{"PostalCode":1.0},"MatchType":"interpolated","Location":{"LocationId":"NT_MBjZZfFW17zSQRSC0nTZrB_yEG","LocationType":"point","DisplayPosition":{"Latitude":53.35937,"Longitude":-6.19622},"MapView":{"TopLeft":{"Latitude":53.3683632,"Longitude":-6.2112892},"BottomRight":{"Latitude":53.3503768,"Longitude":-6.1811508}},"Address":{"Label":"D03 K5F2, Dublin, Ireland","Country":"IRL","County":"County Dublin","City":"Dublin","PostalCode":"D03 K5F2","AdditionalData":[{"value":"Ireland","key":"CountryName"},{"value":"County Dublin","key":"CountyName"}]},"MapReference":{"ReferenceId":"779334414","Spot":0.8,"SideOfStreet":"neither","CountryId":"20403667","CountyId":"20411172","CityId":"20413526"}}},{"Relevance":1.0,"Distance":14.3,"MatchLevel":"houseNumber","MatchQuality":{"Country":1.0,"County":1.0,"City":1.0,"District":1.0,"Street":[1.0],"HouseNumber":1.0,"PostalCode":1.0},"MatchType":"interpolated","Location":{"LocationId":"NT_tUkWMtzvLVcQiY0udtZQUA_xkTN","LocationType":"point","DisplayPosition":{"Latitude":53.3591,"Longitude":-6.19642},"MapView":{"TopLeft":{"Latitude":53.3602242,"Longitude":-6.1983036},"BottomRight":{"Latitude":53.3579758,"Longitude":-6.1945364}},"Address":{"Label":"195 Clontarf Road, Dublin, County Dublin, D03 V124, Ireland","Country":"IRL","County":"County Dublin","City":"Dublin","District":"Dublin 3","Street":"Clontarf Road","HouseNumber":"195","PostalCode":"D03 V124","AdditionalData":[{"value":"Ireland","key":"CountryName"},{"value":"County Dublin","key":"CountyName"}]},"MapReference":{"ReferenceId":"1212658089","Spot":0.58,"SideOfStreet":"right","CountryId":"20403667","CountyId":"20411172","CityId":"20413526","DistrictId":"20413529","AddressId":"214281281","RoadLinkId":"528203957"}}},{"Relevance":1.0,"Distance":14.9,"MatchLevel":"houseNumber","MatchQuality":{"Country":1.0,"County":1.0,"City":1.0,"District":1.0,"Street":[1.0],"HouseNumber":1.0,"PostalCode":1.0},"MatchType":"interpolated","Location":{"LocationId":"NT_tUkWMtzvLVcQiY0udtZQUA_xkTM","LocationType":"point","DisplayPosition":{"Latitude":53.35922,"Longitude":-6.1968},"MapView":{"TopLeft":{"Latitude":53.3603442,"Longitude":-6.1986836},"BottomRight":{"Latitude":53.3580958,"Longitude":-6.1949164}},"Address":{"Label":"191 Clontarf Road, Dublin, County Dublin, D03 HF84, Ireland","Country":"IRL","County":"County Dublin","City":"Dublin","District":"Dublin 3","Street":"Clontarf Road","HouseNumber":"191","PostalCode":"D03 HF84","AdditionalData":[{"value":"Ireland","key":"CountryName"},{"value":"County Dublin","key":"CountyName"}]},"MapReference":{"ReferenceId":"554371248","Spot":0.0,"SideOfStreet":"right","CountryId":"20403667","CountyId":"20411172","CityId":"20413526","DistrictId":"20413529","AddressId":"214827009","RoadLinkId":"86813017"}}},{"Relevance":1.0,"Distance":14.9,"MatchLevel":"postalCode","MatchQuality":{"PostalCode":1.0},"MatchType":"interpolated","Location":{"LocationId":"NT_tUkWMtzvLVcQiY0udtZQUA_xkTM","LocationType":"point","DisplayPosition":{"Latitude":53.35944,"Longitude":-6.19663},"MapView":{"TopLeft":{"Latitude":53.3684332,"Longitude":-6.2116992},"BottomRight":{"Latitude":53.3504468,"Longitude":-6.1815608}},"Address":{"Label":"D03 PC93, Dublin, Ireland","Country":"IRL","County":"County Dublin","City":"Dublin","PostalCode":"D03 PC93","AdditionalData":[{"value":"Ireland","key":"CountryName"},{"value":"County Dublin","key":"CountyName"}]},"MapReference":{"ReferenceId":"554371248","Spot":0.0,"SideOfStreet":"neither","CountryId":"20403667","CountyId":"20411172","CityId":"20413526"}}},{"Relevance":1.0,"Distance":18.8,"MatchLevel":"houseNumber","MatchQuality":{"Country":1.0,"County":1.0,"City":1.0,"District":1.0,"Street":[1.0],"HouseNumber":1.0,"PostalCode":1.0},"MatchType":"interpolated","Location":{"LocationId":"NT_MBjZZfFW17zSQRSC0nTZrB_yA","LocationType":"point","DisplayPosition":{"Latitude":53.35945,"Longitude":-6.19603},"MapView":{"TopLeft":{"Latitude":53.3605742,"Longitude":-6.1979137},"BottomRight":{"Latitude":53.3583258,"Longitude":-6.1941463}},"Address":{"Label":"2 Vernon Avenue, Dublin, County Dublin, D03 P6D0, Ireland","Country":"IRL","County":"County Dublin","City":"Dublin","District":"Dublin 3","Street":"Vernon Avenue","HouseNumber":"2","PostalCode":"D03 P6D0","AdditionalData":[{"value":"Ireland","key":"CountryName"},{"value":"County Dublin","key":"CountyName"}]},"MapReference":{"ReferenceId":"779334415","Spot":0.04,"SideOfStreet":"left","CountryId":"20403667","CountyId":"20411172","CityId":"20413526","DistrictId":"20413529","AddressId":"214828495","RoadLinkId":"172812670"}}},{"Relevance":1.0,"Distance":29.8,"MatchLevel":"street","MatchQuality":{"Country":1.0,"County":1.0,"City":1.0,"District":1.0,"Street":[1.0],"PostalCode":1.0},"Location":{"LocationId":"NT_tUkWMtzvLVcQiY0udtZQUA_l_554382175_L","LocationType":"point","DisplayPosition":{"Latitude":53.35922,"Longitude":-6.1968},"MapView":{"TopLeft":{"Latitude":53.35932,"Longitude":-6.19777},"BottomRight":{"Latitude":53.35914,"Longitude":-6.1968}},"Address":{"Label":"Clontarf Road, Dublin, County Dublin, D03, Ireland","Country":"IRL","County":"County Dublin","City":"Dublin","District":"Dublin 3","Street":"Clontarf Road","PostalCode":"D03","AdditionalData":[{"value":"Ireland","key":"CountryName"},{"value":"County Dublin","key":"CountyName"}]},"MapReference":{"ReferenceId":"554382175","Spot":0.0,"SideOfStreet":"left","CountryId":"20403667","CountyId":"20411172","CityId":"20413526","DistrictId":"20413529"}}}]}]}}