{"Response":{"MetaInfo":{"Timestamp":"2020-03-28T10:12:22.169+0000","NextPageInformation":"2"},"View":[{"_type":"SearchResultsViewType","ViewId":0,"Result":[{"Relevance":1.0,"Distance":0.0,"Direction":0.0,"MatchLevel":"district","MatchQuality":{"Country":1.0,"County":1.0,"City":1.0,"District":1.0},"Location":{"LocationId":"NT_DfR1iZNKxdTrCSa1PgUNIB","LocationType":"point","DisplayPosition":{"Latitude":53.3638697,"Longitude":-6.271862},"MapView":{"TopLeft":{"Latitude":53.37535,"Longitude":-6.33355},"BottomRight":{"Latitude":53.34534,"Longitude":-6.26003}},"Address":{"Label":"Dublin 7, Dublin, Ireland","Country":"IRL","County":"County Dublin","City":"Dublin","District":"Dublin 7","AdditionalData":[{"value":"Ireland","key":"CountryName"},{"value":"County Dublin","key":"CountyName"}]},"MapReference":{"ReferenceId":"750118497","SideOfStreet":"neither","CountryId":"20403667","CountyId":"20411172","CityId":"20413526","DistrictId":"20413534"}}},{"Relevance":1.0,"Distance":2.8,"MatchLevel":"houseNumber","MatchQuality":{"Country":1.0,"County":1.0,"City":1.0,"District":1.0,"Street":[1.0],"HouseNumber":1.0,"PostalCode":1.0},"MatchType":"interpolated","Location":{"LocationId":"NT_Ta3GDgj7nplDiHgm-148DB_xEjN","LocationType":"point","DisplayPosition":{"Latitude":53.3639,"Longitude":-6.27201},"MapView":{"TopLeft":{"Latitude":53.3650242,"Longitude":-6.2738939},"BottomRight":{"Latitude":53.3627758,"Longitude":-6.2701261}},"Address":{"Label":"116 Phibsborough Road, Dublin, County Dublin, D07 CH7W, Ireland","Country":"IRL","County":"County Dublin","City":"Dublin","District":"Dublin 7","Street":"Phibsborough Road","HouseNumber":"116","PostalCode":"D07 CH7W","AdditionalData":[{"value":"Ireland","key":"CountryName"},{"value":"County Dublin","key":"CountyName"}]},"MapReference":{"ReferenceId":"554371328","Spot":0.41,"SideOfStreet":"right","CountryId":"20403667","CountyId":"20411172","CityId":"20413526","DistrictId":"20413534","AddressId":"214489829","RoadLinkId":"86639244"}}},{"Relevance":1.0,"Distance":10.7,"MatchLevel":"postalCode","MatchQuality":{"PostalCode":1.0},"MatchType":"interpolated","Location":{"LocationId":"NT_Ta3GDgj7nplDiHgm-148DB_xEjN","LocationType":"point","DisplayPosition":{"Latitude":53.36392,"Longitude":-6.272},"MapView":{"TopLeft":{"Latitude":53.3729132,"Longitude":-6.2870708},"BottomRight":{"Latitude":53.3549268,"Longitude":-6.2569292}},"Address":{"Label":"D07 VX23, Dublin, Ireland","Country":"IRL","County":"County Dublin","City":"Dublin","PostalCode":"D07 VX23","AdditionalData":[{"value":"Ireland","key":"CountryName"},{"value":"County Dublin","key":"CountyName"}]},"MapReference":{"ReferenceId":"554371328","Spot":0.41,"SideOfStreet":"neither","CountryId":"20403667","CountyId":"20411172","CityId":"20413526"}}},{"Relevance":1.0,"Distance":19.8,"MatchLevel":"street","MatchQuality":{"Country":1.0,"County":1.0,"City":1.0,"District":1.0,"Street":[1.0],"PostalCode":1.0},"Location":{"LocationId":"NT_Ta3GDgj7nplDiHgm-148DB_l_762705696_R","LocationType":"point","DisplayPosition":{"Latitude":53.36404,"Longitude":-6.27195},"MapView":{"TopLeft":{"Latitude":53.36426,"Longitude":-6.27195},"BottomRight":{"Latitude":53.36404,"Longitude":-6.27186}},"Address":{"Label":"Phibsborough Road, Dublin, County Dublin, D07, Ireland","Country":"IRL","County":"County Dublin","City":"Dublin","District":"Dublin 7","Street":"Phibsborough Road","PostalCode":"D07","AdditionalData":[{"value":"Ireland","key":"CountryName"},{"value":"County Dublin","key":"CountyName"}]},"MapReference":{"ReferenceId":"762705696","Spot":0.0,"SideOfStreet":"right","CountryId":"20403667","CountyId":"20411172","CityId":"20413526","DistrictId":"20413534"}}},{"Relevance":1.0,"Distance":20.9,"MatchLevel":"houseNumber","MatchQuality":{"Country":1.0,"County":1.0,"City":1.0,"District":1.0,"Street":[1.0],"HouseNumber":1.0,"PostalCode":1.0},"MatchType":"interpolated","Location":{"LocationId":"NT_Ta3GDgj7nplDiHgm-148DB_xEDO","LocationType":"point","DisplayPosition":{"Latitude":53.36376,"Longitude":-6.27207},"MapView":{"TopLeft":{"Latitude":53.3648842,"Longitude":-6.2739538},"BottomRight":{"Latitude":53.3626358,"Longitude":-6.2701862}},"Address":{"Label":"118 Phibsborough Road, Dublin, County Dublin, D07 EC44, Ireland","Country":"IRL","County":"County Dublin","City":"Dublin","District":"Dublin 7","Street":"Phibsborough Road","HouseNumber":"118","PostalCode":"D07 EC44","AdditionalData":[{"value":"Ireland","key":"CountryName"},{"value":"County Dublin","key":"CountyName"}]},"MapReference":{"ReferenceId":"554370108","Spot":0.78,"SideOfStreet":"right","CountryId":"20403667","CountyId":"20411172","CityId":"20413526","DistrictId":"20413534","AddressId":"214413248","RoadLinkId":"86799137"}}},{"Relevance":1.0,"Distance":26.8,"MatchLevel":"houseNumber","MatchQuality":{"Country":1.0,"County":1.0,"City":1.0,"District":1.0,"Street":[1.0],"HouseNumber":1.0,"PostalCode":1.0},"MatchType":"interpolated","Location":{"LocationId":"NT_KWD2h2EzDddmdhM7044HqC_l_778462907_L_xA","LocationType":"point","DisplayPosition":{"Latitude":53.3641656,"Longitude":-6.2715272},"MapView":{"TopLeft":{"Latitude":53.3652898,"Longitude":-6.2734111},"BottomRight":{"Latitude":53.3630415,"Longitude":-6.2696433}},"Address":{"Label":"1 Royal Canal Bank, Dublin, County Dublin, D07, Ireland","Country":"IRL","County":"County Dublin","City":"Dublin","District":"Dublin 7","Street":"Royal Canal Bank","HouseNumber":"1","PostalCode":"D07","AdditionalData":[{"value":"Ireland","key":"CountryName"},{"value":"County Dublin","key":"CountyName"}]},"MapReference":{"ReferenceId":"778462907","Spot":0.49,"SideOfStreet":"left","CountryId":"20403667","CountyId":"20411172","CityId":"20413526","DistrictId":"20413534"}}},{"Relevance":1.0,"Distance":26.9,"MatchLevel":"postalCode","MatchQuality":{"PostalCode":1.0},"MatchType":"interpolated","Location":{"LocationId":"NT_Ta3GDgj7nplDiHgm-148DB_xEDO","LocationType":"point","DisplayPosition":{"Latitude":53.36363,"Longitude":-6.27181},"MapView":{"TopLeft":{"Latitude":53.3726232,"Longitude":-6.2868807},"BottomRight":{"Latitude":53.3546368,"Longitude":-6.2567393}},"Address":{"Label":"D07 X96V, Dublin, Ireland","Country":"IRL","County":"County Dublin","City":"Dublin","PostalCode":"D07 X96V","AdditionalData":[{"value":"Ireland","key":"CountryName"},{"value":"County Dublin","key":"CountyName"}]},"MapReference":{"ReferenceId":"554370108","Spot":0.78,"SideOfStreet":"neither","CountryId":"20403667","CountyId":"20411172","CityId":"20413526"}}},{"Relevance":1.0,"Distance":32.9,"MatchLevel":"postalCode","MatchQuality":{"PostalCode":1.0},"MatchType":"interpolated","Location":{"LocationId":"NT_Ta3GDgj7nplDiHgm-148DB_xETM","LocationType":"point","DisplayPosition":{"Latitude":53.36395,"Longitude":-6.27234},"MapView":{"TopLeft":{"Latitude":53.3729432,"Longitude":-6.2874108},"BottomRight":{"Latitude":53.3549568,"Longitude":-6.2572692}},"Address":{"Label":"D07 XD85, Dublin, Ireland","Country":"IRL","County":"County Dublin","City":"Dublin","PostalCode":"D07 XD85","AdditionalData":[{"value":"Ireland","key":"CountryName"},{"value":"County Dublin","key":"CountyName"}]},"MapReference":{"ReferenceId":"554371332","Spot":0.21,"SideOfStreet":"neither","CountryId":"20403667","CountyId":"20411172","CityId":"20413526"}}},{"Relevance":1.0,"Distance":35.4,"MatchLevel":"houseNumber","MatchQuality":{"Country":1.0,"County":1.0,"City":1.0,"District":1.0,"Street":[1.0],"HouseNumber":1.0,"PostalCode":1.0},"MatchType":"interpolated","Location":{"LocationId":"NT_Ta3GDgj7nplDiHgm-148DB_xETM","LocationType":"point","DisplayPosition":{"Latitude":53.3641,"Longitude":-6.27223},"MapView":{"TopLeft":{"Latitude":53.3652242,"Longitude":-6.2741139},"BottomRight":{"Latitude":53.3629758,"Longitude":-6.2703461}},"Address":{"Label":"111 Phibsborough Road, Dublin, County Dublin, D07 RW22, Ireland","Country":"IRL","County":"County Dublin","City":"Dublin","District":"Dublin 7","Street":"Phibsborough Road","HouseNumber":"111","PostalCode":"D07 RW22","AdditionalData":[{"value":"Ireland","key":"CountryName"},{"value":"County Dublin","key":"CountyName"}]},"MapReference":{"ReferenceId":"554371332","Spot":0.21,"SideOfStreet":"left","CountryId":"20403667","CountyId":"20411172","CityId":"20413526","DistrictId":"20413534","AddressId":"214403429","RoadLinkId":"86786361"}}},{"Relevance":1.0,"Distance":40.0,"MatchLevel":"postalCode","MatchQuality":{"PostalCode":1.0},"MatchType":"interpolated","Location":{"LocationId":"NT_KWD2h2EzDddmdhM7044HqC_l_778462907_L_xA","LocationType":"point","DisplayPosition":{"Latitude":53.36417,"Longitude":-6.27153},"MapView":{"TopLeft":{"Latitude":53.3731632,"Longitude":-6.2866009},"BottomRight":{"Latitude":53.3551768,"Longitude":-6.2564591}},"Address":{"Label":"D07 A06F, Dublin, Ireland","Country":"IRL","County":"County Dublin","City":"Dublin","PostalCode":"D07 A06F","AdditionalData":[{"value":"Ireland","key":"CountryName"},{"value":"County Dublin","key":"CountyName"}]},"MapReference":{"ReferenceId":"778462907","Spot":0.49,"SideOfStreet":"neither","CountryId":"20403667","CountyId":"20411172","CityId":"20413526"}}}]}]}}