{"Response":{"MetaInfo":{"Timestamp":"2020-03-28T12:02:57.816+0000","NextPageInformation":"2"},"View":[{"_type":"SearchResultsViewType","ViewId":0,"Result":[{"Relevance":1.0,"Distance":0.0,"Direction":0.0,"MatchLevel":"district","MatchQuality":{"Country":1.0,"County":1.0,"City":1.0,"District":1.0},"Location":{"LocationId":"NT_ik3yoCkIkdCC.ot2MhxuKA","LocationType":"point","DisplayPosition":{"Latitude":53.3476235,"Longitude":-6.2599455},"MapView":{"TopLeft":{"Latitude":53.36336,"Longitude":-6.27337},"BottomRight":{"Latitude":53.34488,"Longitude":-6.18941}},"Address":{"Label":"Dublin 1, Dublin, Ireland","Country":"IRL","County":"County Dublin","City":"Dublin","District":"Dublin 1","AdditionalData":[{"value":"Ireland","key":"CountryName"},{"value":"County Dublin","key":"CountyName"}]},"MapReference":{"ReferenceId":"549458502","SideOfStreet":"neither","CountryId":"20403667","CountyId":"20411172","CityId":"20413526","DistrictId":"20413527"}}},{"Relevance":1.0,"Distance":9.0,"MatchLevel":"postalCode","MatchQuality":{"PostalCode":1.0},"MatchType":"interpolated","Location":{"LocationId":"NT_PwYXjI2VS3mWrBbEa5eCDA_zMD","LocationType":"point","DisplayPosition":{"Latitude":53.34758,"Longitude":-6.26006},"MapView":{"TopLeft":{"Latitude":53.3565732,"Longitude":-6.275125},"BottomRight":{"Latitude":53.3385868,"Longitude":-6.244995}},"Address":{"Label":"D01 HK76, Dublin, Ireland","Country":"IRL","County":"County Dublin","City":"Dublin","PostalCode":"D01 HK76","AdditionalData":[{"value":"Ireland","key":"CountryName"},{"value":"County Dublin","key":"CountyName"}]},"MapReference":{"ReferenceId":"549455205","Spot":0.29,"SideOfStreet":"neither","CountryId":"20403667","CountyId":"20411172","CityId":"20413526"}}},{"Relevance":1.0,"Distance":9.4,"MatchLevel":"houseNumber","MatchQuality":{"Country":1.0,"County":1.0,"City":1.0,"District":1.0,"Street":[1.0],"HouseNumber":1.0,"PostalCode":1.0},"MatchType":"interpolated","Location":{"LocationId":"NT_PwYXjI2VS3mWrBbEa5eCDA_zMD","LocationType":"point","DisplayPosition":{"Latitude":53.34739,"Longitude":-6.25983},"MapView":{"TopLeft":{"Latitude":53.3485142,"Longitude":-6.2617131},"BottomRight":{"Latitude":53.3462658,"Longitude":-6.2579469}},"Address":{"Label":"33 Bachelors Walk, Dublin, County Dublin, D01 X4P1, Ireland","Country":"IRL","County":"County Dublin","City":"Dublin","District":"Dublin 1","Street":"Bachelors Walk","HouseNumber":"33","PostalCode":"D01 X4P1","AdditionalData":[{"value":"Ireland","key":"CountryName"},{"value":"County Dublin","key":"CountyName"}]},"MapReference":{"ReferenceId":"549455205","Spot":0.29,"SideOfStreet":"left","CountryId":"20403667","CountyId":"20411172","CityId":"20413526","DistrictId":"20413527","AddressId":"214309519","RoadLinkId":"86600625"}}},{"Relevance":1.0,"Distance":10.5,"MatchLevel":"houseNumber","MatchQuality":{"Country":1.0,"County":1.0,"City":1.0,"District":1.0,"Street":[1.0],"HouseNumber":1.0,"PostalCode":1.0},"MatchType":"interpolated","Location":{"LocationId":"NT_WZLtUOLYTHBz6HDx4uGcpB_1UD","LocationType":"point","DisplayPosition":{"Latitude":53.3477,"Longitude":-6.25945},"MapView":{"TopLeft":{"Latitude":53.3488242,"Longitude":-6.2613331},"BottomRight":{"Latitude":53.3465758,"Longitude":-6.2575669}},"Address":{"Label":"55 O'Connell Street Lower, Dublin, County Dublin, D01 W2V3, Ireland","Country":"IRL","County":"County Dublin","City":"Dublin","District":"Dublin 1","Street":"O'Connell Street Lower","HouseNumber":"55","PostalCode":"D01 W2V3","AdditionalData":[{"value":"Ireland","key":"CountryName"},{"value":"County Dublin","key":"CountyName"}]},"MapReference":{"ReferenceId":"880383951","Spot":0.44,"SideOfStreet":"left","CountryId":"20403667","CountyId":"20411172","CityId":"20413526","DistrictId":"20413527","AddressId":"214150690","RoadLinkId":"249015727"}}},{"Relevance":1.0,"Distance":13.2,"MatchLevel":"postalCode","MatchQuality":{"PostalCode":1.0},"MatchType":"interpolated","Location":{"LocationId":"NT_WZLtUOLYTHBz6HDx4uGcpB_1UD","LocationType":"point","DisplayPosition":{"Latitude":53.34758,"Longitude":-6.25976},"MapView":{"TopLeft":{"Latitude":53.3565732,"Longitude":-6.274825},"BottomRight":{"Latitude":53.3385868,"Longitude":-6.244695}},"Address":{"Label":"D01 H314, Dublin, Ireland","Country":"IRL","County":"County Dublin","City":"Dublin","PostalCode":"D01 H314","AdditionalData":[{"value":"Ireland","key":"CountryName"},{"value":"County Dublin","key":"CountyName"}]},"MapReference":{"ReferenceId":"880383951","Spot":0.44,"SideOfStreet":"neither","CountryId":"20403667","CountyId":"20411172","CityId":"20413526"}}},{"Relevance":1.0,"Distance":19.9,"MatchLevel":"houseNumber","MatchQuality":{"Country":1.0,"County":1.0,"City":1.0,"District":1.0,"Street":[1.0],"HouseNumber":1.0,"PostalCode":1.0},"MatchType":"interpolated","Location":{"LocationId":"NT_PwYXjI2VS3mWrBbEa5eCDA_zED","LocationType":"point","DisplayPosition":{"Latitude":53.34732,"Longitude":-6.26006},"MapView":{"TopLeft":{"Latitude":53.3484442,"Longitude":-6.2619431},"BottomRight":{"Latitude":53.3461958,"Longitude":-6.2581769}},"Address":{"Label":"31 Bachelors Walk, Dublin, County Dublin, D01 FA48, Ireland","Country":"IRL","County":"County Dublin","City":"Dublin","District":"Dublin 1","Street":"Bachelors Walk","HouseNumber":"31","PostalCode":"D01 FA48","AdditionalData":[{"value":"Ireland","key":"CountryName"},{"value":"County Dublin","key":"CountyName"}]},"MapReference":{"ReferenceId":"779717039","Spot":0.92,"SideOfStreet":"left","CountryId":"20403667","CountyId":"20411172","CityId":"20413526","DistrictId":"20413527","AddressId":"214507602","RoadLinkId":"173012226"}}},{"Relevance":1.0,"Distance":20.1,"MatchLevel":"houseNumber","MatchQuality":{"Country":1.0,"County":1.0,"City":1.0,"District":1.0,"Street":[1.0],"HouseNumber":1.0,"PostalCode":1.0},"MatchType":"interpolated","Location":{"LocationId":"NT_WZLtUOLYTHBz6HDx4uGcpB_1ID","LocationType":"point","DisplayPosition":{"Latitude":53.34785,"Longitude":-6.25951},"MapView":{"TopLeft":{"Latitude":53.3489742,"Longitude":-6.2613931},"BottomRight":{"Latitude":53.3467258,"Longitude":-6.2576269}},"Address":{"Label":"52 O'Connell Street Lower, Dublin, County Dublin, D01 C2P1, Ireland","Country":"IRL","County":"County Dublin","City":"Dublin","District":"Dublin 1","Street":"O'Connell Street Lower","HouseNumber":"52","PostalCode":"D01 C2P1","AdditionalData":[{"value":"Ireland","key":"CountryName"},{"value":"County Dublin","key":"CountyName"}]},"MapReference":{"ReferenceId":"780225173","Spot":0.26,"SideOfStreet":"left","CountryId":"20403667","CountyId":"20411172","CityId":"20413526","DistrictId":"20413527","AddressId":"214436730","RoadLinkId":"173489601"}}},{"Relevance":1.0,"Distance":21.7,"MatchLevel":"houseNumber","MatchQuality":{"Country":1.0,"County":1.0,"City":1.0,"District":1.0,"Street":[1.0],"HouseNumber":1.0,"PostalCode":1.0},"MatchType":"interpolated","Location":{"LocationId":"NT_YTh9QxHL8ggVsZ9h9wJImC_zA","LocationType":"point","DisplayPosition":{"Latitude":53.34778,"Longitude":-6.26014},"MapView":{"TopLeft":{"Latitude":53.3489042,"Longitude":-6.2620231},"BottomRight":{"Latitude":53.3466558,"Longitude":-6.2582569}},"Address":{"Label":"3 Bachelors Way, Dublin, County Dublin, D01 W298, Ireland","Country":"IRL","County":"County Dublin","City":"Dublin","District":"Dublin 1","Street":"Bachelors Way","HouseNumber":"3","PostalCode":"D01 W298","AdditionalData":[{"value":"Ireland","key":"CountryName"},{"value":"County Dublin","key":"CountyName"}]},"MapReference":{"ReferenceId":"549458131","Spot":0.67,"SideOfStreet":"left","CountryId":"20403667","CountyId":"20411172","CityId":"20413526","DistrictId":"20413527","AddressId":"214162707","RoadLinkId":"86716874"}}},{"Relevance":1.0,"Distance":27.0,"MatchLevel":"postalCode","MatchQuality":{"PostalCode":1.0},"MatchType":"interpolated","Location":{"LocationId":"NT_PwYXjI2VS3mWrBbEa5eCDA_zED","LocationType":"point","DisplayPosition":{"Latitude":53.34765,"Longitude":-6.26035},"MapView":{"TopLeft":{"Latitude":53.3566432,"Longitude":-6.2754151},"BottomRight":{"Latitude":53.3386568,"Longitude":-6.2452849}},"Address":{"Label":"D01 HE19, Dublin, Ireland","Country":"IRL","County":"County Dublin","City":"Dublin","PostalCode":"D01 HE19","AdditionalData":[{"value":"Ireland","key":"CountryName"},{"value":"County Dublin","key":"CountyName"}]},"MapReference":{"ReferenceId":"779717039","Spot":0.92,"SideOfStreet":"neither","CountryId":"20403667","CountyId":"20411172","CityId":"20413526"}}},{"Relevance":1.0,"Distance":34.8,"MatchLevel":"landmark","MatchQuality":{"Country":1.0,"Name":1.0},"Location":{"LocationId":"NT_9GsqO7Fctc49-Hsj1HjC4B","LocationType":"river","Name":"River Liffey","DisplayPosition":{"Latitude":53.35659,"Longitude":-6.45576},"MapView":{"TopLeft":{"Latitude":53.36855,"Longitude":-6.49098},"BottomRight":{"Latitude":53.34463,"Longitude":-6.25141}},"Address":{"Label":"Ireland","Country":"IRL","AdditionalData":[{"value":"Ireland","key":"CountryName"}]},"MapReference":{"CountryId":"20403667","PlaceId":"83174366"}}}]}]}}