{"Response":{"MetaInfo":{"Timestamp":"2020-03-28T12:01:07.828+0000","NextPageInformation":"2"},"View":[{"_type":"SearchResultsViewType","ViewId":0,"Result":[{"Relevance":1.0,"Distance":0.0,"Direction":0.0,"MatchLevel":"district","MatchQuality":{"Country":1.0,"State":1.0,"County":1.0,"City":1.0,"District":1.0,"PostalCode":1.0},"Location":{"LocationId":"NT_aTh-2MgJZ40pZPIPhzgbID","LocationType":"point","DisplayPosition":{"Latitude":53.3052759,"Longitude":-2.3751943},"MapView":{"TopLeft":{"Latitude":53.31502,"Longitude":-2.39061},"BottomRight":{"Latitude":53.28801,"Longitude":-2.3472}},"Address":{"Label":"Knutsford, England, United Kingdom","Country":"GBR","State":"England","County":"Cheshire","City":"Knutsford","District":"Knutsford","PostalCode":"WA16 6","AdditionalData":[{"value":"United Kingdom","key":"CountryName"},{"value":"England","key":"StateName"},{"value":"Cheshire","key":"CountyName"}]},"MapReference":{"ReferenceId":"808931577","SideOfStreet":"neither","StateId":"20248595","CountyId":"20343157","CityId":"20343459","DistrictId":"20343460"}}},{"Relevance":1.0,"Distance":4.1,"MatchLevel":"houseNumber","MatchQuality":{"Country":1.0,"State":1.0,"County":1.0,"City":1.0,"District":1.0,"Street":[1.0],"HouseNumber":1.0,"PostalCode":1.0},"MatchType":"interpolated","Location":{"LocationId":"NT_8PxMl.pZl.rwfV-YZ24c-A_l_27298401_R_xMD","LocationType":"point","DisplayPosition":{"Latitude":53.3053725,"Longitude":-2.3752575},"MapView":{"TopLeft":{"Latitude":53.3064967,"Longitude":-2.3771388},"BottomRight":{"Latitude":53.3042484,"Longitude":-2.3733762}},"Address":{"Label":"13 Tatton Street, Knutsford, WA16 6AB, United Kingdom","Country":"GBR","State":"England","County":"Cheshire","City":"Knutsford","District":"Knutsford","Street":"Tatton Street","HouseNumber":"13","PostalCode":"WA16 6AB","AdditionalData":[{"value":"United Kingdom","key":"CountryName"},{"value":"England","key":"StateName"},{"value":"Cheshire","key":"CountyName"}]},"MapReference":{"ReferenceId":"27298401","Spot":0.58,"SideOfStreet":"right","StateId":"20248595","CountyId":"20343157","CityId":"20343459","DistrictId":"20343460"}}},{"Relevance":1.0,"Distance":8.7,"MatchLevel":"postalCode","MatchQuality":{"PostalCode":1.0},"MatchType":"interpolated","Location":{"LocationId":"NT_8PxMl.pZl.rwfV-YZ24c-A_l_27298401_R_xMD","LocationType":"point","DisplayPosition":{"Latitude":53.30524,"Longitude":-2.37531},"MapView":{"TopLeft":{"Latitude":53.3142332,"Longitude":-2.3903601},"BottomRight":{"Latitude":53.2962468,"Longitude":-2.3602599}},"Address":{"Label":"WA16 6AB, Knutsford, England, United Kingdom","Country":"GBR","State":"England","County":"Cheshire","City":"Knutsford","PostalCode":"WA16 6AB","AdditionalData":[{"value":"United Kingdom","key":"CountryName"},{"value":"England","key":"StateName"},{"value":"Cheshire","key":"CountyName"}]},"MapReference":{"ReferenceId":"27298401","Spot":0.58,"SideOfStreet":"neither","StateId":"20248595","CountyId":"20343157","CityId":"20343459"}}},{"Relevance":1.0,"Distance":25.0,"MatchLevel":"houseNumber","MatchQuality":{"Country":1.0,"State":1.0,"County":1.0,"City":1.0,"District":1.0,"Street":[1.0],"HouseNumber":1.0,"PostalCode":1.0},"MatchType":"interpolated","Location":{"LocationId":"NT_yY1XJUt-jylOFvJ.nn81oB_l_27298411_R_yED","LocationType":"point","DisplayPosition":{"Latitude":53.30514,"Longitude":-2.3754933},"MapView":{"TopLeft":{"Latitude":53.3062642,"Longitude":-2.3773746},"BottomRight":{"Latitude":53.3040159,"Longitude":-2.3736121}},"Address":{"Label":"21 Canute Place, Knutsford, WA16 6, United Kingdom","Country":"GBR","State":"England","County":"Cheshire","City":"Knutsford","District":"Knutsford","Street":"Canute Place","HouseNumber":"21","PostalCode":"WA16 6","AdditionalData":[{"value":"United Kingdom","key":"CountryName"},{"value":"England","key":"StateName"},{"value":"Cheshire","key":"CountyName"}]},"MapReference":{"ReferenceId":"27298411","Spot":0.67,"SideOfStreet":"right","StateId":"20248595","CountyId":"20343157","CityId":"20343459","DistrictId":"20343460"}}},{"Relevance":1.0,"Distance":25.6,"MatchLevel":"houseNumber","MatchQuality":{"Country":1.0,"State":1.0,"County":1.0,"City":1.0,"District":1.0,"Street":[1.0],"HouseNumber":1.0,"PostalCode":1.0},"MatchType":"interpolated","Location":{"LocationId":"NT_yY1XJUt-jylOFvJ.nn81oB_l_27589153_L_0cD","LocationType":"point","DisplayPosition":{"Latitude":53.3051525,"Longitude":-2.3755196},"MapView":{"TopLeft":{"Latitude":53.3062767,"Longitude":-2.3774008},"BottomRight":{"Latitude":53.3040284,"Longitude":-2.3736383}},"Address":{"Label":"47 Canute Place, Knutsford, WA16 6BQ, United Kingdom","Country":"GBR","State":"England","County":"Cheshire","City":"Knutsford","District":"Knutsford","Street":"Canute Place","HouseNumber":"47","PostalCode":"WA16 6BQ","AdditionalData":[{"value":"United Kingdom","key":"CountryName"},{"value":"England","key":"StateName"},{"value":"Cheshire","key":"CountyName"}]},"MapReference":{"ReferenceId":"27589153","Spot":0.54,"SideOfStreet":"left","StateId":"20248595","CountyId":"20343157","CityId":"20343459","DistrictId":"20343460"}}},{"Relevance":1.0,"Distance":25.7,"MatchLevel":"houseNumber","MatchQuality":{"Country":1.0,"State":1.0,"County":1.0,"City":1.0,"District":1.0,"Street":[1.0],"HouseNumber":1.0,"PostalCode":1.0},"MatchType":"interpolated","Location":{"LocationId":"NT_cF07SPQpsmMCIvySinyMgB_l_27298377_R_xA","LocationType":"point","DisplayPosition":{"Latitude":53.30554,"Longitude":-2.3748899},"MapView":{"TopLeft":{"Latitude":53.3066642,"Longitude":-2.3767712},"BottomRight":{"Latitude":53.3044159,"Longitude":-2.3730086}},"Address":{"Label":"1 Minshull Street, Knutsford, WA16 6AB, United Kingdom","Country":"GBR","State":"England","County":"Cheshire","City":"Knutsford","District":"Knutsford","Street":"Minshull Street","HouseNumber":"1","PostalCode":"WA16 6AB","AdditionalData":[{"value":"United Kingdom","key":"CountryName"},{"value":"England","key":"StateName"},{"value":"Cheshire","key":"CountyName"}]},"MapReference":{"ReferenceId":"27298377","Spot":0.21,"SideOfStreet":"right","StateId":"20248595","CountyId":"20343157","CityId":"20343459","DistrictId":"20343460"}}},{"Relevance":1.0,"Distance":25.9,"MatchLevel":"houseNumber","MatchQuality":{"Country":1.0,"State":1.0,"County":1.0,"City":1.0,"District":1.0,"Street":[1.0],"HouseNumber":1.0,"PostalCode":1.0},"MatchType":"interpolated","Location":{"LocationId":"NT_P.kzV1Ih5sZfD8t1E4IZdC_l_27298422_R_0UD","LocationType":"point","DisplayPosition":{"Latitude":53.3049738,"Longitude":-2.3755169},"MapView":{"TopLeft":{"Latitude":53.306098,"Longitude":-2.3773982},"BottomRight":{"Latitude":53.3038497,"Longitude":-2.3736357}},"Address":{"Label":"45 Princess Street, Knutsford, WA16 6, United Kingdom","Country":"GBR","State":"England","County":"Cheshire","City":"Knutsford","District":"Knutsford","Street":"Princess Street","HouseNumber":"45","PostalCode":"WA16 6","AdditionalData":[{"value":"United Kingdom","key":"CountryName"},{"value":"England","key":"StateName"},{"value":"Cheshire","key":"CountyName"}]},"MapReference":{"ReferenceId":"27298422","Spot":0.52,"SideOfStreet":"right","StateId":"20248595","CountyId":"20343157","CityId":"20343459","DistrictId":"20343460"}}},{"Relevance":1.0,"Distance":34.8,"MatchLevel":"houseNumber","MatchQuality":{"Country":1.0,"State":1.0,"County":1.0,"City":1.0,"District":1.0,"Street":[1.0],"HouseNumber":1.0,"PostalCode":1.0},"MatchType":"interpolated","Location":{"LocationId":"NT_AF1d4omsWk.R0l8UDiKEYB_l_27298421_R_xA","LocationType":"point","DisplayPosition":{"Latitude":53.3049817,"Longitude":-2.3750168},"MapView":{"TopLeft":{"Latitude":53.3061059,"Longitude":-2.3768981},"BottomRight":{"Latitude":53.3038576,"Longitude":-2.3731356}},"Address":{"Label":"1 Red Cow Yard, Knutsford, WA16 6DG, United Kingdom","Country":"GBR","State":"England","County":"Cheshire","City":"Knutsford","District":"Knutsford","Street":"Red Cow Yard","HouseNumber":"1","PostalCode":"WA16 6DG","AdditionalData":[{"value":"United Kingdom","key":"CountryName"},{"value":"England","key":"StateName"},{"value":"Cheshire","key":"CountyName"}]},"MapReference":{"ReferenceId":"27298421","Spot":0.51,"SideOfStreet":"right","StateId":"20248595","CountyId":"20343157","CityId":"20343459","DistrictId":"20343460"}}},{"Relevance":1.0,"Distance":39.9,"MatchLevel":"postalCode","MatchQuality":{"PostalCode":1.0},"MatchType":"interpolated","Location":{"LocationId":"NT_yY1XJUt-jylOFvJ.nn81oB_l_27589152_L_0UD","LocationType":"point","DisplayPosition":{"Latitude":53.30514,"Longitude":-2.37575},"MapView":{"TopLeft":{"Latitude":53.3141332,"Longitude":-2.3908001},"BottomRight":{"Latitude":53.2961468,"Longitude":-2.3606999}},"Address":{"Label":"WA16 6BQ, Knutsford, England, United Kingdom","Country":"GBR","State":"England","County":"Cheshire","City":"Knutsford","PostalCode":"WA16 6BQ","AdditionalData":[{"value":"United Kingdom","key":"CountryName"},{"value":"England","key":"StateName"},{"value":"Cheshire","key":"CountyName"}]},"MapReference":{"ReferenceId":"27589152","Spot":0.74,"SideOfStreet":"neither","StateId":"20248595","CountyId":"20343157","CityId":"20343459"}}},{"Relevance":1.0,"Distance":44.1,"MatchLevel":"houseNumber","MatchQuality":{"Country":1.0,"State":1.0,"County":1.0,"City":1.0,"District":1.0,"Street":[1.0],"HouseNumber":1.0,"PostalCode":1.0},"MatchType":"interpolated","Location":{"LocationId":"NT_yY1XJUt-jylOFvJ.nn81oB_l_27589152_L_0UD","LocationType":"point","DisplayPosition":{"Latitude":53.3050661,"Longitude":-2.3758209},"MapView":{"TopLeft":{"Latitude":53.3061902,"Longitude":-2.3777021},"BottomRight":{"Latitude":53.3039419,"Longitude":-2.3739396}},"Address":{"Label":"45 Canute Place, Knutsford, WA16 6BQ, United Kingdom","Country":"GBR","State":"England","County":"Cheshire","City":"Knutsford","District":"Knutsford","Street":"Canute Place","HouseNumber":"45","PostalCode":"WA16 6BQ","AdditionalData":[{"value":"United Kingdom","key":"CountryName"},{"value":"England","key":"StateName"},{"value":"Cheshire","key":"CountyName"}]},"MapReference":{"ReferenceId":"27589152","Spot":0.74,"SideOfStreet":"left","StateId":"20248595","CountyId":"20343157","CityId":"20343459","DistrictId":"20343460"}}}]}]}}