{"Response":{"MetaInfo":{"Timestamp":"2020-03-28T11:22:39.224+0000","NextPageInformation":"2"},"View":[{"_type":"SearchResultsViewType","ViewId":0,"Result":[{"Relevance":1.0,"Distance":-7.7,"MatchLevel":"landmark","MatchQuality":{"Country":1.0,"County":1.0,"City":1.0,"District":1.0,"PostalCode":1.0,"Name":1.0},"Location":{"LocationId":"NT_euqJCHDmwXa4XRT0By9lLB","LocationType":"universityCollege","Name":"Trinity College","DisplayPosition":{"Latitude":53.34375,"Longitude":-6.255},"MapView":{"TopLeft":{"Latitude":53.34565,"Longitude":-6.25953},"BottomRight":{"Latitude":53.34185,"Longitude":-6.25077}},"Address":{"Label":"Dublin, County Dublin, D02, Ireland","Country":"IRL","County":"County Dublin","City":"Dublin","District":"Dublin 2","PostalCode":"D02","AdditionalData":[{"value":"Ireland","key":"CountryName"},{"value":"County Dublin","key":"CountyName"}]},"MapReference":{"CountryId":"20403667","CountyId":"20411172","CityId":"20413526","DistrictId":"20413528","PlaceId":"558106939"}}},{"Relevance":1.0,"Distance":0.0,"Direction":0.0,"MatchLevel":"district","MatchQuality":{"Country":1.0,"County":1.0,"City":1.0,"District":1.0},"Location":{"LocationId":"NT_l3Q6fsjdOQnT.adTWJuLVA","LocationType":"point","DisplayPosition":{"Latitude":53.3420051,"Longitude":-6.2522252},"MapView":{"TopLeft":{"Latitude":53.34811,"Longitude":-6.26994},"BottomRight":{"Latitude":53.33004,"Longitude":-6.23041}},"Address":{"Label":"Dublin 2, Dublin, Ireland","Country":"IRL","County":"County Dublin","City":"Dublin","District":"Dublin 2","AdditionalData":[{"value":"Ireland","key":"CountryName"},{"value":"County Dublin","key":"CountyName"}]},"MapReference":{"ReferenceId":"549458482","SideOfStreet":"neither","CountryId":"20403667","CountyId":"20411172","CityId":"20413526","DistrictId":"20413528"}}},{"Relevance":1.0,"Distance":20.4,"MatchLevel":"houseNumber","MatchQuality":{"Country":1.0,"County":1.0,"City":1.0,"District":1.0,"Street":[1.0],"HouseNumber":1.0,"PostalCode":1.0},"MatchType":"interpolated","Location":{"LocationId":"NT_Yk3K6KnxSVX0464MU6CBSB_xgTLxkD","LocationType":"point","DisplayPosition":{"Latitude":53.34188,"Longitude":-6.25245},"MapView":{"TopLeft":{"Latitude":53.3430042,"Longitude":-6.2543329},"BottomRight":{"Latitude":53.3407558,"Longitude":-6.2505671}},"Address":{"Label":"18-19 Lincoln Place, Dublin, County Dublin, D02 VA43, Ireland","Country":"IRL","County":"County Dublin","City":"Dublin","District":"Dublin 2","Street":"Lincoln Place","HouseNumber":"18-19","PostalCode":"D02 VA43","AdditionalData":[{"value":"Ireland","key":"CountryName"},{"value":"County Dublin","key":"CountyName"}]},"MapReference":{"ReferenceId":"780233717","Spot":0.24,"SideOfStreet":"left","CountryId":"20403667","CountyId":"20411172","CityId":"20413526","DistrictId":"20413528","AddressId":"743584489","RoadLinkId":"173498112"}}},{"Relevance":1.0,"Distance":22.8,"MatchLevel":"houseNumber","MatchQuality":{"Country":1.0,"County":1.0,"City":1.0,"District":1.0,"Street":[1.0],"HouseNumber":1.0,"PostalCode":1.0},"MatchType":"interpolated","Location":{"LocationId":"NT_J0-7K0izLyojihWrs8XdiA_xA","LocationType":"point","DisplayPosition":{"Latitude":53.34171,"Longitude":-6.25229},"MapView":{"TopLeft":{"Latitude":53.3428342,"Longitude":-6.2541729},"BottomRight":{"Latitude":53.3405858,"Longitude":-6.2504071}},"Address":{"Label":"1 Clare Street, Dublin, County Dublin, D02 V573, Ireland","Country":"IRL","County":"County Dublin","City":"Dublin","District":"Dublin 2","Street":"Clare Street","HouseNumber":"1","PostalCode":"D02 V573","AdditionalData":[{"value":"Ireland","key":"CountryName"},{"value":"County Dublin","key":"CountyName"}]},"MapReference":{"ReferenceId":"549459037","Spot":0.35,"SideOfStreet":"right","CountryId":"20403667","CountyId":"20411172","CityId":"20413526","DistrictId":"20413528","AddressId":"214790877","RoadLinkId":"86524910"}}},{"Relevance":1.0,"Distance":28.1,"MatchLevel":"postalCode","MatchQuality":{"PostalCode":1.0},"MatchType":"interpolated","Location":{"LocationId":"NT_J0-7K0izLyojihWrs8XdiA_xA","LocationType":"point","DisplayPosition":{"Latitude":53.34176,"Longitude":-6.25212},"MapView":{"TopLeft":{"Latitude":53.3507532,"Longitude":-6.267183},"BottomRight":{"Latitude":53.3327668,"Longitude":-6.237057}},"Address":{"Label":"D02 CK80, Dublin, Ireland","Country":"IRL","County":"County Dublin","City":"Dublin","PostalCode":"D02 CK80","AdditionalData":[{"value":"Ireland","key":"CountryName"},{"value":"County Dublin","key":"CountyName"}]},"MapReference":{"ReferenceId":"549459037","Spot":0.35,"SideOfStreet":"neither","CountryId":"20403667","CountyId":"20411172","CityId":"20413526"}}},{"Relevance":1.0,"Distance":28.8,"MatchLevel":"houseNumber","MatchQuality":{"Country":1.0,"County":1.0,"City":1.0,"District":1.0,"Street":[1.0],"PostalCode":1.0},"MatchType":"interpolated","Location":{"LocationId":"NT_Yk3K6KnxSVX0464MU6CBSB","LocationType":"point","DisplayPosition":{"Latitude":53.34207,"Longitude":-6.2518},"MapView":{"TopLeft":{"Latitude":53.3431942,"Longitude":-6.2536829},"BottomRight":{"Latitude":53.3409458,"Longitude":-6.2499171}},"Address":{"Label":"\"Dublin Dental School and Hospital\" Lincoln Place, Dublin, County Dublin, D02 F859, Ireland","Country":"IRL","County":"County Dublin","City":"Dublin","District":"Dublin 2","Street":"Lincoln Place","PostalCode":"D02 F859","AdditionalData":[{"value":"Ireland","key":"CountryName"},{"value":"County Dublin","key":"CountyName"}],"Building":"Dublin Dental School and Hospital"},"MapReference":{"ReferenceId":"780233718","Spot":0.49,"SideOfStreet":"left","CountryId":"20403667","CountyId":"20411172","CityId":"20413526","DistrictId":"20413528","AddressId":"360000028","RoadLinkId":"173498113"}}},{"Relevance":1.0,"Distance":31.6,"MatchLevel":"houseNumber","MatchQuality":{"Country":1.0,"County":1.0,"City":1.0,"District":1.0,"Street":[1.0],"HouseNumber":1.0,"PostalCode":1.0},"MatchType":"interpolated","Location":{"LocationId":"NT_4d3OJQpJW2DPsMv2pEnYKB_zA","LocationType":"point","DisplayPosition":{"Latitude":53.34185,"Longitude":-6.25268},"MapView":{"TopLeft":{"Latitude":53.3429742,"Longitude":-6.2545629},"BottomRight":{"Latitude":53.3407258,"Longitude":-6.2507971}},"Address":{"Label":"3 Leinster Street South, Dublin, County Dublin, D02 Y062, Ireland","Country":"IRL","County":"County Dublin","City":"Dublin","District":"Dublin 2","Street":"Leinster Street South","HouseNumber":"3","PostalCode":"D02 Y062","AdditionalData":[{"value":"Ireland","key":"CountryName"},{"value":"County Dublin","key":"CountyName"}]},"MapReference":{"ReferenceId":"750139754","Spot":0.16,"SideOfStreet":"right","CountryId":"20403667","CountyId":"20411172","CityId":"20413526","DistrictId":"20413528","AddressId":"214154351","RoadLinkId":"146513585"}}},{"Relevance":1.0,"Distance":33.5,"MatchLevel":"houseNumber","MatchQuality":{"Country":1.0,"County":1.0,"City":1.0,"District":1.0,"Street":[1.0],"HouseNumber":1.0,"PostalCode":1.0},"MatchType":"interpolated","Location":{"LocationId":"NT_J0-7K0izLyojihWrs8XdiA_zA","LocationType":"point","DisplayPosition":{"Latitude":53.34164,"Longitude":-6.2521},"MapView":{"TopLeft":{"Latitude":53.3427642,"Longitude":-6.2539829},"BottomRight":{"Latitude":53.3405158,"Longitude":-6.2502171}},"Address":{"Label":"3 Clare Street, Dublin, County Dublin, D02 KC82, Ireland","Country":"IRL","County":"County Dublin","City":"Dublin","District":"Dublin 2","Street":"Clare Street","HouseNumber":"3","PostalCode":"D02 KC82","AdditionalData":[{"value":"Ireland","key":"CountryName"},{"value":"County Dublin","key":"CountyName"}]},"MapReference":{"ReferenceId":"1231260601","Spot":0.96,"SideOfStreet":"right","CountryId":"20403667","CountyId":"20411172","CityId":"20413526","DistrictId":"20413528","AddressId":"214225265","RoadLinkId":"550793314"}}},{"Relevance":1.0,"Distance":33.6,"MatchLevel":"postalCode","MatchQuality":{"PostalCode":1.0},"MatchType":"interpolated","Location":{"LocationId":"NT_4d3OJQpJW2DPsMv2pEnYKB_zA","LocationType":"point","DisplayPosition":{"Latitude":53.34199,"Longitude":-6.25273},"MapView":{"TopLeft":{"Latitude":53.3509832,"Longitude":-6.2677931},"BottomRight":{"Latitude":53.3329968,"Longitude":-6.2376669}},"Address":{"Label":"D02 XT95, Dublin, Ireland","Country":"IRL","County":"County Dublin","City":"Dublin","PostalCode":"D02 XT95","AdditionalData":[{"value":"Ireland","key":"CountryName"},{"value":"County Dublin","key":"CountyName"}]},"MapReference":{"ReferenceId":"750139754","Spot":0.16,"SideOfStreet":"neither","CountryId":"20403667","CountyId":"20411172","CityId":"20413526"}}},{"Relevance":1.0,"Distance":40.1,"MatchLevel":"street","MatchQuality":{"Country":1.0,"County":1.0,"City":1.0,"District":1.0,"Street":[1.0],"PostalCode":1.0},"Location":{"LocationId":"NT_xuzCVtI1rIUr2Sos3Su97A_l_750139760_L","LocationType":"point","DisplayPosition":{"Latitude":53.34165,"Longitude":-6.25212},"MapView":{"TopLeft":{"Latitude":53.34165,"Longitude":-6.25232},"BottomRight":{"Latitude":53.34144,"Longitude":-6.25212}},"Address":{"Label":"Clare Lane, Dublin, County Dublin, D02, Ireland","Country":"IRL","County":"County Dublin","City":"Dublin","District":"Dublin 2","Street":"Clare Lane","PostalCode":"D02","AdditionalData":[{"value":"Ireland","key":"CountryName"},{"value":"County Dublin","key":"CountyName"}]},"MapReference":{"ReferenceId":"750139760","Spot":1.0,"SideOfStreet":"left","CountryId":"20403667","CountyId":"20411172","CityId":"20413526","DistrictId":"20413528"}}}]}]}}