{"Response":{"MetaInfo":{"Timestamp":"2020-03-28T11:17:21.528+0000","NextPageInformation":"2"},"View":[{"_type":"SearchResultsViewType","ViewId":0,"Result":[{"Relevance":1.0,"Distance":0.0,"Direction":0.0,"MatchLevel":"district","MatchQuality":{"Country":1.0,"State":1.0,"County":1.0,"City":1.0,"District":1.0,"PostalCode":1.0},"Location":{"LocationId":"NT_aTh-2MgJZ40pZPIPhzgbID","LocationType":"point","DisplayPosition":{"Latitude":53.3019437,"Longitude":-2.3774206},"MapView":{"TopLeft":{"Latitude":53.31502,"Longitude":-2.39061},"BottomRight":{"Latitude":53.28801,"Longitude":-2.3472}},"Address":{"Label":"Knutsford, England, United Kingdom","Country":"GBR","State":"England","County":"Cheshire","City":"Knutsford","District":"Knutsford","PostalCode":"WA16 6","AdditionalData":[{"value":"United Kingdom","key":"CountryName"},{"value":"England","key":"StateName"},{"value":"Cheshire","key":"CountyName"}]},"MapReference":{"ReferenceId":"808931577","SideOfStreet":"neither","StateId":"20248595","CountyId":"20343157","CityId":"20343459","DistrictId":"20343460"}}},{"Relevance":1.0,"Distance":9.3,"MatchLevel":"houseNumber","MatchQuality":{"Country":1.0,"State":1.0,"County":1.0,"City":1.0,"District":1.0,"Street":[1.0],"HouseNumber":1.0,"PostalCode":1.0},"MatchType":"interpolated","Location":{"LocationId":"NT_vR3gjEzNXDIbuKXQ70mhOA_l_27298663_R_yA","LocationType":"point","DisplayPosition":{"Latitude":53.3018633,"Longitude":-2.37746},"MapView":{"TopLeft":{"Latitude":53.3029875,"Longitude":-2.3793411},"BottomRight":{"Latitude":53.3007392,"Longitude":-2.3755789}},"Address":{"Label":"2 Bexton Road, Knutsford, WA16 0BF, United Kingdom","Country":"GBR","State":"England","County":"Cheshire","City":"Knutsford","District":"Knutsford","Street":"Bexton Road","HouseNumber":"2","PostalCode":"WA16 0BF","AdditionalData":[{"value":"United Kingdom","key":"CountryName"},{"value":"England","key":"StateName"},{"value":"Cheshire","key":"CountyName"}]},"MapReference":{"ReferenceId":"27298663","Spot":0.61,"SideOfStreet":"right","StateId":"20248595","CountyId":"20343157","CityId":"20343459","DistrictId":"20343460"}}},{"Relevance":1.0,"Distance":18.8,"MatchLevel":"houseNumber","MatchQuality":{"Country":1.0,"State":1.0,"County":1.0,"City":1.0,"District":1.0,"Street":[1.0],"HouseNumber":1.0,"PostalCode":1.0},"MatchType":"interpolated","Location":{"LocationId":"NT_CSaaBQnUj9QyxE8.sDqJZC_l_27298636_L_xA","LocationType":"point","DisplayPosition":{"Latitude":53.3022102,"Longitude":-2.3771904},"MapView":{"TopLeft":{"Latitude":53.3033343,"Longitude":-2.3790715},"BottomRight":{"Latitude":53.301086,"Longitude":-2.3753092}},"Address":{"Label":"1 Stanley Road, Knutsford, WA16 0, United Kingdom","Country":"GBR","State":"England","County":"Cheshire","City":"Knutsford","District":"Knutsford","Street":"Stanley Road","HouseNumber":"1","PostalCode":"WA16 0","AdditionalData":[{"value":"United Kingdom","key":"CountryName"},{"value":"England","key":"StateName"},{"value":"Cheshire","key":"CountyName"}]},"MapReference":{"ReferenceId":"27298636","Spot":0.06,"SideOfStreet":"left","StateId":"20248595","CountyId":"20343157","CityId":"20343459","DistrictId":"20343460"}}},{"Relevance":1.0,"Distance":26.0,"MatchLevel":"postalCode","MatchQuality":{"PostalCode":1.0},"MatchType":"interpolated","Location":{"LocationId":"NT_vR3gjEzNXDIbuKXQ70mhOA_l_27298663_R_yA","LocationType":"point","DisplayPosition":{"Latitude":53.3018,"Longitude":-2.37773},"MapView":{"TopLeft":{"Latitude":53.3107932,"Longitude":-2.3927789},"BottomRight":{"Latitude":53.2928068,"Longitude":-2.3626811}},"Address":{"Label":"WA16 0BX, Knutsford, England, United Kingdom","Country":"GBR","State":"England","County":"Cheshire","City":"Knutsford","PostalCode":"WA16 0BX","AdditionalData":[{"value":"United Kingdom","key":"CountryName"},{"value":"England","key":"StateName"},{"value":"Cheshire","key":"CountyName"}]},"MapReference":{"ReferenceId":"27298663","Spot":0.61,"SideOfStreet":"neither","StateId":"20248595","CountyId":"20343157","CityId":"20343459"}}},{"Relevance":1.0,"Distance":27.2,"MatchLevel":"street","MatchQuality":{"Country":1.0,"State":1.0,"County":1.0,"City":1.0,"District":1.0,"PostalCode":1.0},"Location":{"LocationId":"NT_PVBu54V8N.kyWFepml6rxD_l_1235447598_R","LocationType":"point","DisplayPosition":{"Latitude":53.30206,"Longitude":-2.37706},"MapView":{"TopLeft":{"Latitude":53.30206,"Longitude":-2.37706},"BottomRight":{"Latitude":53.30205,"Longitude":-2.37696}},"Address":{"Label":"Knutsford, WA16 0, United Kingdom","Country":"GBR","State":"England","County":"Cheshire","City":"Knutsford","District":"Knutsford","PostalCode":"WA16 0","AdditionalData":[{"value":"United Kingdom","key":"CountryName"},{"value":"England","key":"StateName"},{"value":"Cheshire","key":"CountyName"}]},"MapReference":{"ReferenceId":"1235447598","Spot":0.0,"SideOfStreet":"right","StateId":"20248595","CountyId":"20343157","CityId":"20343459","DistrictId":"20343460"}}},{"Relevance":1.0,"Distance":27.8,"MatchLevel":"street","MatchQuality":{"Country":1.0,"State":1.0,"County":1.0,"City":1.0,"District":1.0,"PostalCode":1.0},"Location":{"LocationId":"NT_PVBu54V8N.kyWFepml6rxD_l_1235447599_L","LocationType":"point","DisplayPosition":{"Latitude":53.30208,"Longitude":-2.37707},"MapView":{"TopLeft":{"Latitude":53.30212,"Longitude":-2.37707},"BottomRight":{"Latitude":53.30206,"Longitude":-2.37704}},"Address":{"Label":"Knutsford, WA16 0, United Kingdom","Country":"GBR","State":"England","County":"Cheshire","City":"Knutsford","District":"Knutsford","PostalCode":"WA16 0","AdditionalData":[{"value":"United Kingdom","key":"CountryName"},{"value":"England","key":"StateName"},{"value":"Cheshire","key":"CountyName"}]},"MapReference":{"ReferenceId":"1235447599","Spot":0.29,"SideOfStreet":"left","StateId":"20248595","CountyId":"20343157","CityId":"20343459","DistrictId":"20343460"}}},{"Relevance":1.0,"Distance":32.0,"MatchLevel":"street","MatchQuality":{"Country":1.0,"State":1.0,"County":1.0,"City":1.0,"District":1.0,"PostalCode":1.0},"Location":{"LocationId":"NT_PVBu54V8N.kyWFepml6rxD_l_1235447597_R","LocationType":"point","DisplayPosition":{"Latitude":53.30212,"Longitude":-2.37704},"MapView":{"TopLeft":{"Latitude":53.30213,"Longitude":-2.37704},"BottomRight":{"Latitude":53.30212,"Longitude":-2.37696}},"Address":{"Label":"Knutsford, WA16 0, United Kingdom","Country":"GBR","State":"England","County":"Cheshire","City":"Knutsford","District":"Knutsford","PostalCode":"WA16 0","AdditionalData":[{"value":"United Kingdom","key":"CountryName"},{"value":"England","key":"StateName"},{"value":"Cheshire","key":"CountyName"}]},"MapReference":{"ReferenceId":"1235447597","Spot":0.0,"SideOfStreet":"right","StateId":"20248595","CountyId":"20343157","CityId":"20343459","DistrictId":"20343460"}}},{"Relevance":1.0,"Distance":33.2,"MatchLevel":"street","MatchQuality":{"Country":1.0,"State":1.0,"County":1.0,"City":1.0,"District":1.0,"Street":[1.0],"PostalCode":1.0},"Location":{"LocationId":"NT_YVrvmRchuIMr8c-fob4djC_l_1235449532_L","LocationType":"point","DisplayPosition":{"Latitude":53.30206,"Longitude":-2.37696},"MapView":{"TopLeft":{"Latitude":53.30206,"Longitude":-2.37696},"BottomRight":{"Latitude":53.30153,"Longitude":-2.3757}},"Address":{"Label":"Stanley Road, Knutsford, WA16 0, United Kingdom","Country":"GBR","State":"England","County":"Cheshire","City":"Knutsford","District":"Knutsford","Street":"Stanley Road","PostalCode":"WA16 0","AdditionalData":[{"value":"United Kingdom","key":"CountryName"},{"value":"England","key":"StateName"},{"value":"Cheshire","key":"CountyName"}]},"MapReference":{"ReferenceId":"1235449532","Spot":1.0,"SideOfStreet":"left","StateId":"20248595","CountyId":"20343157","CityId":"20343459","DistrictId":"20343460"}}},{"Relevance":1.0,"Distance":33.2,"MatchLevel":"street","MatchQuality":{"Country":1.0,"State":1.0,"County":1.0,"City":1.0,"District":1.0,"PostalCode":1.0},"Location":{"LocationId":"NT_PVBu54V8N.kyWFepml6rxD_l_1235447600_L","LocationType":"point","DisplayPosition":{"Latitude":53.30206,"Longitude":-2.37696},"MapView":{"TopLeft":{"Latitude":53.30212,"Longitude":-2.37696},"BottomRight":{"Latitude":53.30206,"Longitude":-2.37693}},"Address":{"Label":"Knutsford, WA16 0, United Kingdom","Country":"GBR","State":"England","County":"Cheshire","City":"Knutsford","District":"Knutsford","PostalCode":"WA16 0","AdditionalData":[{"value":"United Kingdom","key":"CountryName"},{"value":"England","key":"StateName"},{"value":"Cheshire","key":"CountyName"}]},"MapReference":{"ReferenceId":"1235447600","Spot":0.0,"SideOfStreet":"left","StateId":"20248595","CountyId":"20343157","CityId":"20343459","DistrictId":"20343460"}}},{"Relevance":1.0,"Distance":44.2,"MatchLevel":"houseNumber","MatchQuality":{"Country":1.0,"State":1.0,"County":1.0,"City":1.0,"District":1.0,"Street":[1.0],"HouseNumber":1.0,"PostalCode":1.0},"MatchType":"interpolated","Location":{"LocationId":"NT_3hAxTsXKVWQ8O1L5M1h4BD_l_27303991_R_ykD","LocationType":"point","DisplayPosition":{"Latitude":53.3014545,"Longitude":-2.3777569},"MapView":{"TopLeft":{"Latitude":53.3025787,"Longitude":-2.379638},"BottomRight":{"Latitude":53.3003304,"Longitude":-2.3758758}},"Address":{"Label":"29 St Johns Avenue, Knutsford, WA16 0DH, United Kingdom","Country":"GBR","State":"England","County":"Cheshire","City":"Knutsford","District":"Knutsford","Street":"St Johns Avenue","HouseNumber":"29","PostalCode":"WA16 0DH","AdditionalData":[{"value":"United Kingdom","key":"CountryName"},{"value":"England","key":"StateName"},{"value":"Cheshire","key":"CountyName"}]},"MapReference":{"ReferenceId":"27303991","Spot":0.86,"SideOfStreet":"right","StateId":"20248595","CountyId":"20343157","CityId":"20343459","DistrictId":"20343460"}}}]}]}}