{"Response":{"MetaInfo":{"Timestamp":"2020-03-28T11:59:17.337+0000","NextPageInformation":"2"},"View":[{"_type":"SearchResultsViewType","ViewId":0,"Result":[{"Relevance":1.0,"Distance":0.0,"Direction":0.0,"MatchLevel":"district","MatchQuality":{"Country":1.0,"State":1.0,"County":1.0,"City":1.0,"District":1.0,"PostalCode":1.0},"Location":{"LocationId":"NT_aTh-2MgJZ40pZPIPhzgbID","LocationType":"point","DisplayPosition":{"Latitude":53.3047877,"Longitude":-2.3757062},"MapView":{"TopLeft":{"Latitude":53.31502,"Longitude":-2.39061},"BottomRight":{"Latitude":53.28801,"Longitude":-2.3472}},"Address":{"Label":"Knutsford, England, United Kingdom","Country":"GBR","State":"England","County":"Cheshire","City":"Knutsford","District":"Knutsford","PostalCode":"WA16 6","AdditionalData":[{"value":"United Kingdom","key":"CountryName"},{"value":"England","key":"StateName"},{"value":"Cheshire","key":"CountyName"}]},"MapReference":{"ReferenceId":"808931577","SideOfStreet":"neither","StateId":"20248595","CountyId":"20343157","CityId":"20343459","DistrictId":"20343460"}}},{"Relevance":1.0,"Distance":8.8,"MatchLevel":"houseNumber","MatchQuality":{"Country":1.0,"State":1.0,"County":1.0,"City":1.0,"District":1.0,"Street":[1.0],"HouseNumber":1.0,"PostalCode":1.0},"MatchType":"interpolated","Location":{"LocationId":"NT_yY1XJUt-jylOFvJ.nn81oB_l_27298424_R_0A","LocationType":"point","DisplayPosition":{"Latitude":53.304968,"Longitude":-2.375842},"MapView":{"TopLeft":{"Latitude":53.3060922,"Longitude":-2.3777232},"BottomRight":{"Latitude":53.3038439,"Longitude":-2.3739607}},"Address":{"Label":"4 Canute Place, Knutsford, WA16 6BH, United Kingdom","Country":"GBR","State":"England","County":"Cheshire","City":"Knutsford","District":"Knutsford","Street":"Canute Place","HouseNumber":"4","PostalCode":"WA16 6BH","AdditionalData":[{"value":"United Kingdom","key":"CountryName"},{"value":"England","key":"StateName"},{"value":"Cheshire","key":"CountyName"}]},"MapReference":{"ReferenceId":"27298424","Spot":0.68,"SideOfStreet":"right","StateId":"20248595","CountyId":"20343157","CityId":"20343459","DistrictId":"20343460"}}},{"Relevance":1.0,"Distance":16.9,"MatchLevel":"houseNumber","MatchQuality":{"Country":1.0,"State":1.0,"County":1.0,"City":1.0,"District":1.0,"Street":[1.0],"HouseNumber":1.0,"PostalCode":1.0},"MatchType":"interpolated","Location":{"LocationId":"NT_P.kzV1Ih5sZfD8t1E4IZdC_l_27298489_L_zgD","LocationType":"point","DisplayPosition":{"Latitude":53.3046878,"Longitude":-2.3754189},"MapView":{"TopLeft":{"Latitude":53.305812,"Longitude":-2.3773002},"BottomRight":{"Latitude":53.3035637,"Longitude":-2.3735377}},"Address":{"Label":"38 Princess Street, Knutsford, WA16 6BN, United Kingdom","Country":"GBR","State":"England","County":"Cheshire","City":"Knutsford","District":"Knutsford","Street":"Princess Street","HouseNumber":"38","PostalCode":"WA16 6BN","AdditionalData":[{"value":"United Kingdom","key":"CountryName"},{"value":"England","key":"StateName"},{"value":"Cheshire","key":"CountyName"}]},"MapReference":{"ReferenceId":"27298489","Spot":0.82,"SideOfStreet":"left","StateId":"20248595","CountyId":"20343157","CityId":"20343459","DistrictId":"20343460"}}},{"Relevance":1.0,"Distance":21.7,"MatchLevel":"postalCode","MatchQuality":{"PostalCode":1.0},"MatchType":"interpolated","Location":{"LocationId":"NT_P.kzV1Ih5sZfD8t1E4IZdC_l_27298489_L_zgD","LocationType":"point","DisplayPosition":{"Latitude":53.30466,"Longitude":-2.37546},"MapView":{"TopLeft":{"Latitude":53.3136532,"Longitude":-2.3905099},"BottomRight":{"Latitude":53.2956668,"Longitude":-2.3604101}},"Address":{"Label":"WA16 6BN, Knutsford, England, United Kingdom","Country":"GBR","State":"England","County":"Cheshire","City":"Knutsford","PostalCode":"WA16 6BN","AdditionalData":[{"value":"United Kingdom","key":"CountryName"},{"value":"England","key":"StateName"},{"value":"Cheshire","key":"CountyName"}]},"MapReference":{"ReferenceId":"27298489","Spot":0.82,"SideOfStreet":"neither","StateId":"20248595","CountyId":"20343157","CityId":"20343459"}}},{"Relevance":1.0,"Distance":24.2,"MatchLevel":"houseNumber","MatchQuality":{"Country":1.0,"State":1.0,"County":1.0,"City":1.0,"District":1.0,"Street":[1.0],"HouseNumber":1.0,"PostalCode":1.0},"MatchType":"interpolated","Location":{"LocationId":"NT_P.kzV1Ih5sZfD8t1E4IZdC_l_27298422_R_0UD","LocationType":"point","DisplayPosition":{"Latitude":53.3049738,"Longitude":-2.3755169},"MapView":{"TopLeft":{"Latitude":53.306098,"Longitude":-2.3773982},"BottomRight":{"Latitude":53.3038497,"Longitude":-2.3736357}},"Address":{"Label":"45 Princess Street, Knutsford, WA16 6, United Kingdom","Country":"GBR","State":"England","County":"Cheshire","City":"Knutsford","District":"Knutsford","Street":"Princess Street","HouseNumber":"45","PostalCode":"WA16 6","AdditionalData":[{"value":"United Kingdom","key":"CountryName"},{"value":"England","key":"StateName"},{"value":"Cheshire","key":"CountyName"}]},"MapReference":{"ReferenceId":"27298422","Spot":0.52,"SideOfStreet":"right","StateId":"20248595","CountyId":"20343157","CityId":"20343459","DistrictId":"20343460"}}},{"Relevance":1.0,"Distance":24.6,"MatchLevel":"postalCode","MatchQuality":{"PostalCode":1.0},"MatchType":"interpolated","Location":{"LocationId":"NT_yY1XJUt-jylOFvJ.nn81oB_l_27298424_R_0A","LocationType":"point","DisplayPosition":{"Latitude":53.30487,"Longitude":-2.37605},"MapView":{"TopLeft":{"Latitude":53.3138632,"Longitude":-2.3911},"BottomRight":{"Latitude":53.2958768,"Longitude":-2.361}},"Address":{"Label":"WA16 6BH, Knutsford, England, United Kingdom","Country":"GBR","State":"England","County":"Cheshire","City":"Knutsford","PostalCode":"WA16 6BH","AdditionalData":[{"value":"United Kingdom","key":"CountryName"},{"value":"England","key":"StateName"},{"value":"Cheshire","key":"CountyName"}]},"MapReference":{"ReferenceId":"27298424","Spot":0.68,"SideOfStreet":"neither","StateId":"20248595","CountyId":"20343157","CityId":"20343459"}}},{"Relevance":1.0,"Distance":25.8,"MatchLevel":"houseNumber","MatchQuality":{"Country":1.0,"State":1.0,"County":1.0,"City":1.0,"District":1.0,"Street":[1.0],"HouseNumber":1.0,"PostalCode":1.0},"MatchType":"interpolated","Location":{"LocationId":"NT_yY1XJUt-jylOFvJ.nn81oB_l_27298411_R_yUD","LocationType":"point","DisplayPosition":{"Latitude":53.30506,"Longitude":-2.37556},"MapView":{"TopLeft":{"Latitude":53.3061842,"Longitude":-2.3774412},"BottomRight":{"Latitude":53.3039359,"Longitude":-2.3736787}},"Address":{"Label":"25 Canute Place, Knutsford, WA16 6, United Kingdom","Country":"GBR","State":"England","County":"Cheshire","City":"Knutsford","District":"Knutsford","Street":"Canute Place","HouseNumber":"25","PostalCode":"WA16 6","AdditionalData":[{"value":"United Kingdom","key":"CountryName"},{"value":"England","key":"StateName"},{"value":"Cheshire","key":"CountyName"}]},"MapReference":{"ReferenceId":"27298411","Spot":0.0,"SideOfStreet":"right","StateId":"20248595","CountyId":"20343157","CityId":"20343459","DistrictId":"20343460"}}},{"Relevance":1.0,"Distance":31.8,"MatchLevel":"houseNumber","MatchQuality":{"Country":1.0,"State":1.0,"County":1.0,"City":1.0,"District":1.0,"Street":[1.0],"HouseNumber":1.0,"PostalCode":1.0},"MatchType":"interpolated","Location":{"LocationId":"NT_yY1XJUt-jylOFvJ.nn81oB_l_27589152_L_0MD","LocationType":"point","DisplayPosition":{"Latitude":53.3050622,"Longitude":-2.3758417},"MapView":{"TopLeft":{"Latitude":53.3061863,"Longitude":-2.377723},"BottomRight":{"Latitude":53.303938,"Longitude":-2.3739605}},"Address":{"Label":"43 Canute Place, Knutsford, WA16 6BQ, United Kingdom","Country":"GBR","State":"England","County":"Cheshire","City":"Knutsford","District":"Knutsford","Street":"Canute Place","HouseNumber":"43","PostalCode":"WA16 6BQ","AdditionalData":[{"value":"United Kingdom","key":"CountryName"},{"value":"England","key":"StateName"},{"value":"Cheshire","key":"CountyName"}]},"MapReference":{"ReferenceId":"27589152","Spot":0.72,"SideOfStreet":"left","StateId":"20248595","CountyId":"20343157","CityId":"20343459","DistrictId":"20343460"}}},{"Relevance":1.0,"Distance":39.3,"MatchLevel":"postalCode","MatchQuality":{"PostalCode":1.0},"MatchType":"interpolated","Location":{"LocationId":"NT_yY1XJUt-jylOFvJ.nn81oB_l_27589152_L_0MD","LocationType":"point","DisplayPosition":{"Latitude":53.30514,"Longitude":-2.37575},"MapView":{"TopLeft":{"Latitude":53.3141332,"Longitude":-2.3908001},"BottomRight":{"Latitude":53.2961468,"Longitude":-2.3606999}},"Address":{"Label":"WA16 6BQ, Knutsford, England, United Kingdom","Country":"GBR","State":"England","County":"Cheshire","City":"Knutsford","PostalCode":"WA16 6BQ","AdditionalData":[{"value":"United Kingdom","key":"CountryName"},{"value":"England","key":"StateName"},{"value":"Cheshire","key":"CountyName"}]},"MapReference":{"ReferenceId":"27589152","Spot":0.72,"SideOfStreet":"neither","StateId":"20248595","CountyId":"20343157","CityId":"20343459"}}},{"Relevance":1.0,"Distance":42.4,"MatchLevel":"houseNumber","MatchQuality":{"Country":1.0,"State":1.0,"County":1.0,"City":1.0,"District":1.0,"Street":[1.0],"HouseNumber":1.0,"PostalCode":1.0},"MatchType":"interpolated","Location":{"LocationId":"NT_yY1XJUt-jylOFvJ.nn81oB_l_27589153_L_0cD","LocationType":"point","DisplayPosition":{"Latitude":53.3051525,"Longitude":-2.3755196},"MapView":{"TopLeft":{"Latitude":53.3062767,"Longitude":-2.3774008},"BottomRight":{"Latitude":53.3040284,"Longitude":-2.3736383}},"Address":{"Label":"47 Canute Place, Knutsford, WA16 6BQ, United Kingdom","Country":"GBR","State":"England","County":"Cheshire","City":"Knutsford","District":"Knutsford","Street":"Canute Place","HouseNumber":"47","PostalCode":"WA16 6BQ","AdditionalData":[{"value":"United Kingdom","key":"CountryName"},{"value":"England","key":"StateName"},{"value":"Cheshire","key":"CountyName"}]},"MapReference":{"ReferenceId":"27589153","Spot":0.54,"SideOfStreet":"left","StateId":"20248595","CountyId":"20343157","CityId":"20343459","DistrictId":"20343460"}}}]}]}}