{"Response":{"MetaInfo":{"Timestamp":"2020-03-28T09:55:04.515+0000","NextPageInformation":"2"},"View":[{"_type":"SearchResultsViewType","ViewId":0,"Result":[{"Relevance":1.0,"Distance":0.0,"Direction":0.0,"MatchLevel":"district","MatchQuality":{"Country":1.0,"County":1.0,"City":1.0,"District":1.0,"PostalCode":1.0},"Location":{"LocationId":"NT_MjGMFpQBjJYnY29zh86VUA","LocationType":"point","DisplayPosition":{"Latitude":53.3446479,"Longitude":-6.5450907},"MapView":{"TopLeft":{"Latitude":53.35695,"Longitude":-6.56637},"BottomRight":{"Latitude":53.31995,"Longitude":-6.52358}},"Address":{"Label":"Celbridge, Naas, Ireland","Country":"IRL","County":"County Kildare","City":"Naas","District":"Celbridge","AdditionalData":[{"value":"Ireland","key":"CountryName"},{"value":"County Kildare","key":"CountyName"}]},"MapReference":{"ReferenceId":"554498572","SideOfStreet":"neither","CountryId":"20403667","CountyId":"20411195","CityId":"20527922","DistrictId":"20528097"}}},{"Relevance":1.0,"Distance":23.8,"MatchLevel":"houseNumber","MatchQuality":{"Country":1.0,"County":1.0,"City":1.0,"District":1.0,"Street":[1.0],"PostalCode":1.0},"MatchType":"interpolated","Location":{"LocationId":"NT_Etpcm2ZURGofX5pihJh.-C","LocationType":"point","DisplayPosition":{"Latitude":53.34423,"Longitude":-6.54477},"MapView":{"TopLeft":{"Latitude":53.3453542,"Longitude":-6.546653},"BottomRight":{"Latitude":53.3431058,"Longitude":-6.542887}},"Address":{"Label":"\"Community Care Centre\" Shackleton Road, Naas, County Kildare, W23 PP59, Ireland","Country":"IRL","County":"County Kildare","City":"Naas","District":"Celbridge","Street":"Shackleton Road","PostalCode":"W23 PP59","AdditionalData":[{"value":"Ireland","key":"CountryName"},{"value":"County Kildare","key":"CountyName"}],"Building":"Community Care Centre"},"MapReference":{"ReferenceId":"1222251451","Spot":0.86,"SideOfStreet":"left","CountryId":"20403667","CountyId":"20411195","CityId":"20527922","DistrictId":"20528097","AddressId":"743653217","RoadLinkId":"539869074"}}},{"Relevance":1.0,"Distance":27.5,"MatchLevel":"postalCode","MatchQuality":{"PostalCode":1.0},"MatchType":"interpolated","Location":{"LocationId":"NT_Etpcm2ZURGofX5pihJh.-C","LocationType":"point","DisplayPosition":{"Latitude":53.34449,"Longitude":-6.54541},"MapView":{"TopLeft":{"Latitude":53.3534832,"Longitude":-6.560474},"BottomRight":{"Latitude":53.3354968,"Longitude":-6.530346}},"Address":{"Label":"W23 R6W2, Naas, Ireland","Country":"IRL","County":"County Kildare","City":"Naas","PostalCode":"W23 R6W2","AdditionalData":[{"value":"Ireland","key":"CountryName"},{"value":"County Kildare","key":"CountyName"}]},"MapReference":{"ReferenceId":"1222251451","Spot":0.86,"SideOfStreet":"neither","CountryId":"20403667","CountyId":"20411195","CityId":"20527922"}}},{"Relevance":1.0,"Distance":45.8,"MatchLevel":"houseNumber","MatchQuality":{"Country":1.0,"County":1.0,"City":1.0,"District":1.0,"Street":[1.0],"HouseNumber":1.0,"PostalCode":1.0},"MatchType":"interpolated","Location":{"LocationId":"NT_R3c8bxscCcVKGQtcr8wueA_zMD","LocationType":"point","DisplayPosition":{"Latitude":53.34523,"Longitude":-6.54482},"MapView":{"TopLeft":{"Latitude":53.3463542,"Longitude":-6.546703},"BottomRight":{"Latitude":53.3441058,"Longitude":-6.542937}},"Address":{"Label":"33 Beatty Park, Naas, County Kildare, W23 A025, Ireland","Country":"IRL","County":"County Kildare","City":"Naas","District":"Celbridge","Street":"Beatty Park","HouseNumber":"33","PostalCode":"W23 A025","AdditionalData":[{"value":"Ireland","key":"CountryName"},{"value":"County Kildare","key":"CountyName"}]},"MapReference":{"ReferenceId":"587815742","Spot":0.0,"SideOfStreet":"left","CountryId":"20403667","CountyId":"20411195","CityId":"20527922","DistrictId":"20528097","AddressId":"214772978","RoadLinkId":"86644992"}}},{"Relevance":1.0,"Distance":51.4,"MatchLevel":"postalCode","MatchQuality":{"PostalCode":1.0},"MatchType":"interpolated","Location":{"LocationId":"NT_R3c8bxscCcVKGQtcr8wueA_zMD","LocationType":"point","DisplayPosition":{"Latitude":53.34511,"Longitude":-6.5451},"MapView":{"TopLeft":{"Latitude":53.3541032,"Longitude":-6.5601642},"BottomRight":{"Latitude":53.3361168,"Longitude":-6.5300358}},"Address":{"Label":"W23 T957, Naas, Ireland","Country":"IRL","County":"County Kildare","City":"Naas","PostalCode":"W23 T957","AdditionalData":[{"value":"Ireland","key":"CountryName"},{"value":"County Kildare","key":"CountyName"}]},"MapReference":{"ReferenceId":"587815742","Spot":0.0,"SideOfStreet":"neither","CountryId":"20403667","CountyId":"20411195","CityId":"20527922"}}},{"Relevance":1.0,"Distance":55.4,"MatchLevel":"houseNumber","MatchQuality":{"Country":1.0,"County":1.0,"City":1.0,"District":1.0,"Street":[1.0],"HouseNumber":1.0,"PostalCode":1.0},"MatchType":"interpolated","Location":{"LocationId":"NT_R3c8bxscCcVKGQtcr8wueA_0gTY","LocationType":"point","DisplayPosition":{"Latitude":53.34507,"Longitude":-6.54591},"MapView":{"TopLeft":{"Latitude":53.3461942,"Longitude":-6.547793},"BottomRight":{"Latitude":53.3439458,"Longitude":-6.544027}},"Address":{"Label":"48a Beatty Park, Naas, County Kildare, W23 TF38, Ireland","Country":"IRL","County":"County Kildare","City":"Naas","District":"Celbridge","Street":"Beatty Park","HouseNumber":"48a","PostalCode":"W23 TF38","AdditionalData":[{"value":"Ireland","key":"CountryName"},{"value":"County Kildare","key":"CountyName"}]},"MapReference":{"ReferenceId":"587824146","Spot":0.46,"SideOfStreet":"right","CountryId":"20403667","CountyId":"20411195","CityId":"20527922","DistrictId":"20528097","AddressId":"743615952","RoadLinkId":"86568282"}}},{"Relevance":1.0,"Distance":58.6,"MatchLevel":"houseNumber","MatchQuality":{"Country":1.0,"County":1.0,"City":1.0,"District":1.0,"Street":[1.0],"HouseNumber":1.0,"PostalCode":1.0},"MatchType":"interpolated","Location":{"LocationId":"NT_DrKlb4S3sUMK4tj6M00spA_0A","LocationType":"point","DisplayPosition":{"Latitude":53.34499,"Longitude":-6.54442},"MapView":{"TopLeft":{"Latitude":53.3461142,"Longitude":-6.546303},"BottomRight":{"Latitude":53.3438658,"Longitude":-6.542537}},"Address":{"Label":"4 Whitethorn Grove, Naas, County Kildare, W23 XY04, Ireland","Country":"IRL","County":"County Kildare","City":"Naas","District":"Celbridge","Street":"Whitethorn Grove","HouseNumber":"4","PostalCode":"W23 XY04","AdditionalData":[{"value":"Ireland","key":"CountryName"},{"value":"County Kildare","key":"CountyName"}]},"MapReference":{"ReferenceId":"1118175480","Spot":0.86,"SideOfStreet":"right","CountryId":"20403667","CountyId":"20411195","CityId":"20527922","DistrictId":"20528097","AddressId":"214403596","RoadLinkId":"428388919"}}},{"Relevance":1.0,"Distance":61.9,"MatchLevel":"postalCode","MatchQuality":{"PostalCode":1.0},"MatchType":"interpolated","Location":{"LocationId":"NT_R3c8bxscCcVKGQtcr8wueA_0gTY","LocationType":"point","DisplayPosition":{"Latitude":53.34511,"Longitude":-6.54561},"MapView":{"TopLeft":{"Latitude":53.3541032,"Longitude":-6.5606742},"BottomRight":{"Latitude":53.3361168,"Longitude":-6.5305458}},"Address":{"Label":"W23 K512, Naas, Ireland","Country":"IRL","County":"County Kildare","City":"Naas","PostalCode":"W23 K512","AdditionalData":[{"value":"Ireland","key":"CountryName"},{"value":"County Kildare","key":"CountyName"}]},"MapReference":{"ReferenceId":"587824146","Spot":0.46,"SideOfStreet":"neither","CountryId":"20403667","CountyId":"20411195","CityId":"20527922"}}},{"Relevance":1.0,"Distance":68.3,"MatchLevel":"street","MatchQuality":{"Country":1.0,"County":1.0,"City":1.0,"District":1.0,"Street":[1.0],"PostalCode":1.0},"Location":{"LocationId":"NT_Etpcm2ZURGofX5pihJh.-C_l_1222251452_R","LocationType":"point","DisplayPosition":{"Latitude":53.34421,"Longitude":-6.54437},"MapView":{"TopLeft":{"Latitude":53.34421,"Longitude":-6.54437},"BottomRight":{"Latitude":53.34418,"Longitude":-6.54388}},"Address":{"Label":"Shackleton Road, Naas, County Kildare, W23, Ireland","Country":"IRL","County":"County Kildare","City":"Naas","District":"Celbridge","Street":"Shackleton Road","PostalCode":"W23","AdditionalData":[{"value":"Ireland","key":"CountryName"},{"value":"County Kildare","key":"CountyName"}]},"MapReference":{"ReferenceId":"1222251452","Spot":1.0,"SideOfStreet":"right","CountryId":"20403667","CountyId":"20411195","CityId":"20527922","DistrictId":"20528097"}}},{"Relevance":1.0,"Distance":73.3,"MatchLevel":"postalCode","MatchQuality":{"PostalCode":1.0},"MatchType":"interpolated","Location":{"LocationId":"NT_DrKlb4S3sUMK4tj6M00spA_0A","LocationType":"point","DisplayPosition":{"Latitude":53.34494,"Longitude":-6.5441},"MapView":{"TopLeft":{"Latitude":53.3539332,"Longitude":-6.5591641},"BottomRight":{"Latitude":53.3359468,"Longitude":-6.5290359}},"Address":{"Label":"W23 NY39, Naas, Ireland","Country":"IRL","County":"County Kildare","City":"Naas","PostalCode":"W23 NY39","AdditionalData":[{"value":"Ireland","key":"CountryName"},{"value":"County Kildare","key":"CountyName"}]},"MapReference":{"ReferenceId":"1118175480","Spot":0.86,"SideOfStreet":"neither","CountryId":"20403667","CountyId":"20411195","CityId":"20527922"}}}]}]}}