{"Response":{"MetaInfo":{"Timestamp":"2020-03-28T10:37:19.349+0000","NextPageInformation":"2"},"View":[{"_type":"SearchResultsViewType","ViewId":0,"Result":[{"Relevance":1.0,"Distance":0.0,"Direction":0.0,"MatchLevel":"district","MatchQuality":{"Country":1.0,"State":1.0,"County":1.0,"City":1.0,"District":1.0,"PostalCode":1.0},"Location":{"LocationId":"NT_S1p7W7WCFdHqr2k64wMg-B","LocationType":"point","DisplayPosition":{"Latitude":53.3620687,"Longitude":0.0021694},"MapView":{"TopLeft":{"Latitude":53.38631,"Longitude":-0.01828},"BottomRight":{"Latitude":53.35281,"Longitude":0.02185}},"Address":{"Label":"Louth, England, United Kingdom","Country":"GBR","State":"England","County":"Lincolnshire","City":"Louth","District":"Louth","PostalCode":"LN11 9","AdditionalData":[{"value":"United Kingdom","key":"CountryName"},{"value":"England","key":"StateName"},{"value":"Lincolnshire","key":"CountyName"}]},"MapReference":{"ReferenceId":"26022532","SideOfStreet":"neither","StateId":"20248595","CountyId":"20355210","CityId":"20355615","DistrictId":"20355616"}}},{"Relevance":1.0,"Distance":4.9,"MatchLevel":"houseNumber","MatchQuality":{"Country":1.0,"State":1.0,"County":1.0,"City":1.0,"District":1.0,"Street":[1.0],"HouseNumber":1.0,"PostalCode":1.0},"MatchType":"interpolated","Location":{"LocationId":"NT_u-BOn-aOqTdaGRzvITi9bA_l_26022802_R_xUTM","LocationType":"point","DisplayPosition":{"Latitude":53.3619228,"Longitude":0.002038},"MapView":{"TopLeft":{"Latitude":53.363047,"Longitude":1.542E-4},"BottomRight":{"Latitude":53.3607987,"Longitude":0.0039217}},"Address":{"Label":"151 Newmarket, Louth, LN11 9, United Kingdom","Country":"GBR","State":"England","County":"Lincolnshire","City":"Louth","District":"Louth","Street":"Newmarket","HouseNumber":"151","PostalCode":"LN11 9","AdditionalData":[{"value":"United Kingdom","key":"CountryName"},{"value":"England","key":"StateName"},{"value":"Lincolnshire","key":"CountyName"}]},"MapReference":{"ReferenceId":"26022802","Spot":0.31,"SideOfStreet":"right","StateId":"20248595","CountyId":"20355210","CityId":"20355615","DistrictId":"20355616"}}},{"Relevance":1.0,"Distance":15.8,"MatchLevel":"postalCode","MatchQuality":{"PostalCode":1.0},"MatchType":"interpolated","Location":{"LocationId":"NT_u-BOn-aOqTdaGRzvITi9bA_l_26022802_R_xUTM","LocationType":"point","DisplayPosition":{"Latitude":53.36203,"Longitude":0.00194},"MapView":{"TopLeft":{"Latitude":53.3710232,"Longitude":-0.0131302},"BottomRight":{"Latitude":53.3530368,"Longitude":0.0170102}},"Address":{"Label":"LN11 9EH, Louth, England, United Kingdom","Country":"GBR","State":"England","County":"Lincolnshire","City":"Louth","PostalCode":"LN11 9EH","AdditionalData":[{"value":"United Kingdom","key":"CountryName"},{"value":"England","key":"StateName"},{"value":"Lincolnshire","key":"CountyName"}]},"MapReference":{"ReferenceId":"26022802","Spot":0.31,"SideOfStreet":"neither","StateId":"20248595","CountyId":"20355210","CityId":"20355615"}}},{"Relevance":1.0,"Distance":36.4,"MatchLevel":"houseNumber","MatchQuality":{"Country":1.0,"State":1.0,"County":1.0,"City":1.0,"District":1.0,"Street":[1.0],"HouseNumber":1.0,"PostalCode":1.0},"MatchType":"interpolated","Location":{"LocationId":"NT_SESIx1bAdHoWcl-gHA8BXC_l_26022840_L_yA","LocationType":"point","DisplayPosition":{"Latitude":53.3616119,"Longitude":0.0021395},"MapView":{"TopLeft":{"Latitude":53.3627361,"Longitude":2.558E-4},"BottomRight":{"Latitude":53.3604878,"Longitude":0.0040233}},"Address":{"Label":"2 Tennyson Road, Louth, LN11 9HZ, United Kingdom","Country":"GBR","State":"England","County":"Lincolnshire","City":"Louth","District":"Louth","Street":"Tennyson Road","HouseNumber":"2","PostalCode":"LN11 9HZ","AdditionalData":[{"value":"United Kingdom","key":"CountryName"},{"value":"England","key":"StateName"},{"value":"Lincolnshire","key":"CountyName"}]},"MapReference":{"ReferenceId":"26022840","Spot":0.89,"SideOfStreet":"left","StateId":"20248595","CountyId":"20355210","CityId":"20355615","DistrictId":"20355616"}}},{"Relevance":1.0,"Distance":40.8,"MatchLevel":"houseNumber","MatchQuality":{"Country":1.0,"State":1.0,"County":1.0,"City":1.0,"District":1.0,"Street":[1.0],"HouseNumber":1.0,"PostalCode":1.0},"MatchType":"interpolated","Location":{"LocationId":"NT_u-BOn-aOqTdaGRzvITi9bA_l_1000428349_R_xUTO","LocationType":"point","DisplayPosition":{"Latitude":53.3616775,"Longitude":0.002525},"MapView":{"TopLeft":{"Latitude":53.3628017,"Longitude":6.412E-4},"BottomRight":{"Latitude":53.3605534,"Longitude":0.0044087}},"Address":{"Label":"159 Newmarket, Louth, LN11 9, United Kingdom","Country":"GBR","State":"England","County":"Lincolnshire","City":"Louth","District":"Louth","Street":"Newmarket","HouseNumber":"159","PostalCode":"LN11 9","AdditionalData":[{"value":"United Kingdom","key":"CountryName"},{"value":"England","key":"StateName"},{"value":"Lincolnshire","key":"CountyName"}]},"MapReference":{"ReferenceId":"1000428349","Spot":0.75,"SideOfStreet":"right","StateId":"20248595","CountyId":"20355210","CityId":"20355615","DistrictId":"20355616"}}},{"Relevance":1.0,"Distance":43.0,"MatchLevel":"houseNumber","MatchQuality":{"Country":1.0,"State":1.0,"County":1.0,"City":1.0,"District":1.0,"Street":[1.0],"HouseNumber":1.0,"PostalCode":1.0},"MatchType":"interpolated","Location":{"LocationId":"NT_MfyB2BWhrkq53AsoGdwZbB_l_1245973447_R_yA","LocationType":"point","DisplayPosition":{"Latitude":53.36172,"Longitude":0.00245},"MapView":{"TopLeft":{"Latitude":53.3628442,"Longitude":5.663E-4},"BottomRight":{"Latitude":53.3605959,"Longitude":0.0043338}},"Address":{"Label":"2 Watts Lane, Louth, LN11 9, United Kingdom","Country":"GBR","State":"England","County":"Lincolnshire","City":"Louth","District":"Louth","Street":"Watts Lane","HouseNumber":"2","PostalCode":"LN11 9","AdditionalData":[{"value":"United Kingdom","key":"CountryName"},{"value":"England","key":"StateName"},{"value":"Lincolnshire","key":"CountyName"}]},"MapReference":{"ReferenceId":"1245973447","Spot":0.0,"SideOfStreet":"right","StateId":"20248595","CountyId":"20355210","CityId":"20355615","DistrictId":"20355616"}}},{"Relevance":1.0,"Distance":43.3,"MatchLevel":"houseNumber","MatchQuality":{"Country":1.0,"State":1.0,"County":1.0,"City":1.0,"District":1.0,"Street":[1.0],"HouseNumber":1.0,"PostalCode":1.0},"MatchType":"interpolated","Location":{"LocationId":"NT_w.Bn.GQEVvmQVA5dggpghC_l_26022756_R_xQD","LocationType":"point","DisplayPosition":{"Latitude":53.3625359,"Longitude":0.0017983},"MapView":{"TopLeft":{"Latitude":53.36366,"Longitude":-8.55E-5},"BottomRight":{"Latitude":53.3614117,"Longitude":0.003682}},"Address":{"Label":"14 South Terrace, Louth, LN11 9DF, United Kingdom","Country":"GBR","State":"England","County":"Lincolnshire","City":"Louth","District":"Louth","Street":"South Terrace","HouseNumber":"14","PostalCode":"LN11 9DF","AdditionalData":[{"value":"United Kingdom","key":"CountryName"},{"value":"England","key":"StateName"},{"value":"Lincolnshire","key":"CountyName"}]},"MapReference":{"ReferenceId":"26022756","Spot":0.5,"SideOfStreet":"right","StateId":"20248595","CountyId":"20355210","CityId":"20355615","DistrictId":"20355616"}}},{"Relevance":1.0,"Distance":43.7,"MatchLevel":"street","MatchQuality":{"Country":1.0,"State":1.0,"County":1.0,"City":1.0,"District":1.0,"Street":[1.0],"PostalCode":1.0},"Location":{"LocationId":"NT_MfyB2BWhrkq53AsoGdwZbB_l_1245973450_L","LocationType":"point","DisplayPosition":{"Latitude":53.3622,"Longitude":0.00279},"MapView":{"TopLeft":{"Latitude":53.3622,"Longitude":0.00279},"BottomRight":{"Latitude":53.36187,"Longitude":0.00303}},"Address":{"Label":"Watts Lane, Louth, LN11 9, United Kingdom","Country":"GBR","State":"England","County":"Lincolnshire","City":"Louth","District":"Louth","Street":"Watts Lane","PostalCode":"LN11 9","AdditionalData":[{"value":"United Kingdom","key":"CountryName"},{"value":"England","key":"StateName"},{"value":"Lincolnshire","key":"CountyName"}]},"MapReference":{"ReferenceId":"1245973450","Spot":1.0,"SideOfStreet":"left","StateId":"20248595","CountyId":"20355210","CityId":"20355615","DistrictId":"20355616"}}},{"Relevance":1.0,"Distance":48.6,"MatchLevel":"houseNumber","MatchQuality":{"Country":1.0,"State":1.0,"County":1.0,"City":1.0,"District":1.0,"Street":[1.0],"HouseNumber":1.0,"PostalCode":1.0},"MatchType":"interpolated","Location":{"LocationId":"NT_MfyB2BWhrkq53AsoGdwZbB_l_1245973448_R_4A","LocationType":"point","DisplayPosition":{"Latitude":53.36178,"Longitude":0.00272},"MapView":{"TopLeft":{"Latitude":53.3629042,"Longitude":8.363E-4},"BottomRight":{"Latitude":53.3606559,"Longitude":0.0046038}},"Address":{"Label":"8 Watts Lane, Louth, LN11 9, United Kingdom","Country":"GBR","State":"England","County":"Lincolnshire","City":"Louth","District":"Louth","Street":"Watts Lane","HouseNumber":"8","PostalCode":"LN11 9","AdditionalData":[{"value":"United Kingdom","key":"CountryName"},{"value":"England","key":"StateName"},{"value":"Lincolnshire","key":"CountyName"}]},"MapReference":{"ReferenceId":"1245973448","Spot":0.0,"SideOfStreet":"right","StateId":"20248595","CountyId":"20355210","CityId":"20355615","DistrictId":"20355616"}}},{"Relevance":1.0,"Distance":61.4,"MatchLevel":"houseNumber","MatchQuality":{"Country":1.0,"State":1.0,"County":1.0,"City":1.0,"District":1.0,"Street":[1.0],"HouseNumber":1.0,"PostalCode":1.0},"MatchType":"interpolated","Location":{"LocationId":"NT_7J7g894CoWy5KzzS2hMMQB_l_26022757_R_xMTM","LocationType":"point","DisplayPosition":{"Latitude":53.3624703,"Longitude":0.0012402},"MapView":{"TopLeft":{"Latitude":53.3635944,"Longitude":-6.436E-4},"BottomRight":{"Latitude":53.3613461,"Longitude":0.0031239}},"Address":{"Label":"131 Church Street, Louth, LN11 9DE, United Kingdom","Country":"GBR","State":"England","County":"Lincolnshire","City":"Louth","District":"Louth","Street":"Church Street","HouseNumber":"131","PostalCode":"LN11 9DE","AdditionalData":[{"value":"United Kingdom","key":"CountryName"},{"value":"England","key":"StateName"},{"value":"Lincolnshire","key":"CountyName"}]},"MapReference":{"ReferenceId":"26022757","Spot":0.1,"SideOfStreet":"right","StateId":"20248595","CountyId":"20355210","CityId":"20355615","DistrictId":"20355616"}}}]}]}}