{"Response":{"MetaInfo":{"Timestamp":"2020-03-31T17:03:36.141+0000","NextPageInformation":"2"},"View":[{"_type":"SearchResultsViewType","ViewId":0,"Result":[{"Relevance":1.0,"Distance":0.0,"Direction":0.0,"MatchLevel":"district","MatchQuality":{"Country":1.0,"County":1.0,"City":1.0,"District":1.0},"Location":{"LocationId":"NT_8H46XPZLph7sx6r6V0GQfC","LocationType":"point","DisplayPosition":{"Latitude":53.3899,"Longitude":-6.293},"MapView":{"TopLeft":{"Latitude":53.45353,"Longitude":-6.35863},"BottomRight":{"Latitude":53.36542,"Longitude":-6.22691}},"Address":{"Label":"Dublin 11, Dublin, Ireland","Country":"IRL","County":"County Dublin","City":"Dublin","District":"Dublin 11","AdditionalData":[{"value":"Ireland","key":"CountryName"},{"value":"County Dublin","key":"CountyName"}]},"MapReference":{"ReferenceId":"554387520","SideOfStreet":"neither","CountryId":"20403667","CountyId":"20411172","CityId":"20413526","DistrictId":"20413538"}}},{"Relevance":1.0,"Distance":4.5,"MatchLevel":"houseNumber","MatchQuality":{"Country":1.0,"County":1.0,"City":1.0,"District":1.0,"Street":[1.0],"HouseNumber":1.0,"PostalCode":1.0},"MatchType":"interpolated","Location":{"LocationId":"NT_h-8f7WzmDpSZ4MPUsPBvpC_1YD","LocationType":"point","DisplayPosition":{"Latitude":53.38994,"Longitude":-6.29301},"MapView":{"TopLeft":{"Latitude":53.3910642,"Longitude":-6.294895},"BottomRight":{"Latitude":53.3888158,"Longitude":-6.291125}},"Address":{"Label":"56 Ballygall Road West, Dublin, County Dublin, D11 FR41, Ireland","Country":"IRL","County":"County Dublin","City":"Dublin","District":"Dublin 11","Street":"Ballygall Road West","HouseNumber":"56","PostalCode":"D11 FR41","AdditionalData":[{"value":"Ireland","key":"CountryName"},{"value":"County Dublin","key":"CountyName"}]},"MapReference":{"ReferenceId":"554385316","Spot":0.23,"SideOfStreet":"left","CountryId":"20403667","CountyId":"20411172","CityId":"20413526","DistrictId":"20413538","AddressId":"359850893","RoadLinkId":"86822559"}}},{"Relevance":1.0,"Distance":9.2,"MatchLevel":"street","MatchQuality":{"Country":1.0,"County":1.0,"City":1.0,"District":1.0,"Street":[1.0],"PostalCode":1.0},"Location":{"LocationId":"NT_h-8f7WzmDpSZ4MPUsPBvpC_l_920441902_L","LocationType":"point","DisplayPosition":{"Latitude":53.3898174,"Longitude":-6.2929915},"MapView":{"TopLeft":{"Latitude":53.38983,"Longitude":-6.29316},"BottomRight":{"Latitude":53.3898,"Longitude":-6.29287}},"Address":{"Label":"Ballygall Road West, Dublin, County Dublin, D11, Ireland","Country":"IRL","County":"County Dublin","City":"Dublin","District":"Dublin 11","Street":"Ballygall Road West","PostalCode":"D11","AdditionalData":[{"value":"Ireland","key":"CountryName"},{"value":"County Dublin","key":"CountyName"}]},"MapReference":{"ReferenceId":"920441902","Spot":0.58,"SideOfStreet":"left","CountryId":"20403667","CountyId":"20411172","CityId":"20413526","DistrictId":"20413538"}}},{"Relevance":1.0,"Distance":15.4,"MatchLevel":"street","MatchQuality":{"Country":1.0,"County":1.0,"City":1.0,"District":1.0,"Street":[1.0],"PostalCode":1.0},"Location":{"LocationId":"NT_JSeGiTrXL4v1L4DYHwbf9B_l_554385324_L","LocationType":"point","DisplayPosition":{"Latitude":53.3898,"Longitude":-6.29316},"MapView":{"TopLeft":{"Latitude":53.3898,"Longitude":-6.29357},"BottomRight":{"Latitude":53.38978,"Longitude":-6.29316}},"Address":{"Label":"Ballygall Road West, Dublin, County Dublin, D11, Ireland","Country":"IRL","County":"County Dublin","City":"Dublin","District":"Dublin 11","Street":"Ballygall Road West","PostalCode":"D11","AdditionalData":[{"value":"Ireland","key":"CountryName"},{"value":"County Dublin","key":"CountyName"}]},"MapReference":{"ReferenceId":"554385324","Spot":1.0,"SideOfStreet":"left","CountryId":"20403667","CountyId":"20411172","CityId":"20413526","DistrictId":"20413538"}}},{"Relevance":1.0,"Distance":22.2,"MatchLevel":"postalCode","MatchQuality":{"PostalCode":1.0},"MatchType":"interpolated","Location":{"LocationId":"NT_h-8f7WzmDpSZ4MPUsPBvpC_1YD","LocationType":"point","DisplayPosition":{"Latitude":53.39005,"Longitude":-6.29322},"MapView":{"TopLeft":{"Latitude":53.3990432,"Longitude":-6.3083001},"BottomRight":{"Latitude":53.3810568,"Longitude":-6.2781399}},"Address":{"Label":"D11 K4K0, Dublin, Ireland","Country":"IRL","County":"County Dublin","City":"Dublin","PostalCode":"D11 K4K0","AdditionalData":[{"value":"Ireland","key":"CountryName"},{"value":"County Dublin","key":"CountyName"}]},"MapReference":{"ReferenceId":"554385316","Spot":0.23,"SideOfStreet":"neither","CountryId":"20403667","CountyId":"20411172","CityId":"20413526"}}},{"Relevance":1.0,"Distance":40.1,"MatchLevel":"street","MatchQuality":{"Country":1.0,"County":1.0,"City":1.0,"District":1.0,"PostalCode":1.0},"Location":{"LocationId":"NT_aIu7UOJhYAih.pVm81TQrC_l_779653600_R","LocationType":"point","DisplayPosition":{"Latitude":53.38978,"Longitude":-6.29357},"MapView":{"TopLeft":{"Latitude":53.38978,"Longitude":-6.29357},"BottomRight":{"Latitude":53.38959,"Longitude":-6.29354}},"Address":{"Label":"Dublin, County Dublin, D11, Ireland","Country":"IRL","County":"County Dublin","City":"Dublin","District":"Dublin 11","PostalCode":"D11","AdditionalData":[{"value":"Ireland","key":"CountryName"},{"value":"County Dublin","key":"CountyName"}]},"MapReference":{"ReferenceId":"779653600","Spot":1.0,"SideOfStreet":"right","CountryId":"20403667","CountyId":"20411172","CityId":"20413526","DistrictId":"20413538"}}},{"Relevance":1.0,"Distance":48.6,"MatchLevel":"houseNumber","MatchQuality":{"Country":1.0,"County":1.0,"City":1.0,"District":1.0,"Street":[1.0],"HouseNumber":1.0,"PostalCode":1.0},"MatchType":"interpolated","Location":{"LocationId":"NT_VMr-67b3FdyD9F90jKRAYD_3EG","LocationType":"point","DisplayPosition":{"Latitude":53.39017,"Longitude":-6.29374},"MapView":{"TopLeft":{"Latitude":53.3912942,"Longitude":-6.295625},"BottomRight":{"Latitude":53.3890458,"Longitude":-6.291855}},"Address":{"Label":"7a Clune Road, Dublin, County Dublin, D11 EY88, Ireland","Country":"IRL","County":"County Dublin","City":"Dublin","District":"Dublin 11","Street":"Clune Road","HouseNumber":"7a","PostalCode":"D11 EY88","AdditionalData":[{"value":"Ireland","key":"CountryName"},{"value":"County Dublin","key":"CountyName"}]},"MapReference":{"ReferenceId":"554383989","Spot":0.28,"SideOfStreet":"right","CountryId":"20403667","CountyId":"20411172","CityId":"20413526","DistrictId":"20413538","AddressId":"743615142","RoadLinkId":"86713770"}}},{"Relevance":1.0,"Distance":49.7,"MatchLevel":"street","MatchQuality":{"Country":1.0,"County":1.0,"City":1.0,"District":1.0,"PostalCode":1.0},"Location":{"LocationId":"NT_aIu7UOJhYAih.pVm81TQrC_l_779653599_R","LocationType":"point","DisplayPosition":{"Latitude":53.38959,"Longitude":-6.29354},"MapView":{"TopLeft":{"Latitude":53.38959,"Longitude":-6.29354},"BottomRight":{"Latitude":53.3894,"Longitude":-6.29347}},"Address":{"Label":"Dublin, County Dublin, D11, Ireland","Country":"IRL","County":"County Dublin","City":"Dublin","District":"Dublin 11","PostalCode":"D11","AdditionalData":[{"value":"Ireland","key":"CountryName"},{"value":"County Dublin","key":"CountyName"}]},"MapReference":{"ReferenceId":"779653599","Spot":1.0,"SideOfStreet":"right","CountryId":"20403667","CountyId":"20411172","CityId":"20413526","DistrictId":"20413538"}}},{"Relevance":1.0,"Distance":50.4,"MatchLevel":"houseNumber","MatchQuality":{"Country":1.0,"County":1.0,"City":1.0,"District":1.0,"Street":[1.0],"PostalCode":1.0},"MatchType":"interpolated","Location":{"LocationId":"NT_h-8f7WzmDpSZ4MPUsPBvpC","LocationType":"point","DisplayPosition":{"Latitude":53.3899,"Longitude":-6.29224},"MapView":{"TopLeft":{"Latitude":53.3910242,"Longitude":-6.294125},"BottomRight":{"Latitude":53.3887758,"Longitude":-6.290355}},"Address":{"Label":"\"Saint Canices Boys National School\" Ballygall Road West, Dublin, County Dublin, D11 TW01, Ireland","Country":"IRL","County":"County Dublin","City":"Dublin","District":"Dublin 11","Street":"Ballygall Road West","PostalCode":"D11 TW01","AdditionalData":[{"value":"Ireland","key":"CountryName"},{"value":"County Dublin","key":"CountyName"}],"Building":"Saint Canices Boys National School"},"MapReference":{"ReferenceId":"920441903","Spot":0.49,"SideOfStreet":"right","CountryId":"20403667","CountyId":"20411172","CityId":"20413526","DistrictId":"20413538","AddressId":"677480337","RoadLinkId":"277334320"}}},{"Relevance":1.0,"Distance":56.9,"MatchLevel":"houseNumber","MatchQuality":{"Country":1.0,"County":1.0,"City":1.0,"District":1.0,"Street":[1.0],"HouseNumber":1.0,"PostalCode":1.0},"MatchType":"interpolated","Location":{"LocationId":"NT_h-8f7WzmDpSZ4MPUsPBvpC_3AD","LocationType":"point","DisplayPosition":{"Latitude":53.39005,"Longitude":-6.29218},"MapView":{"TopLeft":{"Latitude":53.3911742,"Longitude":-6.294065},"BottomRight":{"Latitude":53.3889258,"Longitude":-6.290295}},"Address":{"Label":"70 Ballygall Road West, Dublin, County Dublin, D11 X244, Ireland","Country":"IRL","County":"County Dublin","City":"Dublin","District":"Dublin 11","Street":"Ballygall Road West","HouseNumber":"70","PostalCode":"D11 X244","AdditionalData":[{"value":"Ireland","key":"CountryName"},{"value":"County Dublin","key":"CountyName"}]},"MapReference":{"ReferenceId":"554383981","Spot":0.92,"SideOfStreet":"right","CountryId":"20403667","CountyId":"20411172","CityId":"20413526","DistrictId":"20413538","AddressId":"359860504","RoadLinkId":"86537085"}}}]}]}}