{"Response":{"MetaInfo":{"Timestamp":"2020-03-28T11:22:38.503+0000","NextPageInformation":"2"},"View":[{"_type":"SearchResultsViewType","ViewId":0,"Result":[{"Relevance":1.0,"Distance":0.0,"Direction":0.0,"MatchLevel":"district","MatchQuality":{"Country":1.0,"County":1.0,"City":1.0,"District":1.0},"Location":{"LocationId":"NT_dcucf7AH8VTfesJNZypcRD","LocationType":"point","DisplayPosition":{"Latitude":53.3355303,"Longitude":-6.289229},"MapView":{"TopLeft":{"Latitude":53.37202,"Longitude":-6.35635},"BottomRight":{"Latitude":53.32964,"Longitude":-6.26428}},"Address":{"Label":"Dublin 8, Dublin, Ireland","Country":"IRL","County":"County Dublin","City":"Dublin","District":"Dublin 8","AdditionalData":[{"value":"Ireland","key":"CountryName"},{"value":"County Dublin","key":"CountyName"}]},"MapReference":{"ReferenceId":"1212842628","SideOfStreet":"neither","CountryId":"20403667","CountyId":"20411172","CityId":"20413526","DistrictId":"20413535"}}},{"Relevance":1.0,"Distance":0.1,"MatchLevel":"landmark","MatchQuality":{"Country":1.0,"County":1.0,"City":1.0,"District":1.0,"PostalCode":1.0,"Name":1.0},"Location":{"LocationId":"NT_iCTtxYRNq-LQwRwGnu.hSA","LocationType":"hospital","Name":"Coombe Womens Hospital","DisplayPosition":{"Latitude":53.33467,"Longitude":-6.28838},"MapView":{"TopLeft":{"Latitude":53.33557,"Longitude":-6.29054},"BottomRight":{"Latitude":53.33376,"Longitude":-6.28657}},"Address":{"Label":"Dublin, County Dublin, D08, Ireland","Country":"IRL","County":"County Dublin","City":"Dublin","District":"Dublin 8","PostalCode":"D08","AdditionalData":[{"value":"Ireland","key":"CountryName"},{"value":"County Dublin","key":"CountyName"}]},"MapReference":{"CountryId":"20403667","CountyId":"20411172","CityId":"20413526","DistrictId":"20413535","PlaceId":"558106992"}}},{"Relevance":1.0,"Distance":2.9,"MatchLevel":"street","MatchQuality":{"Country":1.0,"County":1.0,"City":1.0,"District":1.0,"PostalCode":1.0},"Location":{"LocationId":"NT_KmMG8RtDwVAqwo3FFoZBkA_l_757495015_R","LocationType":"point","DisplayPosition":{"Latitude":53.33554,"Longitude":-6.28927},"MapView":{"TopLeft":{"Latitude":53.33554,"Longitude":-6.28954},"BottomRight":{"Latitude":53.33507,"Longitude":-6.28927}},"Address":{"Label":"Dublin, County Dublin, D08, Ireland","Country":"IRL","County":"County Dublin","City":"Dublin","District":"Dublin 8","PostalCode":"D08","AdditionalData":[{"value":"Ireland","key":"CountryName"},{"value":"County Dublin","key":"CountyName"}]},"MapReference":{"ReferenceId":"757495015","Spot":1.0,"SideOfStreet":"right","CountryId":"20403667","CountyId":"20411172","CityId":"20413526","DistrictId":"20413535"}}},{"Relevance":1.0,"Distance":3.3,"MatchLevel":"street","MatchQuality":{"Country":1.0,"County":1.0,"City":1.0,"District":1.0,"PostalCode":1.0},"Location":{"LocationId":"NT_KmMG8RtDwVAqwo3FFoZBkA_l_757495016_R","LocationType":"point","DisplayPosition":{"Latitude":53.3355522,"Longitude":-6.2892619},"MapView":{"TopLeft":{"Latitude":53.3356,"Longitude":-6.28927},"BottomRight":{"Latitude":53.33554,"Longitude":-6.28923}},"Address":{"Label":"Dublin, County Dublin, D08, Ireland","Country":"IRL","County":"County Dublin","City":"Dublin","District":"Dublin 8","PostalCode":"D08","AdditionalData":[{"value":"Ireland","key":"CountryName"},{"value":"County Dublin","key":"CountyName"}]},"MapReference":{"ReferenceId":"757495016","Spot":0.2,"SideOfStreet":"right","CountryId":"20403667","CountyId":"20411172","CityId":"20413526","DistrictId":"20413535"}}},{"Relevance":1.0,"Distance":5.4,"MatchLevel":"houseNumber","MatchQuality":{"Country":1.0,"County":1.0,"City":1.0,"District":1.0,"Street":[1.0],"HouseNumber":1.0,"PostalCode":1.0},"MatchType":"interpolated","Location":{"LocationId":"NT_VsqMGze1P31XPXnBIy7-iD_xA","LocationType":"point","DisplayPosition":{"Latitude":53.3356,"Longitude":-6.28906},"MapView":{"TopLeft":{"Latitude":53.3367242,"Longitude":-6.2909426},"BottomRight":{"Latitude":53.3344758,"Longitude":-6.2871774}},"Address":{"Label":"1 Emerald Terrace, Dublin, County Dublin, D08 F6VA, Ireland","Country":"IRL","County":"County Dublin","City":"Dublin","District":"Dublin 8","Street":"Emerald Terrace","HouseNumber":"1","PostalCode":"D08 F6VA","AdditionalData":[{"value":"Ireland","key":"CountryName"},{"value":"County Dublin","key":"CountyName"}]},"MapReference":{"ReferenceId":"750138735","Spot":0.61,"SideOfStreet":"left","CountryId":"20403667","CountyId":"20411172","CityId":"20413526","DistrictId":"20413535","AddressId":"214601090","RoadLinkId":"146511384"}}},{"Relevance":1.0,"Distance":9.5,"MatchLevel":"postalCode","MatchQuality":{"PostalCode":1.0},"MatchType":"interpolated","Location":{"LocationId":"NT_VsqMGze1P31XPXnBIy7-iD_xA","LocationType":"point","DisplayPosition":{"Latitude":53.33551,"Longitude":-6.28909},"MapView":{"TopLeft":{"Latitude":53.3445032,"Longitude":-6.3041508},"BottomRight":{"Latitude":53.3265168,"Longitude":-6.2740292}},"Address":{"Label":"D08 T8X7, Dublin, Ireland","Country":"IRL","County":"County Dublin","City":"Dublin","PostalCode":"D08 T8X7","AdditionalData":[{"value":"Ireland","key":"CountryName"},{"value":"County Dublin","key":"CountyName"}]},"MapReference":{"ReferenceId":"750138735","Spot":0.61,"SideOfStreet":"neither","CountryId":"20403667","CountyId":"20411172","CityId":"20413526"}}},{"Relevance":1.0,"Distance":10.9,"MatchLevel":"houseNumber","MatchQuality":{"Country":1.0,"County":1.0,"City":1.0,"District":1.0,"Street":[1.0],"HouseNumber":1.0,"PostalCode":1.0},"MatchType":"interpolated","Location":{"LocationId":"NT_opvfci7dAXAJ0SmhQG3DkB_3AD","LocationType":"point","DisplayPosition":{"Latitude":53.33551,"Longitude":-6.28939},"MapView":{"TopLeft":{"Latitude":53.3366342,"Longitude":-6.2912726},"BottomRight":{"Latitude":53.3343858,"Longitude":-6.2875074}},"Address":{"Label":"70 Cork Street, Dublin, County Dublin, D08 H31A, Ireland","Country":"IRL","County":"County Dublin","City":"Dublin","District":"Dublin 8","Street":"Cork Street","HouseNumber":"70","PostalCode":"D08 H31A","AdditionalData":[{"value":"Ireland","key":"CountryName"},{"value":"County Dublin","key":"CountyName"}]},"MapReference":{"ReferenceId":"549454539","Spot":0.41,"SideOfStreet":"left","CountryId":"20403667","CountyId":"20411172","CityId":"20413526","DistrictId":"20413535","AddressId":"795246641","RoadLinkId":"86783292"}}},{"Relevance":1.0,"Distance":11.3,"MatchLevel":"houseNumber","MatchQuality":{"Country":1.0,"County":1.0,"City":1.0,"District":1.0,"Street":[1.0],"HouseNumber":1.0,"PostalCode":1.0},"MatchType":"interpolated","Location":{"LocationId":"NT_opvfci7dAXAJ0SmhQG3DkB_3MD","LocationType":"point","DisplayPosition":{"Latitude":53.33562,"Longitude":-6.28931},"MapView":{"TopLeft":{"Latitude":53.3367442,"Longitude":-6.2911926},"BottomRight":{"Latitude":53.3344958,"Longitude":-6.2874274}},"Address":{"Label":"73 Cork Street, Dublin, County Dublin, D08 K5N2, Ireland","Country":"IRL","County":"County Dublin","City":"Dublin","District":"Dublin 8","Street":"Cork Street","HouseNumber":"73","PostalCode":"D08 K5N2","AdditionalData":[{"value":"Ireland","key":"CountryName"},{"value":"County Dublin","key":"CountyName"}]},"MapReference":{"ReferenceId":"750138733","Spot":0.48,"SideOfStreet":"left","CountryId":"20403667","CountyId":"20411172","CityId":"20413526","DistrictId":"20413535","AddressId":"214790867","RoadLinkId":"146511380"}}},{"Relevance":1.0,"Distance":15.7,"MatchLevel":"street","MatchQuality":{"Country":1.0,"County":1.0,"City":1.0,"District":1.0,"PostalCode":1.0},"Location":{"LocationId":"NT_KmMG8RtDwVAqwo3FFoZBkA_l_750138736_L","LocationType":"point","DisplayPosition":{"Latitude":53.33567,"Longitude":-6.28926},"MapView":{"TopLeft":{"Latitude":53.33588,"Longitude":-6.28986},"BottomRight":{"Latitude":53.33567,"Longitude":-6.28926}},"Address":{"Label":"Dublin, County Dublin, D08, Ireland","Country":"IRL","County":"County Dublin","City":"Dublin","District":"Dublin 8","PostalCode":"D08","AdditionalData":[{"value":"Ireland","key":"CountryName"},{"value":"County Dublin","key":"CountyName"}]},"MapReference":{"ReferenceId":"750138736","Spot":0.0,"SideOfStreet":"left","CountryId":"20403667","CountyId":"20411172","CityId":"20413526","DistrictId":"20413535"}}},{"Relevance":1.0,"Distance":24.7,"MatchLevel":"houseNumber","MatchQuality":{"Country":1.0,"County":1.0,"City":1.0,"District":1.0,"Street":[1.0],"HouseNumber":1.0,"PostalCode":1.0},"MatchType":"interpolated","Location":{"LocationId":"NT_opvfci7dAXAJ0SmhQG3DkB_xAD","LocationType":"point","DisplayPosition":{"Latitude":53.33575,"Longitude":-6.28917},"MapView":{"TopLeft":{"Latitude":53.3368742,"Longitude":-6.2910526},"BottomRight":{"Latitude":53.3346258,"Longitude":-6.2872874}},"Address":{"Label":"10 Cork Street, Dublin, County Dublin, D08 V40Y, Ireland","Country":"IRL","County":"County Dublin","City":"Dublin","District":"Dublin 8","Street":"Cork Street","HouseNumber":"10","PostalCode":"D08 V40Y","AdditionalData":[{"value":"Ireland","key":"CountryName"},{"value":"County Dublin","key":"CountyName"}]},"MapReference":{"ReferenceId":"750138734","Spot":0.41,"SideOfStreet":"right","CountryId":"20403667","CountyId":"20411172","CityId":"20413526","DistrictId":"20413535","AddressId":"214770607","RoadLinkId":"146511381"}}}]}]}}