{"Response":{"MetaInfo":{"Timestamp":"2020-03-28T10:12:16.511+0000","NextPageInformation":"2"},"View":[{"_type":"SearchResultsViewType","ViewId":0,"Result":[{"Relevance":1.0,"Distance":0.0,"Direction":0.0,"MatchLevel":"district","MatchQuality":{"Country":1.0,"County":1.0,"City":1.0,"District":1.0},"Location":{"LocationId":"NT_nkv1E1gwrqxZ2W2OyF-.QA","LocationType":"point","DisplayPosition":{"Latitude":53.3307562,"Longitude":-6.2465111},"MapView":{"TopLeft":{"Latitude":53.34517,"Longitude":-6.25294},"BottomRight":{"Latitude":53.30092,"Longitude":-6.16365}},"Address":{"Label":"Dublin 4, Dublin, Ireland","Country":"IRL","County":"County Dublin","City":"Dublin","District":"Dublin 4","AdditionalData":[{"value":"Ireland","key":"CountryName"},{"value":"County Dublin","key":"CountyName"}]},"MapReference":{"ReferenceId":"807602255","SideOfStreet":"neither","CountryId":"20403667","CountyId":"20411172","CityId":"20413526","DistrictId":"20413530"}}},{"Relevance":1.0,"Distance":6.1,"MatchLevel":"postalCode","MatchQuality":{"PostalCode":1.0},"MatchType":"interpolated","Location":{"LocationId":"NT_ewQ7ERwmcjvnIsfAN.0.qC_xgD","LocationType":"point","DisplayPosition":{"Latitude":53.33076,"Longitude":-6.24642},"MapView":{"TopLeft":{"Latitude":53.3397532,"Longitude":-6.2614791},"BottomRight":{"Latitude":53.3217668,"Longitude":-6.2313609}},"Address":{"Label":"D04 XP89, Dublin, Ireland","Country":"IRL","County":"County Dublin","City":"Dublin","PostalCode":"D04 XP89","AdditionalData":[{"value":"Ireland","key":"CountryName"},{"value":"County Dublin","key":"CountyName"}]},"MapReference":{"ReferenceId":"1048152521","Spot":0.97,"SideOfStreet":"neither","CountryId":"20403667","CountyId":"20411172","CityId":"20413526"}}},{"Relevance":1.0,"Distance":8.5,"MatchLevel":"houseNumber","MatchQuality":{"Country":1.0,"County":1.0,"City":1.0,"District":1.0,"Street":[1.0],"HouseNumber":1.0,"PostalCode":1.0},"MatchType":"interpolated","Location":{"LocationId":"NT_ewQ7ERwmcjvnIsfAN.0.qC_xgD","LocationType":"point","DisplayPosition":{"Latitude":53.33094,"Longitude":-6.24676},"MapView":{"TopLeft":{"Latitude":53.3320642,"Longitude":-6.2486424},"BottomRight":{"Latitude":53.3298158,"Longitude":-6.2448776}},"Address":{"Label":"18 Burlington Road, Dublin, County Dublin, D04 T1K6, Ireland","Country":"IRL","County":"County Dublin","City":"Dublin","District":"Dublin 4","Street":"Burlington Road","HouseNumber":"18","PostalCode":"D04 T1K6","AdditionalData":[{"value":"Ireland","key":"CountryName"},{"value":"County Dublin","key":"CountyName"}]},"MapReference":{"ReferenceId":"1048152521","Spot":0.97,"SideOfStreet":"right","CountryId":"20403667","CountyId":"20411172","CityId":"20413526","DistrictId":"20413530","AddressId":"214558959","RoadLinkId":"368288395"}}},{"Relevance":1.0,"Distance":21.7,"MatchLevel":"houseNumber","MatchQuality":{"Country":1.0,"County":1.0,"City":1.0,"District":1.0,"Street":[1.0],"HouseNumber":1.0,"PostalCode":1.0},"MatchType":"interpolated","Location":{"LocationId":"NT_ewQ7ERwmcjvnIsfAN.0.qC_xQD","LocationType":"point","DisplayPosition":{"Latitude":53.33104,"Longitude":-6.24664},"MapView":{"TopLeft":{"Latitude":53.3321642,"Longitude":-6.2485224},"BottomRight":{"Latitude":53.3299158,"Longitude":-6.2447576}},"Address":{"Label":"14 Burlington Road, Dublin, County Dublin, D04 W2Y2, Ireland","Country":"IRL","County":"County Dublin","City":"Dublin","District":"Dublin 4","Street":"Burlington Road","HouseNumber":"14","PostalCode":"D04 W2Y2","AdditionalData":[{"value":"Ireland","key":"CountryName"},{"value":"County Dublin","key":"CountyName"}]},"MapReference":{"ReferenceId":"553058537","Spot":0.1,"SideOfStreet":"right","CountryId":"20403667","CountyId":"20411172","CityId":"20413526","DistrictId":"20413530","AddressId":"214813880","RoadLinkId":"86587789"}}},{"Relevance":1.0,"Distance":33.2,"MatchLevel":"postalCode","MatchQuality":{"PostalCode":1.0},"MatchType":"interpolated","Location":{"LocationId":"NT_ewQ7ERwmcjvnIsfAN.0.qC_xQD","LocationType":"point","DisplayPosition":{"Latitude":53.33098,"Longitude":-6.24618},"MapView":{"TopLeft":{"Latitude":53.3399732,"Longitude":-6.2612392},"BottomRight":{"Latitude":53.3219868,"Longitude":-6.2311208}},"Address":{"Label":"D04 X5X9, Dublin, Ireland","Country":"IRL","County":"County Dublin","City":"Dublin","PostalCode":"D04 X5X9","AdditionalData":[{"value":"Ireland","key":"CountryName"},{"value":"County Dublin","key":"CountyName"}]},"MapReference":{"ReferenceId":"553058537","Spot":0.1,"SideOfStreet":"neither","CountryId":"20403667","CountyId":"20411172","CityId":"20413526"}}},{"Relevance":1.0,"Distance":40.4,"MatchLevel":"postalCode","MatchQuality":{"PostalCode":1.0},"MatchType":"interpolated","Location":{"LocationId":"NT_.ibZg0NirURwPGz2hhitOA_yID","LocationType":"point","DisplayPosition":{"Latitude":53.33063,"Longitude":-6.24594},"MapView":{"TopLeft":{"Latitude":53.3396232,"Longitude":-6.2609991},"BottomRight":{"Latitude":53.3216368,"Longitude":-6.2308809}},"Address":{"Label":"D04 R6C5, Dublin, Ireland","Country":"IRL","County":"County Dublin","City":"Dublin","PostalCode":"D04 R6C5","AdditionalData":[{"value":"Ireland","key":"CountryName"},{"value":"County Dublin","key":"CountyName"}]},"MapReference":{"ReferenceId":"864964373","Spot":0.46,"SideOfStreet":"neither","CountryId":"20403667","CountyId":"20411172","CityId":"20413526"}}},{"Relevance":1.0,"Distance":57.1,"MatchLevel":"houseNumber","MatchQuality":{"Country":1.0,"County":1.0,"City":1.0,"District":1.0,"Street":[1.0],"HouseNumber":1.0,"PostalCode":1.0},"MatchType":"interpolated","Location":{"LocationId":"NT_.ibZg0NirURwPGz2hhitOA_yID","LocationType":"point","DisplayPosition":{"Latitude":53.33024,"Longitude":-6.24597},"MapView":{"TopLeft":{"Latitude":53.3313642,"Longitude":-6.2478524},"BottomRight":{"Latitude":53.3291158,"Longitude":-6.2440876}},"Address":{"Label":"22 Waterloo Lane, Dublin, County Dublin, D04 H5H0, Ireland","Country":"IRL","County":"County Dublin","City":"Dublin","District":"Dublin 4","Street":"Waterloo Lane","HouseNumber":"22","PostalCode":"D04 H5H0","AdditionalData":[{"value":"Ireland","key":"CountryName"},{"value":"County Dublin","key":"CountyName"}]},"MapReference":{"ReferenceId":"864964373","Spot":0.46,"SideOfStreet":"left","CountryId":"20403667","CountyId":"20411172","CityId":"20413526","DistrictId":"20413530","AddressId":"214426046","RoadLinkId":"238277740"}}},{"Relevance":1.0,"Distance":71.2,"MatchLevel":"houseNumber","MatchQuality":{"Country":1.0,"County":1.0,"City":1.0,"District":1.0,"Street":[1.0],"PostalCode":1.0},"MatchType":"interpolated","Location":{"LocationId":"NT_ewQ7ERwmcjvnIsfAN.0.qC","LocationType":"point","DisplayPosition":{"Latitude":53.33115,"Longitude":-6.24712},"MapView":{"TopLeft":{"Latitude":53.3322742,"Longitude":-6.2490024},"BottomRight":{"Latitude":53.3300258,"Longitude":-6.2452376}},"Address":{"Label":"\"Burleigh Court\" Burlington Road, Dublin, County Dublin, D04 A440, Ireland","Country":"IRL","County":"County Dublin","City":"Dublin","District":"Dublin 4","Street":"Burlington Road","PostalCode":"D04 A440","AdditionalData":[{"value":"Ireland","key":"CountryName"},{"value":"County Dublin","key":"CountyName"}],"Building":"Burleigh Court"},"MapReference":{"ReferenceId":"877990593","Spot":0.37,"SideOfStreet":"right","CountryId":"20403667","CountyId":"20411172","CityId":"20413526","DistrictId":"20413530","AddressId":"358854674","RoadLinkId":"247945393"}}},{"Relevance":1.0,"Distance":71.2,"MatchLevel":"postalCode","MatchQuality":{"PostalCode":1.0},"MatchType":"interpolated","Location":{"LocationId":"NT_ewQ7ERwmcjvnIsfAN.0.qC","LocationType":"point","DisplayPosition":{"Latitude":53.33136,"Longitude":-6.24687},"MapView":{"TopLeft":{"Latitude":53.3403532,"Longitude":-6.2619293},"BottomRight":{"Latitude":53.3223668,"Longitude":-6.2318107}},"Address":{"Label":"D04 A5F9, Dublin, Ireland","Country":"IRL","County":"County Dublin","City":"Dublin","PostalCode":"D04 A5F9","AdditionalData":[{"value":"Ireland","key":"CountryName"},{"value":"County Dublin","key":"CountyName"}]},"MapReference":{"ReferenceId":"877990593","Spot":0.37,"SideOfStreet":"neither","CountryId":"20403667","CountyId":"20411172","CityId":"20413526"}}},{"Relevance":1.0,"Distance":96.2,"MatchLevel":"street","MatchQuality":{"Country":1.0,"County":1.0,"City":1.0,"District":1.0,"Street":[1.0],"PostalCode":1.0},"Location":{"LocationId":"NT_ewQ7ERwmcjvnIsfAN.0.qC_l_553058536_L","LocationType":"point","DisplayPosition":{"Latitude":53.33158,"Longitude":-6.24607},"MapView":{"TopLeft":{"Latitude":53.33158,"Longitude":-6.24607},"BottomRight":{"Latitude":53.3315,"Longitude":-6.24542}},"Address":{"Label":"Burlington Road, Dublin, County Dublin, D04, Ireland","Country":"IRL","County":"County Dublin","City":"Dublin","District":"Dublin 4","Street":"Burlington Road","PostalCode":"D04","AdditionalData":[{"value":"Ireland","key":"CountryName"},{"value":"County Dublin","key":"CountyName"}]},"MapReference":{"ReferenceId":"553058536","Spot":1.0,"SideOfStreet":"left","CountryId":"20403667","CountyId":"20411172","CityId":"20413526","DistrictId":"20413530"}}}]}]}}