{"Response":{"MetaInfo":{"Timestamp":"2020-03-28T10:43:36.963+0000","NextPageInformation":"2"},"View":[{"_type":"SearchResultsViewType","ViewId":0,"Result":[{"Relevance":1.0,"Distance":0.0,"Direction":0.0,"MatchLevel":"district","MatchQuality":{"Country":1.0,"County":1.0,"City":1.0,"District":1.0,"PostalCode":1.0},"Location":{"LocationId":"NT_Yf8WAQDPjxsyi7ah74HJcC","LocationType":"point","DisplayPosition":{"Latitude":53.3636538,"Longitude":-6.4899087},"MapView":{"TopLeft":{"Latitude":53.3786,"Longitude":-6.5299},"BottomRight":{"Latitude":53.35014,"Longitude":-6.47339}},"Address":{"Label":"Leixlip, Naas, Ireland","Country":"IRL","County":"County Kildare","City":"Naas","District":"Leixlip","AdditionalData":[{"value":"Ireland","key":"CountryName"},{"value":"County Kildare","key":"CountyName"}]},"MapReference":{"ReferenceId":"920676008","SideOfStreet":"neither","CountryId":"20403667","CountyId":"20411195","CityId":"20527922","DistrictId":"20528404"}}},{"Relevance":1.0,"Distance":5.3,"MatchLevel":"houseNumber","MatchQuality":{"Country":1.0,"County":1.0,"City":1.0,"District":1.0,"Street":[1.0],"PostalCode":1.0},"MatchType":"interpolated","Location":{"LocationId":"NT_cqhsi6o8rrlqM4fUcGBJcC","LocationType":"point","DisplayPosition":{"Latitude":53.36381,"Longitude":-6.48997},"MapView":{"TopLeft":{"Latitude":53.3649342,"Longitude":-6.4918538},"BottomRight":{"Latitude":53.3626858,"Longitude":-6.4880862}},"Address":{"Label":"\"Leixlip Health Centre\" Main Street, Naas, County Kildare, W23 YH29, Ireland","Country":"IRL","County":"County Kildare","City":"Naas","District":"Leixlip","Street":"Main Street","PostalCode":"W23 YH29","AdditionalData":[{"value":"Ireland","key":"CountryName"},{"value":"County Kildare","key":"CountyName"}],"Building":"Leixlip Health Centre"},"MapReference":{"ReferenceId":"1222343035","Spot":0.12,"SideOfStreet":"right","CountryId":"20403667","CountyId":"20411195","CityId":"20527922","DistrictId":"20528404","AddressId":"743674056","RoadLinkId":"539991443"}}},{"Relevance":1.0,"Distance":12.8,"MatchLevel":"street","MatchQuality":{"Country":1.0,"County":1.0,"City":1.0,"District":1.0,"PostalCode":1.0},"Location":{"LocationId":"NT_EpJubWsyoOnA04WC8I792B_l_554491240_R","LocationType":"point","DisplayPosition":{"Latitude":53.3635689,"Longitude":-6.4900385},"MapView":{"TopLeft":{"Latitude":53.36377,"Longitude":-6.49017},"BottomRight":{"Latitude":53.36351,"Longitude":-6.49}},"Address":{"Label":"Naas, County Kildare, W23, Ireland","Country":"IRL","County":"County Kildare","City":"Naas","District":"Leixlip","PostalCode":"W23","AdditionalData":[{"value":"Ireland","key":"CountryName"},{"value":"County Kildare","key":"CountyName"}]},"MapReference":{"ReferenceId":"554491240","Spot":0.23,"SideOfStreet":"right","CountryId":"20403667","CountyId":"20411195","CityId":"20527922","DistrictId":"20528404"}}},{"Relevance":1.0,"Distance":21.6,"MatchLevel":"street","MatchQuality":{"Country":1.0,"County":1.0,"City":1.0,"District":1.0,"Street":[1.0],"PostalCode":1.0},"Location":{"LocationId":"NT_cqhsi6o8rrlqM4fUcGBJcC_l_920596143_R","LocationType":"point","DisplayPosition":{"Latitude":53.36377,"Longitude":-6.49017},"MapView":{"TopLeft":{"Latitude":53.36377,"Longitude":-6.49034},"BottomRight":{"Latitude":53.36373,"Longitude":-6.49017}},"Address":{"Label":"Main Street, Naas, County Kildare, W23, Ireland","Country":"IRL","County":"County Kildare","City":"Naas","District":"Leixlip","Street":"Main Street","PostalCode":"W23","AdditionalData":[{"value":"Ireland","key":"CountryName"},{"value":"County Kildare","key":"CountyName"}]},"MapReference":{"ReferenceId":"920596143","Spot":1.0,"SideOfStreet":"right","CountryId":"20403667","CountyId":"20411195","CityId":"20527922","DistrictId":"20528404"}}},{"Relevance":1.0,"Distance":24.1,"MatchLevel":"postalCode","MatchQuality":{"PostalCode":1.0},"MatchType":"interpolated","Location":{"LocationId":"NT_cqhsi6o8rrlqM4fUcGBJcC","LocationType":"point","DisplayPosition":{"Latitude":53.3638,"Longitude":-6.48964},"MapView":{"TopLeft":{"Latitude":53.3727932,"Longitude":-6.5047108},"BottomRight":{"Latitude":53.3548068,"Longitude":-6.4745692}},"Address":{"Label":"W23 F1C6, Naas, Ireland","Country":"IRL","County":"County Kildare","City":"Naas","PostalCode":"W23 F1C6","AdditionalData":[{"value":"Ireland","key":"CountryName"},{"value":"County Kildare","key":"CountyName"}]},"MapReference":{"ReferenceId":"1222343035","Spot":0.12,"SideOfStreet":"neither","CountryId":"20403667","CountyId":"20411195","CityId":"20527922"}}},{"Relevance":1.0,"Distance":25.0,"MatchLevel":"postalCode","MatchQuality":{"PostalCode":1.0},"Location":{"LocationId":"NT_cqhsi6o8rrlqM4fUcGBJcC_l_920596143_R","LocationType":"point","DisplayPosition":{"Latitude":53.36375,"Longitude":-6.49025},"MapView":{"TopLeft":{"Latitude":53.3727432,"Longitude":-6.5053208},"BottomRight":{"Latitude":53.3547568,"Longitude":-6.4751792}},"Address":{"Label":"W23 N5C3, Naas, Ireland","Country":"IRL","County":"County Kildare","City":"Naas","PostalCode":"W23 N5C3","AdditionalData":[{"value":"Ireland","key":"CountryName"},{"value":"County Kildare","key":"CountyName"}]},"MapReference":{"ReferenceId":"920596143","Spot":1.0,"SideOfStreet":"neither","CountryId":"20403667","CountyId":"20411195","CityId":"20527922"}}},{"Relevance":1.0,"Distance":40.3,"MatchLevel":"postalCode","MatchQuality":{"PostalCode":1.0},"MatchType":"interpolated","Location":{"LocationId":"NT_cqhsi6o8rrlqM4fUcGBJcC","LocationType":"point","DisplayPosition":{"Latitude":53.36383,"Longitude":-6.49044},"MapView":{"TopLeft":{"Latitude":53.3728232,"Longitude":-6.5055108},"BottomRight":{"Latitude":53.3548368,"Longitude":-6.4753692}},"Address":{"Label":"W23 F7D1, Naas, Ireland","Country":"IRL","County":"County Kildare","City":"Naas","PostalCode":"W23 F7D1","AdditionalData":[{"value":"Ireland","key":"CountryName"},{"value":"County Kildare","key":"CountyName"}]},"MapReference":{"ReferenceId":"920596142","Spot":0.46,"SideOfStreet":"neither","CountryId":"20403667","CountyId":"20411195","CityId":"20527922"}}},{"Relevance":1.0,"Distance":60.5,"MatchLevel":"houseNumber","MatchQuality":{"Country":1.0,"County":1.0,"City":1.0,"District":1.0,"Street":[1.0],"PostalCode":1.0},"MatchType":"interpolated","Location":{"LocationId":"NT_cqhsi6o8rrlqM4fUcGBJcC","LocationType":"point","DisplayPosition":{"Latitude":53.36364,"Longitude":-6.49076},"MapView":{"TopLeft":{"Latitude":53.3647642,"Longitude":-6.4926438},"BottomRight":{"Latitude":53.3625158,"Longitude":-6.4888762}},"Address":{"Label":"\"Saint Mary's Church\" Main Street, Naas, County Kildare, W23 VF67, Ireland","Country":"IRL","County":"County Kildare","City":"Naas","District":"Leixlip","Street":"Main Street","PostalCode":"W23 VF67","AdditionalData":[{"value":"Ireland","key":"CountryName"},{"value":"County Kildare","key":"CountyName"}],"Building":"Saint Mary's Church"},"MapReference":{"ReferenceId":"920596142","Spot":0.46,"SideOfStreet":"right","CountryId":"20403667","CountyId":"20411195","CityId":"20527922","DistrictId":"20528404","AddressId":"743653365","RoadLinkId":"277518097"}}},{"Relevance":1.0,"Distance":68.6,"MatchLevel":"landmark","MatchQuality":{"Country":1.0,"Name":1.0},"Location":{"LocationId":"NT_9GsqO7Fctc49-Hsj1HjC4B","LocationType":"river","Name":"River Liffey","DisplayPosition":{"Latitude":53.35659,"Longitude":-6.45576},"MapView":{"TopLeft":{"Latitude":53.36855,"Longitude":-6.49098},"BottomRight":{"Latitude":53.34463,"Longitude":-6.25141}},"Address":{"Label":"Ireland","Country":"IRL","AdditionalData":[{"value":"Ireland","key":"CountryName"}]},"MapReference":{"CountryId":"20403667","PlaceId":"83174366"}}},{"Relevance":1.0,"Distance":79.4,"MatchLevel":"street","MatchQuality":{"Country":1.0,"County":1.0,"City":1.0,"District":1.0,"PostalCode":1.0},"Location":{"LocationId":"NT_EpJubWsyoOnA04WC8I792B_l_554491238_R","LocationType":"point","DisplayPosition":{"Latitude":53.36322,"Longitude":-6.49086},"MapView":{"TopLeft":{"Latitude":53.36356,"Longitude":-6.49111},"BottomRight":{"Latitude":53.36322,"Longitude":-6.49086}},"Address":{"Label":"Naas, County Kildare, W23, Ireland","Country":"IRL","County":"County Kildare","City":"Naas","District":"Leixlip","PostalCode":"W23","AdditionalData":[{"value":"Ireland","key":"CountryName"},{"value":"County Kildare","key":"CountyName"}]},"MapReference":{"ReferenceId":"554491238","Spot":0.0,"SideOfStreet":"right","CountryId":"20403667","CountyId":"20411195","CityId":"20527922","DistrictId":"20528404"}}}]}]}}