{"Response":{"MetaInfo":{"Timestamp":"2020-03-28T10:19:59.477+0000","NextPageInformation":"2"},"View":[{"_type":"SearchResultsViewType","ViewId":0,"Result":[{"Relevance":1.0,"Distance":0.0,"Direction":0.0,"MatchLevel":"district","MatchQuality":{"Country":1.0,"State":1.0,"County":1.0,"City":1.0,"District":1.0,"PostalCode":1.0},"Location":{"LocationId":"NT_iwNll3S.2MgV8swkx.3OpC","LocationType":"point","DisplayPosition":{"Latitude":53.3052734,"Longitude":7.7447216},"MapView":{"TopLeft":{"Latitude":53.3142,"Longitude":7.72676},"BottomRight":{"Latitude":53.29685,"Longitude":7.76643}},"Address":{"Label":"Remels, Uplengen, Niedersachsen, Deutschland","Country":"DEU","State":"Niedersachsen","County":"Leer","City":"Uplengen","District":"Remels","PostalCode":"26670","AdditionalData":[{"value":"Deutschland","key":"CountryName"},{"value":"Niedersachsen","key":"StateName"},{"value":"Leer","key":"CountyName"}]},"MapReference":{"ReferenceId":"1188803074","SideOfStreet":"neither","CountryId":"20147700","StateId":"20151542","CountyId":"20156694","CityId":"20156778","DistrictId":"20156785"}}},{"Relevance":1.0,"Distance":4.6,"MatchLevel":"houseNumber","MatchQuality":{"Country":1.0,"State":1.0,"County":1.0,"City":1.0,"District":1.0,"Street":[1.0],"HouseNumber":1.0,"PostalCode":1.0},"MatchType":"interpolated","Location":{"LocationId":"NT_HdcnAnVCnmF9Rc0mYnG4jA_0QD","LocationType":"point","DisplayPosition":{"Latitude":53.30538,"Longitude":7.74471},"MapView":{"TopLeft":{"Latitude":53.3065042,"Longitude":7.7428287},"BottomRight":{"Latitude":53.3042558,"Longitude":7.7465913}},"Address":{"Label":"Alter Postweg 44, 26670 Uplengen, Deutschland","Country":"DEU","State":"Niedersachsen","County":"Leer","City":"Uplengen","District":"Remels","Street":"Alter Postweg","HouseNumber":"44","PostalCode":"26670","AdditionalData":[{"value":"Deutschland","key":"CountryName"},{"value":"Niedersachsen","key":"StateName"},{"value":"Leer","key":"CountyName"}]},"MapReference":{"ReferenceId":"1255021894","Spot":0.51,"SideOfStreet":"right","CountryId":"20147700","StateId":"20151542","CountyId":"20156694","CityId":"20156778","DistrictId":"20156785","AddressId":"180800304","RoadLinkId":"578383478"}}},{"Relevance":1.0,"Distance":57.2,"MatchLevel":"houseNumber","MatchQuality":{"Country":1.0,"State":1.0,"County":1.0,"City":1.0,"District":1.0,"Street":[1.0],"HouseNumber":1.0,"PostalCode":1.0},"MatchType":"interpolated","Location":{"LocationId":"NT_YN1kVSL7JZxFfDFb8n7vWD_yA","LocationType":"point","DisplayPosition":{"Latitude":53.3049,"Longitude":7.7439},"MapView":{"TopLeft":{"Latitude":53.3060242,"Longitude":7.7420188},"BottomRight":{"Latitude":53.3037758,"Longitude":7.7457812}},"Address":{"Label":"Höststraße 2, 26670 Uplengen, Deutschland","Country":"DEU","State":"Niedersachsen","County":"Leer","City":"Uplengen","District":"Remels","Street":"Höststraße","HouseNumber":"2","PostalCode":"26670","AdditionalData":[{"value":"Deutschland","key":"CountryName"},{"value":"Niedersachsen","key":"StateName"},{"value":"Leer","key":"CountyName"}]},"MapReference":{"ReferenceId":"80740183","Spot":0.58,"SideOfStreet":"right","CountryId":"20147700","StateId":"20151542","CountyId":"20156694","CityId":"20156778","DistrictId":"20156785","AddressId":"181409221","RoadLinkId":"37277095"}}},{"Relevance":1.0,"Distance":62.8,"MatchLevel":"houseNumber","MatchQuality":{"Country":1.0,"State":1.0,"County":1.0,"City":1.0,"District":1.0,"Street":[1.0],"HouseNumber":1.0,"PostalCode":1.0},"MatchType":"interpolated","Location":{"LocationId":"NT_azShStv1J.7sC9lyonj8yB_zMD","LocationType":"point","DisplayPosition":{"Latitude":53.30457,"Longitude":7.74486},"MapView":{"TopLeft":{"Latitude":53.3056942,"Longitude":7.7429788},"BottomRight":{"Latitude":53.3034458,"Longitude":7.7467412}},"Address":{"Label":"Ostertorstraße 33, 26670 Uplengen, Deutschland","Country":"DEU","State":"Niedersachsen","County":"Leer","City":"Uplengen","District":"Remels","Street":"Ostertorstraße","HouseNumber":"33","PostalCode":"26670","AdditionalData":[{"value":"Deutschland","key":"CountryName"},{"value":"Niedersachsen","key":"StateName"},{"value":"Leer","key":"CountyName"}]},"MapReference":{"ReferenceId":"80740175","Spot":0.22,"SideOfStreet":"left","CountryId":"20147700","StateId":"20151542","CountyId":"20156694","CityId":"20156778","DistrictId":"20156785","AddressId":"177047911","RoadLinkId":"37225597"}}},{"Relevance":1.0,"Distance":92.9,"MatchLevel":"street","MatchQuality":{"Country":1.0,"State":1.0,"County":1.0,"City":1.0,"District":1.0,"PostalCode":1.0},"Location":{"LocationId":"NT_WbCu3f1zG4oEQBuEpsivPC_l_1255021896_L","LocationType":"point","DisplayPosition":{"Latitude":53.3059909,"Longitude":7.7454391},"MapView":{"TopLeft":{"Latitude":53.30679,"Longitude":7.74485},"BottomRight":{"Latitude":53.30563,"Longitude":7.7458}},"Address":{"Label":"26670 Uplengen, Deutschland","Country":"DEU","State":"Niedersachsen","County":"Leer","City":"Uplengen","District":"Remels","PostalCode":"26670","AdditionalData":[{"value":"Deutschland","key":"CountryName"},{"value":"Niedersachsen","key":"StateName"},{"value":"Leer","key":"CountyName"}]},"MapReference":{"ReferenceId":"1255021896","Spot":0.28,"SideOfStreet":"left","CountryId":"20147700","StateId":"20151542","CountyId":"20156694","CityId":"20156778","DistrictId":"20156785"}}},{"Relevance":1.0,"Distance":103.6,"MatchLevel":"houseNumber","MatchQuality":{"Country":1.0,"State":1.0,"County":1.0,"City":1.0,"District":1.0,"Street":[1.0],"HouseNumber":1.0,"PostalCode":1.0},"MatchType":"interpolated","Location":{"LocationId":"NT_YN1kVSL7JZxFfDFb8n7vWD_0A","LocationType":"point","DisplayPosition":{"Latitude":53.3057,"Longitude":7.7429},"MapView":{"TopLeft":{"Latitude":53.3068242,"Longitude":7.7410187},"BottomRight":{"Latitude":53.3045758,"Longitude":7.7447813}},"Address":{"Label":"Höststraße 4, 26670 Uplengen, Deutschland","Country":"DEU","State":"Niedersachsen","County":"Leer","City":"Uplengen","District":"Remels","Street":"Höststraße","HouseNumber":"4","PostalCode":"26670","AdditionalData":[{"value":"Deutschland","key":"CountryName"},{"value":"Niedersachsen","key":"StateName"},{"value":"Leer","key":"CountyName"}]},"MapReference":{"ReferenceId":"80740180","Spot":0.22,"SideOfStreet":"right","CountryId":"20147700","StateId":"20151542","CountyId":"20156694","CityId":"20156778","DistrictId":"20156785","AddressId":"180939157","RoadLinkId":"36727885"}}},{"Relevance":1.0,"Distance":109.5,"MatchLevel":"houseNumber","MatchQuality":{"Country":1.0,"State":1.0,"County":1.0,"City":1.0,"District":1.0,"Street":[1.0],"HouseNumber":1.0,"PostalCode":1.0},"MatchType":"interpolated","Location":{"LocationId":"NT_azShStv1J.7sC9lyonj8yB_ycD","LocationType":"point","DisplayPosition":{"Latitude":53.30436,"Longitude":7.74375},"MapView":{"TopLeft":{"Latitude":53.3054842,"Longitude":7.7418688},"BottomRight":{"Latitude":53.3032358,"Longitude":7.7456312}},"Address":{"Label":"Ostertorstraße 27, 26670 Uplengen, Deutschland","Country":"DEU","State":"Niedersachsen","County":"Leer","City":"Uplengen","District":"Remels","Street":"Ostertorstraße","HouseNumber":"27","PostalCode":"26670","AdditionalData":[{"value":"Deutschland","key":"CountryName"},{"value":"Niedersachsen","key":"StateName"},{"value":"Leer","key":"CountyName"}]},"MapReference":{"ReferenceId":"83560426","Spot":0.64,"SideOfStreet":"left","CountryId":"20147700","StateId":"20151542","CountyId":"20156694","CityId":"20156778","DistrictId":"20156785","AddressId":"181138845","RoadLinkId":"37029725"}}},{"Relevance":1.0,"Distance":109.6,"MatchLevel":"houseNumber","MatchQuality":{"Country":1.0,"State":1.0,"County":1.0,"City":1.0,"District":1.0,"Street":[1.0],"HouseNumber":1.0,"PostalCode":1.0},"MatchType":"interpolated","Location":{"LocationId":"NT_HdcnAnVCnmF9Rc0mYnG4jA_1ID","LocationType":"point","DisplayPosition":{"Latitude":53.30571,"Longitude":7.7462},"MapView":{"TopLeft":{"Latitude":53.3068342,"Longitude":7.7443187},"BottomRight":{"Latitude":53.3045858,"Longitude":7.7480813}},"Address":{"Label":"Alter Postweg 52, 26670 Uplengen, Deutschland","Country":"DEU","State":"Niedersachsen","County":"Leer","City":"Uplengen","District":"Remels","Street":"Alter Postweg","HouseNumber":"52","PostalCode":"26670","AdditionalData":[{"value":"Deutschland","key":"CountryName"},{"value":"Niedersachsen","key":"StateName"},{"value":"Leer","key":"CountyName"}]},"MapReference":{"ReferenceId":"1255021895","Spot":0.71,"SideOfStreet":"right","CountryId":"20147700","StateId":"20151542","CountyId":"20156694","CityId":"20156778","DistrictId":"20156785","AddressId":"178450855","RoadLinkId":"578383479"}}},{"Relevance":1.0,"Distance":116.1,"MatchLevel":"houseNumber","MatchQuality":{"Country":1.0,"State":1.0,"County":1.0,"City":1.0,"District":1.0,"Street":[1.0],"HouseNumber":1.0,"PostalCode":1.0},"MatchType":"interpolated","Location":{"LocationId":"NT_HdcnAnVCnmF9Rc0mYnG4jA_zYD","LocationType":"point","DisplayPosition":{"Latitude":53.30496,"Longitude":7.74305},"MapView":{"TopLeft":{"Latitude":53.3060842,"Longitude":7.7411687},"BottomRight":{"Latitude":53.3038358,"Longitude":7.7449313}},"Address":{"Label":"Alter Postweg 36, 26670 Uplengen, Deutschland","Country":"DEU","State":"Niedersachsen","County":"Leer","City":"Uplengen","District":"Remels","Street":"Alter Postweg","HouseNumber":"36","PostalCode":"26670","AdditionalData":[{"value":"Deutschland","key":"CountryName"},{"value":"Niedersachsen","key":"StateName"},{"value":"Leer","key":"CountyName"}]},"MapReference":{"ReferenceId":"83560578","Spot":0.85,"SideOfStreet":"right","CountryId":"20147700","StateId":"20151542","CountyId":"20156694","CityId":"20156778","DistrictId":"20156785","AddressId":"181110414","RoadLinkId":"36994510"}}},{"Relevance":1.0,"Distance":120.6,"MatchLevel":"street","MatchQuality":{"Country":1.0,"State":1.0,"County":1.0,"City":1.0,"District":1.0,"Street":[1.0],"PostalCode":1.0},"Location":{"LocationId":"NT_aYT7byUvek1IwFn1nwXmPB_l_80740186_L","LocationType":"point","DisplayPosition":{"Latitude":53.30574,"Longitude":7.74636},"MapView":{"TopLeft":{"Latitude":53.30574,"Longitude":7.74636},"BottomRight":{"Latitude":53.305,"Longitude":7.74725}},"Address":{"Label":"An den Tannen, 26670 Uplengen, Deutschland","Country":"DEU","State":"Niedersachsen","County":"Leer","City":"Uplengen","District":"Remels","Street":"An den Tannen","PostalCode":"26670","AdditionalData":[{"value":"Deutschland","key":"CountryName"},{"value":"Niedersachsen","key":"StateName"},{"value":"Leer","key":"CountyName"}]},"MapReference":{"ReferenceId":"80740186","Spot":1.0,"SideOfStreet":"left","CountryId":"20147700","StateId":"20151542","CountyId":"20156694","CityId":"20156778","DistrictId":"20156785"}}}]}]}}