{"Response":{"MetaInfo":{"Timestamp":"2020-03-28T09:53:20.022+0000","NextPageInformation":"2"},"View":[{"_type":"SearchResultsViewType","ViewId":0,"Result":[{"Relevance":1.0,"Distance":-33.8,"MatchLevel":"landmark","MatchQuality":{"Country":1.0,"State":1.0,"County":1.0,"City":1.0,"District":1.0,"Street":[1.0],"PostalCode":1.0,"Name":1.0},"Location":{"LocationId":"NT_BWYXDQNXL02m55lhEiM3-C_p_qQvni7eMvP.qK9nz00c7ZC","LocationType":"golfCourse","Name":"Arrowe Park Golf Club","DisplayPosition":{"Latitude":53.3644,"Longitude":-3.08966},"MapView":{"TopLeft":{"Latitude":53.36554,"Longitude":-3.10214},"BottomRight":{"Latitude":53.35657,"Longitude":-3.08866}},"Address":{"Label":"Arrowe Park, Wirral, CH49 5, United Kingdom","Country":"GBR","State":"England","County":"Merseyside","City":"Wirral","District":"Wirral","Street":"Arrowe Park","PostalCode":"CH49 5","AdditionalData":[{"value":"United Kingdom","key":"CountryName"},{"value":"England","key":"StateName"},{"value":"Merseyside","key":"CountyName"}]},"MapReference":{"StateId":"20248595","CountyId":"20343208","CityId":"20343870","DistrictId":"20343871","PlaceId":"546137127"}}},{"Relevance":1.0,"Distance":0.0,"Direction":0.0,"MatchLevel":"city","MatchQuality":{"Country":1.0,"State":1.0,"County":1.0,"City":1.0,"PostalCode":1.0},"Location":{"LocationId":"NT_YiD2yjeRjMXC-Oyw92mDJD","LocationType":"point","DisplayPosition":{"Latitude":53.3591375,"Longitude":-3.0916099},"MapView":{"TopLeft":{"Latitude":53.45126,"Longitude":-3.2643},"BottomRight":{"Latitude":53.28736,"Longitude":-2.90319}},"Address":{"Label":"Wirral, England, United Kingdom","Country":"GBR","State":"England","County":"Merseyside","City":"Wirral","PostalCode":"CH49 2","AdditionalData":[{"value":"United Kingdom","key":"CountryName"},{"value":"England","key":"StateName"},{"value":"Merseyside","key":"CountyName"}]},"MapReference":{"ReferenceId":"27351541","SideOfStreet":"neither","StateId":"20248595","CountyId":"20343208","CityId":"20343870"}}},{"Relevance":1.0,"Distance":132.4,"MatchLevel":"postalCode","MatchQuality":{"PostalCode":1.0},"Location":{"LocationId":"NT_T5JbtMm6f-Mu8gRKjsQeoC_l_1091862912_L","LocationType":"point","DisplayPosition":{"Latitude":53.35832,"Longitude":-3.09016},"MapView":{"TopLeft":{"Latitude":53.3673132,"Longitude":-3.1052288},"BottomRight":{"Latitude":53.3493268,"Longitude":-3.0750912}},"Address":{"Label":"CH49 5PL, Wirral, England, United Kingdom","Country":"GBR","State":"England","County":"Merseyside","City":"Wirral","PostalCode":"CH49 5PL","AdditionalData":[{"value":"United Kingdom","key":"CountryName"},{"value":"England","key":"StateName"},{"value":"Merseyside","key":"CountyName"}]},"MapReference":{"ReferenceId":"1091862912","Spot":0.08,"SideOfStreet":"neither","StateId":"20248595","CountyId":"20343208","CityId":"20343870"}}},{"Relevance":1.0,"Distance":138.0,"MatchLevel":"street","MatchQuality":{"Country":1.0,"State":1.0,"County":1.0,"City":1.0,"District":1.0,"PostalCode":1.0},"Location":{"LocationId":"NT_T5JbtMm6f-Mu8gRKjsQeoC_l_1091862912_L","LocationType":"point","DisplayPosition":{"Latitude":53.35807,"Longitude":-3.09055},"MapView":{"TopLeft":{"Latitude":53.3586,"Longitude":-3.09056},"BottomRight":{"Latitude":53.35793,"Longitude":-3.08904}},"Address":{"Label":"Wirral, CH61 7, United Kingdom","Country":"GBR","State":"England","County":"Merseyside","City":"Wirral","District":"Heswall","PostalCode":"CH61 7","AdditionalData":[{"value":"United Kingdom","key":"CountryName"},{"value":"England","key":"StateName"},{"value":"Merseyside","key":"CountyName"}]},"MapReference":{"ReferenceId":"1091862912","Spot":0.08,"SideOfStreet":"left","StateId":"20248595","CountyId":"20343208","CityId":"20343870","DistrictId":"20343881"}}},{"Relevance":1.0,"Distance":140.8,"MatchLevel":"houseNumber","MatchQuality":{"Country":1.0,"State":1.0,"County":1.0,"City":1.0,"District":1.0,"Street":[1.0],"HouseNumber":1.0,"PostalCode":1.0},"MatchType":"interpolated","Location":{"LocationId":"NT_x14q0eHlOLewpCx4.zkT.D_l_986252556_L_xA","LocationType":"point","DisplayPosition":{"Latitude":53.35798,"Longitude":-3.0907503},"MapView":{"TopLeft":{"Latitude":53.3591042,"Longitude":-3.0926339},"BottomRight":{"Latitude":53.3568558,"Longitude":-3.0888667}},"Address":{"Label":"1 Thingwall Road East, Wirral, CH61 3UY, United Kingdom","Country":"GBR","State":"England","County":"Merseyside","City":"Wirral","District":"Heswall","Street":"Thingwall Road East","HouseNumber":"1","PostalCode":"CH61 3UY","AdditionalData":[{"value":"United Kingdom","key":"CountryName"},{"value":"England","key":"StateName"},{"value":"Merseyside","key":"CountyName"}]},"MapReference":{"ReferenceId":"986252556","Spot":0.52,"SideOfStreet":"left","StateId":"20248595","CountyId":"20343208","CityId":"20343870","DistrictId":"20343881"}}},{"Relevance":1.0,"Distance":142.7,"MatchLevel":"houseNumber","MatchQuality":{"Country":1.0,"State":1.0,"County":1.0,"City":1.0,"District":1.0,"Street":[1.0],"HouseNumber":1.0,"PostalCode":1.0},"MatchType":"interpolated","Location":{"LocationId":"NT_x14q0eHlOLewpCx4.zkT.D_l_986252555_R_zA","LocationType":"point","DisplayPosition":{"Latitude":53.3578633,"Longitude":-3.0913567},"MapView":{"TopLeft":{"Latitude":53.3589875,"Longitude":-3.0932402},"BottomRight":{"Latitude":53.3567392,"Longitude":-3.0894731}},"Address":{"Label":"3 Thingwall Road East, Wirral, CH61 3UY, United Kingdom","Country":"GBR","State":"England","County":"Merseyside","City":"Wirral","District":"Heswall","Street":"Thingwall Road East","HouseNumber":"3","PostalCode":"CH61 3UY","AdditionalData":[{"value":"United Kingdom","key":"CountryName"},{"value":"England","key":"StateName"},{"value":"Merseyside","key":"CountyName"}]},"MapReference":{"ReferenceId":"986252555","Spot":0.6,"SideOfStreet":"right","StateId":"20248595","CountyId":"20343208","CityId":"20343870","DistrictId":"20343881"}}},{"Relevance":1.0,"Distance":152.2,"MatchLevel":"street","MatchQuality":{"Country":1.0,"State":1.0,"County":1.0,"City":1.0,"District":1.0,"Street":[1.0],"PostalCode":1.0},"Location":{"LocationId":"NT_4iBIpoOQXLjgIGtvLWD1dB_l_982378788_L","LocationType":"point","DisplayPosition":{"Latitude":53.35793,"Longitude":-3.09053},"MapView":{"TopLeft":{"Latitude":53.35833,"Longitude":-3.09053},"BottomRight":{"Latitude":53.35793,"Longitude":-3.08971}},"Address":{"Label":"Thingwall Road East, Wirral, CH61 7, United Kingdom","Country":"GBR","State":"England","County":"Merseyside","City":"Wirral","District":"Heswall","Street":"Thingwall Road East","PostalCode":"CH61 7","AdditionalData":[{"value":"United Kingdom","key":"CountryName"},{"value":"England","key":"StateName"},{"value":"Merseyside","key":"CountyName"}]},"MapReference":{"ReferenceId":"982378788","Spot":0.0,"SideOfStreet":"left","StateId":"20248595","CountyId":"20343208","CityId":"20343870","DistrictId":"20343881"}}},{"Relevance":1.0,"Distance":152.2,"MatchLevel":"street","MatchQuality":{"Country":1.0,"State":1.0,"County":1.0,"City":1.0,"District":1.0,"Street":[1.0],"PostalCode":1.0},"Location":{"LocationId":"NT_vwQwJKeHC2gNaybOHYMX8D_l_781547739_L","LocationType":"point","DisplayPosition":{"Latitude":53.35793,"Longitude":-3.09053},"MapView":{"TopLeft":{"Latitude":53.35793,"Longitude":-3.09113},"BottomRight":{"Latitude":53.35714,"Longitude":-3.09053}},"Address":{"Label":"Pensby Road, Wirral, CH61 7, United Kingdom","Country":"GBR","State":"England","County":"Merseyside","City":"Wirral","District":"Heswall","Street":"Pensby Road","PostalCode":"CH61 7","AdditionalData":[{"value":"United Kingdom","key":"CountryName"},{"value":"England","key":"StateName"},{"value":"Merseyside","key":"CountyName"}]},"MapReference":{"ReferenceId":"781547739","Spot":1.0,"SideOfStreet":"left","StateId":"20248595","CountyId":"20343208","CityId":"20343870","DistrictId":"20343881"}}},{"Relevance":1.0,"Distance":154.8,"MatchLevel":"street","MatchQuality":{"Country":1.0,"State":1.0,"County":1.0,"City":1.0,"District":1.0,"Street":[1.0],"PostalCode":1.0},"Location":{"LocationId":"NT_4iBIpoOQXLjgIGtvLWD1dB_l_1226027902_L","LocationType":"point","DisplayPosition":{"Latitude":53.35833,"Longitude":-3.08971},"MapView":{"TopLeft":{"Latitude":53.35841,"Longitude":-3.08971},"BottomRight":{"Latitude":53.35833,"Longitude":-3.08942}},"Address":{"Label":"Thingwall Road East, Wirral, CH61 7, United Kingdom","Country":"GBR","State":"England","County":"Merseyside","City":"Wirral","District":"Heswall","Street":"Thingwall Road East","PostalCode":"CH61 7","AdditionalData":[{"value":"United Kingdom","key":"CountryName"},{"value":"England","key":"StateName"},{"value":"Merseyside","key":"CountyName"}]},"MapReference":{"ReferenceId":"1226027902","Spot":0.0,"SideOfStreet":"left","StateId":"20248595","CountyId":"20343208","CityId":"20343870","DistrictId":"20343881"}}},{"Relevance":1.0,"Distance":161.3,"MatchLevel":"street","MatchQuality":{"Country":1.0,"State":1.0,"County":1.0,"City":1.0,"District":1.0,"Street":[1.0],"PostalCode":1.0},"Location":{"LocationId":"NT_AdXvSnSzpMkpgSDgIySXgD_l_27357927_R","LocationType":"point","DisplayPosition":{"Latitude":53.3577,"Longitude":-3.09194},"MapView":{"TopLeft":{"Latitude":53.3577,"Longitude":-3.09525},"BottomRight":{"Latitude":53.357,"Longitude":-3.09192}},"Address":{"Label":"Thingwall Road East, Wirral, CH61 3, United Kingdom","Country":"GBR","State":"England","County":"Merseyside","City":"Wirral","District":"Heswall","Street":"Thingwall Road East","PostalCode":"CH61 3","AdditionalData":[{"value":"United Kingdom","key":"CountryName"},{"value":"England","key":"StateName"},{"value":"Merseyside","key":"CountyName"}]},"MapReference":{"ReferenceId":"27357927","Spot":1.0,"SideOfStreet":"right","StateId":"20248595","CountyId":"20343208","CityId":"20343870","DistrictId":"20343881"}}}]}]}}