{"Response":{"MetaInfo":{"Timestamp":"2020-03-28T10:48:46.518+0000","NextPageInformation":"2"},"View":[{"_type":"SearchResultsViewType","ViewId":0,"Result":[{"Relevance":1.0,"Distance":0.0,"Direction":0.0,"MatchLevel":"district","MatchQuality":{"Country":1.0,"State":1.0,"County":1.0,"City":1.0,"District":1.0,"PostalCode":1.0},"Location":{"LocationId":"NT_mlcNolkQOzb8.Zop0VbxmA","LocationType":"point","DisplayPosition":{"Latitude":53.3110114,"Longitude":17.939518},"MapView":{"TopLeft":{"Latitude":53.34744,"Longitude":17.9288},"BottomRight":{"Latitude":53.29852,"Longitude":17.98785}},"Address":{"Label":"Koronowo, Woj. Kujawsko-Pomorskie, Polska","Country":"POL","State":"Woj. Kujawsko-Pomorskie","County":"Powiat Bydgoski","City":"Koronowo","District":"Koronowo","PostalCode":"86-010","AdditionalData":[{"value":"Polska","key":"CountryName"},{"value":"Woj. Kujawsko-Pomorskie","key":"StateName"},{"value":"Powiat Bydgoski","key":"CountyName"}]},"MapReference":{"ReferenceId":"846937411","SideOfStreet":"neither","CountryId":"20624059","StateId":"20625395","CountyId":"20625442","CityId":"20625449","DistrictId":"20681444"}}},{"Relevance":1.0,"Distance":16.6,"MatchLevel":"houseNumber","MatchQuality":{"Country":1.0,"State":1.0,"County":1.0,"City":1.0,"District":1.0,"Street":[1.0],"HouseNumber":1.0,"PostalCode":1.0},"MatchType":"interpolated","Location":{"LocationId":"NT_deH3XLVmVt7Qx3iWhslOAD_l_1206493271_R_zED","LocationType":"point","DisplayPosition":{"Latitude":53.3108916,"Longitude":17.9390879},"MapView":{"TopLeft":{"Latitude":53.3120158,"Longitude":17.9372064},"BottomRight":{"Latitude":53.3097675,"Longitude":17.9409694}},"Address":{"Label":"ulica Ignacego Jana Paderewskiego 31, 86-010 Koronowo, Polska","Country":"POL","State":"Woj. Kujawsko-Pomorskie","County":"Powiat Bydgoski","City":"Koronowo","District":"Koronowo","Street":"ulica Ignacego Jana Paderewskiego","HouseNumber":"31","PostalCode":"86-010","AdditionalData":[{"value":"Polska","key":"CountryName"},{"value":"Woj. Kujawsko-Pomorskie","key":"StateName"},{"value":"Powiat Bydgoski","key":"CountyName"}]},"MapReference":{"ReferenceId":"1206493271","Spot":0.53,"SideOfStreet":"right","CountryId":"20624059","StateId":"20625395","CountyId":"20625442","CityId":"20625449","DistrictId":"20681444"}}},{"Relevance":1.0,"Distance":18.5,"MatchLevel":"street","MatchQuality":{"Country":1.0,"State":1.0,"County":1.0,"City":1.0,"District":1.0,"PostalCode":1.0},"Location":{"LocationId":"NT_uPx9R0WVosAFntwEvhbc5B_l_1206493272_L","LocationType":"point","DisplayPosition":{"Latitude":53.3108457,"Longitude":17.93954},"MapView":{"TopLeft":{"Latitude":53.3109,"Longitude":17.93912},"BottomRight":{"Latitude":53.31079,"Longitude":17.93995}},"Address":{"Label":"86-010 Koronowo, Polska","Country":"POL","State":"Woj. Kujawsko-Pomorskie","County":"Powiat Bydgoski","City":"Koronowo","District":"Koronowo","PostalCode":"86-010","AdditionalData":[{"value":"Polska","key":"CountryName"},{"value":"Woj. Kujawsko-Pomorskie","key":"StateName"},{"value":"Powiat Bydgoski","key":"CountyName"}]},"MapReference":{"ReferenceId":"1206493272","Spot":0.51,"SideOfStreet":"left","CountryId":"20624059","StateId":"20625395","CountyId":"20625442","CityId":"20625449","DistrictId":"20681444"}}},{"Relevance":1.0,"Distance":22.1,"MatchLevel":"houseNumber","MatchQuality":{"Country":1.0,"State":1.0,"County":1.0,"City":1.0,"District":1.0,"Street":[1.0],"HouseNumber":1.0,"PostalCode":1.0},"MatchType":"interpolated","Location":{"LocationId":"NT_deH3XLVmVt7Qx3iWhslOAD_zMD","LocationType":"point","DisplayPosition":{"Latitude":53.31079,"Longitude":17.93912},"MapView":{"TopLeft":{"Latitude":53.3119142,"Longitude":17.9372385},"BottomRight":{"Latitude":53.3096658,"Longitude":17.9410015}},"Address":{"Label":"ulica Ignacego Jana Paderewskiego 33, 86-010 Koronowo, Polska","Country":"POL","State":"Woj. Kujawsko-Pomorskie","County":"Powiat Bydgoski","City":"Koronowo","District":"Koronowo","Street":"ulica Ignacego Jana Paderewskiego","HouseNumber":"33","PostalCode":"86-010","AdditionalData":[{"value":"Polska","key":"CountryName"},{"value":"Woj. Kujawsko-Pomorskie","key":"StateName"},{"value":"Powiat Bydgoski","key":"CountyName"}]},"MapReference":{"ReferenceId":"1206493270","Spot":1.0,"SideOfStreet":"right","CountryId":"20624059","StateId":"20625395","CountyId":"20625442","CityId":"20625449","DistrictId":"20681444","AddressId":"211343763","RoadLinkId":"520440686"}}},{"Relevance":1.0,"Distance":31.3,"MatchLevel":"street","MatchQuality":{"Country":1.0,"State":1.0,"County":1.0,"City":1.0,"District":1.0,"PostalCode":1.0},"Location":{"LocationId":"NT_uPx9R0WVosAFntwEvhbc5B_l_1206493273_L","LocationType":"point","DisplayPosition":{"Latitude":53.3109,"Longitude":17.93995},"MapView":{"TopLeft":{"Latitude":53.31184,"Longitude":17.93897},"BottomRight":{"Latitude":53.3109,"Longitude":17.94021}},"Address":{"Label":"86-010 Koronowo, Polska","Country":"POL","State":"Woj. Kujawsko-Pomorskie","County":"Powiat Bydgoski","City":"Koronowo","District":"Koronowo","PostalCode":"86-010","AdditionalData":[{"value":"Polska","key":"CountryName"},{"value":"Woj. Kujawsko-Pomorskie","key":"StateName"},{"value":"Powiat Bydgoski","key":"CountyName"}]},"MapReference":{"ReferenceId":"1206493273","Spot":0.0,"SideOfStreet":"left","CountryId":"20624059","StateId":"20625395","CountyId":"20625442","CityId":"20625449","DistrictId":"20681444"}}},{"Relevance":1.0,"Distance":53.6,"MatchLevel":"houseNumber","MatchQuality":{"Country":1.0,"State":1.0,"County":1.0,"City":1.0,"District":1.0,"Street":[1.0],"HouseNumber":1.0,"PostalCode":1.0},"MatchType":"interpolated","Location":{"LocationId":"NT_deH3XLVmVt7Qx3iWhslOAD_zUD","LocationType":"point","DisplayPosition":{"Latitude":53.3101,"Longitude":17.93958},"MapView":{"TopLeft":{"Latitude":53.3112242,"Longitude":17.9376985},"BottomRight":{"Latitude":53.3089758,"Longitude":17.9414615}},"Address":{"Label":"ulica Ignacego Jana Paderewskiego 35, 86-010 Koronowo, Polska","Country":"POL","State":"Woj. Kujawsko-Pomorskie","County":"Powiat Bydgoski","City":"Koronowo","District":"Koronowo","Street":"ulica Ignacego Jana Paderewskiego","HouseNumber":"35","PostalCode":"86-010","AdditionalData":[{"value":"Polska","key":"CountryName"},{"value":"Woj. Kujawsko-Pomorskie","key":"StateName"},{"value":"Powiat Bydgoski","key":"CountyName"}]},"MapReference":{"ReferenceId":"595164037","Spot":0.32,"SideOfStreet":"left","CountryId":"20624059","StateId":"20625395","CountyId":"20625442","CityId":"20625449","DistrictId":"20681444","AddressId":"689202945","RoadLinkId":"95283858"}}},{"Relevance":1.0,"Distance":72.6,"MatchLevel":"houseNumber","MatchQuality":{"Country":1.0,"State":1.0,"County":1.0,"City":1.0,"District":1.0,"Street":[1.0],"HouseNumber":1.0,"PostalCode":1.0},"MatchType":"interpolated","Location":{"LocationId":"NT_mt9JdvmvkWGgOy6q6y8UnA_0MD","LocationType":"point","DisplayPosition":{"Latitude":53.31108,"Longitude":17.93837},"MapView":{"TopLeft":{"Latitude":53.3122042,"Longitude":17.9364885},"BottomRight":{"Latitude":53.3099558,"Longitude":17.9402515}},"Address":{"Label":"ulica Farna 43, 86-010 Koronowo, Polska","Country":"POL","State":"Woj. Kujawsko-Pomorskie","County":"Powiat Bydgoski","City":"Koronowo","District":"Koronowo","Street":"ulica Farna","HouseNumber":"43","PostalCode":"86-010","AdditionalData":[{"value":"Polska","key":"CountryName"},{"value":"Woj. Kujawsko-Pomorskie","key":"StateName"},{"value":"Powiat Bydgoski","key":"CountyName"}]},"MapReference":{"ReferenceId":"762815818","Spot":0.2,"SideOfStreet":"right","CountryId":"20624059","StateId":"20625395","CountyId":"20625442","CityId":"20625449","DistrictId":"20681444","AddressId":"211124423","RoadLinkId":"157053972"}}},{"Relevance":1.0,"Distance":79.1,"MatchLevel":"houseNumber","MatchQuality":{"Country":1.0,"State":1.0,"County":1.0,"City":1.0,"District":1.0,"Street":[1.0],"HouseNumber":1.0,"PostalCode":1.0},"MatchType":"interpolated","Location":{"LocationId":"NT_deH3XLVmVt7Qx3iWhslOAD_yUD","LocationType":"point","DisplayPosition":{"Latitude":53.31167,"Longitude":17.93892},"MapView":{"TopLeft":{"Latitude":53.3127942,"Longitude":17.9370385},"BottomRight":{"Latitude":53.3105458,"Longitude":17.9408015}},"Address":{"Label":"ulica Ignacego Jana Paderewskiego 25, 86-010 Koronowo, Polska","Country":"POL","State":"Woj. Kujawsko-Pomorskie","County":"Powiat Bydgoski","City":"Koronowo","District":"Koronowo","Street":"ulica Ignacego Jana Paderewskiego","HouseNumber":"25","PostalCode":"86-010","AdditionalData":[{"value":"Polska","key":"CountryName"},{"value":"Woj. Kujawsko-Pomorskie","key":"StateName"},{"value":"Powiat Bydgoski","key":"CountyName"}]},"MapReference":{"ReferenceId":"966371284","Spot":0.8,"SideOfStreet":"right","CountryId":"20624059","StateId":"20625395","CountyId":"20625442","CityId":"20625449","DistrictId":"20681444","AddressId":"210703569","RoadLinkId":"304733548"}}},{"Relevance":1.0,"Distance":98.1,"MatchLevel":"houseNumber","MatchQuality":{"Country":1.0,"State":1.0,"County":1.0,"City":1.0,"District":1.0,"Street":[1.0],"HouseNumber":1.0,"PostalCode":1.0},"MatchType":"interpolated","Location":{"LocationId":"NT_Cq5hs0b4K4YsxthVOSzy4B_xkD","LocationType":"point","DisplayPosition":{"Latitude":53.3107,"Longitude":17.93808},"MapView":{"TopLeft":{"Latitude":53.3118242,"Longitude":17.9361985},"BottomRight":{"Latitude":53.3095758,"Longitude":17.9399615}},"Address":{"Label":"ulica Krzyżowa 19, 86-010 Koronowo, Polska","Country":"POL","State":"Woj. Kujawsko-Pomorskie","County":"Powiat Bydgoski","City":"Koronowo","District":"Koronowo","Street":"ulica Krzyżowa","HouseNumber":"19","PostalCode":"86-010","AdditionalData":[{"value":"Polska","key":"CountryName"},{"value":"Woj. Kujawsko-Pomorskie","key":"StateName"},{"value":"Powiat Bydgoski","key":"CountyName"}]},"MapReference":{"ReferenceId":"1206486016","Spot":0.05,"SideOfStreet":"right","CountryId":"20624059","StateId":"20625395","CountyId":"20625442","CityId":"20625449","DistrictId":"20681444","AddressId":"688885662","RoadLinkId":"520428973"}}},{"Relevance":1.0,"Distance":102.5,"MatchLevel":"street","MatchQuality":{"Country":1.0,"State":1.0,"County":1.0,"City":1.0,"District":1.0,"Street":[1.0],"PostalCode":1.0},"Location":{"LocationId":"NT_deH3XLVmVt7Qx3iWhslOAD_l_966371286_R","LocationType":"point","DisplayPosition":{"Latitude":53.31009,"Longitude":17.93946},"MapView":{"TopLeft":{"Latitude":53.31009,"Longitude":17.93946},"BottomRight":{"Latitude":53.30997,"Longitude":17.93956}},"Address":{"Label":"ulica Ignacego Jana Paderewskiego, 86-010 Koronowo, Polska","Country":"POL","State":"Woj. Kujawsko-Pomorskie","County":"Powiat Bydgoski","City":"Koronowo","District":"Koronowo","Street":"ulica Ignacego Jana Paderewskiego","PostalCode":"86-010","AdditionalData":[{"value":"Polska","key":"CountryName"},{"value":"Woj. Kujawsko-Pomorskie","key":"StateName"},{"value":"Powiat Bydgoski","key":"CountyName"}]},"MapReference":{"ReferenceId":"966371286","Spot":1.0,"SideOfStreet":"right","CountryId":"20624059","StateId":"20625395","CountyId":"20625442","CityId":"20625449","DistrictId":"20681444"}}}]}]}}