{"Response":{"MetaInfo":{"Timestamp":"2020-03-28T09:58:30.916+0000","NextPageInformation":"2"},"View":[{"_type":"SearchResultsViewType","ViewId":0,"Result":[{"Relevance":1.0,"Distance":0.0,"Direction":0.0,"MatchLevel":"district","MatchQuality":{"Country":1.0,"State":1.0,"County":1.0,"City":1.0,"District":1.0,"PostalCode":1.0},"Location":{"LocationId":"NT_hKLgzsA5RKAGK-4Mz6Mp-A","LocationType":"point","DisplayPosition":{"Latitude":53.3402319,"Longitude":15.0118941},"MapView":{"TopLeft":{"Latitude":53.35978,"Longitude":14.98592},"BottomRight":{"Latitude":53.28697,"Longitude":15.08153}},"Address":{"Label":"Stargard, Woj. Zachodniopomorskie, Polska","Country":"POL","State":"Woj. Zachodniopomorskie","County":"Powiat Stargardzki","City":"Stargard","District":"Stargard","PostalCode":"73-110","AdditionalData":[{"value":"Polska","key":"CountryName"},{"value":"Woj. Zachodniopomorskie","key":"StateName"},{"value":"Powiat Stargardzki","key":"CountyName"}]},"MapReference":{"ReferenceId":"919985113","SideOfStreet":"neither","CountryId":"20624059","StateId":"20631896","CountyId":"20632102","CityId":"20698353","DistrictId":"20698354"}}},{"Relevance":1.0,"Distance":11.3,"MatchLevel":"houseNumber","MatchQuality":{"Country":1.0,"State":1.0,"County":1.0,"City":1.0,"District":1.0,"Street":[1.0],"HouseNumber":1.0,"PostalCode":1.0},"MatchType":"interpolated","Location":{"LocationId":"NT_3uSlIyunwkev2.-UmqZc7C_3UD","LocationType":"point","DisplayPosition":{"Latitude":53.34062,"Longitude":15.01219},"MapView":{"TopLeft":{"Latitude":53.3417442,"Longitude":15.0103072},"BottomRight":{"Latitude":53.3394958,"Longitude":15.0140728}},"Address":{"Label":"ulica Szczecińska 75, 73-100 Stargard, Polska","Country":"POL","State":"Woj. Zachodniopomorskie","County":"Powiat Stargardzki","City":"Stargard","District":"Stargard","Street":"ulica Szczecińska","HouseNumber":"75","PostalCode":"73-100","AdditionalData":[{"value":"Polska","key":"CountryName"},{"value":"Woj. Zachodniopomorskie","key":"StateName"},{"value":"Powiat Stargardzki","key":"CountyName"}]},"MapReference":{"ReferenceId":"820443701","Spot":0.88,"SideOfStreet":"left","CountryId":"20624059","StateId":"20631896","CountyId":"20632102","CityId":"20698353","DistrictId":"20698354","AddressId":"302046532","RoadLinkId":"207063427"}}},{"Relevance":1.0,"Distance":20.0,"MatchLevel":"street","MatchQuality":{"Country":1.0,"State":1.0,"County":1.0,"City":1.0,"District":1.0,"Street":[1.0],"PostalCode":1.0},"Location":{"LocationId":"NT_2aj2N19IjOfLyd7qPQ7V7D_l_595400111_R","LocationType":"point","DisplayPosition":{"Latitude":53.3404114,"Longitude":15.0119143},"MapView":{"TopLeft":{"Latitude":53.34047,"Longitude":15.01166},"BottomRight":{"Latitude":53.34027,"Longitude":15.01353}},"Address":{"Label":"osiedle Zachód B, 73-110 Stargard, Polska","Country":"POL","State":"Woj. Zachodniopomorskie","County":"Powiat Stargardzki","City":"Stargard","District":"Stargard","Street":"osiedle Zachód B","PostalCode":"73-110","AdditionalData":[{"value":"Polska","key":"CountryName"},{"value":"Woj. Zachodniopomorskie","key":"StateName"},{"value":"Powiat Stargardzki","key":"CountyName"}]},"MapReference":{"ReferenceId":"595400111","Spot":0.13,"SideOfStreet":"right","CountryId":"20624059","StateId":"20631896","CountyId":"20632102","CityId":"20698353","DistrictId":"20698354"}}},{"Relevance":1.0,"Distance":27.9,"MatchLevel":"street","MatchQuality":{"Country":1.0,"State":1.0,"County":1.0,"City":1.0,"District":1.0,"Street":[1.0],"PostalCode":1.0},"Location":{"LocationId":"NT_2aj2N19IjOfLyd7qPQ7V7D_l_764757239_L","LocationType":"point","DisplayPosition":{"Latitude":53.34044,"Longitude":15.01166},"MapView":{"TopLeft":{"Latitude":53.34067,"Longitude":15.00965},"BottomRight":{"Latitude":53.34044,"Longitude":15.01166}},"Address":{"Label":"osiedle Zachód B, 73-110 Stargard, Polska","Country":"POL","State":"Woj. Zachodniopomorskie","County":"Powiat Stargardzki","City":"Stargard","District":"Stargard","Street":"osiedle Zachód B","PostalCode":"73-110","AdditionalData":[{"value":"Polska","key":"CountryName"},{"value":"Woj. Zachodniopomorskie","key":"StateName"},{"value":"Powiat Stargardzki","key":"CountyName"}]},"MapReference":{"ReferenceId":"764757239","Spot":0.0,"SideOfStreet":"left","CountryId":"20624059","StateId":"20631896","CountyId":"20632102","CityId":"20698353","DistrictId":"20698354"}}},{"Relevance":1.0,"Distance":47.8,"MatchLevel":"houseNumber","MatchQuality":{"Country":1.0,"State":1.0,"County":1.0,"City":1.0,"District":1.0,"Street":[1.0],"HouseNumber":1.0,"PostalCode":1.0},"MatchType":"interpolated","Location":{"LocationId":"NT_pPffHObVAqyAnnX3K4KzpC_3ID","LocationType":"point","DisplayPosition":{"Latitude":53.34066,"Longitude":15.01183},"MapView":{"TopLeft":{"Latitude":53.3417842,"Longitude":15.0099472},"BottomRight":{"Latitude":53.3395358,"Longitude":15.0137128}},"Address":{"Label":"ulica Szczecińska 72, 73-110 Stargard, Polska","Country":"POL","State":"Woj. Zachodniopomorskie","County":"Powiat Stargardzki","City":"Stargard","District":"Stargard","Street":"ulica Szczecińska","HouseNumber":"72","PostalCode":"73-110","AdditionalData":[{"value":"Polska","key":"CountryName"},{"value":"Woj. Zachodniopomorskie","key":"StateName"},{"value":"Powiat Stargardzki","key":"CountyName"}]},"MapReference":{"ReferenceId":"771986338","Spot":0.29,"SideOfStreet":"right","CountryId":"20624059","StateId":"20631896","CountyId":"20632102","CityId":"20698353","DistrictId":"20698354","AddressId":"222065281","RoadLinkId":"165584475"}}},{"Relevance":1.0,"Distance":73.6,"MatchLevel":"houseNumber","MatchQuality":{"Country":1.0,"State":1.0,"County":1.0,"City":1.0,"District":1.0,"Street":[1.0],"HouseNumber":1.0,"PostalCode":1.0},"MatchType":"interpolated","Location":{"LocationId":"NT_M-4xqLoARwTUq2bpUzmaWC_BFDO","LocationType":"point","DisplayPosition":{"Latitude":53.3392,"Longitude":15.01244},"MapView":{"TopLeft":{"Latitude":53.3403242,"Longitude":15.0105572},"BottomRight":{"Latitude":53.3380758,"Longitude":15.0143228}},"Address":{"Label":"osiedle Zachód A18, 73-110 Stargard, Polska","Country":"POL","State":"Woj. Zachodniopomorskie","County":"Powiat Stargardzki","City":"Stargard","District":"Stargard","Street":"osiedle Zachód","HouseNumber":"A18","PostalCode":"73-110","AdditionalData":[{"value":"Polska","key":"CountryName"},{"value":"Woj. Zachodniopomorskie","key":"StateName"},{"value":"Powiat Stargardzki","key":"CountyName"}]},"MapReference":{"ReferenceId":"595107880","Spot":0.1,"SideOfStreet":"right","CountryId":"20624059","StateId":"20631896","CountyId":"20632102","CityId":"20698353","DistrictId":"20698354","AddressId":"222065526","RoadLinkId":"158881308"}}},{"Relevance":1.0,"Distance":82.8,"MatchLevel":"houseNumber","MatchQuality":{"Country":1.0,"State":1.0,"County":1.0,"City":1.0,"District":1.0,"Street":[1.0],"HouseNumber":1.0,"PostalCode":1.0},"MatchType":"interpolated","Location":{"LocationId":"NT_pPffHObVAqyAnnX3K4KzpC_l_919982534_L_4ED","LocationType":"point","DisplayPosition":{"Latitude":53.3407609,"Longitude":15.0108526},"MapView":{"TopLeft":{"Latitude":53.341885,"Longitude":15.0089697},"BottomRight":{"Latitude":53.3396367,"Longitude":15.0127354}},"Address":{"Label":"ulica Szczecińska 81, 73-110 Stargard, Polska","Country":"POL","State":"Woj. Zachodniopomorskie","County":"Powiat Stargardzki","City":"Stargard","District":"Stargard","Street":"ulica Szczecińska","HouseNumber":"81","PostalCode":"73-110","AdditionalData":[{"value":"Polska","key":"CountryName"},{"value":"Woj. Zachodniopomorskie","key":"StateName"},{"value":"Powiat Stargardzki","key":"CountyName"}]},"MapReference":{"ReferenceId":"919982534","Spot":0.52,"SideOfStreet":"left","CountryId":"20624059","StateId":"20631896","CountyId":"20632102","CityId":"20698353","DistrictId":"20698354"}}},{"Relevance":1.0,"Distance":93.2,"MatchLevel":"houseNumber","MatchQuality":{"Country":1.0,"State":1.0,"County":1.0,"City":1.0,"District":1.0,"Street":[1.0],"HouseNumber":1.0,"PostalCode":1.0},"MatchType":"interpolated","Location":{"LocationId":"NT_pPffHObVAqyAnnX3K4KzpC_3ED","LocationType":"point","DisplayPosition":{"Latitude":53.34048,"Longitude":15.01339},"MapView":{"TopLeft":{"Latitude":53.3416042,"Longitude":15.0115072},"BottomRight":{"Latitude":53.3393558,"Longitude":15.0152728}},"Address":{"Label":"ulica Szczecińska 71, 73-110 Stargard, Polska","Country":"POL","State":"Woj. Zachodniopomorskie","County":"Powiat Stargardzki","City":"Stargard","District":"Stargard","Street":"ulica Szczecińska","HouseNumber":"71","PostalCode":"73-110","AdditionalData":[{"value":"Polska","key":"CountryName"},{"value":"Woj. Zachodniopomorskie","key":"StateName"},{"value":"Powiat Stargardzki","key":"CountyName"}]},"MapReference":{"ReferenceId":"820443700","Spot":0.13,"SideOfStreet":"left","CountryId":"20624059","StateId":"20631896","CountyId":"20632102","CityId":"20698353","DistrictId":"20698354","AddressId":"302028954","RoadLinkId":"207063426"}}},{"Relevance":1.0,"Distance":104.4,"MatchLevel":"houseNumber","MatchQuality":{"Country":1.0,"State":1.0,"County":1.0,"City":1.0,"District":1.0,"Street":[1.0],"HouseNumber":1.0,"PostalCode":1.0},"MatchType":"interpolated","Location":{"LocationId":"NT_SNLKrzRS.a8RvjjzFqRK2A_xA","LocationType":"point","DisplayPosition":{"Latitude":53.34114,"Longitude":15.01223},"MapView":{"TopLeft":{"Latitude":53.3422642,"Longitude":15.0103472},"BottomRight":{"Latitude":53.3400158,"Longitude":15.0141128}},"Address":{"Label":"ulica Mazowiecka 1, 73-110 Stargard, Polska","Country":"POL","State":"Woj. Zachodniopomorskie","County":"Powiat Stargardzki","City":"Stargard","District":"Stargard","Street":"ulica Mazowiecka","HouseNumber":"1","PostalCode":"73-110","AdditionalData":[{"value":"Polska","key":"CountryName"},{"value":"Woj. Zachodniopomorskie","key":"StateName"},{"value":"Powiat Stargardzki","key":"CountyName"}]},"MapReference":{"ReferenceId":"595400114","Spot":0.42,"SideOfStreet":"left","CountryId":"20624059","StateId":"20631896","CountyId":"20632102","CityId":"20698353","DistrictId":"20698354","AddressId":"211323666","RoadLinkId":"95337336"}}},{"Relevance":1.0,"Distance":117.6,"MatchLevel":"houseNumber","MatchQuality":{"Country":1.0,"State":1.0,"County":1.0,"City":1.0,"District":1.0,"Street":[1.0],"HouseNumber":1.0,"PostalCode":1.0},"MatchType":"interpolated","Location":{"LocationId":"NT_pPffHObVAqyAnnX3K4KzpC_4AD","LocationType":"point","DisplayPosition":{"Latitude":53.34081,"Longitude":15.01041},"MapView":{"TopLeft":{"Latitude":53.3419342,"Longitude":15.0085272},"BottomRight":{"Latitude":53.3396858,"Longitude":15.0122928}},"Address":{"Label":"ulica Szczecińska 80, 73-110 Stargard, Polska","Country":"POL","State":"Woj. Zachodniopomorskie","County":"Powiat Stargardzki","City":"Stargard","District":"Stargard","Street":"ulica Szczecińska","HouseNumber":"80","PostalCode":"73-110","AdditionalData":[{"value":"Polska","key":"CountryName"},{"value":"Woj. Zachodniopomorskie","key":"StateName"},{"value":"Powiat Stargardzki","key":"CountyName"}]},"MapReference":{"ReferenceId":"919982535","Spot":0.3,"SideOfStreet":"right","CountryId":"20624059","StateId":"20631896","CountyId":"20632102","CityId":"20698353","DistrictId":"20698354","AddressId":"222071844","RoadLinkId":"276791882"}}}]}]}}