{"Response":{"MetaInfo":{"Timestamp":"2020-03-28T09:55:03.062+0000","NextPageInformation":"2"},"View":[{"_type":"SearchResultsViewType","ViewId":0,"Result":[{"Relevance":1.0,"Distance":-8.1,"MatchLevel":"landmark","MatchQuality":{"Country":1.0,"County":1.0,"City":1.0,"District":1.0,"PostalCode":1.0,"Name":1.0},"Location":{"LocationId":"NT_yC1WU-IXcNszWST7vLwk8B","LocationType":"industrialComplex","Name":"Donnelly Centre","DisplayPosition":{"Latitude":53.33702,"Longitude":-6.28439},"MapView":{"TopLeft":{"Latitude":53.33797,"Longitude":-6.28624},"BottomRight":{"Latitude":53.33606,"Longitude":-6.28268}},"Address":{"Label":"Dublin, County Dublin, D08, Ireland","Country":"IRL","County":"County Dublin","City":"Dublin","District":"Dublin 8","PostalCode":"D08","AdditionalData":[{"value":"Ireland","key":"CountryName"},{"value":"County Dublin","key":"CountyName"}]},"MapReference":{"CountryId":"20403667","CountyId":"20411172","CityId":"20413526","DistrictId":"20413535","PlaceId":"83165730"}}},{"Relevance":1.0,"Distance":0.0,"Direction":0.0,"MatchLevel":"district","MatchQuality":{"Country":1.0,"County":1.0,"City":1.0,"District":1.0},"Location":{"LocationId":"NT_dcucf7AH8VTfesJNZypcRD","LocationType":"point","DisplayPosition":{"Latitude":53.3372381,"Longitude":-6.2860386},"MapView":{"TopLeft":{"Latitude":53.37202,"Longitude":-6.35635},"BottomRight":{"Latitude":53.32964,"Longitude":-6.26428}},"Address":{"Label":"Dublin 8, Dublin, Ireland","Country":"IRL","County":"County Dublin","City":"Dublin","District":"Dublin 8","AdditionalData":[{"value":"Ireland","key":"CountryName"},{"value":"County Dublin","key":"CountyName"}]},"MapReference":{"ReferenceId":"1212842628","SideOfStreet":"neither","CountryId":"20403667","CountyId":"20411172","CityId":"20413526","DistrictId":"20413535"}}},{"Relevance":1.0,"Distance":6.7,"MatchLevel":"houseNumber","MatchQuality":{"Country":1.0,"County":1.0,"City":1.0,"District":1.0,"Street":[1.0],"HouseNumber":1.0,"PostalCode":1.0},"MatchType":"interpolated","Location":{"LocationId":"NT_ZJgchHR8pmH19.lAeGywDD_l_1212707923_R_zkD","LocationType":"point","DisplayPosition":{"Latitude":53.3373118,"Longitude":-6.2860598},"MapView":{"TopLeft":{"Latitude":53.3384359,"Longitude":-6.2879425},"BottomRight":{"Latitude":53.3361876,"Longitude":-6.2841771}},"Address":{"Label":"39 Cork Street, Dublin, County Dublin, D08, Ireland","Country":"IRL","County":"County Dublin","City":"Dublin","District":"Dublin 8","Street":"Cork Street","HouseNumber":"39","PostalCode":"D08","AdditionalData":[{"value":"Ireland","key":"CountryName"},{"value":"County Dublin","key":"CountyName"}]},"MapReference":{"ReferenceId":"1212707923","Spot":0.51,"SideOfStreet":"right","CountryId":"20403667","CountyId":"20411172","CityId":"20413526","DistrictId":"20413535"}}},{"Relevance":1.0,"Distance":8.3,"MatchLevel":"postalCode","MatchQuality":{"PostalCode":1.0},"MatchType":"interpolated","Location":{"LocationId":"NT_ZJgchHR8pmH19.lAeGywDD_l_1212707923_R_zkD","LocationType":"point","DisplayPosition":{"Latitude":53.33731,"Longitude":-6.28607},"MapView":{"TopLeft":{"Latitude":53.3463032,"Longitude":-6.3011314},"BottomRight":{"Latitude":53.3283168,"Longitude":-6.2710086}},"Address":{"Label":"D08 A5R2, Dublin, Ireland","Country":"IRL","County":"County Dublin","City":"Dublin","PostalCode":"D08 A5R2","AdditionalData":[{"value":"Ireland","key":"CountryName"},{"value":"County Dublin","key":"CountyName"}]},"MapReference":{"ReferenceId":"1212707923","Spot":0.51,"SideOfStreet":"neither","CountryId":"20403667","CountyId":"20411172","CityId":"20413526"}}},{"Relevance":1.0,"Distance":9.4,"MatchLevel":"street","MatchQuality":{"Country":1.0,"County":1.0,"City":1.0,"District":1.0,"Street":[1.0],"PostalCode":1.0},"Location":{"LocationId":"NT_jPkhb8InzYgSuzKiCfbpnA_l_549456430_R","LocationType":"point","DisplayPosition":{"Latitude":53.3371586,"Longitude":-6.2860856},"MapView":{"TopLeft":{"Latitude":53.33725,"Longitude":-6.28624},"BottomRight":{"Latitude":53.33696,"Longitude":-6.28575}},"Address":{"Label":"Donore Avenue, Dublin, County Dublin, D08, Ireland","Country":"IRL","County":"County Dublin","City":"Dublin","District":"Dublin 8","Street":"Donore Avenue","PostalCode":"D08","AdditionalData":[{"value":"Ireland","key":"CountryName"},{"value":"County Dublin","key":"CountyName"}]},"MapReference":{"ReferenceId":"549456430","Spot":0.68,"SideOfStreet":"right","CountryId":"20403667","CountyId":"20411172","CityId":"20413526","DistrictId":"20413535"}}},{"Relevance":1.0,"Distance":15.7,"MatchLevel":"postalCode","MatchQuality":{"PostalCode":1.0},"Location":{"LocationId":"NT_jPkhb8InzYgSuzKiCfbpnA_l_549456430_R","LocationType":"point","DisplayPosition":{"Latitude":53.3371,"Longitude":-6.28599},"MapView":{"TopLeft":{"Latitude":53.3460932,"Longitude":-6.3010513},"BottomRight":{"Latitude":53.3281068,"Longitude":-6.2709287}},"Address":{"Label":"D08 DH68, Dublin, Ireland","Country":"IRL","County":"County Dublin","City":"Dublin","PostalCode":"D08 DH68","AdditionalData":[{"value":"Ireland","key":"CountryName"},{"value":"County Dublin","key":"CountyName"}]},"MapReference":{"ReferenceId":"549456430","Spot":0.68,"SideOfStreet":"neither","CountryId":"20403667","CountyId":"20411172","CityId":"20413526"}}},{"Relevance":1.0,"Distance":21.0,"MatchLevel":"houseNumber","MatchQuality":{"Country":1.0,"County":1.0,"City":1.0,"District":1.0,"Street":[1.0],"HouseNumber":1.0,"PostalCode":1.0},"MatchType":"interpolated","Location":{"LocationId":"NT_opvfci7dAXAJ0SmhQG3DkB_zkD","LocationType":"point","DisplayPosition":{"Latitude":53.33739,"Longitude":-6.28585},"MapView":{"TopLeft":{"Latitude":53.3385142,"Longitude":-6.2877327},"BottomRight":{"Latitude":53.3362658,"Longitude":-6.2839673}},"Address":{"Label":"39 Cork Street, Dublin, County Dublin, D08 YE35, Ireland","Country":"IRL","County":"County Dublin","City":"Dublin","District":"Dublin 8","Street":"Cork Street","HouseNumber":"39","PostalCode":"D08 YE35","AdditionalData":[{"value":"Ireland","key":"CountryName"},{"value":"County Dublin","key":"CountyName"}]},"MapReference":{"ReferenceId":"1212707924","Spot":0.13,"SideOfStreet":"right","CountryId":"20403667","CountyId":"20411172","CityId":"20413526","DistrictId":"20413535","AddressId":"214184078","RoadLinkId":"528264994"}}},{"Relevance":1.0,"Distance":24.6,"MatchLevel":"houseNumber","MatchQuality":{"Country":1.0,"County":1.0,"City":1.0,"District":1.0,"Street":[1.0],"PostalCode":1.0},"MatchType":"interpolated","Location":{"LocationId":"NT_opvfci7dAXAJ0SmhQG3DkB","LocationType":"point","DisplayPosition":{"Latitude":53.33719,"Longitude":-6.2864},"MapView":{"TopLeft":{"Latitude":53.3383142,"Longitude":-6.2882827},"BottomRight":{"Latitude":53.3360658,"Longitude":-6.2845173}},"Address":{"Label":"\"Block B\" Cork Street, Dublin, County Dublin, D08 A023, Ireland","Country":"IRL","County":"County Dublin","City":"Dublin","District":"Dublin 8","Street":"Cork Street","PostalCode":"D08 A023","AdditionalData":[{"value":"Ireland","key":"CountryName"},{"value":"County Dublin","key":"CountyName"}],"Building":"Block B"},"MapReference":{"ReferenceId":"549455610","Spot":0.16,"SideOfStreet":"left","CountryId":"20403667","CountyId":"20411172","CityId":"20413526","DistrictId":"20413535","AddressId":"359983107","RoadLinkId":"86570890"}}},{"Relevance":1.0,"Distance":26.8,"MatchLevel":"street","MatchQuality":{"Country":1.0,"County":1.0,"City":1.0,"District":1.0,"Street":[1.0],"PostalCode":1.0},"Location":{"LocationId":"NT_wgZeLXPlpKi4Xil-m8RMPD_l_778891824_R","LocationType":"point","DisplayPosition":{"Latitude":53.33718,"Longitude":-6.28643},"MapView":{"TopLeft":{"Latitude":53.33748,"Longitude":-6.28683},"BottomRight":{"Latitude":53.33718,"Longitude":-6.28643}},"Address":{"Label":"Marrowbone Lane, Dublin, County Dublin, D08, Ireland","Country":"IRL","County":"County Dublin","City":"Dublin","District":"Dublin 8","Street":"Marrowbone Lane","PostalCode":"D08","AdditionalData":[{"value":"Ireland","key":"CountryName"},{"value":"County Dublin","key":"CountyName"}]},"MapReference":{"ReferenceId":"778891824","Spot":0.0,"SideOfStreet":"right","CountryId":"20403667","CountyId":"20411172","CityId":"20413526","DistrictId":"20413535"}}},{"Relevance":1.0,"Distance":34.8,"MatchLevel":"postalCode","MatchQuality":{"PostalCode":1.0},"MatchType":"interpolated","Location":{"LocationId":"NT_opvfci7dAXAJ0SmhQG3DkB_zkD","LocationType":"point","DisplayPosition":{"Latitude":53.33755,"Longitude":-6.286},"MapView":{"TopLeft":{"Latitude":53.3465432,"Longitude":-6.3010615},"BottomRight":{"Latitude":53.3285568,"Longitude":-6.2709385}},"Address":{"Label":"D08 X4Y8, Dublin, Ireland","Country":"IRL","County":"County Dublin","City":"Dublin","PostalCode":"D08 X4Y8","AdditionalData":[{"value":"Ireland","key":"CountryName"},{"value":"County Dublin","key":"CountyName"}]},"MapReference":{"ReferenceId":"1212707924","Spot":0.13,"SideOfStreet":"neither","CountryId":"20403667","CountyId":"20411172","CityId":"20413526"}}}]}]}}