{"Response":{"MetaInfo":{"Timestamp":"2020-03-28T09:35:06.028+0000","NextPageInformation":"2"},"View":[{"_type":"SearchResultsViewType","ViewId":0,"Result":[{"Relevance":1.0,"Distance":0.0,"Direction":0.0,"MatchLevel":"district","MatchQuality":{"Country":1.0,"State":1.0,"County":1.0,"City":1.0,"District":1.0,"PostalCode":1.0},"Location":{"LocationId":"NT_PwK6l-mwryNcg3wgDMcQmD","LocationType":"point","DisplayPosition":{"Latitude":53.3528138,"Longitude":10.2081754},"MapView":{"TopLeft":{"Latitude":53.38042,"Longitude":10.18556},"BottomRight":{"Latitude":53.33891,"Longitude":10.24397}},"Address":{"Label":"Winsen (Luhe), Niedersachsen, Deutschland","Country":"DEU","State":"Niedersachsen","County":"Harburg","City":"Winsen (Luhe)","District":"Winsen (Luhe)","PostalCode":"21423","AdditionalData":[{"value":"Deutschland","key":"CountryName"},{"value":"Niedersachsen","key":"StateName"},{"value":"Harburg","key":"CountyName"}]},"MapReference":{"ReferenceId":"51687845","SideOfStreet":"neither","CountryId":"20147700","StateId":"20151542","CountyId":"20154385","CityId":"20154587","DistrictId":"20154597"}}},{"Relevance":1.0,"Distance":23.0,"MatchLevel":"houseNumber","MatchQuality":{"Country":1.0,"State":1.0,"County":1.0,"City":1.0,"District":1.0,"Street":[1.0],"HouseNumber":1.0,"PostalCode":1.0},"MatchType":"interpolated","Location":{"LocationId":"NT_KFFyIYMxgelGu9QJqO1JEB_1A","LocationType":"point","DisplayPosition":{"Latitude":53.35279,"Longitude":10.20764},"MapView":{"TopLeft":{"Latitude":53.3539142,"Longitude":10.2057566},"BottomRight":{"Latitude":53.3516658,"Longitude":10.2095234}},"Address":{"Label":"Schützenstraße 5, 21423 Winsen (Luhe), Deutschland","Country":"DEU","State":"Niedersachsen","County":"Harburg","City":"Winsen (Luhe)","District":"Winsen (Luhe)","Street":"Schützenstraße","HouseNumber":"5","PostalCode":"21423","AdditionalData":[{"value":"Deutschland","key":"CountryName"},{"value":"Niedersachsen","key":"StateName"},{"value":"Harburg","key":"CountyName"}]},"MapReference":{"ReferenceId":"51705394","Spot":0.25,"SideOfStreet":"right","CountryId":"20147700","StateId":"20151542","CountyId":"20154385","CityId":"20154587","DistrictId":"20154597","AddressId":"181688442","RoadLinkId":"37227411"}}},{"Relevance":1.0,"Distance":38.7,"MatchLevel":"houseNumber","MatchQuality":{"Country":1.0,"State":1.0,"County":1.0,"City":1.0,"District":1.0,"Street":[1.0],"HouseNumber":1.0,"PostalCode":1.0},"MatchType":"interpolated","Location":{"LocationId":"NT_D3KpGLa8Y3Bk77fMU0jdVB_2A","LocationType":"point","DisplayPosition":{"Latitude":53.35333,"Longitude":10.2083},"MapView":{"TopLeft":{"Latitude":53.3544542,"Longitude":10.2064166},"BottomRight":{"Latitude":53.3522058,"Longitude":10.2101834}},"Address":{"Label":"Am Bahnhof 6, 21423 Winsen (Luhe), Deutschland","Country":"DEU","State":"Niedersachsen","County":"Harburg","City":"Winsen (Luhe)","District":"Winsen (Luhe)","Street":"Am Bahnhof","HouseNumber":"6","PostalCode":"21423","AdditionalData":[{"value":"Deutschland","key":"CountryName"},{"value":"Niedersachsen","key":"StateName"},{"value":"Harburg","key":"CountyName"}]},"MapReference":{"ReferenceId":"51705356","Spot":0.49,"SideOfStreet":"left","CountryId":"20147700","StateId":"20151542","CountyId":"20154385","CityId":"20154587","DistrictId":"20154597","AddressId":"181385817","RoadLinkId":"36986691"}}},{"Relevance":1.0,"Distance":43.9,"MatchLevel":"street","MatchQuality":{"Country":1.0,"State":1.0,"County":1.0,"City":1.0,"District":1.0,"Street":[1.0],"PostalCode":1.0},"Location":{"LocationId":"NT_KFFyIYMxgelGu9QJqO1JEB_l_51705396_R","LocationType":"point","DisplayPosition":{"Latitude":53.35247,"Longitude":10.20785},"MapView":{"TopLeft":{"Latitude":53.35261,"Longitude":10.20745},"BottomRight":{"Latitude":53.35247,"Longitude":10.20785}},"Address":{"Label":"Schützenstraße, 21423 Winsen (Luhe), Deutschland","Country":"DEU","State":"Niedersachsen","County":"Harburg","City":"Winsen (Luhe)","District":"Winsen (Luhe)","Street":"Schützenstraße","PostalCode":"21423","AdditionalData":[{"value":"Deutschland","key":"CountryName"},{"value":"Niedersachsen","key":"StateName"},{"value":"Harburg","key":"CountyName"}]},"MapReference":{"ReferenceId":"51705396","Spot":0.0,"SideOfStreet":"right","CountryId":"20147700","StateId":"20151542","CountyId":"20154385","CityId":"20154587","DistrictId":"20154597"}}},{"Relevance":1.0,"Distance":53.2,"MatchLevel":"street","MatchQuality":{"Country":1.0,"State":1.0,"County":1.0,"City":1.0,"District":1.0,"Street":[1.0],"PostalCode":1.0},"Location":{"LocationId":"NT_KFFyIYMxgelGu9QJqO1JEB_l_51688562_L","LocationType":"point","DisplayPosition":{"Latitude":53.35261,"Longitude":10.20745},"MapView":{"TopLeft":{"Latitude":53.35261,"Longitude":10.20682},"BottomRight":{"Latitude":53.35259,"Longitude":10.20745}},"Address":{"Label":"Schützenstraße, 21423 Winsen (Luhe), Deutschland","Country":"DEU","State":"Niedersachsen","County":"Harburg","City":"Winsen (Luhe)","District":"Winsen (Luhe)","Street":"Schützenstraße","PostalCode":"21423","AdditionalData":[{"value":"Deutschland","key":"CountryName"},{"value":"Niedersachsen","key":"StateName"},{"value":"Harburg","key":"CountyName"}]},"MapReference":{"ReferenceId":"51688562","Spot":1.0,"SideOfStreet":"left","CountryId":"20147700","StateId":"20151542","CountyId":"20154385","CityId":"20154587","DistrictId":"20154597"}}},{"Relevance":1.0,"Distance":62.3,"MatchLevel":"street","MatchQuality":{"Country":1.0,"State":1.0,"County":1.0,"City":1.0,"District":1.0,"Street":[1.0],"PostalCode":1.0},"Location":{"LocationId":"NT_D3KpGLa8Y3Bk77fMU0jdVB_l_51688603_L","LocationType":"point","DisplayPosition":{"Latitude":53.35307,"Longitude":10.20901},"MapView":{"TopLeft":{"Latitude":53.35307,"Longitude":10.20901},"BottomRight":{"Latitude":53.35164,"Longitude":10.21042}},"Address":{"Label":"Am Bahnhof, 21423 Winsen (Luhe), Deutschland","Country":"DEU","State":"Niedersachsen","County":"Harburg","City":"Winsen (Luhe)","District":"Winsen (Luhe)","Street":"Am Bahnhof","PostalCode":"21423","AdditionalData":[{"value":"Deutschland","key":"CountryName"},{"value":"Niedersachsen","key":"StateName"},{"value":"Harburg","key":"CountyName"}]},"MapReference":{"ReferenceId":"51688603","Spot":1.0,"SideOfStreet":"left","CountryId":"20147700","StateId":"20151542","CountyId":"20154385","CityId":"20154587","DistrictId":"20154597"}}},{"Relevance":1.0,"Distance":77.5,"MatchLevel":"houseNumber","MatchQuality":{"Country":1.0,"State":1.0,"County":1.0,"City":1.0,"District":1.0,"Street":[1.0],"HouseNumber":1.0,"PostalCode":1.0},"MatchType":"interpolated","Location":{"LocationId":"NT_2p1rxWerHOBNcnmNWATQFD_ykTQ","LocationType":"point","DisplayPosition":{"Latitude":53.35204,"Longitude":10.207},"MapView":{"TopLeft":{"Latitude":53.3531642,"Longitude":10.2051167},"BottomRight":{"Latitude":53.3509158,"Longitude":10.2088833}},"Address":{"Label":"Luhdorfer Straße 29A, 21423 Winsen (Luhe), Deutschland","Country":"DEU","State":"Niedersachsen","County":"Harburg","City":"Winsen (Luhe)","District":"Winsen (Luhe)","Street":"Luhdorfer Straße","HouseNumber":"29A","PostalCode":"21423","AdditionalData":[{"value":"Deutschland","key":"CountryName"},{"value":"Niedersachsen","key":"StateName"},{"value":"Harburg","key":"CountyName"}]},"MapReference":{"ReferenceId":"1187971522","Spot":0.05,"SideOfStreet":"right","CountryId":"20147700","StateId":"20151542","CountyId":"20154385","CityId":"20154587","DistrictId":"20154597","AddressId":"180677645","RoadLinkId":"496755488"}}},{"Relevance":1.0,"Distance":81.7,"MatchLevel":"houseNumber","MatchQuality":{"Country":1.0,"State":1.0,"County":1.0,"City":1.0,"District":1.0,"Street":[1.0],"HouseNumber":1.0,"PostalCode":1.0},"MatchType":"interpolated","Location":{"LocationId":"NT_2p1rxWerHOBNcnmNWATQFD_xUD","LocationType":"point","DisplayPosition":{"Latitude":53.35268,"Longitude":10.20679},"MapView":{"TopLeft":{"Latitude":53.3538042,"Longitude":10.2049066},"BottomRight":{"Latitude":53.3515558,"Longitude":10.2086734}},"Address":{"Label":"Luhdorfer Straße 15, 21423 Winsen (Luhe), Deutschland","Country":"DEU","State":"Niedersachsen","County":"Harburg","City":"Winsen (Luhe)","District":"Winsen (Luhe)","Street":"Luhdorfer Straße","HouseNumber":"15","PostalCode":"21423","AdditionalData":[{"value":"Deutschland","key":"CountryName"},{"value":"Niedersachsen","key":"StateName"},{"value":"Harburg","key":"CountyName"}]},"MapReference":{"ReferenceId":"766682734","Spot":0.35,"SideOfStreet":"right","CountryId":"20147700","StateId":"20151542","CountyId":"20154385","CityId":"20154587","DistrictId":"20154597","AddressId":"179503700","RoadLinkId":"160581132"}}},{"Relevance":1.0,"Distance":86.4,"MatchLevel":"houseNumber","MatchQuality":{"Country":1.0,"State":1.0,"County":1.0,"City":1.0,"District":1.0,"Street":[1.0],"HouseNumber":1.0,"PostalCode":1.0},"MatchType":"interpolated","Location":{"LocationId":"NT_2p1rxWerHOBNcnmNWATQFD_5A","LocationType":"point","DisplayPosition":{"Latitude":53.35301,"Longitude":10.20668},"MapView":{"TopLeft":{"Latitude":53.3541342,"Longitude":10.2047966},"BottomRight":{"Latitude":53.3518858,"Longitude":10.2085634}},"Address":{"Label":"Luhdorfer Straße 9, 21423 Winsen (Luhe), Deutschland","Country":"DEU","State":"Niedersachsen","County":"Harburg","City":"Winsen (Luhe)","District":"Winsen (Luhe)","Street":"Luhdorfer Straße","HouseNumber":"9","PostalCode":"21423","AdditionalData":[{"value":"Deutschland","key":"CountryName"},{"value":"Niedersachsen","key":"StateName"},{"value":"Harburg","key":"CountyName"}]},"MapReference":{"ReferenceId":"766682735","Spot":0.14,"SideOfStreet":"right","CountryId":"20147700","StateId":"20151542","CountyId":"20154385","CityId":"20154587","DistrictId":"20154597","AddressId":"178411536","RoadLinkId":"160581133"}}},{"Relevance":1.0,"Distance":88.3,"MatchLevel":"houseNumber","MatchQuality":{"Country":1.0,"State":1.0,"County":1.0,"City":1.0,"District":1.0,"Street":[1.0],"HouseNumber":1.0,"PostalCode":1.0},"MatchType":"interpolated","Location":{"LocationId":"NT_2p1rxWerHOBNcnmNWATQFD_xkD","LocationType":"point","DisplayPosition":{"Latitude":53.35239,"Longitude":10.20688},"MapView":{"TopLeft":{"Latitude":53.3535142,"Longitude":10.2049967},"BottomRight":{"Latitude":53.3512658,"Longitude":10.2087633}},"Address":{"Label":"Luhdorfer Straße 19, 21423 Winsen (Luhe), Deutschland","Country":"DEU","State":"Niedersachsen","County":"Harburg","City":"Winsen (Luhe)","District":"Winsen (Luhe)","Street":"Luhdorfer Straße","HouseNumber":"19","PostalCode":"21423","AdditionalData":[{"value":"Deutschland","key":"CountryName"},{"value":"Niedersachsen","key":"StateName"},{"value":"Harburg","key":"CountyName"}]},"MapReference":{"ReferenceId":"51688572","Spot":0.16,"SideOfStreet":"right","CountryId":"20147700","StateId":"20151542","CountyId":"20154385","CityId":"20154587","DistrictId":"20154597","AddressId":"177271626","RoadLinkId":"37255865"}}}]}]}}