{"Response":{"MetaInfo":{"Timestamp":"2020-03-28T10:43:38.737+0000","NextPageInformation":"2"},"View":[{"_type":"SearchResultsViewType","ViewId":0,"Result":[{"Relevance":1.0,"Distance":0.0,"Direction":0.0,"MatchLevel":"district","MatchQuality":{"Country":1.0,"County":1.0,"City":1.0,"District":1.0},"Location":{"LocationId":"NT_ZAmiA5GhKm24jlP48U8ylA","LocationType":"point","DisplayPosition":{"Latitude":53.3594573,"Longitude":-6.1968585},"MapView":{"TopLeft":{"Latitude":53.37548,"Longitude":-6.25941},"BottomRight":{"Latitude":53.35023,"Longitude":-6.15401}},"Address":{"Label":"Dublin 3, Dublin, Ireland","Country":"IRL","County":"County Dublin","City":"Dublin","District":"Dublin 3","AdditionalData":[{"value":"Ireland","key":"CountryName"},{"value":"County Dublin","key":"CountyName"}]},"MapReference":{"ReferenceId":"919721612","SideOfStreet":"neither","CountryId":"20403667","CountyId":"20411172","CityId":"20413526","DistrictId":"20413529"}}},{"Relevance":1.0,"Distance":3.2,"MatchLevel":"houseNumber","MatchQuality":{"Country":1.0,"County":1.0,"City":1.0,"District":1.0,"Street":[1.0],"HouseNumber":1.0,"PostalCode":1.0},"MatchType":"interpolated","Location":{"LocationId":"NT_tUkWMtzvLVcQiY0udtZQUA_xgTO","LocationType":"point","DisplayPosition":{"Latitude":53.35927,"Longitude":-6.19698},"MapView":{"TopLeft":{"Latitude":53.3603942,"Longitude":-6.1988636},"BottomRight":{"Latitude":53.3581458,"Longitude":-6.1950964}},"Address":{"Label":"189 Clontarf Road, Dublin, County Dublin, D03 R3P3, Ireland","Country":"IRL","County":"County Dublin","City":"Dublin","District":"Dublin 3","Street":"Clontarf Road","HouseNumber":"189","PostalCode":"D03 R3P3","AdditionalData":[{"value":"Ireland","key":"CountryName"},{"value":"County Dublin","key":"CountyName"}]},"MapReference":{"ReferenceId":"554371248","Spot":0.1,"SideOfStreet":"right","CountryId":"20403667","CountyId":"20411172","CityId":"20413526","DistrictId":"20413529","AddressId":"214476323","RoadLinkId":"86813017"}}},{"Relevance":1.0,"Distance":8.2,"MatchLevel":"postalCode","MatchQuality":{"PostalCode":1.0},"MatchType":"interpolated","Location":{"LocationId":"NT_tUkWMtzvLVcQiY0udtZQUA_xgTO","LocationType":"point","DisplayPosition":{"Latitude":53.3595,"Longitude":-6.19696},"MapView":{"TopLeft":{"Latitude":53.3684932,"Longitude":-6.2120293},"BottomRight":{"Latitude":53.3505068,"Longitude":-6.1818907}},"Address":{"Label":"D03 C3W0, Dublin, Ireland","Country":"IRL","County":"County Dublin","City":"Dublin","PostalCode":"D03 C3W0","AdditionalData":[{"value":"Ireland","key":"CountryName"},{"value":"County Dublin","key":"CountyName"}]},"MapReference":{"ReferenceId":"554371248","Spot":0.1,"SideOfStreet":"neither","CountryId":"20403667","CountyId":"20411172","CityId":"20413526"}}},{"Relevance":1.0,"Distance":26.7,"MatchLevel":"street","MatchQuality":{"Country":1.0,"County":1.0,"City":1.0,"District":1.0,"Street":[1.0],"PostalCode":1.0},"Location":{"LocationId":"NT_tUkWMtzvLVcQiY0udtZQUA_l_554382175_R","LocationType":"point","DisplayPosition":{"Latitude":53.35922,"Longitude":-6.1968},"MapView":{"TopLeft":{"Latitude":53.35932,"Longitude":-6.19777},"BottomRight":{"Latitude":53.35914,"Longitude":-6.1968}},"Address":{"Label":"Clontarf Road, Dublin, County Dublin, D03, Ireland","Country":"IRL","County":"County Dublin","City":"Dublin","District":"Dublin 3","Street":"Clontarf Road","PostalCode":"D03","AdditionalData":[{"value":"Ireland","key":"CountryName"},{"value":"County Dublin","key":"CountyName"}]},"MapReference":{"ReferenceId":"554382175","Spot":0.0,"SideOfStreet":"right","CountryId":"20403667","CountyId":"20411172","CityId":"20413526","DistrictId":"20413529"}}},{"Relevance":1.0,"Distance":31.5,"MatchLevel":"houseNumber","MatchQuality":{"Country":1.0,"County":1.0,"City":1.0,"District":1.0,"Street":[1.0],"HouseNumber":1.0,"PostalCode":1.0},"MatchType":"interpolated","Location":{"LocationId":"NT_tUkWMtzvLVcQiY0udtZQUA_xkjM","LocationType":"point","DisplayPosition":{"Latitude":53.35919,"Longitude":-6.1967},"MapView":{"TopLeft":{"Latitude":53.3603142,"Longitude":-6.1985836},"BottomRight":{"Latitude":53.3580658,"Longitude":-6.1948164}},"Address":{"Label":"192 Clontarf Road, Dublin, County Dublin, D03 FY53, Ireland","Country":"IRL","County":"County Dublin","City":"Dublin","District":"Dublin 3","Street":"Clontarf Road","HouseNumber":"192","PostalCode":"D03 FY53","AdditionalData":[{"value":"Ireland","key":"CountryName"},{"value":"County Dublin","key":"CountyName"}]},"MapReference":{"ReferenceId":"1212658090","Spot":0.57,"SideOfStreet":"right","CountryId":"20403667","CountyId":"20411172","CityId":"20413526","DistrictId":"20413529","AddressId":"214665473","RoadLinkId":"528203958"}}},{"Relevance":1.0,"Distance":31.7,"MatchLevel":"postalCode","MatchQuality":{"PostalCode":1.0},"MatchType":"interpolated","Location":{"LocationId":"NT_tUkWMtzvLVcQiY0udtZQUA_xkjM","LocationType":"point","DisplayPosition":{"Latitude":53.35936,"Longitude":-6.19641},"MapView":{"TopLeft":{"Latitude":53.3683532,"Longitude":-6.2114792},"BottomRight":{"Latitude":53.3503668,"Longitude":-6.1813408}},"Address":{"Label":"D03 E9P6, Dublin, Ireland","Country":"IRL","County":"County Dublin","City":"Dublin","PostalCode":"D03 E9P6","AdditionalData":[{"value":"Ireland","key":"CountryName"},{"value":"County Dublin","key":"CountyName"}]},"MapReference":{"ReferenceId":"1212658090","Spot":0.57,"SideOfStreet":"neither","CountryId":"20403667","CountyId":"20411172","CityId":"20413526"}}},{"Relevance":1.0,"Distance":42.1,"MatchLevel":"houseNumber","MatchQuality":{"Country":1.0,"County":1.0,"City":1.0,"District":1.0,"Street":[1.0],"HouseNumber":1.0,"PostalCode":1.0},"MatchType":"interpolated","Location":{"LocationId":"NT_EaHxn3R2uQu0kg9uo9zTaB_xgDOhB","LocationType":"point","DisplayPosition":{"Latitude":53.35989,"Longitude":-6.19672},"MapView":{"TopLeft":{"Latitude":53.3610142,"Longitude":-6.1986037},"BottomRight":{"Latitude":53.3587658,"Longitude":-6.1948363}},"Address":{"Label":"188a Churchgate Avenue, Dublin, County Dublin, D03 V678, Ireland","Country":"IRL","County":"County Dublin","City":"Dublin","District":"Dublin 3","Street":"Churchgate Avenue","HouseNumber":"188a","PostalCode":"D03 V678","AdditionalData":[{"value":"Ireland","key":"CountryName"},{"value":"County Dublin","key":"CountyName"}]},"MapReference":{"ReferenceId":"554371113","Spot":0.7,"SideOfStreet":"left","CountryId":"20403667","CountyId":"20411172","CityId":"20413526","DistrictId":"20413529","AddressId":"743624745","RoadLinkId":"86533588"}}},{"Relevance":1.0,"Distance":43.5,"MatchLevel":"houseNumber","MatchQuality":{"Country":1.0,"County":1.0,"City":1.0,"District":1.0,"Street":[1.0],"HouseNumber":1.0,"PostalCode":1.0},"MatchType":"interpolated","Location":{"LocationId":"NT_MBjZZfFW17zSQRSC0nTZrB_yEG","LocationType":"point","DisplayPosition":{"Latitude":53.35935,"Longitude":-6.19605},"MapView":{"TopLeft":{"Latitude":53.3604742,"Longitude":-6.1979337},"BottomRight":{"Latitude":53.3582258,"Longitude":-6.1941663}},"Address":{"Label":"2a Vernon Avenue, Dublin, County Dublin, D03 HT29, Ireland","Country":"IRL","County":"County Dublin","City":"Dublin","District":"Dublin 3","Street":"Vernon Avenue","HouseNumber":"2a","PostalCode":"D03 HT29","AdditionalData":[{"value":"Ireland","key":"CountryName"},{"value":"County Dublin","key":"CountyName"}]},"MapReference":{"ReferenceId":"779334414","Spot":0.8,"SideOfStreet":"left","CountryId":"20403667","CountyId":"20411172","CityId":"20413526","DistrictId":"20413529","AddressId":"214644439","RoadLinkId":"172812669"}}},{"Relevance":1.0,"Distance":43.5,"MatchLevel":"postalCode","MatchQuality":{"PostalCode":1.0},"MatchType":"interpolated","Location":{"LocationId":"NT_MBjZZfFW17zSQRSC0nTZrB_yEG","LocationType":"point","DisplayPosition":{"Latitude":53.35937,"Longitude":-6.19622},"MapView":{"TopLeft":{"Latitude":53.3683632,"Longitude":-6.2112892},"BottomRight":{"Latitude":53.3503768,"Longitude":-6.1811508}},"Address":{"Label":"D03 K5F2, Dublin, Ireland","Country":"IRL","County":"County Dublin","City":"Dublin","PostalCode":"D03 K5F2","AdditionalData":[{"value":"Ireland","key":"CountryName"},{"value":"County Dublin","key":"CountyName"}]},"MapReference":{"ReferenceId":"779334414","Spot":0.8,"SideOfStreet":"neither","CountryId":"20403667","CountyId":"20411172","CityId":"20413526"}}},{"Relevance":1.0,"Distance":43.7,"MatchLevel":"houseNumber","MatchQuality":{"Country":1.0,"County":1.0,"City":1.0,"District":1.0,"Street":[1.0],"HouseNumber":1.0,"PostalCode":1.0},"MatchType":"interpolated","Location":{"LocationId":"NT_MBjZZfFW17zSQRSC0nTZrB_yA","LocationType":"point","DisplayPosition":{"Latitude":53.35945,"Longitude":-6.19603},"MapView":{"TopLeft":{"Latitude":53.3605742,"Longitude":-6.1979137},"BottomRight":{"Latitude":53.3583258,"Longitude":-6.1941463}},"Address":{"Label":"2 Vernon Avenue, Dublin, County Dublin, D03 P6D0, Ireland","Country":"IRL","County":"County Dublin","City":"Dublin","District":"Dublin 3","Street":"Vernon Avenue","HouseNumber":"2","PostalCode":"D03 P6D0","AdditionalData":[{"value":"Ireland","key":"CountryName"},{"value":"County Dublin","key":"CountyName"}]},"MapReference":{"ReferenceId":"779334415","Spot":0.04,"SideOfStreet":"left","CountryId":"20403667","CountyId":"20411172","CityId":"20413526","DistrictId":"20413529","AddressId":"214828495","RoadLinkId":"172812670"}}}]}]}}