{"Response":{"MetaInfo":{"Timestamp":"2020-03-28T11:30:29.576+0000","NextPageInformation":"2"},"View":[{"_type":"SearchResultsViewType","ViewId":0,"Result":[{"Relevance":1.0,"Distance":0.0,"Direction":0.0,"MatchLevel":"district","MatchQuality":{"Country":1.0,"State":1.0,"County":1.0,"City":1.0,"District":1.0,"PostalCode":1.0},"Location":{"LocationId":"NT_UwqKcrvaTsUd0i61RsOOaA","LocationType":"point","DisplayPosition":{"Latitude":53.3830561,"Longitude":19.9264158},"MapView":{"TopLeft":{"Latitude":53.39708,"Longitude":19.91079},"BottomRight":{"Latitude":53.37532,"Longitude":19.97397}},"Address":{"Label":"Rybno, Woj. Warmińsko-Mazurskie, Polska","Country":"POL","State":"Woj. Warmińsko-Mazurskie","County":"Powiat Działdowski","City":"Rybno","District":"Rybno","PostalCode":"13-220","AdditionalData":[{"value":"Polska","key":"CountryName"},{"value":"Woj. Warmińsko-Mazurskie","key":"StateName"},{"value":"Powiat Działdowski","key":"CountyName"}]},"MapReference":{"ReferenceId":"907507808","SideOfStreet":"neither","CountryId":"20624059","StateId":"20629651","CountyId":"20629684","CityId":"20629695","DistrictId":"20695395"}}},{"Relevance":1.0,"Distance":29.7,"MatchLevel":"houseNumber","MatchQuality":{"Country":1.0,"State":1.0,"County":1.0,"City":1.0,"District":1.0,"Street":[1.0],"HouseNumber":1.0,"PostalCode":1.0},"MatchType":"interpolated","Location":{"LocationId":"NT_gKlbC1aAzusDEIEFRYiFsD_1gD","LocationType":"point","DisplayPosition":{"Latitude":53.38285,"Longitude":19.9267},"MapView":{"TopLeft":{"Latitude":53.3839742,"Longitude":19.9248153},"BottomRight":{"Latitude":53.3817258,"Longitude":19.9285847}},"Address":{"Label":"ulica Zajeziorna 58, 13-220 Rybno, Polska","Country":"POL","State":"Woj. Warmińsko-Mazurskie","County":"Powiat Działdowski","City":"Rybno","District":"Rybno","Street":"ulica Zajeziorna","HouseNumber":"58","PostalCode":"13-220","AdditionalData":[{"value":"Polska","key":"CountryName"},{"value":"Woj. Warmińsko-Mazurskie","key":"StateName"},{"value":"Powiat Działdowski","key":"CountyName"}]},"MapReference":{"ReferenceId":"595118606","Spot":0.52,"SideOfStreet":"right","CountryId":"20624059","StateId":"20629651","CountyId":"20629684","CityId":"20629695","DistrictId":"20695395","AddressId":"688988855","RoadLinkId":"156975438"}}},{"Relevance":1.0,"Distance":31.1,"MatchLevel":"houseNumber","MatchQuality":{"Country":1.0,"State":1.0,"County":1.0,"City":1.0,"District":1.0,"Street":[1.0],"HouseNumber":1.0,"PostalCode":1.0},"MatchType":"interpolated","Location":{"LocationId":"NT_gKlbC1aAzusDEIEFRYiFsD_2AD","LocationType":"point","DisplayPosition":{"Latitude":53.38327,"Longitude":19.92596},"MapView":{"TopLeft":{"Latitude":53.3843942,"Longitude":19.9240753},"BottomRight":{"Latitude":53.3821458,"Longitude":19.9278447}},"Address":{"Label":"ulica Zajeziorna 60, 13-220 Rybno, Polska","Country":"POL","State":"Woj. Warmińsko-Mazurskie","County":"Powiat Działdowski","City":"Rybno","District":"Rybno","Street":"ulica Zajeziorna","HouseNumber":"60","PostalCode":"13-220","AdditionalData":[{"value":"Polska","key":"CountryName"},{"value":"Woj. Warmińsko-Mazurskie","key":"StateName"},{"value":"Powiat Działdowski","key":"CountyName"}]},"MapReference":{"ReferenceId":"811503372","Spot":0.55,"SideOfStreet":"right","CountryId":"20624059","StateId":"20629651","CountyId":"20629684","CityId":"20629695","DistrictId":"20695395","AddressId":"211385569","RoadLinkId":"198918334"}}},{"Relevance":1.0,"Distance":31.3,"MatchLevel":"street","MatchQuality":{"Country":1.0,"State":1.0,"County":1.0,"City":1.0,"District":1.0,"Street":[1.0],"PostalCode":1.0},"Location":{"LocationId":"NT_Q72AhGVoAKqsz4BAfR2bjC_l_855102097_R","LocationType":"point","DisplayPosition":{"Latitude":53.38319,"Longitude":19.926},"MapView":{"TopLeft":{"Latitude":53.38319,"Longitude":19.92537},"BottomRight":{"Latitude":53.38273,"Longitude":19.926}},"Address":{"Label":"ulica Górna, 13-220 Rybno, Polska","Country":"POL","State":"Woj. Warmińsko-Mazurskie","County":"Powiat Działdowski","City":"Rybno","District":"Rybno","Street":"ulica Górna","PostalCode":"13-220","AdditionalData":[{"value":"Polska","key":"CountryName"},{"value":"Woj. Warmińsko-Mazurskie","key":"StateName"},{"value":"Powiat Działdowski","key":"CountyName"}]},"MapReference":{"ReferenceId":"855102097","Spot":1.0,"SideOfStreet":"right","CountryId":"20624059","StateId":"20629651","CountyId":"20629684","CityId":"20629695","DistrictId":"20695395"}}},{"Relevance":1.0,"Distance":48.1,"MatchLevel":"houseNumber","MatchQuality":{"Country":1.0,"State":1.0,"County":1.0,"City":1.0,"District":1.0,"Street":[1.0],"HouseNumber":1.0,"PostalCode":1.0},"MatchType":"interpolated","Location":{"LocationId":"NT_Q72AhGVoAKqsz4BAfR2bjC_l_811503374_L_2YD","LocationType":"point","DisplayPosition":{"Latitude":53.38344,"Longitude":19.92608},"MapView":{"TopLeft":{"Latitude":53.3845642,"Longitude":19.9241953},"BottomRight":{"Latitude":53.3823159,"Longitude":19.9279647}},"Address":{"Label":"ulica Górna 66, 13-220 Rybno, Polska","Country":"POL","State":"Woj. Warmińsko-Mazurskie","County":"Powiat Działdowski","City":"Rybno","District":"Rybno","Street":"ulica Górna","HouseNumber":"66","PostalCode":"13-220","AdditionalData":[{"value":"Polska","key":"CountryName"},{"value":"Woj. Warmińsko-Mazurskie","key":"StateName"},{"value":"Powiat Działdowski","key":"CountyName"}]},"MapReference":{"ReferenceId":"811503374","Spot":0.3,"SideOfStreet":"left","CountryId":"20624059","StateId":"20629651","CountyId":"20629684","CityId":"20629695","DistrictId":"20695395"}}},{"Relevance":1.0,"Distance":58.3,"MatchLevel":"houseNumber","MatchQuality":{"Country":1.0,"State":1.0,"County":1.0,"City":1.0,"District":1.0,"Street":[1.0],"HouseNumber":1.0,"PostalCode":1.0},"MatchType":"interpolated","Location":{"LocationId":"NT_gKlbC1aAzusDEIEFRYiFsD_2YD","LocationType":"point","DisplayPosition":{"Latitude":53.38347,"Longitude":19.92583},"MapView":{"TopLeft":{"Latitude":53.3845942,"Longitude":19.9239453},"BottomRight":{"Latitude":53.3823458,"Longitude":19.9277147}},"Address":{"Label":"ulica Zajeziorna 66, 13-220 Rybno, Polska","Country":"POL","State":"Woj. Warmińsko-Mazurskie","County":"Powiat Działdowski","City":"Rybno","District":"Rybno","Street":"ulica Zajeziorna","HouseNumber":"66","PostalCode":"13-220","AdditionalData":[{"value":"Polska","key":"CountryName"},{"value":"Woj. Warmińsko-Mazurskie","key":"StateName"},{"value":"Powiat Działdowski","key":"CountyName"}]},"MapReference":{"ReferenceId":"1268687709","Spot":0.26,"SideOfStreet":"right","CountryId":"20624059","StateId":"20629651","CountyId":"20629684","CityId":"20629695","DistrictId":"20695395","AddressId":"209226217","RoadLinkId":"595825173"}}},{"Relevance":1.0,"Distance":65.7,"MatchLevel":"houseNumber","MatchQuality":{"Country":1.0,"State":1.0,"County":1.0,"City":1.0,"District":1.0,"Street":[1.0],"HouseNumber":1.0,"PostalCode":1.0},"MatchType":"interpolated","Location":{"LocationId":"NT_UQB6m62Nr8USwxZUrGDhqB_zA","LocationType":"point","DisplayPosition":{"Latitude":53.38242,"Longitude":19.92603},"MapView":{"TopLeft":{"Latitude":53.3835442,"Longitude":19.9241453},"BottomRight":{"Latitude":53.3812958,"Longitude":19.9279147}},"Address":{"Label":"ulica Poprzeczna 3, 13-220 Rybno, Polska","Country":"POL","State":"Woj. Warmińsko-Mazurskie","County":"Powiat Działdowski","City":"Rybno","District":"Rybno","Street":"ulica Poprzeczna","HouseNumber":"3","PostalCode":"13-220","AdditionalData":[{"value":"Polska","key":"CountryName"},{"value":"Woj. Warmińsko-Mazurskie","key":"StateName"},{"value":"Powiat Działdowski","key":"CountyName"}]},"MapReference":{"ReferenceId":"762748297","Spot":0.48,"SideOfStreet":"right","CountryId":"20624059","StateId":"20629651","CountyId":"20629684","CityId":"20629695","DistrictId":"20695395","AddressId":"689081288","RoadLinkId":"156975443"}}},{"Relevance":1.0,"Distance":89.8,"MatchLevel":"houseNumber","MatchQuality":{"Country":1.0,"State":1.0,"County":1.0,"City":1.0,"District":1.0,"Street":[1.0],"HouseNumber":1.0,"PostalCode":1.0},"MatchType":"interpolated","Location":{"LocationId":"NT_96JC1twtJfGo32d2nr6DvC_xMD","LocationType":"point","DisplayPosition":{"Latitude":53.3822,"Longitude":19.92673},"MapView":{"TopLeft":{"Latitude":53.3833242,"Longitude":19.9248453},"BottomRight":{"Latitude":53.3810758,"Longitude":19.9286147}},"Address":{"Label":"ulica Nowa 13, 13-220 Rybno, Polska","Country":"POL","State":"Woj. Warmińsko-Mazurskie","County":"Powiat Działdowski","City":"Rybno","District":"Rybno","Street":"ulica Nowa","HouseNumber":"13","PostalCode":"13-220","AdditionalData":[{"value":"Polska","key":"CountryName"},{"value":"Woj. Warmińsko-Mazurskie","key":"StateName"},{"value":"Powiat Działdowski","key":"CountyName"}]},"MapReference":{"ReferenceId":"762748296","Spot":0.11,"SideOfStreet":"left","CountryId":"20624059","StateId":"20629651","CountyId":"20629684","CityId":"20629695","DistrictId":"20695395","AddressId":"689100210","RoadLinkId":"156975440"}}},{"Relevance":1.0,"Distance":107.4,"MatchLevel":"street","MatchQuality":{"Country":1.0,"State":1.0,"County":1.0,"City":1.0,"District":1.0,"PostalCode":1.0},"Location":{"LocationId":"NT_vwk1R8zP2goZuddW4vp-fA_l_1268683590_L","LocationType":"point","DisplayPosition":{"Latitude":53.38397,"Longitude":19.92694},"MapView":{"TopLeft":{"Latitude":53.38469,"Longitude":19.92694},"BottomRight":{"Latitude":53.38397,"Longitude":19.92715}},"Address":{"Label":"13-220 Rybno, Polska","Country":"POL","State":"Woj. Warmińsko-Mazurskie","County":"Powiat Działdowski","City":"Rybno","District":"Rybno","PostalCode":"13-220","AdditionalData":[{"value":"Polska","key":"CountryName"},{"value":"Woj. Warmińsko-Mazurskie","key":"StateName"},{"value":"Powiat Działdowski","key":"CountyName"}]},"MapReference":{"ReferenceId":"1268683590","Spot":0.0,"SideOfStreet":"left","CountryId":"20624059","StateId":"20629651","CountyId":"20629684","CityId":"20629695","DistrictId":"20695395"}}},{"Relevance":1.0,"Distance":113.1,"MatchLevel":"houseNumber","MatchQuality":{"Country":1.0,"State":1.0,"County":1.0,"City":1.0,"District":1.0,"Street":[1.0],"HouseNumber":1.0,"PostalCode":1.0},"MatchType":"interpolated","Location":{"LocationId":"NT_96JC1twtJfGo32d2nr6DvC_xED","LocationType":"point","DisplayPosition":{"Latitude":53.38199,"Longitude":19.92644},"MapView":{"TopLeft":{"Latitude":53.3831142,"Longitude":19.9245553},"BottomRight":{"Latitude":53.3808658,"Longitude":19.9283247}},"Address":{"Label":"ulica Nowa 11, 13-220 Rybno, Polska","Country":"POL","State":"Woj. Warmińsko-Mazurskie","County":"Powiat Działdowski","City":"Rybno","District":"Rybno","Street":"ulica Nowa","HouseNumber":"11","PostalCode":"13-220","AdditionalData":[{"value":"Polska","key":"CountryName"},{"value":"Woj. Warmińsko-Mazurskie","key":"StateName"},{"value":"Powiat Działdowski","key":"CountyName"}]},"MapReference":{"ReferenceId":"762748300","Spot":0.75,"SideOfStreet":"left","CountryId":"20624059","StateId":"20629651","CountyId":"20629684","CityId":"20629695","DistrictId":"20695395","AddressId":"211562702","RoadLinkId":"156975441"}}}]}]}}