{"Response":{"MetaInfo":{"Timestamp":"2020-03-28T11:19:26.795+0000","NextPageInformation":"2"},"View":[{"_type":"SearchResultsViewType","ViewId":0,"Result":[{"Relevance":1.0,"Distance":0.0,"Direction":0.0,"MatchLevel":"district","MatchQuality":{"Country":1.0,"State":1.0,"County":1.0,"City":1.0,"District":1.0,"PostalCode":1.0},"Location":{"LocationId":"NT_Vdc9ovyuKoTQugUq7WJljD","LocationType":"point","DisplayPosition":{"Latitude":53.3995536,"Longitude":-2.6126394},"MapView":{"TopLeft":{"Latitude":53.40488,"Longitude":-2.61613},"BottomRight":{"Latitude":53.39726,"Longitude":-2.59992}},"Address":{"Label":"Bewsey, Warrington, England, United Kingdom","Country":"GBR","State":"England","County":"Cheshire","City":"Warrington","District":"Bewsey","PostalCode":"WA5 0","AdditionalData":[{"value":"United Kingdom","key":"CountryName"},{"value":"England","key":"StateName"},{"value":"Cheshire","key":"CountyName"}]},"MapReference":{"ReferenceId":"996176975","SideOfStreet":"neither","StateId":"20248595","CountyId":"20343157","CityId":"20343688","DistrictId":"20343692"}}},{"Relevance":1.0,"Distance":9.2,"MatchLevel":"street","MatchQuality":{"Country":1.0,"State":1.0,"County":1.0,"City":1.0,"District":1.0,"Street":[1.0],"PostalCode":1.0},"Location":{"LocationId":"NT_9eS3iqDpGdojPbSiMnxE-A_l_565947795_R","LocationType":"point","DisplayPosition":{"Latitude":53.3996126,"Longitude":-2.6127361},"MapView":{"TopLeft":{"Latitude":53.39977,"Longitude":-2.61312},"BottomRight":{"Latitude":53.39893,"Longitude":-2.61264}},"Address":{"Label":"Lockton Lane, Warrington, WA5 0, United Kingdom","Country":"GBR","State":"England","County":"Cheshire","City":"Warrington","District":"Bewsey","Street":"Lockton Lane","PostalCode":"WA5 0","AdditionalData":[{"value":"United Kingdom","key":"CountryName"},{"value":"England","key":"StateName"},{"value":"Cheshire","key":"CountyName"}]},"MapReference":{"ReferenceId":"565947795","Spot":0.81,"SideOfStreet":"right","StateId":"20248595","CountyId":"20343157","CityId":"20343688","DistrictId":"20343692"}}},{"Relevance":1.0,"Distance":24.1,"MatchLevel":"street","MatchQuality":{"Country":1.0,"State":1.0,"County":1.0,"City":1.0,"District":1.0,"Street":[1.0],"PostalCode":1.0},"Location":{"LocationId":"NT_wvmYZTw3Cl4y83fiDpfHSB_l_565947768_L","LocationType":"point","DisplayPosition":{"Latitude":53.39977,"Longitude":-2.61264},"MapView":{"TopLeft":{"Latitude":53.39983,"Longitude":-2.61303},"BottomRight":{"Latitude":53.39977,"Longitude":-2.61264}},"Address":{"Label":"Danby Close, Warrington, WA5 0, United Kingdom","Country":"GBR","State":"England","County":"Cheshire","City":"Warrington","District":"Bewsey","Street":"Danby Close","PostalCode":"WA5 0","AdditionalData":[{"value":"United Kingdom","key":"CountryName"},{"value":"England","key":"StateName"},{"value":"Cheshire","key":"CountyName"}]},"MapReference":{"ReferenceId":"565947768","Spot":0.0,"SideOfStreet":"left","StateId":"20248595","CountyId":"20343157","CityId":"20343688","DistrictId":"20343692"}}},{"Relevance":1.0,"Distance":24.1,"MatchLevel":"street","MatchQuality":{"Country":1.0,"State":1.0,"County":1.0,"City":1.0,"District":1.0,"Street":[1.0],"PostalCode":1.0},"Location":{"LocationId":"NT_9eS3iqDpGdojPbSiMnxE-A_l_565947767_R","LocationType":"point","DisplayPosition":{"Latitude":53.39977,"Longitude":-2.61264},"MapView":{"TopLeft":{"Latitude":53.40021,"Longitude":-2.61264},"BottomRight":{"Latitude":53.39977,"Longitude":-2.61251}},"Address":{"Label":"Lockton Lane, Warrington, WA5 0, United Kingdom","Country":"GBR","State":"England","County":"Cheshire","City":"Warrington","District":"Bewsey","Street":"Lockton Lane","PostalCode":"WA5 0","AdditionalData":[{"value":"United Kingdom","key":"CountryName"},{"value":"England","key":"StateName"},{"value":"Cheshire","key":"CountyName"}]},"MapReference":{"ReferenceId":"565947767","Spot":0.0,"SideOfStreet":"right","StateId":"20248595","CountyId":"20343157","CityId":"20343688","DistrictId":"20343692"}}},{"Relevance":1.0,"Distance":34.9,"MatchLevel":"postalCode","MatchQuality":{"PostalCode":1.0},"Location":{"LocationId":"NT_wvmYZTw3Cl4y83fiDpfHSB_l_565947768_L","LocationType":"point","DisplayPosition":{"Latitude":53.39977,"Longitude":-2.61302},"MapView":{"TopLeft":{"Latitude":53.4087632,"Longitude":-2.6281035},"BottomRight":{"Latitude":53.3907768,"Longitude":-2.5979365}},"Address":{"Label":"WA5 0GA, Warrington, England, United Kingdom","Country":"GBR","State":"England","County":"Cheshire","City":"Warrington","PostalCode":"WA5 0GA","AdditionalData":[{"value":"United Kingdom","key":"CountryName"},{"value":"England","key":"StateName"},{"value":"Cheshire","key":"CountyName"}]},"MapReference":{"ReferenceId":"565947768","Spot":0.0,"SideOfStreet":"neither","StateId":"20248595","CountyId":"20343157","CityId":"20343688"}}},{"Relevance":1.0,"Distance":45.8,"MatchLevel":"postalCode","MatchQuality":{"PostalCode":1.0},"Location":{"LocationId":"NT_9eS3iqDpGdojPbSiMnxE-A_l_565947795_R","LocationType":"point","DisplayPosition":{"Latitude":53.39918,"Longitude":-2.61293},"MapView":{"TopLeft":{"Latitude":53.4081732,"Longitude":-2.6280133},"BottomRight":{"Latitude":53.3901868,"Longitude":-2.5978467}},"Address":{"Label":"WA5 0BW, Warrington, England, United Kingdom","Country":"GBR","State":"England","County":"Cheshire","City":"Warrington","PostalCode":"WA5 0BW","AdditionalData":[{"value":"United Kingdom","key":"CountryName"},{"value":"England","key":"StateName"},{"value":"Cheshire","key":"CountyName"}]},"MapReference":{"ReferenceId":"565947795","Spot":0.81,"SideOfStreet":"neither","StateId":"20248595","CountyId":"20343157","CityId":"20343688"}}},{"Relevance":1.0,"Distance":53.2,"MatchLevel":"postalCode","MatchQuality":{"PostalCode":1.0},"Location":{"LocationId":"NT_J8dxXOcH3Chffu7jV42nID_l_565947806_R","LocationType":"point","DisplayPosition":{"Latitude":53.3993,"Longitude":-2.61332},"MapView":{"TopLeft":{"Latitude":53.4082932,"Longitude":-2.6284033},"BottomRight":{"Latitude":53.3903068,"Longitude":-2.5982367}},"Address":{"Label":"WA5 0GD, Warrington, England, United Kingdom","Country":"GBR","State":"England","County":"Cheshire","City":"Warrington","PostalCode":"WA5 0GD","AdditionalData":[{"value":"United Kingdom","key":"CountryName"},{"value":"England","key":"StateName"},{"value":"Cheshire","key":"CountyName"}]},"MapReference":{"ReferenceId":"565947806","Spot":1.0,"SideOfStreet":"neither","StateId":"20248595","CountyId":"20343157","CityId":"20343688"}}},{"Relevance":1.0,"Distance":55.5,"MatchLevel":"street","MatchQuality":{"Country":1.0,"State":1.0,"County":1.0,"City":1.0,"District":1.0,"Street":[1.0],"PostalCode":1.0},"Location":{"LocationId":"NT_J8dxXOcH3Chffu7jV42nID_l_565947806_R","LocationType":"point","DisplayPosition":{"Latitude":53.39932,"Longitude":-2.61338},"MapView":{"TopLeft":{"Latitude":53.39932,"Longitude":-2.61348},"BottomRight":{"Latitude":53.39892,"Longitude":-2.61338}},"Address":{"Label":"Levisham Gardens, Warrington, WA5 0, United Kingdom","Country":"GBR","State":"England","County":"Cheshire","City":"Warrington","District":"Bewsey","Street":"Levisham Gardens","PostalCode":"WA5 0","AdditionalData":[{"value":"United Kingdom","key":"CountryName"},{"value":"England","key":"StateName"},{"value":"Cheshire","key":"CountyName"}]},"MapReference":{"ReferenceId":"565947806","Spot":1.0,"SideOfStreet":"right","StateId":"20248595","CountyId":"20343157","CityId":"20343688","DistrictId":"20343692"}}},{"Relevance":1.0,"Distance":61.8,"MatchLevel":"street","MatchQuality":{"Country":1.0,"State":1.0,"County":1.0,"City":1.0,"District":1.0,"Street":[1.0],"PostalCode":1.0},"Location":{"LocationId":"NT_Igbu.ZPzY2tTRlfhLrgaxC_l_27545036_L","LocationType":"point","DisplayPosition":{"Latitude":53.3996,"Longitude":-2.61171},"MapView":{"TopLeft":{"Latitude":53.39979,"Longitude":-2.61171},"BottomRight":{"Latitude":53.3996,"Longitude":-2.61129}},"Address":{"Label":"Lodge Lane, Warrington, WA5 0, United Kingdom","Country":"GBR","State":"England","County":"Cheshire","City":"Warrington","District":"Bewsey","Street":"Lodge Lane","PostalCode":"WA5 0","AdditionalData":[{"value":"United Kingdom","key":"CountryName"},{"value":"England","key":"StateName"},{"value":"Cheshire","key":"CountyName"}]},"MapReference":{"ReferenceId":"27545036","Spot":0.0,"SideOfStreet":"left","StateId":"20248595","CountyId":"20343157","CityId":"20343688","DistrictId":"20343692"}}},{"Relevance":1.0,"Distance":61.8,"MatchLevel":"street","MatchQuality":{"Country":1.0,"State":1.0,"County":1.0,"City":1.0,"District":1.0,"Street":[1.0],"PostalCode":1.0},"Location":{"LocationId":"NT_Igbu.ZPzY2tTRlfhLrgaxC_l_27545035_L","LocationType":"point","DisplayPosition":{"Latitude":53.3996,"Longitude":-2.61171},"MapView":{"TopLeft":{"Latitude":53.3996,"Longitude":-2.61171},"BottomRight":{"Latitude":53.39953,"Longitude":-2.61155}},"Address":{"Label":"Lodge Lane, Warrington, WA5 0, United Kingdom","Country":"GBR","State":"England","County":"Cheshire","City":"Warrington","District":"Bewsey","Street":"Lodge Lane","PostalCode":"WA5 0","AdditionalData":[{"value":"United Kingdom","key":"CountryName"},{"value":"England","key":"StateName"},{"value":"Cheshire","key":"CountyName"}]},"MapReference":{"ReferenceId":"27545035","Spot":1.0,"SideOfStreet":"left","StateId":"20248595","CountyId":"20343157","CityId":"20343688","DistrictId":"20343692"}}}]}]}}