{"Response":{"MetaInfo":{"Timestamp":"2020-03-28T11:23:03.204+0000","NextPageInformation":"2"},"View":[{"_type":"SearchResultsViewType","ViewId":0,"Result":[{"Relevance":1.0,"Distance":-3.5,"MatchLevel":"landmark","MatchQuality":{"Country":1.0,"County":1.0,"City":1.0,"District":1.0,"Street":[1.0],"PostalCode":1.0,"Name":1.0},"Location":{"LocationId":"NT_gJVhcUHrkEiEWjHi5MFEnC_p_KE275LOjpy2LKDrfs9cSYD","LocationType":"golfCourse","Name":"Elm Park Golf Club","DisplayPosition":{"Latitude":53.31459,"Longitude":-6.2192},"MapView":{"TopLeft":{"Latitude":53.31714,"Longitude":-6.22074},"BottomRight":{"Latitude":53.31037,"Longitude":-6.20784}},"Address":{"Label":"Nutley Lane, Dublin, County Dublin, D04, Ireland","Country":"IRL","County":"County Dublin","City":"Dublin","District":"Dublin 4","Street":"Nutley Lane","PostalCode":"D04","AdditionalData":[{"value":"Ireland","key":"CountryName"},{"value":"County Dublin","key":"CountyName"}]},"MapReference":{"CountryId":"20403667","CountyId":"20411172","CityId":"20413526","DistrictId":"20413530","PlaceId":"83361977"}}},{"Relevance":1.0,"Distance":0.0,"Direction":0.0,"MatchLevel":"city","MatchQuality":{"Country":1.0,"County":1.0,"City":1.0},"Location":{"LocationId":"NT_IIYahoEn-MeZgPWyHgWpJB","LocationType":"point","DisplayPosition":{"Latitude":53.3149433,"Longitude":-6.2096944},"MapView":{"TopLeft":{"Latitude":53.42848,"Longitude":-6.5152},"BottomRight":{"Latitude":53.21817,"Longitude":-6.04391}},"Address":{"Label":"Dublin, Ireland","Country":"IRL","County":"County Dublin","City":"Dublin","AdditionalData":[{"value":"Ireland","key":"CountryName"},{"value":"County Dublin","key":"CountyName"}]},"MapReference":{"ReferenceId":"750123117","SideOfStreet":"neither","CountryId":"20403667","CountyId":"20411172","CityId":"20413526"}}},{"Relevance":1.0,"Distance":79.9,"MatchLevel":"street","MatchQuality":{"Country":1.0,"County":1.0,"City":1.0,"District":1.0,"PostalCode":1.0},"Location":{"LocationId":"NT_HReAdih8zwUHYmdhc-QO7D_l_858790089_L","LocationType":"point","DisplayPosition":{"Latitude":53.31566,"Longitude":-6.2096},"MapView":{"TopLeft":{"Latitude":53.316,"Longitude":-6.21059},"BottomRight":{"Latitude":53.31566,"Longitude":-6.2096}},"Address":{"Label":"Dublin, County Dublin, D04, Ireland","Country":"IRL","County":"County Dublin","City":"Dublin","District":"Dublin 4","PostalCode":"D04","AdditionalData":[{"value":"Ireland","key":"CountryName"},{"value":"County Dublin","key":"CountyName"}]},"MapReference":{"ReferenceId":"858790089","Spot":0.0,"SideOfStreet":"left","CountryId":"20403667","CountyId":"20411172","CityId":"20413526","DistrictId":"20413530"}}},{"Relevance":1.0,"Distance":89.5,"MatchLevel":"houseNumber","MatchQuality":{"Country":1.0,"County":1.0,"City":1.0,"District":1.0,"Street":[1.0],"PostalCode":1.0},"MatchType":"interpolated","Location":{"LocationId":"NT_vuj26XcVh1GPN6heC-aASD","LocationType":"point","DisplayPosition":{"Latitude":53.31477,"Longitude":-6.20816},"MapView":{"TopLeft":{"Latitude":53.3158942,"Longitude":-6.2100417},"BottomRight":{"Latitude":53.3136458,"Longitude":-6.2062783}},"Address":{"Label":"\"Marmion House\" Merrion Road, Dublin, County Dublin, D04, Ireland","Country":"IRL","County":"County Dublin","City":"Dublin","District":"Dublin 4","Street":"Merrion Road","PostalCode":"D04","AdditionalData":[{"value":"Ireland","key":"CountryName"},{"value":"County Dublin","key":"CountyName"}],"Building":"Marmion House"},"MapReference":{"ReferenceId":"1046806920","Spot":0.18,"SideOfStreet":"left","CountryId":"20403667","CountyId":"20411172","CityId":"20413526","DistrictId":"20413530","AddressId":"743666203","RoadLinkId":"366886048"}}},{"Relevance":1.0,"Distance":96.4,"MatchLevel":"street","MatchQuality":{"Country":1.0,"County":1.0,"City":1.0,"District":1.0,"PostalCode":1.0},"Location":{"LocationId":"NT_HReAdih8zwUHYmdhc-QO7D_l_858790087_R","LocationType":"point","DisplayPosition":{"Latitude":53.31581,"Longitude":-6.20967},"MapView":{"TopLeft":{"Latitude":53.31588,"Longitude":-6.20967},"BottomRight":{"Latitude":53.31581,"Longitude":-6.2096}},"Address":{"Label":"Dublin, County Dublin, D04, Ireland","Country":"IRL","County":"County Dublin","City":"Dublin","District":"Dublin 4","PostalCode":"D04","AdditionalData":[{"value":"Ireland","key":"CountryName"},{"value":"County Dublin","key":"CountyName"}]},"MapReference":{"ReferenceId":"858790087","Spot":0.0,"SideOfStreet":"right","CountryId":"20403667","CountyId":"20411172","CityId":"20413526","DistrictId":"20413530"}}},{"Relevance":1.0,"Distance":100.0,"MatchLevel":"landmark","MatchQuality":{"Country":1.0,"County":1.0,"City":1.0,"District":1.0,"PostalCode":1.0,"Name":1.0},"Location":{"LocationId":"NT_BY9LgTdQETbHCMD9Pc7gbD_p_g3yc3bnnpY24fH5HioNEVC","LocationType":"hospital","Name":"St Vincents University Hospital","DisplayPosition":{"Latitude":53.31725,"Longitude":-6.21297},"MapView":{"TopLeft":{"Latitude":53.3187,"Longitude":-6.21647},"BottomRight":{"Latitude":53.31517,"Longitude":-6.20901}},"Address":{"Label":"Dublin, County Dublin, D04, Ireland","Country":"IRL","County":"County Dublin","City":"Dublin","District":"Dublin 4","PostalCode":"D04","AdditionalData":[{"value":"Ireland","key":"CountryName"},{"value":"County Dublin","key":"CountyName"}]},"MapReference":{"CountryId":"20403667","CountyId":"20411172","CityId":"20413526","DistrictId":"20413530","PlaceId":"83361978"}}},{"Relevance":1.0,"Distance":104.6,"MatchLevel":"postalCode","MatchQuality":{"PostalCode":1.0},"MatchType":"interpolated","Location":{"LocationId":"NT_oI1hC3OeONO6P9eprWO69D_xID","LocationType":"point","DisplayPosition":{"Latitude":53.31588,"Longitude":-6.20984},"MapView":{"TopLeft":{"Latitude":53.3248732,"Longitude":-6.2248939},"BottomRight":{"Latitude":53.3068868,"Longitude":-6.1947861}},"Address":{"Label":"D04 F3X9, Dublin, Ireland","Country":"IRL","County":"County Dublin","City":"Dublin","PostalCode":"D04 F3X9","AdditionalData":[{"value":"Ireland","key":"CountryName"},{"value":"County Dublin","key":"CountyName"}]},"MapReference":{"ReferenceId":"858790088","Spot":0.26,"SideOfStreet":"neither","CountryId":"20403667","CountyId":"20411172","CityId":"20413526"}}},{"Relevance":1.0,"Distance":110.6,"MatchLevel":"postalCode","MatchQuality":{"PostalCode":1.0},"MatchType":"interpolated","Location":{"LocationId":"NT_vuj26XcVh1GPN6heC-aASD","LocationType":"point","DisplayPosition":{"Latitude":53.31492,"Longitude":-6.20803},"MapView":{"TopLeft":{"Latitude":53.3239132,"Longitude":-6.2230835},"BottomRight":{"Latitude":53.3059268,"Longitude":-6.1929765}},"Address":{"Label":"D04 A0F6, Dublin, Ireland","Country":"IRL","County":"County Dublin","City":"Dublin","PostalCode":"D04 A0F6","AdditionalData":[{"value":"Ireland","key":"CountryName"},{"value":"County Dublin","key":"CountyName"}]},"MapReference":{"ReferenceId":"1046806920","Spot":0.18,"SideOfStreet":"neither","CountryId":"20403667","CountyId":"20411172","CityId":"20413526"}}},{"Relevance":1.0,"Distance":124.2,"MatchLevel":"street","MatchQuality":{"Country":1.0,"County":1.0,"City":1.0,"District":1.0,"PostalCode":1.0},"Location":{"LocationId":"NT_HReAdih8zwUHYmdhc-QO7D_l_554372850_R","LocationType":"point","DisplayPosition":{"Latitude":53.31592,"Longitude":-6.2106},"MapView":{"TopLeft":{"Latitude":53.31592,"Longitude":-6.21071},"BottomRight":{"Latitude":53.31589,"Longitude":-6.2106}},"Address":{"Label":"Dublin, County Dublin, D04, Ireland","Country":"IRL","County":"County Dublin","City":"Dublin","District":"Dublin 4","PostalCode":"D04","AdditionalData":[{"value":"Ireland","key":"CountryName"},{"value":"County Dublin","key":"CountyName"}]},"MapReference":{"ReferenceId":"554372850","Spot":1.0,"SideOfStreet":"right","CountryId":"20403667","CountyId":"20411172","CityId":"20413526","DistrictId":"20413530"}}},{"Relevance":1.0,"Distance":124.2,"MatchLevel":"street","MatchQuality":{"Country":1.0,"County":1.0,"City":1.0,"District":1.0,"PostalCode":1.0},"Location":{"LocationId":"NT_HReAdih8zwUHYmdhc-QO7D_l_554436422_R","LocationType":"point","DisplayPosition":{"Latitude":53.31592,"Longitude":-6.2106},"MapView":{"TopLeft":{"Latitude":53.316,"Longitude":-6.2106},"BottomRight":{"Latitude":53.31592,"Longitude":-6.21059}},"Address":{"Label":"Dublin, County Dublin, D04, Ireland","Country":"IRL","County":"County Dublin","City":"Dublin","District":"Dublin 4","PostalCode":"D04","AdditionalData":[{"value":"Ireland","key":"CountryName"},{"value":"County Dublin","key":"CountyName"}]},"MapReference":{"ReferenceId":"554436422","Spot":0.0,"SideOfStreet":"right","CountryId":"20403667","CountyId":"20411172","CityId":"20413526","DistrictId":"20413530"}}}]}]}}