{"Response":{"MetaInfo":{"Timestamp":"2020-03-28T11:56:55.903+0000","NextPageInformation":"2"},"View":[{"_type":"SearchResultsViewType","ViewId":0,"Result":[{"Relevance":1.0,"Distance":-40.5,"MatchLevel":"landmark","MatchQuality":{"Country":1.0,"State":1.0,"County":1.0,"City":1.0,"District":1.0,"PostalCode":1.0,"Name":1.0},"Location":{"LocationId":"NT_q7DM7iloiDdg6sYmRVol9B_p_J7U5K5PePGMmSdSricTT-A","LocationType":"shoppingCentre","Name":"Celtic Point","DisplayPosition":{"Latitude":53.32584,"Longitude":-1.1328},"MapView":{"TopLeft":{"Latitude":53.32633,"Longitude":-1.1344},"BottomRight":{"Latitude":53.3254,"Longitude":-1.13186}},"Address":{"Label":"Worksop, S81 7, United Kingdom","Country":"GBR","State":"England","County":"Nottinghamshire","City":"Worksop","District":"Worksop","PostalCode":"S81 7","AdditionalData":[{"value":"United Kingdom","key":"CountryName"},{"value":"England","key":"StateName"},{"value":"Nottinghamshire","key":"CountyName"}]},"MapReference":{"StateId":"20248595","CountyId":"20344764","CityId":"20344765","DistrictId":"20357030","PlaceId":"1138723468"}}},{"Relevance":1.0,"Distance":0.0,"Direction":0.0,"MatchLevel":"district","MatchQuality":{"Country":1.0,"State":1.0,"County":1.0,"City":1.0,"District":1.0,"PostalCode":1.0},"Location":{"LocationId":"NT_UHWnbYoauhks.3vr.iQvIA","LocationType":"point","DisplayPosition":{"Latitude":53.3259616,"Longitude":-1.1333983},"MapView":{"TopLeft":{"Latitude":53.33597,"Longitude":-1.16115},"BottomRight":{"Latitude":53.29155,"Longitude":-1.09263}},"Address":{"Label":"Worksop, England, United Kingdom","Country":"GBR","State":"England","County":"Nottinghamshire","City":"Worksop","District":"Worksop","PostalCode":"S80 1","AdditionalData":[{"value":"United Kingdom","key":"CountryName"},{"value":"England","key":"StateName"},{"value":"Nottinghamshire","key":"CountyName"}]},"MapReference":{"ReferenceId":"26771448","SideOfStreet":"neither","StateId":"20248595","CountyId":"20344764","CityId":"20344765","DistrictId":"20357030"}}},{"Relevance":1.0,"Distance":7.7,"MatchLevel":"postalCode","MatchQuality":{"PostalCode":1.0},"Location":{"LocationId":"NT_-NjgZmcv.1q9bezbRX9dgA_l_1226250530_L","LocationType":"point","DisplayPosition":{"Latitude":53.32591,"Longitude":-1.13332},"MapView":{"TopLeft":{"Latitude":53.3349032,"Longitude":-1.1483774},"BottomRight":{"Latitude":53.3169168,"Longitude":-1.1182626}},"Address":{"Label":"S81 7AZ, Worksop, England, United Kingdom","Country":"GBR","State":"England","County":"Nottinghamshire","City":"Worksop","PostalCode":"S81 7AZ","AdditionalData":[{"value":"United Kingdom","key":"CountryName"},{"value":"England","key":"StateName"},{"value":"Nottinghamshire","key":"CountyName"}]},"MapReference":{"ReferenceId":"1226250530","Spot":0.01,"SideOfStreet":"neither","StateId":"20248595","CountyId":"20344764","CityId":"20344765"}}},{"Relevance":1.0,"Distance":11.7,"MatchLevel":"street","MatchQuality":{"Country":1.0,"State":1.0,"County":1.0,"City":1.0,"District":1.0,"PostalCode":1.0},"Location":{"LocationId":"NT_IlU2rypIOso8..b2HX.ynA_l_756081792_R","LocationType":"point","DisplayPosition":{"Latitude":53.3258562,"Longitude":-1.1333964},"MapView":{"TopLeft":{"Latitude":53.32586,"Longitude":-1.13374},"BottomRight":{"Latitude":53.32581,"Longitude":-1.13186}},"Address":{"Label":"Worksop, S81 7, United Kingdom","Country":"GBR","State":"England","County":"Nottinghamshire","City":"Worksop","District":"Worksop","PostalCode":"S81 7","AdditionalData":[{"value":"United Kingdom","key":"CountryName"},{"value":"England","key":"StateName"},{"value":"Nottinghamshire","key":"CountyName"}]},"MapReference":{"ReferenceId":"756081792","Spot":0.82,"SideOfStreet":"right","StateId":"20248595","CountyId":"20344764","CityId":"20344765","DistrictId":"20357030"}}},{"Relevance":1.0,"Distance":54.9,"MatchLevel":"street","MatchQuality":{"Country":1.0,"State":1.0,"County":1.0,"City":1.0,"District":1.0,"PostalCode":1.0},"Location":{"LocationId":"NT_IlU2rypIOso8..b2HX.ynA_l_26768836_R","LocationType":"point","DisplayPosition":{"Latitude":53.3254698,"Longitude":-1.1334654},"MapView":{"TopLeft":{"Latitude":53.32571,"Longitude":-1.1344},"BottomRight":{"Latitude":53.3254,"Longitude":-1.1329}},"Address":{"Label":"Worksop, S81 7, United Kingdom","Country":"GBR","State":"England","County":"Nottinghamshire","City":"Worksop","District":"Worksop","PostalCode":"S81 7","AdditionalData":[{"value":"United Kingdom","key":"CountryName"},{"value":"England","key":"StateName"},{"value":"Nottinghamshire","key":"CountyName"}]},"MapReference":{"ReferenceId":"26768836","Spot":0.37,"SideOfStreet":"right","StateId":"20248595","CountyId":"20344764","CityId":"20344765","DistrictId":"20357030"}}},{"Relevance":1.0,"Distance":64.4,"MatchLevel":"houseNumber","MatchQuality":{"Country":1.0,"State":1.0,"County":1.0,"City":1.0,"District":1.0,"Street":[1.0],"HouseNumber":1.0,"PostalCode":1.0},"MatchType":"interpolated","Location":{"LocationId":"NT_-NjgZmcv.1q9bezbRX9dgA_l_756081790_L_xgDM","LocationType":"point","DisplayPosition":{"Latitude":53.32541,"Longitude":-1.13267},"MapView":{"TopLeft":{"Latitude":53.3265342,"Longitude":-1.1345521},"BottomRight":{"Latitude":53.3242859,"Longitude":-1.1307878}},"Address":{"Label":"180 Raymoth Lane, Worksop, S81 7, United Kingdom","Country":"GBR","State":"England","County":"Nottinghamshire","City":"Worksop","District":"Worksop","Street":"Raymoth Lane","HouseNumber":"180","PostalCode":"S81 7","AdditionalData":[{"value":"United Kingdom","key":"CountryName"},{"value":"England","key":"StateName"},{"value":"Nottinghamshire","key":"CountyName"}]},"MapReference":{"ReferenceId":"756081790","Spot":0.22,"SideOfStreet":"left","StateId":"20248595","CountyId":"20344764","CityId":"20344765","DistrictId":"20357030"}}},{"Relevance":1.0,"Distance":67.9,"MatchLevel":"street","MatchQuality":{"Country":1.0,"State":1.0,"County":1.0,"City":1.0,"District":1.0,"Street":[1.0],"PostalCode":1.0},"Location":{"LocationId":"NT_eoGgU5NUO.nJfaXr1G-qFC_l_1198010805_R","LocationType":"point","DisplayPosition":{"Latitude":53.32617,"Longitude":-1.13436},"MapView":{"TopLeft":{"Latitude":53.32617,"Longitude":-1.13449},"BottomRight":{"Latitude":53.32601,"Longitude":-1.13436}},"Address":{"Label":"Lynchet Lane, Worksop, S81 7, United Kingdom","Country":"GBR","State":"England","County":"Nottinghamshire","City":"Worksop","District":"Worksop","Street":"Lynchet Lane","PostalCode":"S81 7","AdditionalData":[{"value":"United Kingdom","key":"CountryName"},{"value":"England","key":"StateName"},{"value":"Nottinghamshire","key":"CountyName"}]},"MapReference":{"ReferenceId":"1198010805","Spot":1.0,"SideOfStreet":"right","StateId":"20248595","CountyId":"20344764","CityId":"20344765","DistrictId":"20357030"}}},{"Relevance":1.0,"Distance":70.1,"MatchLevel":"postalCode","MatchQuality":{"PostalCode":1.0},"Location":{"LocationId":"NT_eoGgU5NUO.nJfaXr1G-qFC_l_756081794_R","LocationType":"point","DisplayPosition":{"Latitude":53.32659,"Longitude":-1.13348},"MapView":{"TopLeft":{"Latitude":53.3355832,"Longitude":-1.1485376},"BottomRight":{"Latitude":53.3175968,"Longitude":-1.1184224}},"Address":{"Label":"S81 7AN, Worksop, England, United Kingdom","Country":"GBR","State":"England","County":"Nottinghamshire","City":"Worksop","PostalCode":"S81 7AN","AdditionalData":[{"value":"United Kingdom","key":"CountryName"},{"value":"England","key":"StateName"},{"value":"Nottinghamshire","key":"CountyName"}]},"MapReference":{"ReferenceId":"756081794","Spot":0.66,"SideOfStreet":"neither","StateId":"20248595","CountyId":"20344764","CityId":"20344765"}}},{"Relevance":1.0,"Distance":71.0,"MatchLevel":"street","MatchQuality":{"Country":1.0,"State":1.0,"County":1.0,"City":1.0,"District":1.0,"Street":[1.0],"PostalCode":1.0},"Location":{"LocationId":"NT_-NjgZmcv.1q9bezbRX9dgA_l_1226250530_L","LocationType":"point","DisplayPosition":{"Latitude":53.325331,"Longitude":-1.1332263},"MapView":{"TopLeft":{"Latitude":53.3254,"Longitude":-1.13323},"BottomRight":{"Latitude":53.32533,"Longitude":-1.1329}},"Address":{"Label":"Raymoth Lane, Worksop, S81 7, United Kingdom","Country":"GBR","State":"England","County":"Nottinghamshire","City":"Worksop","District":"Worksop","Street":"Raymoth Lane","PostalCode":"S81 7","AdditionalData":[{"value":"United Kingdom","key":"CountryName"},{"value":"England","key":"StateName"},{"value":"Nottinghamshire","key":"CountyName"}]},"MapReference":{"ReferenceId":"1226250530","Spot":0.01,"SideOfStreet":"left","StateId":"20248595","CountyId":"20344764","CityId":"20344765","DistrictId":"20357030"}}},{"Relevance":1.0,"Distance":71.7,"MatchLevel":"street","MatchQuality":{"Country":1.0,"State":1.0,"County":1.0,"City":1.0,"District":1.0,"Street":[1.0],"PostalCode":1.0},"Location":{"LocationId":"NT_APu7CQt1zs3XxW4nDHQFjB_l_1226250529_L","LocationType":"point","DisplayPosition":{"Latitude":53.3253206,"Longitude":-1.1332818},"MapView":{"TopLeft":{"Latitude":53.32533,"Longitude":-1.13371},"BottomRight":{"Latitude":53.3252,"Longitude":-1.13323}},"Address":{"Label":"Raymoth Lane, Worksop, S81 7, United Kingdom","Country":"GBR","State":"England","County":"Nottinghamshire","City":"Worksop","District":"Worksop","Street":"Raymoth Lane","PostalCode":"S81 7","AdditionalData":[{"value":"United Kingdom","key":"CountryName"},{"value":"England","key":"StateName"},{"value":"Nottinghamshire","key":"CountyName"}]},"MapReference":{"ReferenceId":"1226250529","Spot":0.89,"SideOfStreet":"left","StateId":"20248595","CountyId":"20344764","CityId":"20344765","DistrictId":"20357030"}}}]}]}}