{"Response":{"MetaInfo":{"Timestamp":"2020-03-28T11:22:34.438+0000","NextPageInformation":"2"},"View":[{"_type":"SearchResultsViewType","ViewId":0,"Result":[{"Relevance":1.0,"Distance":0.0,"Direction":0.0,"MatchLevel":"district","MatchQuality":{"Country":1.0,"County":1.0,"City":1.0,"District":1.0,"PostalCode":1.0},"Location":{"LocationId":"NT_qobJAI4pDz5AiCFbjTy8VB","LocationType":"point","DisplayPosition":{"Latitude":53.3049726,"Longitude":-6.1879273},"MapView":{"TopLeft":{"Latitude":53.31236,"Longitude":-6.22194},"BottomRight":{"Latitude":53.26496,"Longitude":-6.14765}},"Address":{"Label":"Blackrock, Ireland","Country":"IRL","County":"County Dublin","City":"Blackrock","District":"Blackrock","AdditionalData":[{"value":"Ireland","key":"CountryName"},{"value":"County Dublin","key":"CountyName"}]},"MapReference":{"ReferenceId":"554375618","SideOfStreet":"neither","CountryId":"20403667","CountyId":"20411172","CityId":"20422482","DistrictId":"20422483"}}},{"Relevance":1.0,"Distance":8.7,"MatchLevel":"street","MatchQuality":{"Country":1.0,"County":1.0,"City":1.0,"District":1.0,"Street":[1.0],"PostalCode":1.0},"Location":{"LocationId":"NT_gH26jK0IwZL4T3cTR6H9SA_l_812825903_L","LocationType":"point","DisplayPosition":{"Latitude":53.30499,"Longitude":-6.1878},"MapView":{"TopLeft":{"Latitude":53.30513,"Longitude":-6.1878},"BottomRight":{"Latitude":53.30499,"Longitude":-6.18754}},"Address":{"Label":"Emmet Square, Blackrock, County Dublin, A94, Ireland","Country":"IRL","County":"County Dublin","City":"Blackrock","District":"Blackrock","Street":"Emmet Square","PostalCode":"A94","AdditionalData":[{"value":"Ireland","key":"CountryName"},{"value":"County Dublin","key":"CountyName"}]},"MapReference":{"ReferenceId":"812825903","Spot":0.0,"SideOfStreet":"left","CountryId":"20403667","CountyId":"20411172","CityId":"20422482","DistrictId":"20422483"}}},{"Relevance":1.0,"Distance":8.7,"MatchLevel":"houseNumber","MatchQuality":{"Country":1.0,"County":1.0,"City":1.0,"District":1.0,"Street":[1.0],"HouseNumber":1.0,"PostalCode":1.0},"MatchType":"interpolated","Location":{"LocationId":"NT_XDuxQZ.5Op6nAdEA-H273B_yED","LocationType":"point","DisplayPosition":{"Latitude":53.30505,"Longitude":-6.18791},"MapView":{"TopLeft":{"Latitude":53.3061742,"Longitude":-6.1897913},"BottomRight":{"Latitude":53.3039258,"Longitude":-6.1860287}},"Address":{"Label":"21 Rock Road, Blackrock, County Dublin, A94 P2W7, Ireland","Country":"IRL","County":"County Dublin","City":"Blackrock","District":"Blackrock","Street":"Rock Road","HouseNumber":"21","PostalCode":"A94 P2W7","AdditionalData":[{"value":"Ireland","key":"CountryName"},{"value":"County Dublin","key":"CountyName"}]},"MapReference":{"ReferenceId":"554436431","Spot":0.32,"SideOfStreet":"right","CountryId":"20403667","CountyId":"20411172","CityId":"20422482","DistrictId":"20422483","AddressId":"214509555","RoadLinkId":"86731311"}}},{"Relevance":1.0,"Distance":17.6,"MatchLevel":"postalCode","MatchQuality":{"PostalCode":1.0},"MatchType":"interpolated","Location":{"LocationId":"NT_XDuxQZ.5Op6nAdEA-H273B_yED","LocationType":"point","DisplayPosition":{"Latitude":53.30509,"Longitude":-6.18775},"MapView":{"TopLeft":{"Latitude":53.3140832,"Longitude":-6.2028},"BottomRight":{"Latitude":53.2960968,"Longitude":-6.1727}},"Address":{"Label":"A94 Y7C7, Blackrock, Ireland","Country":"IRL","County":"County Dublin","City":"Blackrock","PostalCode":"A94 Y7C7","AdditionalData":[{"value":"Ireland","key":"CountryName"},{"value":"County Dublin","key":"CountyName"}]},"MapReference":{"ReferenceId":"554436431","Spot":0.32,"SideOfStreet":"neither","CountryId":"20403667","CountyId":"20411172","CityId":"20422482"}}},{"Relevance":1.0,"Distance":18.1,"MatchLevel":"houseNumber","MatchQuality":{"Country":1.0,"County":1.0,"City":1.0,"District":1.0,"Street":[1.0],"HouseNumber":1.0,"PostalCode":1.0},"MatchType":"interpolated","Location":{"LocationId":"NT_XDuxQZ.5Op6nAdEA-H273B_xcD","LocationType":"point","DisplayPosition":{"Latitude":53.30492,"Longitude":-6.18767},"MapView":{"TopLeft":{"Latitude":53.3060442,"Longitude":-6.1895512},"BottomRight":{"Latitude":53.3037958,"Longitude":-6.1857888}},"Address":{"Label":"17 Rock Road, Blackrock, County Dublin, A94 V8K0, Ireland","Country":"IRL","County":"County Dublin","City":"Blackrock","District":"Blackrock","Street":"Rock Road","HouseNumber":"17","PostalCode":"A94 V8K0","AdditionalData":[{"value":"Ireland","key":"CountryName"},{"value":"County Dublin","key":"CountyName"}]},"MapReference":{"ReferenceId":"553058362","Spot":0.13,"SideOfStreet":"right","CountryId":"20403667","CountyId":"20411172","CityId":"20422482","DistrictId":"20422483","AddressId":"214349164","RoadLinkId":"86477441"}}},{"Relevance":1.0,"Distance":20.2,"MatchLevel":"houseNumber","MatchQuality":{"Country":1.0,"County":1.0,"City":1.0,"District":1.0,"Street":[1.0],"PostalCode":1.0},"MatchType":"interpolated","Location":{"LocationId":"NT_XDuxQZ.5Op6nAdEA-H273B","LocationType":"point","DisplayPosition":{"Latitude":53.30474,"Longitude":-6.18784},"MapView":{"TopLeft":{"Latitude":53.3058642,"Longitude":-6.1897212},"BottomRight":{"Latitude":53.3036158,"Longitude":-6.1859588}},"Address":{"Label":"\"Blackrock Clinic\" Rock Road, Blackrock, County Dublin, A94, Ireland","Country":"IRL","County":"County Dublin","City":"Blackrock","District":"Blackrock","Street":"Rock Road","PostalCode":"A94","AdditionalData":[{"value":"Ireland","key":"CountryName"},{"value":"County Dublin","key":"CountyName"}],"Building":"Blackrock Clinic"},"MapReference":{"ReferenceId":"554436460","Spot":0.65,"SideOfStreet":"left","CountryId":"20403667","CountyId":"20411172","CityId":"20422482","DistrictId":"20422483","AddressId":"358853142","RoadLinkId":"86477441"}}},{"Relevance":1.0,"Distance":23.0,"MatchLevel":"houseNumber","MatchQuality":{"Country":1.0,"County":1.0,"City":1.0,"District":1.0,"Street":[1.0],"HouseNumber":1.0,"PostalCode":1.0},"MatchType":"interpolated","Location":{"LocationId":"NT_XDuxQZ.5Op6nAdEA-H273B_xUD","LocationType":"point","DisplayPosition":{"Latitude":53.30489,"Longitude":-6.18761},"MapView":{"TopLeft":{"Latitude":53.3060142,"Longitude":-6.1894912},"BottomRight":{"Latitude":53.3037658,"Longitude":-6.1857288}},"Address":{"Label":"15 Rock Road, Blackrock, County Dublin, A94 T2C0, Ireland","Country":"IRL","County":"County Dublin","City":"Blackrock","District":"Blackrock","Street":"Rock Road","HouseNumber":"15","PostalCode":"A94 T2C0","AdditionalData":[{"value":"Ireland","key":"CountryName"},{"value":"County Dublin","key":"CountyName"}]},"MapReference":{"ReferenceId":"1221784011","Spot":0.8,"SideOfStreet":"right","CountryId":"20403667","CountyId":"20411172","CityId":"20422482","DistrictId":"20422483","AddressId":"214853113","RoadLinkId":"539264942"}}},{"Relevance":1.0,"Distance":27.7,"MatchLevel":"houseNumber","MatchQuality":{"Country":1.0,"County":1.0,"City":1.0,"District":1.0,"Street":[1.0],"HouseNumber":1.0,"PostalCode":1.0},"MatchType":"interpolated","Location":{"LocationId":"NT_XDuxQZ.5Op6nAdEA-H273B_ycD","LocationType":"point","DisplayPosition":{"Latitude":53.30518,"Longitude":-6.18814},"MapView":{"TopLeft":{"Latitude":53.3063042,"Longitude":-6.1900213},"BottomRight":{"Latitude":53.3040558,"Longitude":-6.1862587}},"Address":{"Label":"27 Rock Road, Blackrock, County Dublin, A94 Y6X9, Ireland","Country":"IRL","County":"County Dublin","City":"Blackrock","District":"Blackrock","Street":"Rock Road","HouseNumber":"27","PostalCode":"A94 Y6X9","AdditionalData":[{"value":"Ireland","key":"CountryName"},{"value":"County Dublin","key":"CountyName"}]},"MapReference":{"ReferenceId":"812338277","Spot":0.0,"SideOfStreet":"right","CountryId":"20403667","CountyId":"20411172","CityId":"20422482","DistrictId":"20422483","AddressId":"214288691","RoadLinkId":"199691133"}}},{"Relevance":1.0,"Distance":30.8,"MatchLevel":"postalCode","MatchQuality":{"PostalCode":1.0},"MatchType":"interpolated","Location":{"LocationId":"NT_XDuxQZ.5Op6nAdEA-H273B_xUD","LocationType":"point","DisplayPosition":{"Latitude":53.30493,"Longitude":-6.18747},"MapView":{"TopLeft":{"Latitude":53.3139232,"Longitude":-6.20252},"BottomRight":{"Latitude":53.2959368,"Longitude":-6.17242}},"Address":{"Label":"A94 R6C3, Blackrock, Ireland","Country":"IRL","County":"County Dublin","City":"Blackrock","PostalCode":"A94 R6C3","AdditionalData":[{"value":"Ireland","key":"CountryName"},{"value":"County Dublin","key":"CountyName"}]},"MapReference":{"ReferenceId":"1221784011","Spot":0.8,"SideOfStreet":"neither","CountryId":"20403667","CountyId":"20411172","CityId":"20422482"}}},{"Relevance":1.0,"Distance":33.3,"MatchLevel":"postalCode","MatchQuality":{"PostalCode":1.0},"MatchType":"interpolated","Location":{"LocationId":"NT_XDuxQZ.5Op6nAdEA-H273B_ycD","LocationType":"point","DisplayPosition":{"Latitude":53.30526,"Longitude":-6.18807},"MapView":{"TopLeft":{"Latitude":53.3142532,"Longitude":-6.2031201},"BottomRight":{"Latitude":53.2962668,"Longitude":-6.1730199}},"Address":{"Label":"A94 XY43, Blackrock, Ireland","Country":"IRL","County":"County Dublin","City":"Blackrock","PostalCode":"A94 XY43","AdditionalData":[{"value":"Ireland","key":"CountryName"},{"value":"County Dublin","key":"CountyName"}]},"MapReference":{"ReferenceId":"812338277","Spot":0.0,"SideOfStreet":"neither","CountryId":"20403667","CountyId":"20411172","CityId":"20422482"}}}]}]}}