{"Response":{"MetaInfo":{"Timestamp":"2020-03-28T09:50:47.526+0000","NextPageInformation":"2"},"View":[{"_type":"SearchResultsViewType","ViewId":0,"Result":[{"Relevance":1.0,"Distance":0.0,"Direction":0.0,"MatchLevel":"district","MatchQuality":{"Country":1.0,"State":1.0,"County":1.0,"City":1.0,"District":1.0,"PostalCode":1.0},"Location":{"LocationId":"NT_KtKE4TttE26cHFmPYSctWD","LocationType":"point","DisplayPosition":{"Latitude":53.3794622,"Longitude":-2.2647007},"MapView":{"TopLeft":{"Latitude":53.41934,"Longitude":-2.31671},"BottomRight":{"Latitude":53.35805,"Longitude":-2.23727}},"Address":{"Label":"Wythenshawe, Manchester, England, United Kingdom","Country":"GBR","State":"England","County":"Lancashire","City":"Manchester","District":"Wythenshawe","PostalCode":"M23 0","AdditionalData":[{"value":"United Kingdom","key":"CountryName"},{"value":"England","key":"StateName"},{"value":"Lancashire","key":"CountyName"}]},"MapReference":{"ReferenceId":"1221032142","SideOfStreet":"neither","StateId":"20248595","CountyId":"20343938","CityId":"20344206","DistrictId":"20344263"}}},{"Relevance":1.0,"Distance":37.1,"MatchLevel":"street","MatchQuality":{"Country":1.0,"State":1.0,"County":1.0,"City":1.0,"District":1.0,"PostalCode":1.0},"Location":{"LocationId":"NT_RvCQM6EXs2otWkwb4PtC1C_l_1187030173_L","LocationType":"point","DisplayPosition":{"Latitude":53.37934,"Longitude":-2.26418},"MapView":{"TopLeft":{"Latitude":53.38006,"Longitude":-2.26435},"BottomRight":{"Latitude":53.37899,"Longitude":-2.26389}},"Address":{"Label":"Manchester, M22 1, United Kingdom","Country":"GBR","State":"England","County":"Lancashire","City":"Manchester","District":"Wythenshawe","PostalCode":"M22 1","AdditionalData":[{"value":"United Kingdom","key":"CountryName"},{"value":"England","key":"StateName"},{"value":"Lancashire","key":"CountyName"}]},"MapReference":{"ReferenceId":"1187030173","Spot":0.34,"SideOfStreet":"left","StateId":"20248595","CountyId":"20343938","CityId":"20344206","DistrictId":"20344263"}}},{"Relevance":1.0,"Distance":47.4,"MatchLevel":"postalCode","MatchQuality":{"PostalCode":1.0},"Location":{"LocationId":"NT_600bWCqaeBUXjyWbUMPI5C_l_1187030179_R","LocationType":"point","DisplayPosition":{"Latitude":53.37905,"Longitude":-2.26452},"MapView":{"TopLeft":{"Latitude":53.3880432,"Longitude":-2.2795962},"BottomRight":{"Latitude":53.3700568,"Longitude":-2.2494438}},"Address":{"Label":"M22 1AA, Manchester, England, United Kingdom","Country":"GBR","State":"England","County":"Lancashire","City":"Manchester","PostalCode":"M22 1AA","AdditionalData":[{"value":"United Kingdom","key":"CountryName"},{"value":"England","key":"StateName"},{"value":"Lancashire","key":"CountyName"}]},"MapReference":{"ReferenceId":"1187030179","Spot":1.0,"SideOfStreet":"neither","StateId":"20248595","CountyId":"20343938","CityId":"20344206"}}},{"Relevance":1.0,"Distance":49.3,"MatchLevel":"postalCode","MatchQuality":{"PostalCode":1.0},"Location":{"LocationId":"NT_RvCQM6EXs2otWkwb4PtC1C_l_1187030160_L","LocationType":"point","DisplayPosition":{"Latitude":53.37988,"Longitude":-2.26445},"MapView":{"TopLeft":{"Latitude":53.3888732,"Longitude":-2.2795265},"BottomRight":{"Latitude":53.3708868,"Longitude":-2.2493735}},"Address":{"Label":"M22 5RX, Manchester, England, United Kingdom","Country":"GBR","State":"England","County":"Lancashire","City":"Manchester","PostalCode":"M22 5RX","AdditionalData":[{"value":"United Kingdom","key":"CountryName"},{"value":"England","key":"StateName"},{"value":"Lancashire","key":"CountyName"}]},"MapReference":{"ReferenceId":"1187030160","Spot":0.33,"SideOfStreet":"neither","StateId":"20248595","CountyId":"20343938","CityId":"20344206"}}},{"Relevance":1.0,"Distance":52.6,"MatchLevel":"street","MatchQuality":{"Country":1.0,"State":1.0,"County":1.0,"City":1.0,"District":1.0,"Street":[1.0],"PostalCode":1.0},"Location":{"LocationId":"NT_600bWCqaeBUXjyWbUMPI5C_l_1187030179_R","LocationType":"point","DisplayPosition":{"Latitude":53.379,"Longitude":-2.26453},"MapView":{"TopLeft":{"Latitude":53.379,"Longitude":-2.26453},"BottomRight":{"Latitude":53.37899,"Longitude":-2.26435}},"Address":{"Label":"Fleming Road, Manchester, M22 1, United Kingdom","Country":"GBR","State":"England","County":"Lancashire","City":"Manchester","District":"Wythenshawe","Street":"Fleming Road","PostalCode":"M22 1","AdditionalData":[{"value":"United Kingdom","key":"CountryName"},{"value":"England","key":"StateName"},{"value":"Lancashire","key":"CountyName"}]},"MapReference":{"ReferenceId":"1187030179","Spot":1.0,"SideOfStreet":"right","StateId":"20248595","CountyId":"20343938","CityId":"20344206","DistrictId":"20344263"}}},{"Relevance":1.0,"Distance":54.6,"MatchLevel":"street","MatchQuality":{"Country":1.0,"State":1.0,"County":1.0,"City":1.0,"District":1.0,"PostalCode":1.0},"Location":{"LocationId":"NT_RvCQM6EXs2otWkwb4PtC1C_l_1187030160_L","LocationType":"point","DisplayPosition":{"Latitude":53.37993,"Longitude":-2.26445},"MapView":{"TopLeft":{"Latitude":53.38064,"Longitude":-2.26445},"BottomRight":{"Latitude":53.37991,"Longitude":-2.2641}},"Address":{"Label":"Manchester, M22 1, United Kingdom","Country":"GBR","State":"England","County":"Lancashire","City":"Manchester","District":"Wythenshawe","PostalCode":"M22 1","AdditionalData":[{"value":"United Kingdom","key":"CountryName"},{"value":"England","key":"StateName"},{"value":"Lancashire","key":"CountyName"}]},"MapReference":{"ReferenceId":"1187030160","Spot":0.33,"SideOfStreet":"left","StateId":"20248595","CountyId":"20343938","CityId":"20344206","DistrictId":"20344263"}}},{"Relevance":1.0,"Distance":57.4,"MatchLevel":"street","MatchQuality":{"Country":1.0,"State":1.0,"County":1.0,"City":1.0,"District":1.0,"Street":[1.0],"PostalCode":1.0},"Location":{"LocationId":"NT_600bWCqaeBUXjyWbUMPI5C_l_1187030178_R","LocationType":"point","DisplayPosition":{"Latitude":53.37899,"Longitude":-2.26435},"MapView":{"TopLeft":{"Latitude":53.37899,"Longitude":-2.26435},"BottomRight":{"Latitude":53.3788,"Longitude":-2.26411}},"Address":{"Label":"Fleming Road, Manchester, M22 1, United Kingdom","Country":"GBR","State":"England","County":"Lancashire","City":"Manchester","District":"Wythenshawe","Street":"Fleming Road","PostalCode":"M22 1","AdditionalData":[{"value":"United Kingdom","key":"CountryName"},{"value":"England","key":"StateName"},{"value":"Lancashire","key":"CountyName"}]},"MapReference":{"ReferenceId":"1187030178","Spot":1.0,"SideOfStreet":"right","StateId":"20248595","CountyId":"20343938","CityId":"20344206","DistrictId":"20344263"}}},{"Relevance":1.0,"Distance":57.8,"MatchLevel":"street","MatchQuality":{"Country":1.0,"State":1.0,"County":1.0,"City":1.0,"District":1.0,"Street":[1.0],"PostalCode":1.0},"Location":{"LocationId":"NT_w1uboPzeRGkOvqTizQi-4D_l_1035672497_L","LocationType":"point","DisplayPosition":{"Latitude":53.37948,"Longitude":-2.26383},"MapView":{"TopLeft":{"Latitude":53.37948,"Longitude":-2.26383},"BottomRight":{"Latitude":53.37929,"Longitude":-2.26245}},"Address":{"Label":"Hale Top, Manchester, M22 5, United Kingdom","Country":"GBR","State":"England","County":"Lancashire","City":"Manchester","District":"Wythenshawe","Street":"Hale Top","PostalCode":"M22 5","AdditionalData":[{"value":"United Kingdom","key":"CountryName"},{"value":"England","key":"StateName"},{"value":"Lancashire","key":"CountyName"}]},"MapReference":{"ReferenceId":"1035672497","Spot":1.0,"SideOfStreet":"left","StateId":"20248595","CountyId":"20343938","CityId":"20344206","DistrictId":"20344263"}}},{"Relevance":1.0,"Distance":57.8,"MatchLevel":"street","MatchQuality":{"Country":1.0,"State":1.0,"County":1.0,"City":1.0,"District":1.0,"PostalCode":1.0},"Location":{"LocationId":"NT_k-tJiMbDh-51z4oeAD.VLA_l_1187030172_L","LocationType":"point","DisplayPosition":{"Latitude":53.37948,"Longitude":-2.26383},"MapView":{"TopLeft":{"Latitude":53.38055,"Longitude":-2.26383},"BottomRight":{"Latitude":53.37948,"Longitude":-2.26341}},"Address":{"Label":"Manchester, M22 5, United Kingdom","Country":"GBR","State":"England","County":"Lancashire","City":"Manchester","District":"Wythenshawe","PostalCode":"M22 5","AdditionalData":[{"value":"United Kingdom","key":"CountryName"},{"value":"England","key":"StateName"},{"value":"Lancashire","key":"CountyName"}]},"MapReference":{"ReferenceId":"1187030172","Spot":0.0,"SideOfStreet":"left","StateId":"20248595","CountyId":"20343938","CityId":"20344206","DistrictId":"20344263"}}},{"Relevance":1.0,"Distance":59.4,"MatchLevel":"landmark","MatchQuality":{"Country":1.0,"State":1.0,"County":1.0,"City":1.0,"District":1.0,"Street":[1.0],"PostalCode":1.0,"Name":1.0},"Location":{"LocationId":"NT_wJIQf4H5Z-hxVcsZiGzuzC_p_ek05gkz0U21M-f60ZtYGtD","LocationType":"shoppingCentre","Name":"Wythenshawe Town Centre","DisplayPosition":{"Latitude":53.37841,"Longitude":-2.26283},"MapView":{"TopLeft":{"Latitude":53.38141,"Longitude":-2.26438},"BottomRight":{"Latitude":53.37768,"Longitude":-2.26034}},"Address":{"Label":"Swan Walk, Manchester, M22 5, United Kingdom","Country":"GBR","State":"England","County":"Lancashire","City":"Manchester","District":"Wythenshawe","Street":"Swan Walk","PostalCode":"M22 5","AdditionalData":[{"value":"United Kingdom","key":"CountryName"},{"value":"England","key":"StateName"},{"value":"Lancashire","key":"CountyName"}]},"MapReference":{"StateId":"20248595","CountyId":"20343938","CityId":"20344206","DistrictId":"20344263","PlaceId":"1024339671"}}}]}]}}