{"Response":{"MetaInfo":{"Timestamp":"2020-03-28T11:55:06.785+0000","NextPageInformation":"2"},"View":[{"_type":"SearchResultsViewType","ViewId":0,"Result":[{"Relevance":1.0,"Distance":-24.3,"MatchLevel":"landmark","MatchQuality":{"Country":1.0,"State":1.0,"County":1.0,"City":1.0,"District":1.0,"Street":[1.0],"PostalCode":1.0,"Name":1.0},"Location":{"LocationId":"NT_iPVPDj7lv3zynkUw82c44A_p_1bg3n7c.5ZpWiy5MMq.eXC","LocationType":"shoppingCentre","Name":"Heeley Retail Park","DisplayPosition":{"Latitude":53.35602,"Longitude":-1.47893},"MapView":{"TopLeft":{"Latitude":53.35693,"Longitude":-1.48092},"BottomRight":{"Latitude":53.35518,"Longitude":-1.47685}},"Address":{"Label":"Heeley Retail Park, Sheffield, S8 0, United Kingdom","Country":"GBR","State":"England","County":"South Yorkshire","City":"Sheffield","District":"Sheffield","Street":"Heeley Retail Park","PostalCode":"S8 0","AdditionalData":[{"value":"United Kingdom","key":"CountryName"},{"value":"England","key":"StateName"},{"value":"South Yorkshire","key":"CountyName"}]},"MapReference":{"StateId":"20248595","CountyId":"20344788","CityId":"20344969","DistrictId":"20344970","PlaceId":"1001002613"}}},{"Relevance":1.0,"Distance":0.0,"Direction":0.0,"MatchLevel":"district","MatchQuality":{"Country":1.0,"State":1.0,"County":1.0,"City":1.0,"District":1.0,"PostalCode":1.0},"Location":{"LocationId":"NT_KP6ribEn.GU5Y.1NzVsDYA","LocationType":"point","DisplayPosition":{"Latitude":53.356588,"Longitude":-1.4787571},"MapView":{"TopLeft":{"Latitude":53.45298,"Longitude":-1.57369},"BottomRight":{"Latitude":53.31558,"Longitude":-1.32661}},"Address":{"Label":"Sheffield, England, United Kingdom","Country":"GBR","State":"England","County":"South Yorkshire","City":"Sheffield","District":"Sheffield","PostalCode":"S1 2","AdditionalData":[{"value":"United Kingdom","key":"CountryName"},{"value":"England","key":"StateName"},{"value":"South Yorkshire","key":"CountyName"}]},"MapReference":{"ReferenceId":"27539861","SideOfStreet":"neither","StateId":"20248595","CountyId":"20344788","CityId":"20344969","DistrictId":"20344970"}}},{"Relevance":1.0,"Distance":22.5,"MatchLevel":"street","MatchQuality":{"Country":1.0,"State":1.0,"County":1.0,"City":1.0,"District":1.0,"Street":[1.0],"PostalCode":1.0},"Location":{"LocationId":"NT_9kHyt9x0QshCKmnO7QySPA_l_802854498_R","LocationType":"point","DisplayPosition":{"Latitude":53.3567791,"Longitude":-1.4788665},"MapView":{"TopLeft":{"Latitude":53.3568,"Longitude":-1.48007},"BottomRight":{"Latitude":53.35609,"Longitude":-1.47883}},"Address":{"Label":"Windsor Road, Sheffield, S8 0, United Kingdom","Country":"GBR","State":"England","County":"South Yorkshire","City":"Sheffield","District":"Sheffield","Street":"Windsor Road","PostalCode":"S8 0","AdditionalData":[{"value":"United Kingdom","key":"CountryName"},{"value":"England","key":"StateName"},{"value":"South Yorkshire","key":"CountyName"}]},"MapReference":{"ReferenceId":"802854498","Spot":0.97,"SideOfStreet":"right","StateId":"20248595","CountyId":"20344788","CityId":"20344969","DistrictId":"20344970"}}},{"Relevance":1.0,"Distance":24.4,"MatchLevel":"street","MatchQuality":{"Country":1.0,"State":1.0,"County":1.0,"City":1.0,"District":1.0,"Street":[1.0],"PostalCode":1.0},"Location":{"LocationId":"NT_9kHyt9x0QshCKmnO7QySPA_l_1076082302_R","LocationType":"point","DisplayPosition":{"Latitude":53.3568061,"Longitude":-1.4787956},"MapView":{"TopLeft":{"Latitude":53.35687,"Longitude":-1.47883},"BottomRight":{"Latitude":53.3568,"Longitude":-1.47774}},"Address":{"Label":"Windsor Road, Sheffield, S8 0, United Kingdom","Country":"GBR","State":"England","County":"South Yorkshire","City":"Sheffield","District":"Sheffield","Street":"Windsor Road","PostalCode":"S8 0","AdditionalData":[{"value":"United Kingdom","key":"CountryName"},{"value":"England","key":"StateName"},{"value":"South Yorkshire","key":"CountyName"}]},"MapReference":{"ReferenceId":"1076082302","Spot":0.03,"SideOfStreet":"right","StateId":"20248595","CountyId":"20344788","CityId":"20344969","DistrictId":"20344970"}}},{"Relevance":1.0,"Distance":33.0,"MatchLevel":"postalCode","MatchQuality":{"PostalCode":1.0},"Location":{"LocationId":"NT_cX4CWRJpjo33P5w1RyykFB_l_802854487_L","LocationType":"point","DisplayPosition":{"Latitude":53.35635,"Longitude":-1.47846},"MapView":{"TopLeft":{"Latitude":53.3653432,"Longitude":-1.4935281},"BottomRight":{"Latitude":53.3473568,"Longitude":-1.4633919}},"Address":{"Label":"S8 0RG, Sheffield, England, United Kingdom","Country":"GBR","State":"England","County":"South Yorkshire","City":"Sheffield","PostalCode":"S8 0RG","AdditionalData":[{"value":"United Kingdom","key":"CountryName"},{"value":"England","key":"StateName"},{"value":"South Yorkshire","key":"CountyName"}]},"MapReference":{"ReferenceId":"802854487","Spot":0.76,"SideOfStreet":"neither","StateId":"20248595","CountyId":"20344788","CityId":"20344969"}}},{"Relevance":1.0,"Distance":40.7,"MatchLevel":"street","MatchQuality":{"Country":1.0,"State":1.0,"County":1.0,"City":1.0,"District":1.0,"Street":[1.0],"PostalCode":1.0},"Location":{"LocationId":"NT_cX4CWRJpjo33P5w1RyykFB_l_802854487_L","LocationType":"point","DisplayPosition":{"Latitude":53.3562431,"Longitude":-1.4785532},"MapView":{"TopLeft":{"Latitude":53.35631,"Longitude":-1.47959},"BottomRight":{"Latitude":53.35563,"Longitude":-1.47819}},"Address":{"Label":"Heeley Retail Park, Sheffield, S8 0, United Kingdom","Country":"GBR","State":"England","County":"South Yorkshire","City":"Sheffield","District":"Sheffield","Street":"Heeley Retail Park","PostalCode":"S8 0","AdditionalData":[{"value":"United Kingdom","key":"CountryName"},{"value":"England","key":"StateName"},{"value":"South Yorkshire","key":"CountyName"}]},"MapReference":{"ReferenceId":"802854487","Spot":0.76,"SideOfStreet":"left","StateId":"20248595","CountyId":"20344788","CityId":"20344969","DistrictId":"20344970"}}},{"Relevance":1.0,"Distance":49.4,"MatchLevel":"street","MatchQuality":{"Country":1.0,"State":1.0,"County":1.0,"City":1.0,"District":1.0,"Street":[1.0],"PostalCode":1.0},"Location":{"LocationId":"NT_cX4CWRJpjo33P5w1RyykFB_l_565942173_R","LocationType":"point","DisplayPosition":{"Latitude":53.3563,"Longitude":-1.47819},"MapView":{"TopLeft":{"Latitude":53.3563,"Longitude":-1.47819},"BottomRight":{"Latitude":53.35608,"Longitude":-1.47751}},"Address":{"Label":"Heeley Retail Park, Sheffield, S8 0, United Kingdom","Country":"GBR","State":"England","County":"South Yorkshire","City":"Sheffield","District":"Sheffield","Street":"Heeley Retail Park","PostalCode":"S8 0","AdditionalData":[{"value":"United Kingdom","key":"CountryName"},{"value":"England","key":"StateName"},{"value":"South Yorkshire","key":"CountyName"}]},"MapReference":{"ReferenceId":"565942173","Spot":1.0,"SideOfStreet":"right","StateId":"20248595","CountyId":"20344788","CityId":"20344969","DistrictId":"20344970"}}},{"Relevance":1.0,"Distance":63.0,"MatchLevel":"street","MatchQuality":{"Country":1.0,"State":1.0,"County":1.0,"City":1.0,"District":1.0,"Street":[1.0],"PostalCode":1.0},"Location":{"LocationId":"NT_zrJ8n-JRUk38C0qSN2lzoD_l_565942167_R","LocationType":"point","DisplayPosition":{"Latitude":53.3569,"Longitude":-1.47955},"MapView":{"TopLeft":{"Latitude":53.35711,"Longitude":-1.48364},"BottomRight":{"Latitude":53.3544,"Longitude":-1.47952}},"Address":{"Label":"Little London Road, Sheffield, S8 0, United Kingdom","Country":"GBR","State":"England","County":"South Yorkshire","City":"Sheffield","District":"Sheffield","Street":"Little London Road","PostalCode":"S8 0","AdditionalData":[{"value":"United Kingdom","key":"CountryName"},{"value":"England","key":"StateName"},{"value":"South Yorkshire","key":"CountyName"}]},"MapReference":{"ReferenceId":"565942167","Spot":0.96,"SideOfStreet":"right","StateId":"20248595","CountyId":"20344788","CityId":"20344969","DistrictId":"20344970"}}},{"Relevance":1.0,"Distance":72.3,"MatchLevel":"street","MatchQuality":{"Country":1.0,"State":1.0,"County":1.0,"City":1.0,"District":1.0,"Street":[1.0],"PostalCode":1.0},"Location":{"LocationId":"NT_9kHyt9x0QshCKmnO7QySPA_l_1076082301_L","LocationType":"point","DisplayPosition":{"Latitude":53.35682,"Longitude":-1.47774},"MapView":{"TopLeft":{"Latitude":53.35682,"Longitude":-1.47774},"BottomRight":{"Latitude":53.35671,"Longitude":-1.47685}},"Address":{"Label":"Windsor Road, Sheffield, S8 0, United Kingdom","Country":"GBR","State":"England","County":"South Yorkshire","City":"Sheffield","District":"Sheffield","Street":"Windsor Road","PostalCode":"S8 0","AdditionalData":[{"value":"United Kingdom","key":"CountryName"},{"value":"England","key":"StateName"},{"value":"South Yorkshire","key":"CountyName"}]},"MapReference":{"ReferenceId":"1076082301","Spot":1.0,"SideOfStreet":"left","StateId":"20248595","CountyId":"20344788","CityId":"20344969","DistrictId":"20344970"}}},{"Relevance":1.0,"Distance":72.3,"MatchLevel":"street","MatchQuality":{"Country":1.0,"State":1.0,"County":1.0,"City":1.0,"District":1.0,"PostalCode":1.0},"Location":{"LocationId":"NT_wgRtJzzh6.QDu4EKNgkgZB_l_1254233863_L","LocationType":"point","DisplayPosition":{"Latitude":53.35682,"Longitude":-1.47774},"MapView":{"TopLeft":{"Latitude":53.35721,"Longitude":-1.47774},"BottomRight":{"Latitude":53.35682,"Longitude":-1.47762}},"Address":{"Label":"Sheffield, S8 0, United Kingdom","Country":"GBR","State":"England","County":"South Yorkshire","City":"Sheffield","District":"Sheffield","PostalCode":"S8 0","AdditionalData":[{"value":"United Kingdom","key":"CountryName"},{"value":"England","key":"StateName"},{"value":"South Yorkshire","key":"CountyName"}]},"MapReference":{"ReferenceId":"1254233863","Spot":0.0,"SideOfStreet":"left","StateId":"20248595","CountyId":"20344788","CityId":"20344969","DistrictId":"20344970"}}}]}]}}