{"Response":{"MetaInfo":{"Timestamp":"2020-03-28T09:55:19.232+0000","NextPageInformation":"2"},"View":[{"_type":"SearchResultsViewType","ViewId":0,"Result":[{"Relevance":1.0,"Distance":0.0,"Direction":0.0,"MatchLevel":"district","MatchQuality":{"Country":1.0,"County":1.0,"City":1.0,"District":1.0},"Location":{"LocationId":"NT_AktJ9GJY31LyHaIBD9n8LB","LocationType":"point","DisplayPosition":{"Latitude":53.3844999,"Longitude":-6.3828729},"MapView":{"TopLeft":{"Latitude":53.44462,"Longitude":-6.46704},"BottomRight":{"Latitude":53.36018,"Longitude":-6.30965}},"Address":{"Label":"Dublin 15, Dublin, Ireland","Country":"IRL","County":"County Dublin","City":"Dublin","District":"Dublin 15","AdditionalData":[{"value":"Ireland","key":"CountryName"},{"value":"County Dublin","key":"CountyName"}]},"MapReference":{"ReferenceId":"781750193","SideOfStreet":"neither","CountryId":"20403667","CountyId":"20411172","CityId":"20413526","DistrictId":"20413542"}}},{"Relevance":1.0,"Distance":31.5,"MatchLevel":"houseNumber","MatchQuality":{"Country":1.0,"County":1.0,"City":1.0,"District":1.0,"Street":[1.0],"PostalCode":1.0},"MatchType":"interpolated","Location":{"LocationId":"NT_aL5bbHnqkKXRnBxj0WQfRA","LocationType":"point","DisplayPosition":{"Latitude":53.38452,"Longitude":-6.38204},"MapView":{"TopLeft":{"Latitude":53.3856442,"Longitude":-6.3839248},"BottomRight":{"Latitude":53.3833958,"Longitude":-6.3801552}},"Address":{"Label":"\"Roselawn Health Centre\" Roselawn Road, Dublin, County Dublin, D15 PC90, Ireland","Country":"IRL","County":"County Dublin","City":"Dublin","District":"Dublin 15","Street":"Roselawn Road","PostalCode":"D15 PC90","AdditionalData":[{"value":"Ireland","key":"CountryName"},{"value":"County Dublin","key":"CountyName"}],"Building":"Roselawn Health Centre"},"MapReference":{"ReferenceId":"554464563","Spot":0.44,"SideOfStreet":"left","CountryId":"20403667","CountyId":"20411172","CityId":"20413526","DistrictId":"20413542","AddressId":"743676438","RoadLinkId":"86620062"}}},{"Relevance":1.0,"Distance":40.9,"MatchLevel":"houseNumber","MatchQuality":{"Country":1.0,"County":1.0,"City":1.0,"District":1.0,"Street":[1.0],"HouseNumber":1.0,"PostalCode":1.0},"MatchType":"interpolated","Location":{"LocationId":"NT_Awd6ZE9R9zApztr2agmAUC_xA","LocationType":"point","DisplayPosition":{"Latitude":53.38437,"Longitude":-6.38356},"MapView":{"TopLeft":{"Latitude":53.3854942,"Longitude":-6.3854448},"BottomRight":{"Latitude":53.3832458,"Longitude":-6.3816752}},"Address":{"Label":"1 Roselawn Glade, Dublin, County Dublin, D15 RYW1, Ireland","Country":"IRL","County":"County Dublin","City":"Dublin","District":"Dublin 15","Street":"Roselawn Glade","HouseNumber":"1","PostalCode":"D15 RYW1","AdditionalData":[{"value":"Ireland","key":"CountryName"},{"value":"County Dublin","key":"CountyName"}]},"MapReference":{"ReferenceId":"554464572","Spot":0.28,"SideOfStreet":"right","CountryId":"20403667","CountyId":"20411172","CityId":"20413526","DistrictId":"20413542","AddressId":"214702678","RoadLinkId":"86650037"}}},{"Relevance":1.0,"Distance":44.6,"MatchLevel":"postalCode","MatchQuality":{"PostalCode":1.0},"MatchType":"interpolated","Location":{"LocationId":"NT_Awd6ZE9R9zApztr2agmAUC_xA","LocationType":"point","DisplayPosition":{"Latitude":53.38477,"Longitude":-6.38337},"MapView":{"TopLeft":{"Latitude":53.3937632,"Longitude":-6.3984482},"BottomRight":{"Latitude":53.3757768,"Longitude":-6.3682918}},"Address":{"Label":"D15 E9NY, Dublin, Ireland","Country":"IRL","County":"County Dublin","City":"Dublin","PostalCode":"D15 E9NY","AdditionalData":[{"value":"Ireland","key":"CountryName"},{"value":"County Dublin","key":"CountyName"}]},"MapReference":{"ReferenceId":"554464572","Spot":0.28,"SideOfStreet":"neither","CountryId":"20403667","CountyId":"20411172","CityId":"20413526"}}},{"Relevance":1.0,"Distance":50.2,"MatchLevel":"houseNumber","MatchQuality":{"Country":1.0,"County":1.0,"City":1.0,"District":1.0,"Street":[1.0],"HouseNumber":1.0,"PostalCode":1.0},"MatchType":"interpolated","Location":{"LocationId":"NT_aL5bbHnqkKXRnBxj0WQfRA_xcTM","LocationType":"point","DisplayPosition":{"Latitude":53.38508,"Longitude":-6.38291},"MapView":{"TopLeft":{"Latitude":53.3862042,"Longitude":-6.3847948},"BottomRight":{"Latitude":53.3839558,"Longitude":-6.3810252}},"Address":{"Label":"171 Roselawn Road, Dublin, County Dublin, D15 A7KN, Ireland","Country":"IRL","County":"County Dublin","City":"Dublin","District":"Dublin 15","Street":"Roselawn Road","HouseNumber":"171","PostalCode":"D15 A7KN","AdditionalData":[{"value":"Ireland","key":"CountryName"},{"value":"County Dublin","key":"CountyName"}]},"MapReference":{"ReferenceId":"554464562","Spot":0.15,"SideOfStreet":"left","CountryId":"20403667","CountyId":"20411172","CityId":"20413526","DistrictId":"20413542","AddressId":"214089579","RoadLinkId":"86675047"}}},{"Relevance":1.0,"Distance":57.2,"MatchLevel":"postalCode","MatchQuality":{"PostalCode":1.0},"MatchType":"interpolated","Location":{"LocationId":"NT_aL5bbHnqkKXRnBxj0WQfRA_xcTM","LocationType":"point","DisplayPosition":{"Latitude":53.38495,"Longitude":-6.38329},"MapView":{"TopLeft":{"Latitude":53.3939432,"Longitude":-6.3983683},"BottomRight":{"Latitude":53.3759568,"Longitude":-6.3682117}},"Address":{"Label":"D15 FWN6, Dublin, Ireland","Country":"IRL","County":"County Dublin","City":"Dublin","PostalCode":"D15 FWN6","AdditionalData":[{"value":"Ireland","key":"CountryName"},{"value":"County Dublin","key":"CountyName"}]},"MapReference":{"ReferenceId":"554464562","Spot":0.15,"SideOfStreet":"neither","CountryId":"20403667","CountyId":"20411172","CityId":"20413526"}}},{"Relevance":1.0,"Distance":63.5,"MatchLevel":"houseNumber","MatchQuality":{"Country":1.0,"County":1.0,"City":1.0,"District":1.0,"Street":[1.0],"HouseNumber":1.0,"PostalCode":1.0},"MatchType":"interpolated","Location":{"LocationId":"NT_Q..4DYlELWrCUd32coStuA_xID","LocationType":"point","DisplayPosition":{"Latitude":53.38485,"Longitude":-6.38363},"MapView":{"TopLeft":{"Latitude":53.3859742,"Longitude":-6.3855148},"BottomRight":{"Latitude":53.3837258,"Longitude":-6.3817452}},"Address":{"Label":"12 Roselawn Crescent, Dublin, County Dublin, D15 N9EA, Ireland","Country":"IRL","County":"County Dublin","City":"Dublin","District":"Dublin 15","Street":"Roselawn Crescent","HouseNumber":"12","PostalCode":"D15 N9EA","AdditionalData":[{"value":"Ireland","key":"CountryName"},{"value":"County Dublin","key":"CountyName"}]},"MapReference":{"ReferenceId":"554464573","Spot":0.95,"SideOfStreet":"left","CountryId":"20403667","CountyId":"20411172","CityId":"20413526","DistrictId":"20413542","AddressId":"214231759","RoadLinkId":"86854566"}}},{"Relevance":1.0,"Distance":65.2,"MatchLevel":"postalCode","MatchQuality":{"PostalCode":1.0},"MatchType":"interpolated","Location":{"LocationId":"NT_aL5bbHnqkKXRnBxj0WQfRA","LocationType":"point","DisplayPosition":{"Latitude":53.38491,"Longitude":-6.38217},"MapView":{"TopLeft":{"Latitude":53.3939032,"Longitude":-6.3972483},"BottomRight":{"Latitude":53.3759168,"Longitude":-6.3670917}},"Address":{"Label":"D15 EA4A, Dublin, Ireland","Country":"IRL","County":"County Dublin","City":"Dublin","PostalCode":"D15 EA4A","AdditionalData":[{"value":"Ireland","key":"CountryName"},{"value":"County Dublin","key":"CountyName"}]},"MapReference":{"ReferenceId":"554464563","Spot":0.44,"SideOfStreet":"neither","CountryId":"20403667","CountyId":"20411172","CityId":"20413526"}}},{"Relevance":1.0,"Distance":77.9,"MatchLevel":"street","MatchQuality":{"Country":1.0,"County":1.0,"City":1.0,"District":1.0,"Street":[1.0],"PostalCode":1.0},"Location":{"LocationId":"NT_Awd6ZE9R9zApztr2agmAUC_l_1119455460_R","LocationType":"point","DisplayPosition":{"Latitude":53.38413,"Longitude":-6.38387},"MapView":{"TopLeft":{"Latitude":53.38413,"Longitude":-6.38437},"BottomRight":{"Latitude":53.38385,"Longitude":-6.38387}},"Address":{"Label":"Roselawn Glade, Dublin, County Dublin, D15, Ireland","Country":"IRL","County":"County Dublin","City":"Dublin","District":"Dublin 15","Street":"Roselawn Glade","PostalCode":"D15","AdditionalData":[{"value":"Ireland","key":"CountryName"},{"value":"County Dublin","key":"CountyName"}]},"MapReference":{"ReferenceId":"1119455460","Spot":1.0,"SideOfStreet":"right","CountryId":"20403667","CountyId":"20411172","CityId":"20413526","DistrictId":"20413542"}}},{"Relevance":1.0,"Distance":82.1,"MatchLevel":"landmark","MatchQuality":{"Country":1.0,"County":1.0,"City":1.0,"District":1.0,"Street":[1.0],"PostalCode":1.0,"Name":1.0},"Location":{"LocationId":"NT_Q1n0tYODD6ya23BytUb23B_p_cTVjSbhH-hOjRDhgakUEgC","LocationType":"shoppingCentre","Name":"Roselawn Shopping Centre","DisplayPosition":{"Latitude":53.38341,"Longitude":-6.38104},"MapView":{"TopLeft":{"Latitude":53.38407,"Longitude":-6.3829},"BottomRight":{"Latitude":53.38222,"Longitude":-6.38053}},"Address":{"Label":"Roselawn Road, Dublin, County Dublin, D15, Ireland","Country":"IRL","County":"County Dublin","City":"Dublin","District":"Dublin 15","Street":"Roselawn Road","PostalCode":"D15","AdditionalData":[{"value":"Ireland","key":"CountryName"},{"value":"County Dublin","key":"CountyName"}]},"MapReference":{"CountryId":"20403667","CountyId":"20411172","CityId":"20413526","DistrictId":"20413542","PlaceId":"83364011"}}}]}]}}