{"Response":{"MetaInfo":{"Timestamp":"2020-03-28T10:39:55.163+0000","NextPageInformation":"2"},"View":[{"_type":"SearchResultsViewType","ViewId":0,"Result":[{"Relevance":1.0,"Distance":0.0,"Direction":0.0,"MatchLevel":"district","MatchQuality":{"Country":1.0,"State":1.0,"County":1.0,"City":1.0,"District":1.0,"PostalCode":1.0},"Location":{"LocationId":"NT_P7SzOokHjUFLvvoiosTlfD","LocationType":"point","DisplayPosition":{"Latitude":53.3729133,"Longitude":-3.1817702},"MapView":{"TopLeft":{"Latitude":53.38454,"Longitude":-3.19132},"BottomRight":{"Latitude":53.35713,"Longitude":-3.14076}},"Address":{"Label":"West Kirby, Wirral, England, United Kingdom","Country":"GBR","State":"England","County":"Merseyside","City":"Wirral","District":"West Kirby","PostalCode":"CH48 7","AdditionalData":[{"value":"United Kingdom","key":"CountryName"},{"value":"England","key":"StateName"},{"value":"Merseyside","key":"CountyName"}]},"MapReference":{"ReferenceId":"1226023551","SideOfStreet":"neither","StateId":"20248595","CountyId":"20343208","CityId":"20343870","DistrictId":"20343897"}}},{"Relevance":1.0,"Distance":2.2,"MatchLevel":"houseNumber","MatchQuality":{"Country":1.0,"State":1.0,"County":1.0,"City":1.0,"District":1.0,"Street":[1.0],"HouseNumber":1.0,"PostalCode":1.0},"MatchType":"interpolated","Location":{"LocationId":"NT_aNiuRk9pNqnfO4miVqu6hC_l_565934882_R_xA","LocationType":"point","DisplayPosition":{"Latitude":53.3728833,"Longitude":-3.1819633},"MapView":{"TopLeft":{"Latitude":53.3740075,"Longitude":-3.1838476},"BottomRight":{"Latitude":53.3717592,"Longitude":-3.1800791}},"Address":{"Label":"1 Westbourne Road, Wirral, CH48 4, United Kingdom","Country":"GBR","State":"England","County":"Merseyside","City":"Wirral","District":"West Kirby","Street":"Westbourne Road","HouseNumber":"1","PostalCode":"CH48 4","AdditionalData":[{"value":"United Kingdom","key":"CountryName"},{"value":"England","key":"StateName"},{"value":"Merseyside","key":"CountyName"}]},"MapReference":{"ReferenceId":"565934882","Spot":0.67,"SideOfStreet":"right","StateId":"20248595","CountyId":"20343208","CityId":"20343870","DistrictId":"20343897"}}},{"Relevance":1.0,"Distance":3.6,"MatchLevel":"houseNumber","MatchQuality":{"Country":1.0,"State":1.0,"County":1.0,"City":1.0,"District":1.0,"Street":[1.0],"HouseNumber":1.0,"PostalCode":1.0},"MatchType":"interpolated","Location":{"LocationId":"NT_IMgi-l8P10DfYo7gi0ASKB_l_78754294_R_1YD","LocationType":"point","DisplayPosition":{"Latitude":53.3730201,"Longitude":-3.1817798},"MapView":{"TopLeft":{"Latitude":53.3741442,"Longitude":-3.1836641},"BottomRight":{"Latitude":53.3718959,"Longitude":-3.1798956}},"Address":{"Label":"56 Grange Road, Wirral, CH48 4EG, United Kingdom","Country":"GBR","State":"England","County":"Merseyside","City":"Wirral","District":"West Kirby","Street":"Grange Road","HouseNumber":"56","PostalCode":"CH48 4EG","AdditionalData":[{"value":"United Kingdom","key":"CountryName"},{"value":"England","key":"StateName"},{"value":"Merseyside","key":"CountyName"}]},"MapReference":{"ReferenceId":"78754294","Spot":0.26,"SideOfStreet":"right","StateId":"20248595","CountyId":"20343208","CityId":"20343870","DistrictId":"20343897"}}},{"Relevance":1.0,"Distance":14.9,"MatchLevel":"street","MatchQuality":{"Country":1.0,"State":1.0,"County":1.0,"City":1.0,"District":1.0,"Street":[1.0],"PostalCode":1.0},"Location":{"LocationId":"NT_aNiuRk9pNqnfO4miVqu6hC_l_27353877_R","LocationType":"point","DisplayPosition":{"Latitude":53.37296,"Longitude":-3.18198},"MapView":{"TopLeft":{"Latitude":53.37306,"Longitude":-3.18208},"BottomRight":{"Latitude":53.37296,"Longitude":-3.18198}},"Address":{"Label":"Westbourne Road, Wirral, CH48 4, United Kingdom","Country":"GBR","State":"England","County":"Merseyside","City":"Wirral","District":"West Kirby","Street":"Westbourne Road","PostalCode":"CH48 4","AdditionalData":[{"value":"United Kingdom","key":"CountryName"},{"value":"England","key":"StateName"},{"value":"Merseyside","key":"CountyName"}]},"MapReference":{"ReferenceId":"27353877","Spot":0.0,"SideOfStreet":"right","StateId":"20248595","CountyId":"20343208","CityId":"20343870","DistrictId":"20343897"}}},{"Relevance":1.0,"Distance":14.9,"MatchLevel":"street","MatchQuality":{"Country":1.0,"State":1.0,"County":1.0,"City":1.0,"District":1.0,"Street":[1.0],"PostalCode":1.0},"Location":{"LocationId":"NT_S.6acGcpY2IiT3lB3gRbXD_l_565934883_L","LocationType":"point","DisplayPosition":{"Latitude":53.3727805,"Longitude":-3.1817357},"MapView":{"TopLeft":{"Latitude":53.37286,"Longitude":-3.18193},"BottomRight":{"Latitude":53.37273,"Longitude":-3.18143}},"Address":{"Label":"Brook Terrace, Wirral, CH48 4, United Kingdom","Country":"GBR","State":"England","County":"Merseyside","City":"Wirral","District":"West Kirby","Street":"Brook Terrace","PostalCode":"CH48 4","AdditionalData":[{"value":"United Kingdom","key":"CountryName"},{"value":"England","key":"StateName"},{"value":"Merseyside","key":"CountyName"}]},"MapReference":{"ReferenceId":"565934883","Spot":0.39,"SideOfStreet":"left","StateId":"20248595","CountyId":"20343208","CityId":"20343870","DistrictId":"20343897"}}},{"Relevance":1.0,"Distance":22.6,"MatchLevel":"postalCode","MatchQuality":{"PostalCode":1.0},"MatchType":"interpolated","Location":{"LocationId":"NT_IMgi-l8P10DfYo7gi0ASKB_l_78754294_R_1YD","LocationType":"point","DisplayPosition":{"Latitude":53.37291,"Longitude":-3.18143},"MapView":{"TopLeft":{"Latitude":53.3819032,"Longitude":-3.196504},"BottomRight":{"Latitude":53.3639168,"Longitude":-3.166356}},"Address":{"Label":"CH48 4EG, Wirral, England, United Kingdom","Country":"GBR","State":"England","County":"Merseyside","City":"Wirral","PostalCode":"CH48 4EG","AdditionalData":[{"value":"United Kingdom","key":"CountryName"},{"value":"England","key":"StateName"},{"value":"Merseyside","key":"CountyName"}]},"MapReference":{"ReferenceId":"78754294","Spot":0.26,"SideOfStreet":"neither","StateId":"20248595","CountyId":"20343208","CityId":"20343870"}}},{"Relevance":1.0,"Distance":26.5,"MatchLevel":"postalCode","MatchQuality":{"PostalCode":1.0},"Location":{"LocationId":"NT_S.6acGcpY2IiT3lB3gRbXD_l_565934883_L","LocationType":"point","DisplayPosition":{"Latitude":53.37281,"Longitude":-3.18141},"MapView":{"TopLeft":{"Latitude":53.3818032,"Longitude":-3.196484},"BottomRight":{"Latitude":53.3638168,"Longitude":-3.166336}},"Address":{"Label":"CH48 4DX, Wirral, England, United Kingdom","Country":"GBR","State":"England","County":"Merseyside","City":"Wirral","PostalCode":"CH48 4DX","AdditionalData":[{"value":"United Kingdom","key":"CountryName"},{"value":"England","key":"StateName"},{"value":"Merseyside","key":"CountyName"}]},"MapReference":{"ReferenceId":"565934883","Spot":0.39,"SideOfStreet":"neither","StateId":"20248595","CountyId":"20343208","CityId":"20343870"}}},{"Relevance":1.0,"Distance":28.0,"MatchLevel":"street","MatchQuality":{"Country":1.0,"State":1.0,"County":1.0,"City":1.0,"District":1.0,"Street":[1.0],"PostalCode":1.0},"Location":{"LocationId":"NT_C83g4lpB0WS4mUGDLxIfzC_l_27353816_R","LocationType":"point","DisplayPosition":{"Latitude":53.3731546,"Longitude":-3.1818908},"MapView":{"TopLeft":{"Latitude":53.37322,"Longitude":-3.18208},"BottomRight":{"Latitude":53.37306,"Longitude":-3.18176}},"Address":{"Label":"Grange Road, Wirral, CH48 4, United Kingdom","Country":"GBR","State":"England","County":"Merseyside","City":"Wirral","District":"West Kirby","Street":"Grange Road","PostalCode":"CH48 4","AdditionalData":[{"value":"United Kingdom","key":"CountryName"},{"value":"England","key":"StateName"},{"value":"Merseyside","key":"CountyName"}]},"MapReference":{"ReferenceId":"27353816","Spot":0.59,"SideOfStreet":"right","StateId":"20248595","CountyId":"20343208","CityId":"20343870","DistrictId":"20343897"}}},{"Relevance":1.0,"Distance":34.1,"MatchLevel":"street","MatchQuality":{"Country":1.0,"State":1.0,"County":1.0,"City":1.0,"District":1.0,"Street":[1.0],"PostalCode":1.0},"Location":{"LocationId":"NT_IMgi-l8P10DfYo7gi0ASKB_l_1091863772_R","LocationType":"point","DisplayPosition":{"Latitude":53.37322,"Longitude":-3.18176},"MapView":{"TopLeft":{"Latitude":53.37341,"Longitude":-3.18176},"BottomRight":{"Latitude":53.37322,"Longitude":-3.1813}},"Address":{"Label":"Grange Road, Wirral, CH48 4, United Kingdom","Country":"GBR","State":"England","County":"Merseyside","City":"Wirral","District":"West Kirby","Street":"Grange Road","PostalCode":"CH48 4","AdditionalData":[{"value":"United Kingdom","key":"CountryName"},{"value":"England","key":"StateName"},{"value":"Merseyside","key":"CountyName"}]},"MapReference":{"ReferenceId":"1091863772","Spot":0.0,"SideOfStreet":"right","StateId":"20248595","CountyId":"20343208","CityId":"20343870","DistrictId":"20343897"}}},{"Relevance":1.0,"Distance":34.1,"MatchLevel":"street","MatchQuality":{"Country":1.0,"State":1.0,"County":1.0,"City":1.0,"District":1.0,"Street":[1.0],"PostalCode":1.0},"Location":{"LocationId":"NT_IMgi-l8P10DfYo7gi0ASKB_l_1091863775_R","LocationType":"point","DisplayPosition":{"Latitude":53.37322,"Longitude":-3.18176},"MapView":{"TopLeft":{"Latitude":53.37347,"Longitude":-3.18176},"BottomRight":{"Latitude":53.37322,"Longitude":-3.18134}},"Address":{"Label":"Grange Road, Wirral, CH48 4, United Kingdom","Country":"GBR","State":"England","County":"Merseyside","City":"Wirral","District":"West Kirby","Street":"Grange Road","PostalCode":"CH48 4","AdditionalData":[{"value":"United Kingdom","key":"CountryName"},{"value":"England","key":"StateName"},{"value":"Merseyside","key":"CountyName"}]},"MapReference":{"ReferenceId":"1091863775","Spot":0.0,"SideOfStreet":"right","StateId":"20248595","CountyId":"20343208","CityId":"20343870","DistrictId":"20343897"}}}]}]}}