{"Response":{"MetaInfo":{"Timestamp":"2020-03-28T11:19:43.656+0000","NextPageInformation":"2"},"View":[{"_type":"SearchResultsViewType","ViewId":0,"Result":[{"Relevance":1.0,"Distance":0.0,"Direction":0.0,"MatchLevel":"district","MatchQuality":{"Country":1.0,"State":1.0,"County":1.0,"City":1.0,"District":1.0,"PostalCode":1.0},"Location":{"LocationId":"NT_KP6ribEn.GU5Y.1NzVsDYA","LocationType":"point","DisplayPosition":{"Latitude":53.3753541,"Longitude":-1.5367201},"MapView":{"TopLeft":{"Latitude":53.45298,"Longitude":-1.57369},"BottomRight":{"Latitude":53.31558,"Longitude":-1.32661}},"Address":{"Label":"Sheffield, England, United Kingdom","Country":"GBR","State":"England","County":"South Yorkshire","City":"Sheffield","District":"Sheffield","PostalCode":"S1 2","AdditionalData":[{"value":"United Kingdom","key":"CountryName"},{"value":"England","key":"StateName"},{"value":"South Yorkshire","key":"CountyName"}]},"MapReference":{"ReferenceId":"27539861","SideOfStreet":"neither","StateId":"20248595","CountyId":"20344788","CityId":"20344969","DistrictId":"20344970"}}},{"Relevance":1.0,"Distance":20.0,"MatchLevel":"street","MatchQuality":{"Country":1.0,"State":1.0,"County":1.0,"City":1.0,"District":1.0,"Street":[1.0],"PostalCode":1.0},"Location":{"LocationId":"NT_FP5YML9aQVlr.6p4FT5wHA_l_27119509_R","LocationType":"point","DisplayPosition":{"Latitude":53.37551,"Longitude":-1.53687},"MapView":{"TopLeft":{"Latitude":53.37568,"Longitude":-1.53699},"BottomRight":{"Latitude":53.37551,"Longitude":-1.53687}},"Address":{"Label":"Sandygate Park, Sheffield, S10 5, United Kingdom","Country":"GBR","State":"England","County":"South Yorkshire","City":"Sheffield","District":"Sheffield","Street":"Sandygate Park","PostalCode":"S10 5","AdditionalData":[{"value":"United Kingdom","key":"CountryName"},{"value":"England","key":"StateName"},{"value":"South Yorkshire","key":"CountyName"}]},"MapReference":{"ReferenceId":"27119509","Spot":0.0,"SideOfStreet":"right","StateId":"20248595","CountyId":"20344788","CityId":"20344969","DistrictId":"20344970"}}},{"Relevance":1.0,"Distance":20.6,"MatchLevel":"street","MatchQuality":{"Country":1.0,"State":1.0,"County":1.0,"City":1.0,"District":1.0,"Street":[1.0],"PostalCode":1.0},"Location":{"LocationId":"NT_B8wZBkBx2ErrW671e5-N0A_l_27119508_R","LocationType":"point","DisplayPosition":{"Latitude":53.3755373,"Longitude":-1.5367701},"MapView":{"TopLeft":{"Latitude":53.37562,"Longitude":-1.53687},"BottomRight":{"Latitude":53.37551,"Longitude":-1.53646}},"Address":{"Label":"Sandygate Road, Sheffield, S10 5, United Kingdom","Country":"GBR","State":"England","County":"South Yorkshire","City":"Sheffield","District":"Sheffield","Street":"Sandygate Road","PostalCode":"S10 5","AdditionalData":[{"value":"United Kingdom","key":"CountryName"},{"value":"England","key":"StateName"},{"value":"South Yorkshire","key":"CountyName"}]},"MapReference":{"ReferenceId":"27119508","Spot":0.24,"SideOfStreet":"right","StateId":"20248595","CountyId":"20344788","CityId":"20344969","DistrictId":"20344970"}}},{"Relevance":1.0,"Distance":32.5,"MatchLevel":"houseNumber","MatchQuality":{"Country":1.0,"State":1.0,"County":1.0,"City":1.0,"District":1.0,"Street":[1.0],"HouseNumber":1.0,"PostalCode":1.0},"MatchType":"interpolated","Location":{"LocationId":"NT_FP5YML9aQVlr.6p4FT5wHA_l_27119478_R_0A","LocationType":"point","DisplayPosition":{"Latitude":53.3756463,"Longitude":-1.5367305},"MapView":{"TopLeft":{"Latitude":53.3767705,"Longitude":-1.5386149},"BottomRight":{"Latitude":53.3745222,"Longitude":-1.5348461}},"Address":{"Label":"4 Sandygate Park, Sheffield, S10 5, United Kingdom","Country":"GBR","State":"England","County":"South Yorkshire","City":"Sheffield","District":"Sheffield","Street":"Sandygate Park","HouseNumber":"4","PostalCode":"S10 5","AdditionalData":[{"value":"United Kingdom","key":"CountryName"},{"value":"England","key":"StateName"},{"value":"South Yorkshire","key":"CountyName"}]},"MapReference":{"ReferenceId":"27119478","Spot":0.51,"SideOfStreet":"right","StateId":"20248595","CountyId":"20344788","CityId":"20344969","DistrictId":"20344970"}}},{"Relevance":1.0,"Distance":35.0,"MatchLevel":"houseNumber","MatchQuality":{"Country":1.0,"State":1.0,"County":1.0,"City":1.0,"District":1.0,"Street":[1.0],"HouseNumber":1.0,"PostalCode":1.0},"MatchType":"interpolated","Location":{"LocationId":"NT_B8wZBkBx2ErrW671e5-N0A_l_27119578_R_0ETM","LocationType":"point","DisplayPosition":{"Latitude":53.3753902,"Longitude":-1.5372644},"MapView":{"TopLeft":{"Latitude":53.3765144,"Longitude":-1.5391487},"BottomRight":{"Latitude":53.374266,"Longitude":-1.53538}},"Address":{"Label":"411 Sandygate Road, Sheffield, S10 5, United Kingdom","Country":"GBR","State":"England","County":"South Yorkshire","City":"Sheffield","District":"Sheffield","Street":"Sandygate Road","HouseNumber":"411","PostalCode":"S10 5","AdditionalData":[{"value":"United Kingdom","key":"CountryName"},{"value":"England","key":"StateName"},{"value":"South Yorkshire","key":"CountyName"}]},"MapReference":{"ReferenceId":"27119578","Spot":0.6,"SideOfStreet":"right","StateId":"20248595","CountyId":"20344788","CityId":"20344969","DistrictId":"20344970"}}},{"Relevance":1.0,"Distance":39.2,"MatchLevel":"houseNumber","MatchQuality":{"Country":1.0,"State":1.0,"County":1.0,"City":1.0,"District":1.0,"Street":[1.0],"HouseNumber":1.0,"PostalCode":1.0},"MatchType":"interpolated","Location":{"LocationId":"NT_B8wZBkBx2ErrW671e5-N0A_l_27119477_R_0AzM","LocationType":"point","DisplayPosition":{"Latitude":53.37567,"Longitude":-1.5362499},"MapView":{"TopLeft":{"Latitude":53.3767942,"Longitude":-1.5381342},"BottomRight":{"Latitude":53.3745459,"Longitude":-1.5343655}},"Address":{"Label":"403 Sandygate Road, Sheffield, S10 5, United Kingdom","Country":"GBR","State":"England","County":"South Yorkshire","City":"Sheffield","District":"Sheffield","Street":"Sandygate Road","HouseNumber":"403","PostalCode":"S10 5","AdditionalData":[{"value":"United Kingdom","key":"CountryName"},{"value":"England","key":"StateName"},{"value":"South Yorkshire","key":"CountyName"}]},"MapReference":{"ReferenceId":"27119477","Spot":0.09,"SideOfStreet":"right","StateId":"20248595","CountyId":"20344788","CityId":"20344969","DistrictId":"20344970"}}},{"Relevance":1.0,"Distance":46.7,"MatchLevel":"postalCode","MatchQuality":{"PostalCode":1.0},"MatchType":"interpolated","Location":{"LocationId":"NT_B8wZBkBx2ErrW671e5-N0A_l_27119477_R_0AzM","LocationType":"point","DisplayPosition":{"Latitude":53.37563,"Longitude":-1.53619},"MapView":{"TopLeft":{"Latitude":53.3846232,"Longitude":-1.551265},"BottomRight":{"Latitude":53.3666368,"Longitude":-1.521115}},"Address":{"Label":"S10 5UB, Sheffield, England, United Kingdom","Country":"GBR","State":"England","County":"South Yorkshire","City":"Sheffield","PostalCode":"S10 5UB","AdditionalData":[{"value":"United Kingdom","key":"CountryName"},{"value":"England","key":"StateName"},{"value":"South Yorkshire","key":"CountyName"}]},"MapReference":{"ReferenceId":"27119477","Spot":0.09,"SideOfStreet":"neither","StateId":"20248595","CountyId":"20344788","CityId":"20344969"}}},{"Relevance":1.0,"Distance":56.9,"MatchLevel":"houseNumber","MatchQuality":{"Country":1.0,"State":1.0,"County":1.0,"City":1.0,"District":1.0,"Street":[1.0],"HouseNumber":1.0,"PostalCode":1.0},"MatchType":"interpolated","Location":{"LocationId":"NT_FP5YML9aQVlr.6p4FT5wHA_l_27119462_L_zA","LocationType":"point","DisplayPosition":{"Latitude":53.3757743,"Longitude":-1.5373665},"MapView":{"TopLeft":{"Latitude":53.3768984,"Longitude":-1.5392509},"BottomRight":{"Latitude":53.3746501,"Longitude":-1.5354822}},"Address":{"Label":"3 Sandygate Park, Sheffield, S10 5, United Kingdom","Country":"GBR","State":"England","County":"South Yorkshire","City":"Sheffield","District":"Sheffield","Street":"Sandygate Park","HouseNumber":"3","PostalCode":"S10 5","AdditionalData":[{"value":"United Kingdom","key":"CountryName"},{"value":"England","key":"StateName"},{"value":"South Yorkshire","key":"CountyName"}]},"MapReference":{"ReferenceId":"27119462","Spot":0.52,"SideOfStreet":"left","StateId":"20248595","CountyId":"20344788","CityId":"20344969","DistrictId":"20344970"}}},{"Relevance":1.0,"Distance":76.4,"MatchLevel":"houseNumber","MatchQuality":{"Country":1.0,"State":1.0,"County":1.0,"City":1.0,"District":1.0,"Street":[1.0],"HouseNumber":1.0,"PostalCode":1.0},"MatchType":"interpolated","Location":{"LocationId":"NT_NAeGE.vO1Q9GVmBSxprbTA_l_27119594_L_ycD","LocationType":"point","DisplayPosition":{"Latitude":53.3753357,"Longitude":-1.5379757},"MapView":{"TopLeft":{"Latitude":53.3764599,"Longitude":-1.5398601},"BottomRight":{"Latitude":53.3742116,"Longitude":-1.5360914}},"Address":{"Label":"27 Hallam Chase, Sheffield, S10 5SW, United Kingdom","Country":"GBR","State":"England","County":"South Yorkshire","City":"Sheffield","District":"Sheffield","Street":"Hallam Chase","HouseNumber":"27","PostalCode":"S10 5SW","AdditionalData":[{"value":"United Kingdom","key":"CountryName"},{"value":"England","key":"StateName"},{"value":"South Yorkshire","key":"CountyName"}]},"MapReference":{"ReferenceId":"27119594","Spot":0.84,"SideOfStreet":"left","StateId":"20248595","CountyId":"20344788","CityId":"20344969","DistrictId":"20344970"}}},{"Relevance":1.0,"Distance":90.8,"MatchLevel":"street","MatchQuality":{"Country":1.0,"State":1.0,"County":1.0,"City":1.0,"District":1.0,"Street":[1.0],"PostalCode":1.0},"Location":{"LocationId":"NT_FP5YML9aQVlr.6p4FT5wHA_l_27119398_L","LocationType":"point","DisplayPosition":{"Latitude":53.37593,"Longitude":-1.53769},"MapView":{"TopLeft":{"Latitude":53.37608,"Longitude":-1.53808},"BottomRight":{"Latitude":53.37593,"Longitude":-1.53769}},"Address":{"Label":"Sandygate Park, Sheffield, S10 5, United Kingdom","Country":"GBR","State":"England","County":"South Yorkshire","City":"Sheffield","District":"Sheffield","Street":"Sandygate Park","PostalCode":"S10 5","AdditionalData":[{"value":"United Kingdom","key":"CountryName"},{"value":"England","key":"StateName"},{"value":"South Yorkshire","key":"CountyName"}]},"MapReference":{"ReferenceId":"27119398","Spot":0.0,"SideOfStreet":"left","StateId":"20248595","CountyId":"20344788","CityId":"20344969","DistrictId":"20344970"}}}]}]}}