{"Response":{"MetaInfo":{"Timestamp":"2020-03-28T11:17:55.744+0000","NextPageInformation":"2"},"View":[{"_type":"SearchResultsViewType","ViewId":0,"Result":[{"Relevance":1.0,"Distance":0.0,"Direction":0.0,"MatchLevel":"district","MatchQuality":{"Country":1.0,"State":1.0,"County":1.0,"City":1.0,"District":1.0,"PostalCode":1.0},"Location":{"LocationId":"NT_KP6ribEn.GU5Y.1NzVsDYA","LocationType":"point","DisplayPosition":{"Latitude":53.3606097,"Longitude":-1.4934343},"MapView":{"TopLeft":{"Latitude":53.45298,"Longitude":-1.57369},"BottomRight":{"Latitude":53.31558,"Longitude":-1.32661}},"Address":{"Label":"Sheffield, England, United Kingdom","Country":"GBR","State":"England","County":"South Yorkshire","City":"Sheffield","District":"Sheffield","PostalCode":"S1 2","AdditionalData":[{"value":"United Kingdom","key":"CountryName"},{"value":"England","key":"StateName"},{"value":"South Yorkshire","key":"CountyName"}]},"MapReference":{"ReferenceId":"27539861","SideOfStreet":"neither","StateId":"20248595","CountyId":"20344788","CityId":"20344969","DistrictId":"20344970"}}},{"Relevance":1.0,"Distance":5.4,"MatchLevel":"street","MatchQuality":{"Country":1.0,"State":1.0,"County":1.0,"City":1.0,"District":1.0,"Street":[1.0],"PostalCode":1.0},"Location":{"LocationId":"NT_LrCy1YLOvn.5hw-UvrYyLB_l_565942112_L","LocationType":"point","DisplayPosition":{"Latitude":53.3605813,"Longitude":-1.493368},"MapView":{"TopLeft":{"Latitude":53.36081,"Longitude":-1.49357},"BottomRight":{"Latitude":53.36011,"Longitude":-1.49327}},"Address":{"Label":"Union Road, Sheffield, S11 9, United Kingdom","Country":"GBR","State":"England","County":"South Yorkshire","City":"Sheffield","District":"Sheffield","Street":"Union Road","PostalCode":"S11 9","AdditionalData":[{"value":"United Kingdom","key":"CountryName"},{"value":"England","key":"StateName"},{"value":"South Yorkshire","key":"CountyName"}]},"MapReference":{"ReferenceId":"565942112","Spot":0.67,"SideOfStreet":"left","StateId":"20248595","CountyId":"20344788","CityId":"20344969","DistrictId":"20344970"}}},{"Relevance":1.0,"Distance":24.8,"MatchLevel":"houseNumber","MatchQuality":{"Country":1.0,"State":1.0,"County":1.0,"City":1.0,"District":1.0,"Street":[1.0],"HouseNumber":1.0,"PostalCode":1.0},"MatchType":"interpolated","Location":{"LocationId":"NT_i9Gs-pP3KI.bM4rdx5ZzwD_l_766398988_R_0ID","LocationType":"point","DisplayPosition":{"Latitude":53.36083,"Longitude":-1.4934902},"MapView":{"TopLeft":{"Latitude":53.3619542,"Longitude":-1.4953739},"BottomRight":{"Latitude":53.3597059,"Longitude":-1.4916065}},"Address":{"Label":"42 Osborne Road, Sheffield, S11 9, United Kingdom","Country":"GBR","State":"England","County":"South Yorkshire","City":"Sheffield","District":"Sheffield","Street":"Osborne Road","HouseNumber":"42","PostalCode":"S11 9","AdditionalData":[{"value":"United Kingdom","key":"CountryName"},{"value":"England","key":"StateName"},{"value":"South Yorkshire","key":"CountyName"}]},"MapReference":{"ReferenceId":"766398988","Spot":0.11,"SideOfStreet":"right","StateId":"20248595","CountyId":"20344788","CityId":"20344969","DistrictId":"20344970"}}},{"Relevance":1.0,"Distance":32.4,"MatchLevel":"houseNumber","MatchQuality":{"Country":1.0,"State":1.0,"County":1.0,"City":1.0,"District":1.0,"Street":[1.0],"HouseNumber":1.0,"PostalCode":1.0},"MatchType":"interpolated","Location":{"LocationId":"NT_i9Gs-pP3KI.bM4rdx5ZzwD_l_1057580659_L_yED","LocationType":"point","DisplayPosition":{"Latitude":53.360755,"Longitude":-1.4929214},"MapView":{"TopLeft":{"Latitude":53.3618792,"Longitude":-1.4948051},"BottomRight":{"Latitude":53.3596309,"Longitude":-1.4910377}},"Address":{"Label":"21 Osborne Road, Sheffield, S11 9AY, United Kingdom","Country":"GBR","State":"England","County":"South Yorkshire","City":"Sheffield","District":"Sheffield","Street":"Osborne Road","HouseNumber":"21","PostalCode":"S11 9AY","AdditionalData":[{"value":"United Kingdom","key":"CountryName"},{"value":"England","key":"StateName"},{"value":"South Yorkshire","key":"CountyName"}]},"MapReference":{"ReferenceId":"1057580659","Spot":0.79,"SideOfStreet":"left","StateId":"20248595","CountyId":"20344788","CityId":"20344969","DistrictId":"20344970"}}},{"Relevance":1.0,"Distance":38.5,"MatchLevel":"houseNumber","MatchQuality":{"Country":1.0,"State":1.0,"County":1.0,"City":1.0,"District":1.0,"Street":[1.0],"HouseNumber":1.0,"PostalCode":1.0},"MatchType":"interpolated","Location":{"LocationId":"NT_LrCy1YLOvn.5hw-UvrYyLB_l_30086846_L_yAD","LocationType":"point","DisplayPosition":{"Latitude":53.3609401,"Longitude":-1.49326},"MapView":{"TopLeft":{"Latitude":53.3620642,"Longitude":-1.4951437},"BottomRight":{"Latitude":53.3598159,"Longitude":-1.4913763}},"Address":{"Label":"20 Union Road, Sheffield, S11 9EF, United Kingdom","Country":"GBR","State":"England","County":"South Yorkshire","City":"Sheffield","District":"Sheffield","Street":"Union Road","HouseNumber":"20","PostalCode":"S11 9EF","AdditionalData":[{"value":"United Kingdom","key":"CountryName"},{"value":"England","key":"StateName"},{"value":"South Yorkshire","key":"CountyName"}]},"MapReference":{"ReferenceId":"30086846","Spot":0.23,"SideOfStreet":"left","StateId":"20248595","CountyId":"20344788","CityId":"20344969","DistrictId":"20344970"}}},{"Relevance":1.0,"Distance":56.3,"MatchLevel":"street","MatchQuality":{"Country":1.0,"State":1.0,"County":1.0,"City":1.0,"District":1.0,"Street":[1.0],"PostalCode":1.0},"Location":{"LocationId":"NT_2E.kHQoZJ1cSTN7N.SsSTD_l_565942113_R","LocationType":"point","DisplayPosition":{"Latitude":53.36011,"Longitude":-1.49357},"MapView":{"TopLeft":{"Latitude":53.36014,"Longitude":-1.49389},"BottomRight":{"Latitude":53.36011,"Longitude":-1.49357}},"Address":{"Label":"Union Drive, Sheffield, S11 9, United Kingdom","Country":"GBR","State":"England","County":"South Yorkshire","City":"Sheffield","District":"Sheffield","Street":"Union Drive","PostalCode":"S11 9","AdditionalData":[{"value":"United Kingdom","key":"CountryName"},{"value":"England","key":"StateName"},{"value":"South Yorkshire","key":"CountyName"}]},"MapReference":{"ReferenceId":"565942113","Spot":0.0,"SideOfStreet":"right","StateId":"20248595","CountyId":"20344788","CityId":"20344969","DistrictId":"20344970"}}},{"Relevance":1.0,"Distance":56.6,"MatchLevel":"postalCode","MatchQuality":{"PostalCode":1.0},"MatchType":"interpolated","Location":{"LocationId":"NT_LrCy1YLOvn.5hw-UvrYyLB_l_30086846_L_yAD","LocationType":"point","DisplayPosition":{"Latitude":53.36111,"Longitude":-1.49328},"MapView":{"TopLeft":{"Latitude":53.3701032,"Longitude":-1.5083498},"BottomRight":{"Latitude":53.3521168,"Longitude":-1.4782102}},"Address":{"Label":"S11 9EF, Sheffield, England, United Kingdom","Country":"GBR","State":"England","County":"South Yorkshire","City":"Sheffield","PostalCode":"S11 9EF","AdditionalData":[{"value":"United Kingdom","key":"CountryName"},{"value":"England","key":"StateName"},{"value":"South Yorkshire","key":"CountyName"}]},"MapReference":{"ReferenceId":"30086846","Spot":0.23,"SideOfStreet":"neither","StateId":"20248595","CountyId":"20344788","CityId":"20344969"}}},{"Relevance":1.0,"Distance":60.4,"MatchLevel":"street","MatchQuality":{"Country":1.0,"State":1.0,"County":1.0,"City":1.0,"District":1.0,"Street":[1.0],"PostalCode":1.0},"Location":{"LocationId":"NT_2E.kHQoZJ1cSTN7N.SsSTD_l_565942114_R","LocationType":"point","DisplayPosition":{"Latitude":53.36014,"Longitude":-1.49389},"MapView":{"TopLeft":{"Latitude":53.36019,"Longitude":-1.49436},"BottomRight":{"Latitude":53.36014,"Longitude":-1.49389}},"Address":{"Label":"Union Drive, Sheffield, S11 9, United Kingdom","Country":"GBR","State":"England","County":"South Yorkshire","City":"Sheffield","District":"Sheffield","Street":"Union Drive","PostalCode":"S11 9","AdditionalData":[{"value":"United Kingdom","key":"CountryName"},{"value":"England","key":"StateName"},{"value":"South Yorkshire","key":"CountyName"}]},"MapReference":{"ReferenceId":"565942114","Spot":0.0,"SideOfStreet":"right","StateId":"20248595","CountyId":"20344788","CityId":"20344969","DistrictId":"20344970"}}},{"Relevance":1.0,"Distance":64.7,"MatchLevel":"houseNumber","MatchQuality":{"Country":1.0,"State":1.0,"County":1.0,"City":1.0,"District":1.0,"Street":[1.0],"HouseNumber":1.0,"PostalCode":1.0},"MatchType":"interpolated","Location":{"LocationId":"NT_zqzmh7mP0Uc9bgqemgPB.A_l_27123468_L_xgTM","LocationType":"point","DisplayPosition":{"Latitude":53.3612139,"Longitude":-1.4928105},"MapView":{"TopLeft":{"Latitude":53.3623381,"Longitude":-1.4946942},"BottomRight":{"Latitude":53.3600898,"Longitude":-1.4909268}},"Address":{"Label":"181 Machon Bank Road, Sheffield, S7 1PH, United Kingdom","Country":"GBR","State":"England","County":"South Yorkshire","City":"Sheffield","District":"Sheffield","Street":"Machon Bank Road","HouseNumber":"181","PostalCode":"S7 1PH","AdditionalData":[{"value":"United Kingdom","key":"CountryName"},{"value":"England","key":"StateName"},{"value":"South Yorkshire","key":"CountyName"}]},"MapReference":{"ReferenceId":"27123468","Spot":0.72,"SideOfStreet":"left","StateId":"20248595","CountyId":"20344788","CityId":"20344969","DistrictId":"20344970"}}},{"Relevance":1.0,"Distance":70.3,"MatchLevel":"postalCode","MatchQuality":{"PostalCode":1.0},"MatchType":"interpolated","Location":{"LocationId":"NT_i9Gs-pP3KI.bM4rdx5ZzwD_l_766398988_R_0ID","LocationType":"point","DisplayPosition":{"Latitude":53.36099,"Longitude":-1.49428},"MapView":{"TopLeft":{"Latitude":53.3699832,"Longitude":-1.5093498},"BottomRight":{"Latitude":53.3519968,"Longitude":-1.4792102}},"Address":{"Label":"S11 9AZ, Sheffield, England, United Kingdom","Country":"GBR","State":"England","County":"South Yorkshire","City":"Sheffield","PostalCode":"S11 9AZ","AdditionalData":[{"value":"United Kingdom","key":"CountryName"},{"value":"England","key":"StateName"},{"value":"South Yorkshire","key":"CountyName"}]},"MapReference":{"ReferenceId":"766398988","Spot":0.11,"SideOfStreet":"neither","StateId":"20248595","CountyId":"20344788","CityId":"20344969"}}}]}]}}