{"Response":{"MetaInfo":{"Timestamp":"2020-03-28T10:43:22.373+0000","NextPageInformation":"2"},"View":[{"_type":"SearchResultsViewType","ViewId":0,"Result":[{"Relevance":1.0,"Distance":0.0,"Direction":0.0,"MatchLevel":"district","MatchQuality":{"Country":1.0,"County":1.0,"City":1.0,"District":1.0,"PostalCode":1.0},"Location":{"LocationId":"NT_qobJAI4pDz5AiCFbjTy8VB","LocationType":"point","DisplayPosition":{"Latitude":53.3012436,"Longitude":-6.1791172},"MapView":{"TopLeft":{"Latitude":53.31236,"Longitude":-6.22194},"BottomRight":{"Latitude":53.26496,"Longitude":-6.14765}},"Address":{"Label":"Blackrock, Ireland","Country":"IRL","County":"County Dublin","City":"Blackrock","District":"Blackrock","AdditionalData":[{"value":"Ireland","key":"CountryName"},{"value":"County Dublin","key":"CountyName"}]},"MapReference":{"ReferenceId":"554375618","SideOfStreet":"neither","CountryId":"20403667","CountyId":"20411172","CityId":"20422482","DistrictId":"20422483"}}},{"Relevance":1.0,"Distance":13.5,"MatchLevel":"houseNumber","MatchQuality":{"Country":1.0,"County":1.0,"City":1.0,"District":1.0,"Street":[1.0],"HouseNumber":1.0,"PostalCode":1.0},"MatchType":"interpolated","Location":{"LocationId":"NT_w1mqH8s4ZzeoEHaC.kpALA_l_554373340_R_xA","LocationType":"point","DisplayPosition":{"Latitude":53.3010164,"Longitude":-6.1793068},"MapView":{"TopLeft":{"Latitude":53.3021405,"Longitude":-6.1811879},"BottomRight":{"Latitude":53.2998922,"Longitude":-6.1774258}},"Address":{"Label":"1 George's Place, Blackrock, County Dublin, A94 E5V2, Ireland","Country":"IRL","County":"County Dublin","City":"Blackrock","District":"Blackrock","Street":"George's Place","HouseNumber":"1","PostalCode":"A94 E5V2","AdditionalData":[{"value":"Ireland","key":"CountryName"},{"value":"County Dublin","key":"CountyName"}]},"MapReference":{"ReferenceId":"554373340","Spot":0.77,"SideOfStreet":"right","CountryId":"20403667","CountyId":"20411172","CityId":"20422482","DistrictId":"20422483"}}},{"Relevance":1.0,"Distance":17.8,"MatchLevel":"houseNumber","MatchQuality":{"Country":1.0,"County":1.0,"City":1.0,"District":1.0,"Street":[1.0],"PostalCode":1.0},"MatchType":"interpolated","Location":{"LocationId":"NT_zuWsPE3R7f3du.MVC6odVB","LocationType":"point","DisplayPosition":{"Latitude":53.3014,"Longitude":-6.17906},"MapView":{"TopLeft":{"Latitude":53.3025242,"Longitude":-6.1809411},"BottomRight":{"Latitude":53.3002758,"Longitude":-6.1771789}},"Address":{"Label":"\"Blackrock Health Centre\" George's Avenue, Blackrock, County Dublin, A94, Ireland","Country":"IRL","County":"County Dublin","City":"Blackrock","District":"Blackrock","Street":"George's Avenue","PostalCode":"A94","AdditionalData":[{"value":"Ireland","key":"CountryName"},{"value":"County Dublin","key":"CountyName"}],"Building":"Blackrock Health Centre"},"MapReference":{"ReferenceId":"554373019","Spot":0.35,"SideOfStreet":"right","CountryId":"20403667","CountyId":"20411172","CityId":"20422482","DistrictId":"20422483","AddressId":"743653778","RoadLinkId":"86695763"}}},{"Relevance":1.0,"Distance":27.8,"MatchLevel":"street","MatchQuality":{"Country":1.0,"County":1.0,"City":1.0,"District":1.0,"Street":[1.0],"PostalCode":1.0},"Location":{"LocationId":"NT_zuWsPE3R7f3du.MVC6odVB_l_553058626_R","LocationType":"point","DisplayPosition":{"Latitude":53.30113,"Longitude":-6.17949},"MapView":{"TopLeft":{"Latitude":53.30113,"Longitude":-6.18007},"BottomRight":{"Latitude":53.3008,"Longitude":-6.17949}},"Address":{"Label":"George's Avenue, Blackrock, County Dublin, A94, Ireland","Country":"IRL","County":"County Dublin","City":"Blackrock","District":"Blackrock","Street":"George's Avenue","PostalCode":"A94","AdditionalData":[{"value":"Ireland","key":"CountryName"},{"value":"County Dublin","key":"CountyName"}]},"MapReference":{"ReferenceId":"553058626","Spot":1.0,"SideOfStreet":"right","CountryId":"20403667","CountyId":"20411172","CityId":"20422482","DistrictId":"20422483"}}},{"Relevance":1.0,"Distance":31.8,"MatchLevel":"postalCode","MatchQuality":{"PostalCode":1.0},"MatchType":"interpolated","Location":{"LocationId":"NT_zuWsPE3R7f3du.MVC6odVB","LocationType":"point","DisplayPosition":{"Latitude":53.30153,"Longitude":-6.17912},"MapView":{"TopLeft":{"Latitude":53.3105232,"Longitude":-6.1941688},"BottomRight":{"Latitude":53.2925368,"Longitude":-6.1640712}},"Address":{"Label":"A94 A5Y8, Blackrock, Ireland","Country":"IRL","County":"County Dublin","City":"Blackrock","PostalCode":"A94 A5Y8","AdditionalData":[{"value":"Ireland","key":"CountryName"},{"value":"County Dublin","key":"CountyName"}]},"MapReference":{"ReferenceId":"554373019","Spot":0.35,"SideOfStreet":"neither","CountryId":"20403667","CountyId":"20411172","CityId":"20422482"}}},{"Relevance":1.0,"Distance":39.4,"MatchLevel":"postalCode","MatchQuality":{"PostalCode":1.0},"MatchType":"interpolated","Location":{"LocationId":"NT_w1mqH8s4ZzeoEHaC.kpALA_l_554373340_R_xA","LocationType":"point","DisplayPosition":{"Latitude":53.30089,"Longitude":-6.17908},"MapView":{"TopLeft":{"Latitude":53.3098832,"Longitude":-6.1941286},"BottomRight":{"Latitude":53.2918968,"Longitude":-6.1640314}},"Address":{"Label":"A94 AY27, Blackrock, Ireland","Country":"IRL","County":"County Dublin","City":"Blackrock","PostalCode":"A94 AY27","AdditionalData":[{"value":"Ireland","key":"CountryName"},{"value":"County Dublin","key":"CountyName"}]},"MapReference":{"ReferenceId":"554373340","Spot":0.77,"SideOfStreet":"neither","CountryId":"20403667","CountyId":"20411172","CityId":"20422482"}}},{"Relevance":1.0,"Distance":42.6,"MatchLevel":"houseNumber","MatchQuality":{"Country":1.0,"County":1.0,"City":1.0,"District":1.0,"Street":[1.0],"HouseNumber":1.0,"PostalCode":1.0},"MatchType":"interpolated","Location":{"LocationId":"NT_5wRs.I4GKKDUTWEo6Q8h.A_xAD","LocationType":"point","DisplayPosition":{"Latitude":53.30159,"Longitude":-6.17939},"MapView":{"TopLeft":{"Latitude":53.3027142,"Longitude":-6.1812711},"BottomRight":{"Latitude":53.3004658,"Longitude":-6.1775089}},"Address":{"Label":"10 Brusna Cottages, Blackrock, County Dublin, A94 F2D0, Ireland","Country":"IRL","County":"County Dublin","City":"Blackrock","District":"Blackrock","Street":"Brusna Cottages","HouseNumber":"10","PostalCode":"A94 F2D0","AdditionalData":[{"value":"Ireland","key":"CountryName"},{"value":"County Dublin","key":"CountyName"}]},"MapReference":{"ReferenceId":"554373341","Spot":0.03,"SideOfStreet":"left","CountryId":"20403667","CountyId":"20411172","CityId":"20422482","DistrictId":"20422483","AddressId":"214357346","RoadLinkId":"86640508"}}},{"Relevance":1.0,"Distance":49.3,"MatchLevel":"postalCode","MatchQuality":{"PostalCode":1.0},"MatchType":"interpolated","Location":{"LocationId":"NT_5wRs.I4GKKDUTWEo6Q8h.A_xAD","LocationType":"point","DisplayPosition":{"Latitude":53.30163,"Longitude":-6.17948},"MapView":{"TopLeft":{"Latitude":53.3106232,"Longitude":-6.1945288},"BottomRight":{"Latitude":53.2926368,"Longitude":-6.1644312}},"Address":{"Label":"A94 T0X4, Blackrock, Ireland","Country":"IRL","County":"County Dublin","City":"Blackrock","PostalCode":"A94 T0X4","AdditionalData":[{"value":"Ireland","key":"CountryName"},{"value":"County Dublin","key":"CountyName"}]},"MapReference":{"ReferenceId":"554373341","Spot":0.03,"SideOfStreet":"neither","CountryId":"20403667","CountyId":"20411172","CityId":"20422482"}}},{"Relevance":1.0,"Distance":51.2,"MatchLevel":"houseNumber","MatchQuality":{"Country":1.0,"County":1.0,"City":1.0,"District":1.0,"Street":[1.0],"PostalCode":1.0},"MatchType":"interpolated","Location":{"LocationId":"NT_92v6GMSGfLL3W.iFuSKF9C","LocationType":"point","DisplayPosition":{"Latitude":53.3007,"Longitude":-6.1799},"MapView":{"TopLeft":{"Latitude":53.3018242,"Longitude":-6.1817811},"BottomRight":{"Latitude":53.2995758,"Longitude":-6.1780189}},"Address":{"Label":"\"Blackrock Park House\" Frascati Road, Blackrock, County Dublin, A94 HH36, Ireland","Country":"IRL","County":"County Dublin","City":"Blackrock","District":"Blackrock","Street":"Frascati Road","PostalCode":"A94 HH36","AdditionalData":[{"value":"Ireland","key":"CountryName"},{"value":"County Dublin","key":"CountyName"}],"Building":"Blackrock Park House"},"MapReference":{"ReferenceId":"972258617","Spot":0.43,"SideOfStreet":"right","CountryId":"20403667","CountyId":"20411172","CityId":"20422482","DistrictId":"20422483","AddressId":"743674938","RoadLinkId":"308675781"}}},{"Relevance":1.0,"Distance":59.9,"MatchLevel":"houseNumber","MatchQuality":{"Country":1.0,"County":1.0,"City":1.0,"District":1.0,"Street":[1.0],"PostalCode":1.0},"MatchType":"interpolated","Location":{"LocationId":"NT_CsbPlHSgMpcrz9ga.-OA4D","LocationType":"point","DisplayPosition":{"Latitude":53.30179,"Longitude":-6.17808},"MapView":{"TopLeft":{"Latitude":53.3029142,"Longitude":-6.1799611},"BottomRight":{"Latitude":53.3006658,"Longitude":-6.1761989}},"Address":{"Label":"\"Rere of 3\" Main Street, Blackrock, County Dublin, A94, Ireland","Country":"IRL","County":"County Dublin","City":"Blackrock","District":"Blackrock","Street":"Main Street","PostalCode":"A94","AdditionalData":[{"value":"Ireland","key":"CountryName"},{"value":"County Dublin","key":"CountyName"}],"Building":"Rere of 3"},"MapReference":{"ReferenceId":"554373342","Spot":0.47,"SideOfStreet":"left","CountryId":"20403667","CountyId":"20411172","CityId":"20422482","DistrictId":"20422483","AddressId":"743672633","RoadLinkId":"86788289"}}}]}]}}