{"Response":{"MetaInfo":{"Timestamp":"2020-03-28T11:22:50.816+0000","NextPageInformation":"2"},"View":[{"_type":"SearchResultsViewType","ViewId":0,"Result":[{"Relevance":1.0,"Distance":0.0,"Direction":0.0,"MatchLevel":"district","MatchQuality":{"Country":1.0,"County":1.0,"City":1.0,"District":1.0},"Location":{"LocationId":"NT_DfR1iZNKxdTrCSa1PgUNIB","LocationType":"point","DisplayPosition":{"Latitude":53.3578101,"Longitude":-6.2855998},"MapView":{"TopLeft":{"Latitude":53.37535,"Longitude":-6.33355},"BottomRight":{"Latitude":53.34534,"Longitude":-6.26003}},"Address":{"Label":"Dublin 7, Dublin, Ireland","Country":"IRL","County":"County Dublin","City":"Dublin","District":"Dublin 7","AdditionalData":[{"value":"Ireland","key":"CountryName"},{"value":"County Dublin","key":"CountyName"}]},"MapReference":{"ReferenceId":"750118497","SideOfStreet":"neither","CountryId":"20403667","CountyId":"20411172","CityId":"20413526","DistrictId":"20413534"}}},{"Relevance":1.0,"Distance":24.1,"MatchLevel":"street","MatchQuality":{"Country":1.0,"County":1.0,"City":1.0,"District":1.0,"PostalCode":1.0},"Location":{"LocationId":"NT_yIbWBgviFlemPryuNg6bRA_l_1068019146_R","LocationType":"point","DisplayPosition":{"Latitude":53.357595,"Longitude":-6.2855558},"MapView":{"TopLeft":{"Latitude":53.35768,"Longitude":-6.28558},"BottomRight":{"Latitude":53.35755,"Longitude":-6.28507}},"Address":{"Label":"Dublin, County Dublin, D07, Ireland","Country":"IRL","County":"County Dublin","City":"Dublin","District":"Dublin 7","PostalCode":"D07","AdditionalData":[{"value":"Ireland","key":"CountryName"},{"value":"County Dublin","key":"CountyName"}]},"MapReference":{"ReferenceId":"1068019146","Spot":0.96,"SideOfStreet":"right","CountryId":"20403667","CountyId":"20411172","CityId":"20413526","DistrictId":"20413534"}}},{"Relevance":1.0,"Distance":24.5,"MatchLevel":"street","MatchQuality":{"Country":1.0,"County":1.0,"City":1.0,"District":1.0,"PostalCode":1.0},"Location":{"LocationId":"NT_yIbWBgviFlemPryuNg6bRA_l_1068019145_R","LocationType":"point","DisplayPosition":{"Latitude":53.35759,"Longitude":-6.28558},"MapView":{"TopLeft":{"Latitude":53.35759,"Longitude":-6.28558},"BottomRight":{"Latitude":53.35746,"Longitude":-6.28551}},"Address":{"Label":"Dublin, County Dublin, D07, Ireland","Country":"IRL","County":"County Dublin","City":"Dublin","District":"Dublin 7","PostalCode":"D07","AdditionalData":[{"value":"Ireland","key":"CountryName"},{"value":"County Dublin","key":"CountyName"}]},"MapReference":{"ReferenceId":"1068019145","Spot":1.0,"SideOfStreet":"right","CountryId":"20403667","CountyId":"20411172","CityId":"20413526","DistrictId":"20413534"}}},{"Relevance":1.0,"Distance":25.2,"MatchLevel":"houseNumber","MatchQuality":{"Country":1.0,"County":1.0,"City":1.0,"District":1.0,"Street":[1.0],"PostalCode":1.0},"MatchType":"interpolated","Location":{"LocationId":"NT_J5TPGCGDGPwRAtcEqz7.lC","LocationType":"point","DisplayPosition":{"Latitude":53.35781,"Longitude":-6.28598},"MapView":{"TopLeft":{"Latitude":53.3589342,"Longitude":-6.2878636},"BottomRight":{"Latitude":53.3566858,"Longitude":-6.2840964}},"Address":{"Label":"\"Phoenix Care Centre\" North Circular Road, Dublin, County Dublin, D07 VPT0, Ireland","Country":"IRL","County":"County Dublin","City":"Dublin","District":"Dublin 7","Street":"North Circular Road","PostalCode":"D07 VPT0","AdditionalData":[{"value":"Ireland","key":"CountryName"},{"value":"County Dublin","key":"CountyName"}],"Building":"Phoenix Care Centre"},"MapReference":{"ReferenceId":"590520579","Spot":0.65,"SideOfStreet":"right","CountryId":"20403667","CountyId":"20411172","CityId":"20413526","DistrictId":"20413534","AddressId":"743666263","RoadLinkId":"86811966"}}},{"Relevance":1.0,"Distance":33.5,"MatchLevel":"postalCode","MatchQuality":{"PostalCode":1.0},"MatchType":"interpolated","Location":{"LocationId":"NT_ygsOwXe8UnCMV3mHSft3tC_xkzNiB","LocationType":"point","DisplayPosition":{"Latitude":53.35811,"Longitude":-6.28556},"MapView":{"TopLeft":{"Latitude":53.3671032,"Longitude":-6.3006288},"BottomRight":{"Latitude":53.3491168,"Longitude":-6.2704912}},"Address":{"Label":"D07 K4V9, Dublin, Ireland","Country":"IRL","County":"County Dublin","City":"Dublin","PostalCode":"D07 K4V9","AdditionalData":[{"value":"Ireland","key":"CountryName"},{"value":"County Dublin","key":"CountyName"}]},"MapReference":{"ReferenceId":"554371574","Spot":0.08,"SideOfStreet":"neither","CountryId":"20403667","CountyId":"20411172","CityId":"20413526"}}},{"Relevance":1.0,"Distance":37.8,"MatchLevel":"houseNumber","MatchQuality":{"Country":1.0,"County":1.0,"City":1.0,"District":1.0,"Street":[1.0],"HouseNumber":1.0,"PostalCode":1.0},"MatchType":"interpolated","Location":{"LocationId":"NT_ygsOwXe8UnCMV3mHSft3tC_xkzNiB","LocationType":"point","DisplayPosition":{"Latitude":53.35815,"Longitude":-6.28563},"MapView":{"TopLeft":{"Latitude":53.3592742,"Longitude":-6.2875136},"BottomRight":{"Latitude":53.3570258,"Longitude":-6.2837464}},"Address":{"Label":"197b North Circular Road, Dublin, County Dublin, D07 V2K4, Ireland","Country":"IRL","County":"County Dublin","City":"Dublin","District":"Dublin 7","Street":"North Circular Road","HouseNumber":"197b","PostalCode":"D07 V2K4","AdditionalData":[{"value":"Ireland","key":"CountryName"},{"value":"County Dublin","key":"CountyName"}]},"MapReference":{"ReferenceId":"554371574","Spot":0.08,"SideOfStreet":"left","CountryId":"20403667","CountyId":"20411172","CityId":"20413526","DistrictId":"20413534","AddressId":"743622518","RoadLinkId":"86520934"}}},{"Relevance":1.0,"Distance":39.3,"MatchLevel":"houseNumber","MatchQuality":{"Country":1.0,"County":1.0,"City":1.0,"District":1.0,"Street":[1.0],"HouseNumber":1.0,"PostalCode":1.0},"MatchType":"interpolated","Location":{"LocationId":"NT_ygsOwXe8UnCMV3mHSft3tC_yAzM","LocationType":"point","DisplayPosition":{"Latitude":53.35799,"Longitude":-6.28509},"MapView":{"TopLeft":{"Latitude":53.3591142,"Longitude":-6.2869736},"BottomRight":{"Latitude":53.3568658,"Longitude":-6.2832064}},"Address":{"Label":"203 North Circular Road, Dublin, County Dublin, D07 Y9N6, Ireland","Country":"IRL","County":"County Dublin","City":"Dublin","District":"Dublin 7","Street":"North Circular Road","HouseNumber":"203","PostalCode":"D07 Y9N6","AdditionalData":[{"value":"Ireland","key":"CountryName"},{"value":"County Dublin","key":"CountyName"}]},"MapReference":{"ReferenceId":"1068019131","Spot":0.92,"SideOfStreet":"left","CountryId":"20403667","CountyId":"20411172","CityId":"20413526","DistrictId":"20413534","AddressId":"214428897","RoadLinkId":"390317197"}}},{"Relevance":1.0,"Distance":39.4,"MatchLevel":"street","MatchQuality":{"Country":1.0,"County":1.0,"City":1.0,"District":1.0,"PostalCode":1.0},"Location":{"LocationId":"NT_yIbWBgviFlemPryuNg6bRA_l_1068019144_L","LocationType":"point","DisplayPosition":{"Latitude":53.35746,"Longitude":-6.28551},"MapView":{"TopLeft":{"Latitude":53.35755,"Longitude":-6.28551},"BottomRight":{"Latitude":53.35746,"Longitude":-6.28507}},"Address":{"Label":"Dublin, County Dublin, D07, Ireland","Country":"IRL","County":"County Dublin","City":"Dublin","District":"Dublin 7","PostalCode":"D07","AdditionalData":[{"value":"Ireland","key":"CountryName"},{"value":"County Dublin","key":"CountyName"}]},"MapReference":{"ReferenceId":"1068019144","Spot":0.0,"SideOfStreet":"left","CountryId":"20403667","CountyId":"20411172","CityId":"20413526","DistrictId":"20413534"}}},{"Relevance":1.0,"Distance":41.6,"MatchLevel":"postalCode","MatchQuality":{"PostalCode":1.0},"MatchType":"interpolated","Location":{"LocationId":"NT_J5TPGCGDGPwRAtcEqz7.lC","LocationType":"point","DisplayPosition":{"Latitude":53.35807,"Longitude":-6.28605},"MapView":{"TopLeft":{"Latitude":53.3670632,"Longitude":-6.3011188},"BottomRight":{"Latitude":53.3490768,"Longitude":-6.2709812}},"Address":{"Label":"D07 F5N4, Dublin, Ireland","Country":"IRL","County":"County Dublin","City":"Dublin","PostalCode":"D07 F5N4","AdditionalData":[{"value":"Ireland","key":"CountryName"},{"value":"County Dublin","key":"CountyName"}]},"MapReference":{"ReferenceId":"590520579","Spot":0.65,"SideOfStreet":"neither","CountryId":"20403667","CountyId":"20411172","CityId":"20413526"}}},{"Relevance":1.0,"Distance":41.6,"MatchLevel":"street","MatchQuality":{"Country":1.0,"County":1.0,"City":1.0,"District":1.0,"PostalCode":1.0},"Location":{"LocationId":"NT_yIbWBgviFlemPryuNg6bRA_l_1068019136_L","LocationType":"point","DisplayPosition":{"Latitude":53.358,"Longitude":-6.28506},"MapView":{"TopLeft":{"Latitude":53.358,"Longitude":-6.28506},"BottomRight":{"Latitude":53.35779,"Longitude":-6.28491}},"Address":{"Label":"Dublin, County Dublin, D07, Ireland","Country":"IRL","County":"County Dublin","City":"Dublin","District":"Dublin 7","PostalCode":"D07","AdditionalData":[{"value":"Ireland","key":"CountryName"},{"value":"County Dublin","key":"CountyName"}]},"MapReference":{"ReferenceId":"1068019136","Spot":1.0,"SideOfStreet":"left","CountryId":"20403667","CountyId":"20411172","CityId":"20413526","DistrictId":"20413534"}}}]}]}}