{"Response":{"MetaInfo":{"Timestamp":"2020-03-28T10:04:15.176+0000","NextPageInformation":"2"},"View":[{"_type":"SearchResultsViewType","ViewId":0,"Result":[{"Relevance":1.0,"Distance":0.0,"Direction":0.0,"MatchLevel":"district","MatchQuality":{"Country":1.0,"State":1.0,"County":1.0,"City":1.0,"District":1.0,"PostalCode":1.0},"Location":{"LocationId":"NT_lqf2K3Mg7hDbOh1IvOe18C","LocationType":"point","DisplayPosition":{"Latitude":53.4748433,"Longitude":7.395066},"MapView":{"TopLeft":{"Latitude":53.49065,"Longitude":7.35833},"BottomRight":{"Latitude":53.46455,"Longitude":7.41605}},"Address":{"Label":"Moordorf, Südbrookmerland, Niedersachsen, Deutschland","Country":"DEU","State":"Niedersachsen","County":"Aurich","City":"Südbrookmerland","District":"Moordorf","PostalCode":"26624","AdditionalData":[{"value":"Deutschland","key":"CountryName"},{"value":"Niedersachsen","key":"StateName"},{"value":"Aurich","key":"CountyName"}]},"MapReference":{"ReferenceId":"1059804171","SideOfStreet":"neither","CountryId":"20147700","StateId":"20151542","CountyId":"20156017","CityId":"20156147","DistrictId":"20156157"}}},{"Relevance":1.0,"Distance":16.3,"MatchLevel":"houseNumber","MatchQuality":{"Country":1.0,"State":1.0,"County":1.0,"City":1.0,"District":1.0,"Street":[1.0],"HouseNumber":1.0,"PostalCode":1.0},"MatchType":"interpolated","Location":{"LocationId":"NT_7FoxD1ZugoiP-isA3Q34PA_0A","LocationType":"point","DisplayPosition":{"Latitude":53.47499,"Longitude":7.39507},"MapView":{"TopLeft":{"Latitude":53.4761142,"Longitude":7.3931812},"BottomRight":{"Latitude":53.4738658,"Longitude":7.3969588}},"Address":{"Label":"Marktstraße 4, 26624 Südbrookmerland, Deutschland","Country":"DEU","State":"Niedersachsen","County":"Aurich","City":"Südbrookmerland","District":"Moordorf","Street":"Marktstraße","HouseNumber":"4","PostalCode":"26624","AdditionalData":[{"value":"Deutschland","key":"CountryName"},{"value":"Niedersachsen","key":"StateName"},{"value":"Aurich","key":"CountyName"}]},"MapReference":{"ReferenceId":"554748800","Spot":0.35,"SideOfStreet":"right","CountryId":"20147700","StateId":"20151542","CountyId":"20156017","CityId":"20156147","DistrictId":"20156157","AddressId":"621976683","RoadLinkId":"36926664"}}},{"Relevance":1.0,"Distance":50.3,"MatchLevel":"houseNumber","MatchQuality":{"Country":1.0,"State":1.0,"County":1.0,"City":1.0,"District":1.0,"Street":[1.0],"HouseNumber":1.0,"PostalCode":1.0},"MatchType":"interpolated","Location":{"LocationId":"NT_.xPUpioiInUqjxT-PHSi1A_3cD","LocationType":"point","DisplayPosition":{"Latitude":53.47434,"Longitude":7.39538},"MapView":{"TopLeft":{"Latitude":53.4754642,"Longitude":7.3934912},"BottomRight":{"Latitude":53.4732158,"Longitude":7.3972688}},"Address":{"Label":"Ritzweg 77, 26624 Südbrookmerland, Deutschland","Country":"DEU","State":"Niedersachsen","County":"Aurich","City":"Südbrookmerland","District":"Moordorf","Street":"Ritzweg","HouseNumber":"77","PostalCode":"26624","AdditionalData":[{"value":"Deutschland","key":"CountryName"},{"value":"Niedersachsen","key":"StateName"},{"value":"Aurich","key":"CountyName"}]},"MapReference":{"ReferenceId":"554748799","Spot":0.38,"SideOfStreet":"right","CountryId":"20147700","StateId":"20151542","CountyId":"20156017","CityId":"20156147","DistrictId":"20156157","AddressId":"179507429","RoadLinkId":"36423037"}}},{"Relevance":1.0,"Distance":50.4,"MatchLevel":"houseNumber","MatchQuality":{"Country":1.0,"State":1.0,"County":1.0,"City":1.0,"District":1.0,"Street":[1.0],"HouseNumber":1.0,"PostalCode":1.0},"MatchType":"interpolated","Location":{"LocationId":"NT_.xPUpioiInUqjxT-PHSi1A_3ID","LocationType":"point","DisplayPosition":{"Latitude":53.47451,"Longitude":7.39455},"MapView":{"TopLeft":{"Latitude":53.4756342,"Longitude":7.3926612},"BottomRight":{"Latitude":53.4733858,"Longitude":7.3964388}},"Address":{"Label":"Ritzweg 72, 26624 Südbrookmerland, Deutschland","Country":"DEU","State":"Niedersachsen","County":"Aurich","City":"Südbrookmerland","District":"Moordorf","Street":"Ritzweg","HouseNumber":"72","PostalCode":"26624","AdditionalData":[{"value":"Deutschland","key":"CountryName"},{"value":"Niedersachsen","key":"StateName"},{"value":"Aurich","key":"CountyName"}]},"MapReference":{"ReferenceId":"554748798","Spot":0.09,"SideOfStreet":"left","CountryId":"20147700","StateId":"20151542","CountyId":"20156017","CityId":"20156147","DistrictId":"20156157","AddressId":"181704321","RoadLinkId":"36742133"}}},{"Relevance":1.0,"Distance":70.3,"MatchLevel":"street","MatchQuality":{"Country":1.0,"State":1.0,"County":1.0,"City":1.0,"District":1.0,"PostalCode":1.0},"Location":{"LocationId":"NT_RvO.07eLHalkAmyJTmheDB_l_778413595_R","LocationType":"point","DisplayPosition":{"Latitude":53.47464,"Longitude":7.39406},"MapView":{"TopLeft":{"Latitude":53.47472,"Longitude":7.39398},"BottomRight":{"Latitude":53.4746,"Longitude":7.39406}},"Address":{"Label":"26624 Südbrookmerland, Deutschland","Country":"DEU","State":"Niedersachsen","County":"Aurich","City":"Südbrookmerland","District":"Moordorf","PostalCode":"26624","AdditionalData":[{"value":"Deutschland","key":"CountryName"},{"value":"Niedersachsen","key":"StateName"},{"value":"Aurich","key":"CountyName"}]},"MapReference":{"ReferenceId":"778413595","Spot":0.25,"SideOfStreet":"right","CountryId":"20147700","StateId":"20151542","CountyId":"20156017","CityId":"20156147","DistrictId":"20156157"}}},{"Relevance":1.0,"Distance":72.5,"MatchLevel":"street","MatchQuality":{"Country":1.0,"State":1.0,"County":1.0,"City":1.0,"District":1.0,"PostalCode":1.0},"Location":{"LocationId":"NT_RvO.07eLHalkAmyJTmheDB_l_778413592_R","LocationType":"point","DisplayPosition":{"Latitude":53.4746,"Longitude":7.39405},"MapView":{"TopLeft":{"Latitude":53.4746,"Longitude":7.39381},"BottomRight":{"Latitude":53.47455,"Longitude":7.39405}},"Address":{"Label":"26624 Südbrookmerland, Deutschland","Country":"DEU","State":"Niedersachsen","County":"Aurich","City":"Südbrookmerland","District":"Moordorf","PostalCode":"26624","AdditionalData":[{"value":"Deutschland","key":"CountryName"},{"value":"Niedersachsen","key":"StateName"},{"value":"Aurich","key":"CountyName"}]},"MapReference":{"ReferenceId":"778413592","Spot":1.0,"SideOfStreet":"right","CountryId":"20147700","StateId":"20151542","CountyId":"20156017","CityId":"20156147","DistrictId":"20156157"}}},{"Relevance":1.0,"Distance":73.2,"MatchLevel":"street","MatchQuality":{"Country":1.0,"State":1.0,"County":1.0,"City":1.0,"District":1.0,"PostalCode":1.0},"Location":{"LocationId":"NT_RvO.07eLHalkAmyJTmheDB_l_778413594_L","LocationType":"point","DisplayPosition":{"Latitude":53.47472,"Longitude":7.39398},"MapView":{"TopLeft":{"Latitude":53.47473,"Longitude":7.39376},"BottomRight":{"Latitude":53.47468,"Longitude":7.39398}},"Address":{"Label":"26624 Südbrookmerland, Deutschland","Country":"DEU","State":"Niedersachsen","County":"Aurich","City":"Südbrookmerland","District":"Moordorf","PostalCode":"26624","AdditionalData":[{"value":"Deutschland","key":"CountryName"},{"value":"Niedersachsen","key":"StateName"},{"value":"Aurich","key":"CountyName"}]},"MapReference":{"ReferenceId":"778413594","Spot":1.0,"SideOfStreet":"left","CountryId":"20147700","StateId":"20151542","CountyId":"20156017","CityId":"20156147","DistrictId":"20156157"}}},{"Relevance":1.0,"Distance":88.9,"MatchLevel":"street","MatchQuality":{"Country":1.0,"State":1.0,"County":1.0,"City":1.0,"District":1.0,"PostalCode":1.0},"Location":{"LocationId":"NT_RvO.07eLHalkAmyJTmheDB_l_778413593_R","LocationType":"point","DisplayPosition":{"Latitude":53.47456,"Longitude":7.39381},"MapView":{"TopLeft":{"Latitude":53.47468,"Longitude":7.39374},"BottomRight":{"Latitude":53.47456,"Longitude":7.39381}},"Address":{"Label":"26624 Südbrookmerland, Deutschland","Country":"DEU","State":"Niedersachsen","County":"Aurich","City":"Südbrookmerland","District":"Moordorf","PostalCode":"26624","AdditionalData":[{"value":"Deutschland","key":"CountryName"},{"value":"Niedersachsen","key":"StateName"},{"value":"Aurich","key":"CountyName"}]},"MapReference":{"ReferenceId":"778413593","Spot":0.0,"SideOfStreet":"right","CountryId":"20147700","StateId":"20151542","CountyId":"20156017","CityId":"20156147","DistrictId":"20156157"}}},{"Relevance":1.0,"Distance":96.7,"MatchLevel":"houseNumber","MatchQuality":{"Country":1.0,"State":1.0,"County":1.0,"City":1.0,"District":1.0,"Street":[1.0],"HouseNumber":1.0,"PostalCode":1.0},"MatchType":"interpolated","Location":{"LocationId":"NT_sDUvM1-v4CguyAkYJY5iXD_yEE","LocationType":"point","DisplayPosition":{"Latitude":53.47395,"Longitude":7.39556},"MapView":{"TopLeft":{"Latitude":53.4750742,"Longitude":7.3936713},"BottomRight":{"Latitude":53.4728258,"Longitude":7.3974487}},"Address":{"Label":"Weißdornweg 2A, 26624 Südbrookmerland, Deutschland","Country":"DEU","State":"Niedersachsen","County":"Aurich","City":"Südbrookmerland","District":"Moordorf","Street":"Weißdornweg","HouseNumber":"2A","PostalCode":"26624","AdditionalData":[{"value":"Deutschland","key":"CountryName"},{"value":"Niedersachsen","key":"StateName"},{"value":"Aurich","key":"CountyName"}]},"MapReference":{"ReferenceId":"1051400923","Spot":0.6,"SideOfStreet":"left","CountryId":"20147700","StateId":"20151542","CountyId":"20156017","CityId":"20156147","DistrictId":"20156157","AddressId":"622009776","RoadLinkId":"371027146"}}},{"Relevance":1.0,"Distance":101.5,"MatchLevel":"houseNumber","MatchQuality":{"Country":1.0,"State":1.0,"County":1.0,"City":1.0,"District":1.0,"Street":[1.0],"HouseNumber":1.0,"PostalCode":1.0},"MatchType":"interpolated","Location":{"LocationId":"NT_WCo8oPlTXIaZmUcVznqXCC_xQD","LocationType":"point","DisplayPosition":{"Latitude":53.47573,"Longitude":7.3947},"MapView":{"TopLeft":{"Latitude":53.4768542,"Longitude":7.3928112},"BottomRight":{"Latitude":53.4746058,"Longitude":7.3965888}},"Address":{"Label":"Ekelser Straße 14, 26624 Südbrookmerland, Deutschland","Country":"DEU","State":"Niedersachsen","County":"Aurich","City":"Südbrookmerland","District":"Moordorf","Street":"Ekelser Straße","HouseNumber":"14","PostalCode":"26624","AdditionalData":[{"value":"Deutschland","key":"CountryName"},{"value":"Niedersachsen","key":"StateName"},{"value":"Aurich","key":"CountyName"}]},"MapReference":{"ReferenceId":"83621696","Spot":0.5,"SideOfStreet":"left","CountryId":"20147700","StateId":"20151542","CountyId":"20156017","CityId":"20156147","DistrictId":"20156157","AddressId":"180551294","RoadLinkId":"36556497"}}}]}]}}