{"Response":{"MetaInfo":{"Timestamp":"2020-03-28T10:34:44.261+0000","NextPageInformation":"2"},"View":[{"_type":"SearchResultsViewType","ViewId":0,"Result":[{"Relevance":1.0,"Distance":0.0,"Direction":0.0,"MatchLevel":"district","MatchQuality":{"Country":1.0,"State":1.0,"County":1.0,"City":1.0,"District":1.0,"PostalCode":1.0},"Location":{"LocationId":"NT_HoK.Blxc0ZYLjPmxbawo5B","LocationType":"point","DisplayPosition":{"Latitude":53.4084019,"Longitude":-1.323011},"MapView":{"TopLeft":{"Latitude":53.41302,"Longitude":-1.35415},"BottomRight":{"Latitude":53.38829,"Longitude":-1.29138}},"Address":{"Label":"Whiston, Rotherham, England, United Kingdom","Country":"GBR","State":"England","County":"South Yorkshire","City":"Rotherham","District":"Whiston","PostalCode":"S60 4","AdditionalData":[{"value":"United Kingdom","key":"CountryName"},{"value":"England","key":"StateName"},{"value":"South Yorkshire","key":"CountyName"}]},"MapReference":{"ReferenceId":"1059710394","SideOfStreet":"neither","StateId":"20248595","CountyId":"20344788","CityId":"20344930","DistrictId":"20344967"}}},{"Relevance":1.0,"Distance":7.6,"MatchLevel":"houseNumber","MatchQuality":{"Country":1.0,"State":1.0,"County":1.0,"City":1.0,"District":1.0,"Street":[1.0],"HouseNumber":1.0,"PostalCode":1.0},"MatchType":"interpolated","Location":{"LocationId":"NT_sNlZGbw3IJOXkPsoga5.LB_l_27112776_R_zA","LocationType":"point","DisplayPosition":{"Latitude":53.4083501,"Longitude":-1.3230868},"MapView":{"TopLeft":{"Latitude":53.4094743,"Longitude":-1.3249727},"BottomRight":{"Latitude":53.407226,"Longitude":-1.321201}},"Address":{"Label":"3 Hunger Hill Lane, Rotherham, S60 4BD, United Kingdom","Country":"GBR","State":"England","County":"South Yorkshire","City":"Rotherham","District":"Whiston","Street":"Hunger Hill Lane","HouseNumber":"3","PostalCode":"S60 4BD","AdditionalData":[{"value":"United Kingdom","key":"CountryName"},{"value":"England","key":"StateName"},{"value":"South Yorkshire","key":"CountyName"}]},"MapReference":{"ReferenceId":"27112776","Spot":0.78,"SideOfStreet":"right","StateId":"20248595","CountyId":"20344788","CityId":"20344930","DistrictId":"20344967"}}},{"Relevance":1.0,"Distance":31.3,"MatchLevel":"houseNumber","MatchQuality":{"Country":1.0,"State":1.0,"County":1.0,"City":1.0,"District":1.0,"Street":[1.0],"HouseNumber":1.0,"PostalCode":1.0},"MatchType":"interpolated","Location":{"LocationId":"NT_qjQU8wFhb-4Fbo2nm2ibaB_l_27112616_R_0cD","LocationType":"point","DisplayPosition":{"Latitude":53.40852,"Longitude":-1.32344},"MapView":{"TopLeft":{"Latitude":53.4096442,"Longitude":-1.3253259},"BottomRight":{"Latitude":53.4073959,"Longitude":-1.3215542}},"Address":{"Label":"47 Hunger Hill Road, Rotherham, S60 4BB, United Kingdom","Country":"GBR","State":"England","County":"South Yorkshire","City":"Rotherham","District":"Whiston","Street":"Hunger Hill Road","HouseNumber":"47","PostalCode":"S60 4BB","AdditionalData":[{"value":"United Kingdom","key":"CountryName"},{"value":"England","key":"StateName"},{"value":"South Yorkshire","key":"CountyName"}]},"MapReference":{"ReferenceId":"27112616","Spot":0.25,"SideOfStreet":"right","StateId":"20248595","CountyId":"20344788","CityId":"20344930","DistrictId":"20344967"}}},{"Relevance":1.0,"Distance":34.9,"MatchLevel":"houseNumber","MatchQuality":{"Country":1.0,"State":1.0,"County":1.0,"City":1.0,"District":1.0,"Street":[1.0],"HouseNumber":1.0,"PostalCode":1.0},"MatchType":"interpolated","Location":{"LocationId":"NT_qjQU8wFhb-4Fbo2nm2ibaB_l_27112789_R_1MD","LocationType":"point","DisplayPosition":{"Latitude":53.4081986,"Longitude":-1.3234129},"MapView":{"TopLeft":{"Latitude":53.4093228,"Longitude":-1.3252987},"BottomRight":{"Latitude":53.4070745,"Longitude":-1.321527}},"Address":{"Label":"53 Hunger Hill Road, Rotherham, S60 4BB, United Kingdom","Country":"GBR","State":"England","County":"South Yorkshire","City":"Rotherham","District":"Whiston","Street":"Hunger Hill Road","HouseNumber":"53","PostalCode":"S60 4BB","AdditionalData":[{"value":"United Kingdom","key":"CountryName"},{"value":"England","key":"StateName"},{"value":"South Yorkshire","key":"CountyName"}]},"MapReference":{"ReferenceId":"27112789","Spot":0.83,"SideOfStreet":"right","StateId":"20248595","CountyId":"20344788","CityId":"20344930","DistrictId":"20344967"}}},{"Relevance":1.0,"Distance":57.0,"MatchLevel":"postalCode","MatchQuality":{"PostalCode":1.0},"MatchType":"interpolated","Location":{"LocationId":"NT_sNlZGbw3IJOXkPsoga5.LB_l_27112776_R_zA","LocationType":"point","DisplayPosition":{"Latitude":53.40789,"Longitude":-1.32296},"MapView":{"TopLeft":{"Latitude":53.4168832,"Longitude":-1.3380464},"BottomRight":{"Latitude":53.3988968,"Longitude":-1.3078736}},"Address":{"Label":"S60 4BD, Rotherham, England, United Kingdom","Country":"GBR","State":"England","County":"South Yorkshire","City":"Rotherham","PostalCode":"S60 4BD","AdditionalData":[{"value":"United Kingdom","key":"CountryName"},{"value":"England","key":"StateName"},{"value":"South Yorkshire","key":"CountyName"}]},"MapReference":{"ReferenceId":"27112776","Spot":0.78,"SideOfStreet":"neither","StateId":"20248595","CountyId":"20344788","CityId":"20344930"}}},{"Relevance":1.0,"Distance":60.8,"MatchLevel":"postalCode","MatchQuality":{"PostalCode":1.0},"MatchType":"interpolated","Location":{"LocationId":"NT_qjQU8wFhb-4Fbo2nm2ibaB_l_27112789_R_1MD","LocationType":"point","DisplayPosition":{"Latitude":53.40801,"Longitude":-1.32365},"MapView":{"TopLeft":{"Latitude":53.4170032,"Longitude":-1.3387364},"BottomRight":{"Latitude":53.3990168,"Longitude":-1.3085636}},"Address":{"Label":"S60 4BB, Rotherham, England, United Kingdom","Country":"GBR","State":"England","County":"South Yorkshire","City":"Rotherham","PostalCode":"S60 4BB","AdditionalData":[{"value":"United Kingdom","key":"CountryName"},{"value":"England","key":"StateName"},{"value":"South Yorkshire","key":"CountyName"}]},"MapReference":{"ReferenceId":"27112789","Spot":0.83,"SideOfStreet":"neither","StateId":"20248595","CountyId":"20344788","CityId":"20344930"}}},{"Relevance":1.0,"Distance":65.7,"MatchLevel":"houseNumber","MatchQuality":{"Country":1.0,"State":1.0,"County":1.0,"City":1.0,"District":1.0,"Street":[1.0],"HouseNumber":1.0,"PostalCode":1.0},"MatchType":"interpolated","Location":{"LocationId":"NT_-SO.CCoXlodu2Y52k79T9A_l_27112482_L_xID","LocationType":"point","DisplayPosition":{"Latitude":53.40909,"Longitude":-1.32266},"MapView":{"TopLeft":{"Latitude":53.4102142,"Longitude":-1.3245459},"BottomRight":{"Latitude":53.4079659,"Longitude":-1.3207742}},"Address":{"Label":"12 Cottam Close, Rotherham, S60 4AZ, United Kingdom","Country":"GBR","State":"England","County":"South Yorkshire","City":"Rotherham","District":"Whiston","Street":"Cottam Close","HouseNumber":"12","PostalCode":"S60 4AZ","AdditionalData":[{"value":"United Kingdom","key":"CountryName"},{"value":"England","key":"StateName"},{"value":"South Yorkshire","key":"CountyName"}]},"MapReference":{"ReferenceId":"27112482","Spot":0.34,"SideOfStreet":"left","StateId":"20248595","CountyId":"20344788","CityId":"20344930","DistrictId":"20344967"}}},{"Relevance":1.0,"Distance":65.8,"MatchLevel":"houseNumber","MatchQuality":{"Country":1.0,"State":1.0,"County":1.0,"City":1.0,"District":1.0,"Street":[1.0],"HouseNumber":1.0,"PostalCode":1.0},"MatchType":"interpolated","Location":{"LocationId":"NT_qjQU8wFhb-4Fbo2nm2ibaB_l_27112526_R_zkD","LocationType":"point","DisplayPosition":{"Latitude":53.40881,"Longitude":-1.32373},"MapView":{"TopLeft":{"Latitude":53.4099342,"Longitude":-1.3256159},"BottomRight":{"Latitude":53.4076859,"Longitude":-1.3218442}},"Address":{"Label":"39 Hunger Hill Road, Rotherham, S60 4BB, United Kingdom","Country":"GBR","State":"England","County":"South Yorkshire","City":"Rotherham","District":"Whiston","Street":"Hunger Hill Road","HouseNumber":"39","PostalCode":"S60 4BB","AdditionalData":[{"value":"United Kingdom","key":"CountryName"},{"value":"England","key":"StateName"},{"value":"South Yorkshire","key":"CountyName"}]},"MapReference":{"ReferenceId":"27112526","Spot":0.0,"SideOfStreet":"right","StateId":"20248595","CountyId":"20344788","CityId":"20344930","DistrictId":"20344967"}}},{"Relevance":1.0,"Distance":68.0,"MatchLevel":"houseNumber","MatchQuality":{"Country":1.0,"State":1.0,"County":1.0,"City":1.0,"District":1.0,"Street":[1.0],"HouseNumber":1.0,"PostalCode":1.0},"MatchType":"interpolated","Location":{"LocationId":"NT_RtXbpNEMc.aKLFfZ7n-h2A_l_565917733_R_zYD","LocationType":"point","DisplayPosition":{"Latitude":53.4086799,"Longitude":-1.324053},"MapView":{"TopLeft":{"Latitude":53.4098041,"Longitude":-1.3259389},"BottomRight":{"Latitude":53.4075558,"Longitude":-1.3221672}},"Address":{"Label":"36 Dewhill Avenue, Rotherham, S60 4DY, United Kingdom","Country":"GBR","State":"England","County":"South Yorkshire","City":"Rotherham","District":"Whiston","Street":"Dewhill Avenue","HouseNumber":"36","PostalCode":"S60 4DY","AdditionalData":[{"value":"United Kingdom","key":"CountryName"},{"value":"England","key":"StateName"},{"value":"South Yorkshire","key":"CountyName"}]},"MapReference":{"ReferenceId":"565917733","Spot":0.69,"SideOfStreet":"right","StateId":"20248595","CountyId":"20344788","CityId":"20344930","DistrictId":"20344967"}}},{"Relevance":1.0,"Distance":80.1,"MatchLevel":"postalCode","MatchQuality":{"PostalCode":1.0},"MatchType":"interpolated","Location":{"LocationId":"NT_-SO.CCoXlodu2Y52k79T9A_l_27112482_L_xID","LocationType":"point","DisplayPosition":{"Latitude":53.40907,"Longitude":-1.32256},"MapView":{"TopLeft":{"Latitude":53.4180632,"Longitude":-1.3376468},"BottomRight":{"Latitude":53.4000768,"Longitude":-1.3074732}},"Address":{"Label":"S60 4AZ, Rotherham, England, United Kingdom","Country":"GBR","State":"England","County":"South Yorkshire","City":"Rotherham","PostalCode":"S60 4AZ","AdditionalData":[{"value":"United Kingdom","key":"CountryName"},{"value":"England","key":"StateName"},{"value":"South Yorkshire","key":"CountyName"}]},"MapReference":{"ReferenceId":"27112482","Spot":0.34,"SideOfStreet":"neither","StateId":"20248595","CountyId":"20344788","CityId":"20344930"}}}]}]}}