{"Response":{"MetaInfo":{"Timestamp":"2020-03-28T10:04:46.030+0000","NextPageInformation":"2"},"View":[{"_type":"SearchResultsViewType","ViewId":0,"Result":[{"Relevance":1.0,"Distance":0.0,"Direction":0.0,"MatchLevel":"district","MatchQuality":{"Country":1.0,"State":1.0,"County":1.0,"City":1.0,"District":1.0,"PostalCode":1.0},"Location":{"LocationId":"NT_sVBc8CmgNUxrUp-d5vDPFA","LocationType":"point","DisplayPosition":{"Latitude":53.4344823,"Longitude":10.3721332},"MapView":{"TopLeft":{"Latitude":53.4605,"Longitude":10.32145},"BottomRight":{"Latitude":53.42285,"Longitude":10.40536}},"Address":{"Label":"Geesthacht, Schleswig-Holstein, Deutschland","Country":"DEU","State":"Schleswig-Holstein","County":"Herzogtum Lauenburg","City":"Geesthacht","District":"Geesthacht","PostalCode":"21502","AdditionalData":[{"value":"Deutschland","key":"CountryName"},{"value":"Schleswig-Holstein","key":"StateName"},{"value":"Herzogtum Lauenburg","key":"CountyName"}]},"MapReference":{"ReferenceId":"539185697","SideOfStreet":"neither","CountryId":"20147700","StateId":"20147701","CountyId":"20148138","CityId":"20148235","DistrictId":"20148237"}}},{"Relevance":1.0,"Distance":12.4,"MatchLevel":"houseNumber","MatchQuality":{"Country":1.0,"State":1.0,"County":1.0,"City":1.0,"District":1.0,"Street":[1.0],"HouseNumber":1.0,"PostalCode":1.0},"MatchType":"interpolated","Location":{"LocationId":"NT_TOiWt0hiTcn8Lug2VSbjfB_4A","LocationType":"point","DisplayPosition":{"Latitude":53.43445,"Longitude":10.37245},"MapView":{"TopLeft":{"Latitude":53.4355742,"Longitude":10.370563},"BottomRight":{"Latitude":53.4333258,"Longitude":10.374337}},"Address":{"Label":"Norderstraße 8, 21502 Geesthacht, Deutschland","Country":"DEU","State":"Schleswig-Holstein","County":"Herzogtum Lauenburg","City":"Geesthacht","District":"Geesthacht","Street":"Norderstraße","HouseNumber":"8","PostalCode":"21502","AdditionalData":[{"value":"Deutschland","key":"CountryName"},{"value":"Schleswig-Holstein","key":"StateName"},{"value":"Herzogtum Lauenburg","key":"CountyName"}]},"MapReference":{"ReferenceId":"1065079943","Spot":0.42,"SideOfStreet":"left","CountryId":"20147700","StateId":"20147701","CountyId":"20148138","CityId":"20148235","DistrictId":"20148237","AddressId":"192946439","RoadLinkId":"387361592"}}},{"Relevance":1.0,"Distance":39.2,"MatchLevel":"houseNumber","MatchQuality":{"Country":1.0,"State":1.0,"County":1.0,"City":1.0,"District":1.0,"Street":[1.0],"HouseNumber":1.0,"PostalCode":1.0},"MatchType":"interpolated","Location":{"LocationId":"NT_TOiWt0hiTcn8Lug2VSbjfB_0A","LocationType":"point","DisplayPosition":{"Latitude":53.4341,"Longitude":10.37221},"MapView":{"TopLeft":{"Latitude":53.4352242,"Longitude":10.370323},"BottomRight":{"Latitude":53.4329758,"Longitude":10.374097}},"Address":{"Label":"Norderstraße 4, 21502 Geesthacht, Deutschland","Country":"DEU","State":"Schleswig-Holstein","County":"Herzogtum Lauenburg","City":"Geesthacht","District":"Geesthacht","Street":"Norderstraße","HouseNumber":"4","PostalCode":"21502","AdditionalData":[{"value":"Deutschland","key":"CountryName"},{"value":"Schleswig-Holstein","key":"StateName"},{"value":"Herzogtum Lauenburg","key":"CountyName"}]},"MapReference":{"ReferenceId":"992584935","Spot":0.49,"SideOfStreet":"left","CountryId":"20147700","StateId":"20147701","CountyId":"20148138","CityId":"20148235","DistrictId":"20148237","AddressId":"195445132","RoadLinkId":"321145390"}}},{"Relevance":1.0,"Distance":45.7,"MatchLevel":"houseNumber","MatchQuality":{"Country":1.0,"State":1.0,"County":1.0,"City":1.0,"District":1.0,"Street":[1.0],"HouseNumber":1.0,"PostalCode":1.0},"MatchType":"interpolated","Location":{"LocationId":"NT_TOiWt0hiTcn8Lug2VSbjfB_xID","LocationType":"point","DisplayPosition":{"Latitude":53.43475,"Longitude":10.37267},"MapView":{"TopLeft":{"Latitude":53.4358742,"Longitude":10.370783},"BottomRight":{"Latitude":53.4336258,"Longitude":10.374557}},"Address":{"Label":"Norderstraße 12, 21502 Geesthacht, Deutschland","Country":"DEU","State":"Schleswig-Holstein","County":"Herzogtum Lauenburg","City":"Geesthacht","District":"Geesthacht","Street":"Norderstraße","HouseNumber":"12","PostalCode":"21502","AdditionalData":[{"value":"Deutschland","key":"CountryName"},{"value":"Schleswig-Holstein","key":"StateName"},{"value":"Herzogtum Lauenburg","key":"CountyName"}]},"MapReference":{"ReferenceId":"1065079944","Spot":0.15,"SideOfStreet":"left","CountryId":"20147700","StateId":"20147701","CountyId":"20148138","CityId":"20148235","DistrictId":"20148237","AddressId":"195348041","RoadLinkId":"387361593"}}},{"Relevance":1.0,"Distance":51.5,"MatchLevel":"houseNumber","MatchQuality":{"Country":1.0,"State":1.0,"County":1.0,"City":1.0,"District":1.0,"Street":[1.0],"HouseNumber":1.0,"PostalCode":1.0},"MatchType":"interpolated","Location":{"LocationId":"NT_4o6C4O8DyZUo26Ojf9TZ6B_zcTQ","LocationType":"point","DisplayPosition":{"Latitude":53.43405,"Longitude":10.37161},"MapView":{"TopLeft":{"Latitude":53.4351742,"Longitude":10.369723},"BottomRight":{"Latitude":53.4329258,"Longitude":10.373497}},"Address":{"Label":"Bergedorfer Straße 37A, 21502 Geesthacht, Deutschland","Country":"DEU","State":"Schleswig-Holstein","County":"Herzogtum Lauenburg","City":"Geesthacht","District":"Geesthacht","Street":"Bergedorfer Straße","HouseNumber":"37A","PostalCode":"21502","AdditionalData":[{"value":"Deutschland","key":"CountryName"},{"value":"Schleswig-Holstein","key":"StateName"},{"value":"Herzogtum Lauenburg","key":"CountyName"}]},"MapReference":{"ReferenceId":"539185778","Spot":0.3,"SideOfStreet":"right","CountryId":"20147700","StateId":"20147701","CountyId":"20148138","CityId":"20148235","DistrictId":"20148237","AddressId":"192996377","RoadLinkId":"37097394"}}},{"Relevance":1.0,"Distance":63.7,"MatchLevel":"street","MatchQuality":{"Country":1.0,"State":1.0,"County":1.0,"City":1.0,"District":1.0,"Street":[1.0],"PostalCode":1.0},"Location":{"LocationId":"NT_TOiWt0hiTcn8Lug2VSbjfB_l_992584934_L","LocationType":"point","DisplayPosition":{"Latitude":53.43391,"Longitude":10.37209},"MapView":{"TopLeft":{"Latitude":53.43391,"Longitude":10.37202},"BottomRight":{"Latitude":53.43379,"Longitude":10.37209}},"Address":{"Label":"Norderstraße, 21502 Geesthacht, Deutschland","Country":"DEU","State":"Schleswig-Holstein","County":"Herzogtum Lauenburg","City":"Geesthacht","District":"Geesthacht","Street":"Norderstraße","PostalCode":"21502","AdditionalData":[{"value":"Deutschland","key":"CountryName"},{"value":"Schleswig-Holstein","key":"StateName"},{"value":"Herzogtum Lauenburg","key":"CountyName"}]},"MapReference":{"ReferenceId":"992584934","Spot":1.0,"SideOfStreet":"left","CountryId":"20147700","StateId":"20147701","CountyId":"20148138","CityId":"20148235","DistrictId":"20148237"}}},{"Relevance":1.0,"Distance":65.8,"MatchLevel":"houseNumber","MatchQuality":{"Country":1.0,"State":1.0,"County":1.0,"City":1.0,"District":1.0,"Street":[1.0],"HouseNumber":1.0,"PostalCode":1.0},"MatchType":"interpolated","Location":{"LocationId":"NT_kBdsh1ekwHqgtGcCw7PxxB_0A","LocationType":"point","DisplayPosition":{"Latitude":53.43383,"Longitude":10.37251},"MapView":{"TopLeft":{"Latitude":53.4349542,"Longitude":10.370623},"BottomRight":{"Latitude":53.4327058,"Longitude":10.374397}},"Address":{"Label":"Buntenskamp 4, 21502 Geesthacht, Deutschland","Country":"DEU","State":"Schleswig-Holstein","County":"Herzogtum Lauenburg","City":"Geesthacht","District":"Geesthacht","Street":"Buntenskamp","HouseNumber":"4","PostalCode":"21502","AdditionalData":[{"value":"Deutschland","key":"CountryName"},{"value":"Schleswig-Holstein","key":"StateName"},{"value":"Herzogtum Lauenburg","key":"CountyName"}]},"MapReference":{"ReferenceId":"539185939","Spot":0.12,"SideOfStreet":"left","CountryId":"20147700","StateId":"20147701","CountyId":"20148138","CityId":"20148235","DistrictId":"20148237","AddressId":"194998730","RoadLinkId":"36395989"}}},{"Relevance":1.0,"Distance":84.3,"MatchLevel":"houseNumber","MatchQuality":{"Country":1.0,"State":1.0,"County":1.0,"City":1.0,"District":1.0,"Street":[1.0],"HouseNumber":1.0,"PostalCode":1.0},"MatchType":"interpolated","Location":{"LocationId":"NT_4o6C4O8DyZUo26Ojf9TZ6B_zMD","LocationType":"point","DisplayPosition":{"Latitude":53.43373,"Longitude":10.37198},"MapView":{"TopLeft":{"Latitude":53.4348542,"Longitude":10.3700931},"BottomRight":{"Latitude":53.4326058,"Longitude":10.3738669}},"Address":{"Label":"Bergedorfer Straße 33, 21502 Geesthacht, Deutschland","Country":"DEU","State":"Schleswig-Holstein","County":"Herzogtum Lauenburg","City":"Geesthacht","District":"Geesthacht","Street":"Bergedorfer Straße","HouseNumber":"33","PostalCode":"21502","AdditionalData":[{"value":"Deutschland","key":"CountryName"},{"value":"Schleswig-Holstein","key":"StateName"},{"value":"Herzogtum Lauenburg","key":"CountyName"}]},"MapReference":{"ReferenceId":"539185952","Spot":0.81,"SideOfStreet":"right","CountryId":"20147700","StateId":"20147701","CountyId":"20148138","CityId":"20148235","DistrictId":"20148237","AddressId":"193733449","RoadLinkId":"36479843"}}},{"Relevance":1.0,"Distance":100.6,"MatchLevel":"houseNumber","MatchQuality":{"Country":1.0,"State":1.0,"County":1.0,"City":1.0,"District":1.0,"Street":[1.0],"HouseNumber":1.0,"PostalCode":1.0},"MatchType":"interpolated","Location":{"LocationId":"NT_TOiWt0hiTcn8Lug2VSbjfB_yID","LocationType":"point","DisplayPosition":{"Latitude":53.43524,"Longitude":10.37303},"MapView":{"TopLeft":{"Latitude":53.4363642,"Longitude":10.371143},"BottomRight":{"Latitude":53.4341158,"Longitude":10.374917}},"Address":{"Label":"Norderstraße 22, 21502 Geesthacht, Deutschland","Country":"DEU","State":"Schleswig-Holstein","County":"Herzogtum Lauenburg","City":"Geesthacht","District":"Geesthacht","Street":"Norderstraße","HouseNumber":"22","PostalCode":"21502","AdditionalData":[{"value":"Deutschland","key":"CountryName"},{"value":"Schleswig-Holstein","key":"StateName"},{"value":"Herzogtum Lauenburg","key":"CountyName"}]},"MapReference":{"ReferenceId":"1065079945","Spot":0.23,"SideOfStreet":"left","CountryId":"20147700","StateId":"20147701","CountyId":"20148138","CityId":"20148235","DistrictId":"20148237","AddressId":"193873350","RoadLinkId":"387361594"}}},{"Relevance":1.0,"Distance":125.8,"MatchLevel":"houseNumber","MatchQuality":{"Country":1.0,"State":1.0,"County":1.0,"City":1.0,"District":1.0,"Street":[1.0],"HouseNumber":1.0,"PostalCode":1.0},"MatchType":"interpolated","Location":{"LocationId":"NT_TOiWt0hiTcn8Lug2VSbjfB_yUD","LocationType":"point","DisplayPosition":{"Latitude":53.43543,"Longitude":10.37317},"MapView":{"TopLeft":{"Latitude":53.4365542,"Longitude":10.371283},"BottomRight":{"Latitude":53.4343058,"Longitude":10.375057}},"Address":{"Label":"Norderstraße 25, 21502 Geesthacht, Deutschland","Country":"DEU","State":"Schleswig-Holstein","County":"Herzogtum Lauenburg","City":"Geesthacht","District":"Geesthacht","Street":"Norderstraße","HouseNumber":"25","PostalCode":"21502","AdditionalData":[{"value":"Deutschland","key":"CountryName"},{"value":"Schleswig-Holstein","key":"StateName"},{"value":"Herzogtum Lauenburg","key":"CountyName"}]},"MapReference":{"ReferenceId":"1223813590","Spot":0.17,"SideOfStreet":"right","CountryId":"20147700","StateId":"20147701","CountyId":"20148138","CityId":"20148235","DistrictId":"20148237","AddressId":"193611201","RoadLinkId":"541866468"}}}]}]}}