{"Response":{"MetaInfo":{"Timestamp":"2020-03-28T10:35:26.027+0000","NextPageInformation":"2"},"View":[{"_type":"SearchResultsViewType","ViewId":0,"Result":[{"Relevance":1.0,"Distance":0.0,"Direction":0.0,"MatchLevel":"district","MatchQuality":{"Country":1.0,"State":1.0,"County":1.0,"City":1.0,"District":1.0,"PostalCode":1.0},"Location":{"LocationId":"NT_p5-3NAd3JyMz5iXSetpGLC","LocationType":"point","DisplayPosition":{"Latitude":53.474275,"Longitude":-1.4936407},"MapView":{"TopLeft":{"Latitude":53.48673,"Longitude":-1.51018},"BottomRight":{"Latitude":53.46524,"Longitude":-1.48198}},"Address":{"Label":"High Green, Sheffield, England, United Kingdom","Country":"GBR","State":"England","County":"South Yorkshire","City":"Sheffield","District":"High Green","PostalCode":"S35 4","AdditionalData":[{"value":"United Kingdom","key":"CountryName"},{"value":"England","key":"StateName"},{"value":"South Yorkshire","key":"CountyName"}]},"MapReference":{"ReferenceId":"27101557","SideOfStreet":"neither","StateId":"20248595","CountyId":"20344788","CityId":"20344969","DistrictId":"20345000"}}},{"Relevance":1.0,"Distance":25.3,"MatchLevel":"houseNumber","MatchQuality":{"Country":1.0,"State":1.0,"County":1.0,"City":1.0,"District":1.0,"Street":[1.0],"HouseNumber":1.0,"PostalCode":1.0},"MatchType":"interpolated","Location":{"LocationId":"NT_3wlxjOnblUs0Go3il6JwjC_l_27101977_L_yAD","LocationType":"point","DisplayPosition":{"Latitude":53.4741564,"Longitude":-1.4939664},"MapView":{"TopLeft":{"Latitude":53.4752806,"Longitude":-1.4958552},"BottomRight":{"Latitude":53.4730323,"Longitude":-1.4920777}},"Address":{"Label":"20 Foster Way, Sheffield, S35 4, United Kingdom","Country":"GBR","State":"England","County":"South Yorkshire","City":"Sheffield","District":"High Green","Street":"Foster Way","HouseNumber":"20","PostalCode":"S35 4","AdditionalData":[{"value":"United Kingdom","key":"CountryName"},{"value":"England","key":"StateName"},{"value":"South Yorkshire","key":"CountyName"}]},"MapReference":{"ReferenceId":"27101977","Spot":0.67,"SideOfStreet":"left","StateId":"20248595","CountyId":"20344788","CityId":"20344969","DistrictId":"20345000"}}},{"Relevance":1.0,"Distance":25.8,"MatchLevel":"postalCode","MatchQuality":{"PostalCode":1.0},"MatchType":"interpolated","Location":{"LocationId":"NT_3wlxjOnblUs0Go3il6JwjC_l_27101977_L_yAD","LocationType":"point","DisplayPosition":{"Latitude":53.47433,"Longitude":-1.49402},"MapView":{"TopLeft":{"Latitude":53.4833232,"Longitude":-1.50913},"BottomRight":{"Latitude":53.4653368,"Longitude":-1.47891}},"Address":{"Label":"S35 4NF, Sheffield, England, United Kingdom","Country":"GBR","State":"England","County":"South Yorkshire","City":"Sheffield","PostalCode":"S35 4NF","AdditionalData":[{"value":"United Kingdom","key":"CountryName"},{"value":"England","key":"StateName"},{"value":"South Yorkshire","key":"CountyName"}]},"MapReference":{"ReferenceId":"27101977","Spot":0.67,"SideOfStreet":"neither","StateId":"20248595","CountyId":"20344788","CityId":"20344969"}}},{"Relevance":1.0,"Distance":35.4,"MatchLevel":"houseNumber","MatchQuality":{"Country":1.0,"State":1.0,"County":1.0,"City":1.0,"District":1.0,"Street":[1.0],"HouseNumber":1.0,"PostalCode":1.0},"MatchType":"interpolated","Location":{"LocationId":"NT_grLoX-bmazJEj6q8iZOC1C_l_27101829_R_xMD","LocationType":"point","DisplayPosition":{"Latitude":53.4746496,"Longitude":-1.4940486},"MapView":{"TopLeft":{"Latitude":53.4757737,"Longitude":-1.4959373},"BottomRight":{"Latitude":53.4735254,"Longitude":-1.4921598}},"Address":{"Label":"13 Thompson Hill, Sheffield, S35 4, United Kingdom","Country":"GBR","State":"England","County":"South Yorkshire","City":"Sheffield","District":"High Green","Street":"Thompson Hill","HouseNumber":"13","PostalCode":"S35 4","AdditionalData":[{"value":"United Kingdom","key":"CountryName"},{"value":"England","key":"StateName"},{"value":"South Yorkshire","key":"CountyName"}]},"MapReference":{"ReferenceId":"27101829","Spot":0.25,"SideOfStreet":"right","StateId":"20248595","CountyId":"20344788","CityId":"20344969","DistrictId":"20345000"}}},{"Relevance":1.0,"Distance":39.6,"MatchLevel":"houseNumber","MatchQuality":{"Country":1.0,"State":1.0,"County":1.0,"City":1.0,"District":1.0,"Street":[1.0],"HouseNumber":1.0,"PostalCode":1.0},"MatchType":"interpolated","Location":{"LocationId":"NT_9QWCw.kVmYba.clxgQdxHA_l_27101914_L_xQD","LocationType":"point","DisplayPosition":{"Latitude":53.4741636,"Longitude":-1.4929264},"MapView":{"TopLeft":{"Latitude":53.4752878,"Longitude":-1.4948151},"BottomRight":{"Latitude":53.4730395,"Longitude":-1.4910376}},"Address":{"Label":"14 Darwall Close, Sheffield, S35 4NZ, United Kingdom","Country":"GBR","State":"England","County":"South Yorkshire","City":"Sheffield","District":"High Green","Street":"Darwall Close","HouseNumber":"14","PostalCode":"S35 4NZ","AdditionalData":[{"value":"United Kingdom","key":"CountryName"},{"value":"England","key":"StateName"},{"value":"South Yorkshire","key":"CountyName"}]},"MapReference":{"ReferenceId":"27101914","Spot":0.66,"SideOfStreet":"left","StateId":"20248595","CountyId":"20344788","CityId":"20344969","DistrictId":"20345000"}}},{"Relevance":1.0,"Distance":48.9,"MatchLevel":"postalCode","MatchQuality":{"PostalCode":1.0},"MatchType":"interpolated","Location":{"LocationId":"NT_9QWCw.kVmYba.clxgQdxHA_l_27101914_L_xQD","LocationType":"point","DisplayPosition":{"Latitude":53.47412,"Longitude":-1.49295},"MapView":{"TopLeft":{"Latitude":53.4831132,"Longitude":-1.5080599},"BottomRight":{"Latitude":53.4651268,"Longitude":-1.4778401}},"Address":{"Label":"S35 4NZ, Sheffield, England, United Kingdom","Country":"GBR","State":"England","County":"South Yorkshire","City":"Sheffield","PostalCode":"S35 4NZ","AdditionalData":[{"value":"United Kingdom","key":"CountryName"},{"value":"England","key":"StateName"},{"value":"South Yorkshire","key":"CountyName"}]},"MapReference":{"ReferenceId":"27101914","Spot":0.66,"SideOfStreet":"neither","StateId":"20248595","CountyId":"20344788","CityId":"20344969"}}},{"Relevance":1.0,"Distance":51.8,"MatchLevel":"houseNumber","MatchQuality":{"Country":1.0,"State":1.0,"County":1.0,"City":1.0,"District":1.0,"Street":[1.0],"HouseNumber":1.0,"PostalCode":1.0},"MatchType":"interpolated","Location":{"LocationId":"NT_grLoX-bmazJEj6q8iZOC1C_l_27101893_R_xcD","LocationType":"point","DisplayPosition":{"Latitude":53.4744081,"Longitude":-1.4944924},"MapView":{"TopLeft":{"Latitude":53.4755323,"Longitude":-1.4963811},"BottomRight":{"Latitude":53.4732839,"Longitude":-1.4926036}},"Address":{"Label":"17 Thompson Hill, Sheffield, S35 4, United Kingdom","Country":"GBR","State":"England","County":"South Yorkshire","City":"Sheffield","District":"High Green","Street":"Thompson Hill","HouseNumber":"17","PostalCode":"S35 4","AdditionalData":[{"value":"United Kingdom","key":"CountryName"},{"value":"England","key":"StateName"},{"value":"South Yorkshire","key":"CountyName"}]},"MapReference":{"ReferenceId":"27101893","Spot":0.77,"SideOfStreet":"right","StateId":"20248595","CountyId":"20344788","CityId":"20344969","DistrictId":"20345000"}}},{"Relevance":1.0,"Distance":57.1,"MatchLevel":"houseNumber","MatchQuality":{"Country":1.0,"State":1.0,"County":1.0,"City":1.0,"District":1.0,"Street":[1.0],"HouseNumber":1.0,"PostalCode":1.0},"MatchType":"interpolated","Location":{"LocationId":"NT_ZnWVQRYUBzbmNAfuh3qwwA_l_27101976_L_yID","LocationType":"point","DisplayPosition":{"Latitude":53.4738364,"Longitude":-1.4928633},"MapView":{"TopLeft":{"Latitude":53.4749605,"Longitude":-1.4947521},"BottomRight":{"Latitude":53.4727122,"Longitude":-1.4909746}},"Address":{"Label":"22 Milgrove Crescent, Sheffield, S35 4, United Kingdom","Country":"GBR","State":"England","County":"South Yorkshire","City":"Sheffield","District":"High Green","Street":"Milgrove Crescent","HouseNumber":"22","PostalCode":"S35 4","AdditionalData":[{"value":"United Kingdom","key":"CountryName"},{"value":"England","key":"StateName"},{"value":"South Yorkshire","key":"CountyName"}]},"MapReference":{"ReferenceId":"27101976","Spot":0.51,"SideOfStreet":"left","StateId":"20248595","CountyId":"20344788","CityId":"20344969","DistrictId":"20345000"}}},{"Relevance":1.0,"Distance":62.8,"MatchLevel":"houseNumber","MatchQuality":{"Country":1.0,"State":1.0,"County":1.0,"City":1.0,"District":1.0,"Street":[1.0],"HouseNumber":1.0,"PostalCode":1.0},"MatchType":"interpolated","Location":{"LocationId":"NT_ZnWVQRYUBzbmNAfuh3qwwA_l_27101913_L_yAD","LocationType":"point","DisplayPosition":{"Latitude":53.474,"Longitude":-1.49268},"MapView":{"TopLeft":{"Latitude":53.4751242,"Longitude":-1.4945687},"BottomRight":{"Latitude":53.4728759,"Longitude":-1.4907912}},"Address":{"Label":"20 Milgrove Crescent, Sheffield, S35 4NQ, United Kingdom","Country":"GBR","State":"England","County":"South Yorkshire","City":"Sheffield","District":"High Green","Street":"Milgrove Crescent","HouseNumber":"20","PostalCode":"S35 4NQ","AdditionalData":[{"value":"United Kingdom","key":"CountryName"},{"value":"England","key":"StateName"},{"value":"South Yorkshire","key":"CountyName"}]},"MapReference":{"ReferenceId":"27101913","Spot":0.0,"SideOfStreet":"left","StateId":"20248595","CountyId":"20344788","CityId":"20344969","DistrictId":"20345000"}}},{"Relevance":1.0,"Distance":78.5,"MatchLevel":"houseNumber","MatchQuality":{"Country":1.0,"State":1.0,"County":1.0,"City":1.0,"District":1.0,"Street":[1.0],"HouseNumber":1.0,"PostalCode":1.0},"MatchType":"interpolated","Location":{"LocationId":"NT_mjHb6xPZSgOKEtpIegpw0A_l_27101744_L_xMzN","LocationType":"point","DisplayPosition":{"Latitude":53.47511,"Longitude":-1.4934701},"MapView":{"TopLeft":{"Latitude":53.4762342,"Longitude":-1.4953589},"BottomRight":{"Latitude":53.4739859,"Longitude":-1.4915813}},"Address":{"Label":"137 Wortley Road, Sheffield, S35 4LT, United Kingdom","Country":"GBR","State":"England","County":"South Yorkshire","City":"Sheffield","District":"High Green","Street":"Wortley Road","HouseNumber":"137","PostalCode":"S35 4LT","AdditionalData":[{"value":"United Kingdom","key":"CountryName"},{"value":"England","key":"StateName"},{"value":"South Yorkshire","key":"CountyName"}]},"MapReference":{"ReferenceId":"27101744","Spot":0.14,"SideOfStreet":"left","StateId":"20248595","CountyId":"20344788","CityId":"20344969","DistrictId":"20345000"}}}]}]}}