{"Response":{"MetaInfo":{"Timestamp":"2020-03-28T09:51:47.638+0000","NextPageInformation":"2"},"View":[{"_type":"SearchResultsViewType","ViewId":0,"Result":[{"Relevance":1.0,"Distance":0.0,"Direction":0.0,"MatchLevel":"district","MatchQuality":{"Country":1.0,"State":1.0,"County":1.0,"City":1.0,"District":1.0,"PostalCode":1.0},"Location":{"LocationId":"NT_i9CflHAkbDCikwEFMVxRgD","LocationType":"point","DisplayPosition":{"Latitude":53.4919007,"Longitude":-2.3572868},"MapView":{"TopLeft":{"Latitude":53.50137,"Longitude":-2.41055},"BottomRight":{"Latitude":53.45643,"Longitude":-2.32496}},"Address":{"Label":"Eccles, Manchester, England, United Kingdom","Country":"GBR","State":"England","County":"Lancashire","City":"Manchester","District":"Eccles","PostalCode":"M30 0","AdditionalData":[{"value":"United Kingdom","key":"CountryName"},{"value":"England","key":"StateName"},{"value":"Lancashire","key":"CountyName"}]},"MapReference":{"ReferenceId":"1218202141","SideOfStreet":"neither","StateId":"20248595","CountyId":"20343938","CityId":"20344206","DistrictId":"20344224"}}},{"Relevance":1.0,"Distance":10.0,"MatchLevel":"landmark","MatchQuality":{"Country":1.0,"State":1.0,"County":1.0,"City":1.0,"PostalCode":1.0,"Name":1.0},"Location":{"LocationId":"NT_CWwK7fTR.pH8nJUo1N8A9C","LocationType":"canalWaterChannel","Name":"Bridgewater Canal","DisplayPosition":{"Latitude":53.48774,"Longitude":-2.35976},"MapView":{"TopLeft":{"Latitude":53.50104,"Longitude":-2.44243},"BottomRight":{"Latitude":53.47443,"Longitude":-2.3518}},"Address":{"Label":"Manchester, M3 3, United Kingdom","Country":"GBR","State":"England","County":"Lancashire","City":"Manchester","PostalCode":"M3 3","AdditionalData":[{"value":"United Kingdom","key":"CountryName"},{"value":"England","key":"StateName"},{"value":"Lancashire","key":"CountyName"}]},"MapReference":{"StateId":"20248595","CountyId":"20343938","CityId":"20344206","PlaceId":"1457597052"}}},{"Relevance":1.0,"Distance":20.5,"MatchLevel":"landmark","MatchQuality":{"Country":1.0,"State":1.0,"County":1.0,"City":1.0,"PostalCode":1.0,"Name":1.0},"Location":{"LocationId":"NT_n0tHeLMmcg3gqWz1opjYjC","LocationType":"park","Name":"Broadoak Park","DisplayPosition":{"Latitude":53.49669,"Longitude":-2.36533},"MapView":{"TopLeft":{"Latitude":53.5013,"Longitude":-2.37285},"BottomRight":{"Latitude":53.49208,"Longitude":-2.35705}},"Address":{"Label":"Manchester, M3 3, United Kingdom","Country":"GBR","State":"England","County":"Lancashire","City":"Manchester","PostalCode":"M3 3","AdditionalData":[{"value":"United Kingdom","key":"CountryName"},{"value":"England","key":"StateName"},{"value":"Lancashire","key":"CountyName"}]},"MapReference":{"StateId":"20248595","CountyId":"20343938","CityId":"20344206","PlaceId":"546443138"}}},{"Relevance":1.0,"Distance":20.5,"MatchLevel":"street","MatchQuality":{"Country":1.0,"State":1.0,"County":1.0,"City":1.0,"District":1.0,"Street":[1.0],"PostalCode":1.0},"Location":{"LocationId":"NT_TYSoPvHXwXfKo144PISSyA_l_27294524_L","LocationType":"point","DisplayPosition":{"Latitude":53.4920855,"Longitude":-2.3572825},"MapView":{"TopLeft":{"Latitude":53.4921,"Longitude":-2.3579},"BottomRight":{"Latitude":53.49208,"Longitude":-2.35705}},"Address":{"Label":"Parrin Lane, Manchester, M30 8, United Kingdom","Country":"GBR","State":"England","County":"Lancashire","City":"Manchester","District":"Eccles","Street":"Parrin Lane","PostalCode":"M30 8","AdditionalData":[{"value":"United Kingdom","key":"CountryName"},{"value":"England","key":"StateName"},{"value":"Lancashire","key":"CountyName"}]},"MapReference":{"ReferenceId":"27294524","Spot":0.27,"SideOfStreet":"left","StateId":"20248595","CountyId":"20343938","CityId":"20344206","DistrictId":"20344224"}}},{"Relevance":1.0,"Distance":24.8,"MatchLevel":"street","MatchQuality":{"Country":1.0,"State":1.0,"County":1.0,"City":1.0,"District":1.0,"PostalCode":1.0},"Location":{"LocationId":"NT_6S.lT-B0zST1FuGAxpbz6C_l_1241657492_R","LocationType":"point","DisplayPosition":{"Latitude":53.49171,"Longitude":-2.35748},"MapView":{"TopLeft":{"Latitude":53.49199,"Longitude":-2.35812},"BottomRight":{"Latitude":53.49058,"Longitude":-2.35743}},"Address":{"Label":"Manchester, M30 8, United Kingdom","Country":"GBR","State":"England","County":"Lancashire","City":"Manchester","District":"Eccles","PostalCode":"M30 8","AdditionalData":[{"value":"United Kingdom","key":"CountryName"},{"value":"England","key":"StateName"},{"value":"Lancashire","key":"CountyName"}]},"MapReference":{"ReferenceId":"1241657492","Spot":0.71,"SideOfStreet":"right","StateId":"20248595","CountyId":"20343938","CityId":"20344206","DistrictId":"20344224"}}},{"Relevance":1.0,"Distance":25.4,"MatchLevel":"street","MatchQuality":{"Country":1.0,"State":1.0,"County":1.0,"City":1.0,"District":1.0,"Street":[1.0],"PostalCode":1.0},"Location":{"LocationId":"NT_HCDwLUNoidKCL5Xc2nRDaC_l_1091606923_L","LocationType":"point","DisplayPosition":{"Latitude":53.49208,"Longitude":-2.35705},"MapView":{"TopLeft":{"Latitude":53.49208,"Longitude":-2.35705},"BottomRight":{"Latitude":53.49207,"Longitude":-2.3567}},"Address":{"Label":"Parrin Lane, Manchester, M30 8, United Kingdom","Country":"GBR","State":"England","County":"Lancashire","City":"Manchester","District":"Eccles","Street":"Parrin Lane","PostalCode":"M30 8","AdditionalData":[{"value":"United Kingdom","key":"CountryName"},{"value":"England","key":"StateName"},{"value":"Lancashire","key":"CountyName"}]},"MapReference":{"ReferenceId":"1091606923","Spot":1.0,"SideOfStreet":"left","StateId":"20248595","CountyId":"20343938","CityId":"20344206","DistrictId":"20344224"}}},{"Relevance":1.0,"Distance":27.1,"MatchLevel":"street","MatchQuality":{"Country":1.0,"State":1.0,"County":1.0,"City":1.0,"District":1.0,"PostalCode":1.0},"Location":{"LocationId":"NT_6S.lT-B0zST1FuGAxpbz6C_l_743856965_L","LocationType":"point","DisplayPosition":{"Latitude":53.4921432,"Longitude":-2.3572399},"MapView":{"TopLeft":{"Latitude":53.49224,"Longitude":-2.35774},"BottomRight":{"Latitude":53.49208,"Longitude":-2.35705}},"Address":{"Label":"Manchester, M30 8, United Kingdom","Country":"GBR","State":"England","County":"Lancashire","City":"Manchester","District":"Eccles","PostalCode":"M30 8","AdditionalData":[{"value":"United Kingdom","key":"CountryName"},{"value":"England","key":"StateName"},{"value":"Lancashire","key":"CountyName"}]},"MapReference":{"ReferenceId":"743856965","Spot":0.28,"SideOfStreet":"left","StateId":"20248595","CountyId":"20343938","CityId":"20344206","DistrictId":"20344224"}}},{"Relevance":1.0,"Distance":32.9,"MatchLevel":"postalCode","MatchQuality":{"PostalCode":1.0},"Location":{"LocationId":"NT_fbgg1McEgSGeOkdGrm5rzD_l_936446082_L","LocationType":"point","DisplayPosition":{"Latitude":53.49174,"Longitude":-2.35687},"MapView":{"TopLeft":{"Latitude":53.5007332,"Longitude":-2.3719862},"BottomRight":{"Latitude":53.4827468,"Longitude":-2.3417538}},"Address":{"Label":"M30 8AR, Manchester, England, United Kingdom","Country":"GBR","State":"England","County":"Lancashire","City":"Manchester","PostalCode":"M30 8AR","AdditionalData":[{"value":"United Kingdom","key":"CountryName"},{"value":"England","key":"StateName"},{"value":"Lancashire","key":"CountyName"}]},"MapReference":{"ReferenceId":"936446082","Spot":0.9,"SideOfStreet":"neither","StateId":"20248595","CountyId":"20343938","CityId":"20344206"}}},{"Relevance":1.0,"Distance":39.3,"MatchLevel":"street","MatchQuality":{"Country":1.0,"State":1.0,"County":1.0,"City":1.0,"District":1.0,"Street":[1.0],"PostalCode":1.0},"Location":{"LocationId":"NT_fbgg1McEgSGeOkdGrm5rzD_l_936446082_L","LocationType":"point","DisplayPosition":{"Latitude":53.4916399,"Longitude":-2.3568856},"MapView":{"TopLeft":{"Latitude":53.49171,"Longitude":-2.35739},"BottomRight":{"Latitude":53.49105,"Longitude":-2.35684}},"Address":{"Label":"Canal Side, Manchester, M30 8, United Kingdom","Country":"GBR","State":"England","County":"Lancashire","City":"Manchester","District":"Eccles","Street":"Canal Side","PostalCode":"M30 8","AdditionalData":[{"value":"United Kingdom","key":"CountryName"},{"value":"England","key":"StateName"},{"value":"Lancashire","key":"CountyName"}]},"MapReference":{"ReferenceId":"936446082","Spot":0.9,"SideOfStreet":"left","StateId":"20248595","CountyId":"20343938","CityId":"20344206","DistrictId":"20344224"}}},{"Relevance":1.0,"Distance":43.1,"MatchLevel":"street","MatchQuality":{"Country":1.0,"State":1.0,"County":1.0,"City":1.0,"District":1.0,"Street":[1.0],"PostalCode":1.0},"Location":{"LocationId":"NT_HCDwLUNoidKCL5Xc2nRDaC_l_1091606922_R","LocationType":"point","DisplayPosition":{"Latitude":53.49207,"Longitude":-2.3567},"MapView":{"TopLeft":{"Latitude":53.49207,"Longitude":-2.3567},"BottomRight":{"Latitude":53.49207,"Longitude":-2.35659}},"Address":{"Label":"Parrin Lane, Manchester, M30 8, United Kingdom","Country":"GBR","State":"England","County":"Lancashire","City":"Manchester","District":"Eccles","Street":"Parrin Lane","PostalCode":"M30 8","AdditionalData":[{"value":"United Kingdom","key":"CountryName"},{"value":"England","key":"StateName"},{"value":"Lancashire","key":"CountyName"}]},"MapReference":{"ReferenceId":"1091606922","Spot":0.0,"SideOfStreet":"right","StateId":"20248595","CountyId":"20343938","CityId":"20344206","DistrictId":"20344224"}}}]}]}}