{"Response":{"MetaInfo":{"Timestamp":"2020-03-28T10:33:04.743+0000","NextPageInformation":"2"},"View":[{"_type":"SearchResultsViewType","ViewId":0,"Result":[{"Relevance":1.0,"Distance":0.0,"Direction":0.0,"MatchLevel":"district","MatchQuality":{"Country":1.0,"State":1.0,"County":1.0,"City":1.0,"District":1.0,"PostalCode":1.0},"Location":{"LocationId":"NT_-x.sSFC-S8oNiz1HrgKEoD","LocationType":"point","DisplayPosition":{"Latitude":53.4893738,"Longitude":-2.0888575},"MapView":{"TopLeft":{"Latitude":53.52432,"Longitude":-2.12795},"BottomRight":{"Latitude":53.46856,"Longitude":-2.04783}},"Address":{"Label":"Ashton-under-Lyne, England, United Kingdom","Country":"GBR","State":"England","County":"Lancashire","City":"Ashton-under-Lyne","District":"Ashton-under-Lyne","PostalCode":"OL6 6","AdditionalData":[{"value":"United Kingdom","key":"CountryName"},{"value":"England","key":"StateName"},{"value":"Lancashire","key":"CountyName"}]},"MapReference":{"ReferenceId":"936050630","SideOfStreet":"neither","StateId":"20248595","CountyId":"20343938","CityId":"20343950","DistrictId":"20343951"}}},{"Relevance":1.0,"Distance":2.1,"MatchLevel":"street","MatchQuality":{"Country":1.0,"State":1.0,"County":1.0,"City":1.0,"District":1.0,"Street":[1.0],"PostalCode":1.0},"Location":{"LocationId":"NT_Xe8RZR9IG3LpUx-wIo3o.A_l_27001614_L","LocationType":"point","DisplayPosition":{"Latitude":53.4893697,"Longitude":-2.0888892},"MapView":{"TopLeft":{"Latitude":53.49,"Longitude":-2.08897},"BottomRight":{"Latitude":53.48922,"Longitude":-2.08887}},"Address":{"Label":"Chapel Street, Ashton-under-Lyne, OL6 6, United Kingdom","Country":"GBR","State":"England","County":"Lancashire","City":"Ashton-under-Lyne","District":"Ashton-under-Lyne","Street":"Chapel Street","PostalCode":"OL6 6","AdditionalData":[{"value":"United Kingdom","key":"CountryName"},{"value":"England","key":"StateName"},{"value":"Lancashire","key":"CountyName"}]},"MapReference":{"ReferenceId":"27001614","Spot":0.19,"SideOfStreet":"neither","StateId":"20248595","CountyId":"20343938","CityId":"20343950","DistrictId":"20343951"}}},{"Relevance":1.0,"Distance":16.3,"MatchLevel":"postalCode","MatchQuality":{"PostalCode":1.0},"Location":{"LocationId":"NT_Xe8RZR9IG3LpUx-wIo3o.A_l_27001614_L","LocationType":"point","DisplayPosition":{"Latitude":53.48952,"Longitude":-2.08885},"MapView":{"TopLeft":{"Latitude":53.4985132,"Longitude":-2.1039654},"BottomRight":{"Latitude":53.4805268,"Longitude":-2.0737346}},"Address":{"Label":"OL6 6EW, Ashton-under-Lyne, England, United Kingdom","Country":"GBR","State":"England","County":"Lancashire","City":"Ashton-under-Lyne","PostalCode":"OL6 6EW","AdditionalData":[{"value":"United Kingdom","key":"CountryName"},{"value":"England","key":"StateName"},{"value":"Lancashire","key":"CountyName"}]},"MapReference":{"ReferenceId":"27001614","Spot":0.19,"SideOfStreet":"neither","StateId":"20248595","CountyId":"20343938","CityId":"20343950"}}},{"Relevance":1.0,"Distance":17.1,"MatchLevel":"street","MatchQuality":{"Country":1.0,"State":1.0,"County":1.0,"City":1.0,"District":1.0,"Street":[1.0],"PostalCode":1.0},"Location":{"LocationId":"NT_SqKICLnHxigKUdniDLCR7C_l_27001623_L","LocationType":"point","DisplayPosition":{"Latitude":53.48922,"Longitude":-2.08887},"MapView":{"TopLeft":{"Latitude":53.48922,"Longitude":-2.0893},"BottomRight":{"Latitude":53.48916,"Longitude":-2.08887}},"Address":{"Label":"Cross Glebe Street, Ashton-under-Lyne, OL6 6, United Kingdom","Country":"GBR","State":"England","County":"Lancashire","City":"Ashton-under-Lyne","District":"Ashton-under-Lyne","Street":"Cross Glebe Street","PostalCode":"OL6 6","AdditionalData":[{"value":"United Kingdom","key":"CountryName"},{"value":"England","key":"StateName"},{"value":"Lancashire","key":"CountyName"}]},"MapReference":{"ReferenceId":"27001623","Spot":1.0,"SideOfStreet":"left","StateId":"20248595","CountyId":"20343938","CityId":"20343950","DistrictId":"20343951"}}},{"Relevance":1.0,"Distance":27.3,"MatchLevel":"postalCode","MatchQuality":{"PostalCode":1.0},"Location":{"LocationId":"NT_W00fQ0V7GoRWhrUMxLRRgC_l_27001624_R","LocationType":"point","DisplayPosition":{"Latitude":53.48936,"Longitude":-2.08927},"MapView":{"TopLeft":{"Latitude":53.4983532,"Longitude":-2.1043854},"BottomRight":{"Latitude":53.4803668,"Longitude":-2.0741546}},"Address":{"Label":"OL6 6HD, Ashton-under-Lyne, England, United Kingdom","Country":"GBR","State":"England","County":"Lancashire","City":"Ashton-under-Lyne","PostalCode":"OL6 6HD","AdditionalData":[{"value":"United Kingdom","key":"CountryName"},{"value":"England","key":"StateName"},{"value":"Lancashire","key":"CountyName"}]},"MapReference":{"ReferenceId":"27001624","Spot":0.39,"SideOfStreet":"neither","StateId":"20248595","CountyId":"20343938","CityId":"20343950"}}},{"Relevance":1.0,"Distance":32.2,"MatchLevel":"street","MatchQuality":{"Country":1.0,"State":1.0,"County":1.0,"City":1.0,"District":1.0,"Street":[1.0],"PostalCode":1.0},"Location":{"LocationId":"NT_W00fQ0V7GoRWhrUMxLRRgC_l_27001624_R","LocationType":"point","DisplayPosition":{"Latitude":53.4892891,"Longitude":-2.0893235},"MapView":{"TopLeft":{"Latitude":53.48949,"Longitude":-2.08936},"BottomRight":{"Latitude":53.48916,"Longitude":-2.0893}},"Address":{"Label":"Glebe Street, Ashton-under-Lyne, OL6 6, United Kingdom","Country":"GBR","State":"England","County":"Lancashire","City":"Ashton-under-Lyne","District":"Ashton-under-Lyne","Street":"Glebe Street","PostalCode":"OL6 6","AdditionalData":[{"value":"United Kingdom","key":"CountryName"},{"value":"England","key":"StateName"},{"value":"Lancashire","key":"CountyName"}]},"MapReference":{"ReferenceId":"27001624","Spot":0.39,"SideOfStreet":"right","StateId":"20248595","CountyId":"20343938","CityId":"20343950","DistrictId":"20343951"}}},{"Relevance":1.0,"Distance":32.7,"MatchLevel":"houseNumber","MatchQuality":{"Country":1.0,"State":1.0,"County":1.0,"City":1.0,"District":1.0,"Street":[1.0],"HouseNumber":1.0,"PostalCode":1.0},"MatchType":"interpolated","Location":{"LocationId":"NT_jxC6KNrdatbflmUVkltoID_l_27001549_L_yA","LocationType":"point","DisplayPosition":{"Latitude":53.4896639,"Longitude":-2.088327},"MapView":{"TopLeft":{"Latitude":53.4907881,"Longitude":-2.0902164},"BottomRight":{"Latitude":53.4885398,"Longitude":-2.0864375}},"Address":{"Label":"2 Albion Street, Ashton-under-Lyne, OL6 6HF, United Kingdom","Country":"GBR","State":"England","County":"Lancashire","City":"Ashton-under-Lyne","District":"Ashton-under-Lyne","Street":"Albion Street","HouseNumber":"2","PostalCode":"OL6 6HF","AdditionalData":[{"value":"United Kingdom","key":"CountryName"},{"value":"England","key":"StateName"},{"value":"Lancashire","key":"CountyName"}]},"MapReference":{"ReferenceId":"27001549","Spot":0.56,"SideOfStreet":"left","StateId":"20248595","CountyId":"20343938","CityId":"20343950","DistrictId":"20343951"}}},{"Relevance":1.0,"Distance":35.7,"MatchLevel":"street","MatchQuality":{"Country":1.0,"State":1.0,"County":1.0,"City":1.0,"District":1.0,"Street":[1.0],"PostalCode":1.0},"Location":{"LocationId":"NT_W00fQ0V7GoRWhrUMxLRRgC_l_27001562_R","LocationType":"point","DisplayPosition":{"Latitude":53.48949,"Longitude":-2.08936},"MapView":{"TopLeft":{"Latitude":53.48997,"Longitude":-2.08945},"BottomRight":{"Latitude":53.48949,"Longitude":-2.08936}},"Address":{"Label":"Glebe Street, Ashton-under-Lyne, OL6 6, United Kingdom","Country":"GBR","State":"England","County":"Lancashire","City":"Ashton-under-Lyne","District":"Ashton-under-Lyne","Street":"Glebe Street","PostalCode":"OL6 6","AdditionalData":[{"value":"United Kingdom","key":"CountryName"},{"value":"England","key":"StateName"},{"value":"Lancashire","key":"CountyName"}]},"MapReference":{"ReferenceId":"27001562","Spot":0.0,"SideOfStreet":"right","StateId":"20248595","CountyId":"20343938","CityId":"20343950","DistrictId":"20343951"}}},{"Relevance":1.0,"Distance":35.7,"MatchLevel":"street","MatchQuality":{"Country":1.0,"State":1.0,"County":1.0,"City":1.0,"District":1.0,"Street":[1.0],"PostalCode":1.0},"Location":{"LocationId":"NT_3HhMbIcN281O05YwI2R1tA_l_27001568_R","LocationType":"point","DisplayPosition":{"Latitude":53.48949,"Longitude":-2.08936},"MapView":{"TopLeft":{"Latitude":53.48949,"Longitude":-2.08995},"BottomRight":{"Latitude":53.48945,"Longitude":-2.08936}},"Address":{"Label":"Mulberry Street, Ashton-under-Lyne, OL6 6, United Kingdom","Country":"GBR","State":"England","County":"Lancashire","City":"Ashton-under-Lyne","District":"Ashton-under-Lyne","Street":"Mulberry Street","PostalCode":"OL6 6","AdditionalData":[{"value":"United Kingdom","key":"CountryName"},{"value":"England","key":"StateName"},{"value":"Lancashire","key":"CountyName"}]},"MapReference":{"ReferenceId":"27001568","Spot":1.0,"SideOfStreet":"right","StateId":"20248595","CountyId":"20343938","CityId":"20343950","DistrictId":"20343951"}}},{"Relevance":1.0,"Distance":40.5,"MatchLevel":"postalCode","MatchQuality":{"PostalCode":1.0},"Location":{"LocationId":"NT_SqKICLnHxigKUdniDLCR7C_l_27001623_L","LocationType":"point","DisplayPosition":{"Latitude":53.48911,"Longitude":-2.08928},"MapView":{"TopLeft":{"Latitude":53.4981032,"Longitude":-2.1043953},"BottomRight":{"Latitude":53.4801168,"Longitude":-2.0741647}},"Address":{"Label":"OL6 6NG, Ashton-under-Lyne, England, United Kingdom","Country":"GBR","State":"England","County":"Lancashire","City":"Ashton-under-Lyne","PostalCode":"OL6 6NG","AdditionalData":[{"value":"United Kingdom","key":"CountryName"},{"value":"England","key":"StateName"},{"value":"Lancashire","key":"CountyName"}]},"MapReference":{"ReferenceId":"27001623","Spot":1.0,"SideOfStreet":"neither","StateId":"20248595","CountyId":"20343938","CityId":"20343950"}}}]}]}}