{"Response":{"MetaInfo":{"Timestamp":"2020-03-28T10:40:41.204+0000","NextPageInformation":"2"},"View":[{"_type":"SearchResultsViewType","ViewId":0,"Result":[{"Relevance":1.0,"Distance":0.0,"Direction":0.0,"MatchLevel":"district","MatchQuality":{"Country":1.0,"State":1.0,"County":1.0,"City":1.0,"District":1.0,"PostalCode":1.0},"Location":{"LocationId":"NT_JEttUKsUWen.Y0dMLqs-KC","LocationType":"point","DisplayPosition":{"Latitude":53.4180281,"Longitude":-2.1435881},"MapView":{"TopLeft":{"Latitude":53.44277,"Longitude":-2.20214},"BottomRight":{"Latitude":53.32501,"Longitude":-1.9948}},"Address":{"Label":"Stockport, England, United Kingdom","Country":"GBR","State":"England","County":"Cheshire","City":"Stockport","District":"Stockport","PostalCode":"SK4 1","AdditionalData":[{"value":"United Kingdom","key":"CountryName"},{"value":"England","key":"StateName"},{"value":"Cheshire","key":"CountyName"}]},"MapReference":{"ReferenceId":"27285783","SideOfStreet":"neither","StateId":"20248595","CountyId":"20343157","CityId":"20343640","DistrictId":"20343641"}}},{"Relevance":1.0,"Distance":3.7,"MatchLevel":"houseNumber","MatchQuality":{"Country":1.0,"State":1.0,"County":1.0,"City":1.0,"District":1.0,"Street":[1.0],"HouseNumber":1.0,"PostalCode":1.0},"MatchType":"interpolated","Location":{"LocationId":"NT_vHg96pAS3QLLeBNkqhvGJD_l_27015838_R_zAD","LocationType":"point","DisplayPosition":{"Latitude":53.4181383,"Longitude":-2.1436166},"MapView":{"TopLeft":{"Latitude":53.4192624,"Longitude":-2.1455029},"BottomRight":{"Latitude":53.4170141,"Longitude":-2.1417304}},"Address":{"Label":"30 Brinnington Road, Stockport, SK1 2EX, United Kingdom","Country":"GBR","State":"England","County":"Cheshire","City":"Stockport","District":"Stockport","Street":"Brinnington Road","HouseNumber":"30","PostalCode":"SK1 2EX","AdditionalData":[{"value":"United Kingdom","key":"CountryName"},{"value":"England","key":"StateName"},{"value":"Cheshire","key":"CountyName"}]},"MapReference":{"ReferenceId":"27015838","Spot":0.26,"SideOfStreet":"right","StateId":"20248595","CountyId":"20343157","CityId":"20343640","DistrictId":"20343641"}}},{"Relevance":1.0,"Distance":26.8,"MatchLevel":"street","MatchQuality":{"Country":1.0,"State":1.0,"County":1.0,"City":1.0,"District":1.0,"Street":[1.0],"PostalCode":1.0},"Location":{"LocationId":"NT_pLeBn9QUPtHnYz9-RN0P8A_l_1159846876_R","LocationType":"point","DisplayPosition":{"Latitude":53.4178,"Longitude":-2.14372},"MapView":{"TopLeft":{"Latitude":53.41793,"Longitude":-2.14395},"BottomRight":{"Latitude":53.4178,"Longitude":-2.14372}},"Address":{"Label":"Dawson Street, Stockport, SK1 2, United Kingdom","Country":"GBR","State":"England","County":"Cheshire","City":"Stockport","District":"Stockport","Street":"Dawson Street","PostalCode":"SK1 2","AdditionalData":[{"value":"United Kingdom","key":"CountryName"},{"value":"England","key":"StateName"},{"value":"Cheshire","key":"CountyName"}]},"MapReference":{"ReferenceId":"1159846876","Spot":0.0,"SideOfStreet":"right","StateId":"20248595","CountyId":"20343157","CityId":"20343640","DistrictId":"20343641"}}},{"Relevance":1.0,"Distance":26.8,"MatchLevel":"street","MatchQuality":{"Country":1.0,"State":1.0,"County":1.0,"City":1.0,"District":1.0,"Street":[1.0],"PostalCode":1.0},"Location":{"LocationId":"NT_pLeBn9QUPtHnYz9-RN0P8A_l_1159846875_R","LocationType":"point","DisplayPosition":{"Latitude":53.4178,"Longitude":-2.14372},"MapView":{"TopLeft":{"Latitude":53.4178,"Longitude":-2.14372},"BottomRight":{"Latitude":53.41761,"Longitude":-2.1434}},"Address":{"Label":"Dawson Street, Stockport, SK1 2, United Kingdom","Country":"GBR","State":"England","County":"Cheshire","City":"Stockport","District":"Stockport","Street":"Dawson Street","PostalCode":"SK1 2","AdditionalData":[{"value":"United Kingdom","key":"CountryName"},{"value":"England","key":"StateName"},{"value":"Cheshire","key":"CountyName"}]},"MapReference":{"ReferenceId":"1159846875","Spot":1.0,"SideOfStreet":"right","StateId":"20248595","CountyId":"20343157","CityId":"20343640","DistrictId":"20343641"}}},{"Relevance":1.0,"Distance":28.4,"MatchLevel":"houseNumber","MatchQuality":{"Country":1.0,"State":1.0,"County":1.0,"City":1.0,"District":1.0,"Street":[1.0],"HouseNumber":1.0,"PostalCode":1.0},"MatchType":"interpolated","Location":{"LocationId":"NT_YBVRZLURBCYY.CcfALEIzC_l_27015910_L_xUD","LocationType":"point","DisplayPosition":{"Latitude":53.4177301,"Longitude":-2.1431913},"MapView":{"TopLeft":{"Latitude":53.4188543,"Longitude":-2.1450775},"BottomRight":{"Latitude":53.416606,"Longitude":-2.1413051}},"Address":{"Label":"15 Yates Street, Stockport, SK1 2, United Kingdom","Country":"GBR","State":"England","County":"Cheshire","City":"Stockport","District":"Stockport","Street":"Yates Street","HouseNumber":"15","PostalCode":"SK1 2","AdditionalData":[{"value":"United Kingdom","key":"CountryName"},{"value":"England","key":"StateName"},{"value":"Cheshire","key":"CountyName"}]},"MapReference":{"ReferenceId":"27015910","Spot":0.16,"SideOfStreet":"left","StateId":"20248595","CountyId":"20343157","CityId":"20343640","DistrictId":"20343641"}}},{"Relevance":1.0,"Distance":36.1,"MatchLevel":"houseNumber","MatchQuality":{"Country":1.0,"State":1.0,"County":1.0,"City":1.0,"District":1.0,"Street":[1.0],"HouseNumber":1.0,"PostalCode":1.0},"MatchType":"interpolated","Location":{"LocationId":"NT_vHg96pAS3QLLeBNkqhvGJD_l_936293300_R_yID","LocationType":"point","DisplayPosition":{"Latitude":53.4178667,"Longitude":-2.14406},"MapView":{"TopLeft":{"Latitude":53.4189908,"Longitude":-2.1459462},"BottomRight":{"Latitude":53.4167425,"Longitude":-2.1421737}},"Address":{"Label":"22 Brinnington Road, Stockport, SK1 2HB, United Kingdom","Country":"GBR","State":"England","County":"Cheshire","City":"Stockport","District":"Stockport","Street":"Brinnington Road","HouseNumber":"22","PostalCode":"SK1 2HB","AdditionalData":[{"value":"United Kingdom","key":"CountryName"},{"value":"England","key":"StateName"},{"value":"Cheshire","key":"CountyName"}]},"MapReference":{"ReferenceId":"936293300","Spot":0.67,"SideOfStreet":"right","StateId":"20248595","CountyId":"20343157","CityId":"20343640","DistrictId":"20343641"}}},{"Relevance":1.0,"Distance":42.9,"MatchLevel":"street","MatchQuality":{"Country":1.0,"State":1.0,"County":1.0,"City":1.0,"District":1.0,"Street":[1.0],"PostalCode":1.0},"Location":{"LocationId":"NT_wwn0KQxUoZDJ4Ahw49Vt7C_l_936293298_R","LocationType":"point","DisplayPosition":{"Latitude":53.4183846,"Longitude":-2.1438368},"MapView":{"TopLeft":{"Latitude":53.41888,"Longitude":-2.14456},"BottomRight":{"Latitude":53.4179,"Longitude":-2.14302}},"Address":{"Label":"Crookilley Way, Stockport, SK1 2, United Kingdom","Country":"GBR","State":"England","County":"Cheshire","City":"Stockport","District":"Stockport","Street":"Crookilley Way","PostalCode":"SK1 2","AdditionalData":[{"value":"United Kingdom","key":"CountryName"},{"value":"England","key":"StateName"},{"value":"Cheshire","key":"CountyName"}]},"MapReference":{"ReferenceId":"936293298","Spot":0.48,"SideOfStreet":"right","StateId":"20248595","CountyId":"20343157","CityId":"20343640","DistrictId":"20343641"}}},{"Relevance":1.0,"Distance":48.1,"MatchLevel":"street","MatchQuality":{"Country":1.0,"State":1.0,"County":1.0,"City":1.0,"District":1.0,"Street":[1.0],"PostalCode":1.0},"Location":{"LocationId":"NT_pLeBn9QUPtHnYz9-RN0P8A_l_27015988_R","LocationType":"point","DisplayPosition":{"Latitude":53.41761,"Longitude":-2.1434},"MapView":{"TopLeft":{"Latitude":53.41761,"Longitude":-2.1434},"BottomRight":{"Latitude":53.41731,"Longitude":-2.14285}},"Address":{"Label":"Dawson Street, Stockport, SK1 2, United Kingdom","Country":"GBR","State":"England","County":"Cheshire","City":"Stockport","District":"Stockport","Street":"Dawson Street","PostalCode":"SK1 2","AdditionalData":[{"value":"United Kingdom","key":"CountryName"},{"value":"England","key":"StateName"},{"value":"Cheshire","key":"CountyName"}]},"MapReference":{"ReferenceId":"27015988","Spot":1.0,"SideOfStreet":"right","StateId":"20248595","CountyId":"20343157","CityId":"20343640","DistrictId":"20343641"}}},{"Relevance":1.0,"Distance":51.9,"MatchLevel":"postalCode","MatchQuality":{"PostalCode":1.0},"MatchType":"interpolated","Location":{"LocationId":"NT_YBVRZLURBCYY.CcfALEIzC_l_27015910_L_xUD","LocationType":"point","DisplayPosition":{"Latitude":53.41789,"Longitude":-2.14284},"MapView":{"TopLeft":{"Latitude":53.4268832,"Longitude":-2.1579299},"BottomRight":{"Latitude":53.4088968,"Longitude":-2.1277501}},"Address":{"Label":"SK1 2LH, Stockport, England, United Kingdom","Country":"GBR","State":"England","County":"Cheshire","City":"Stockport","PostalCode":"SK1 2LH","AdditionalData":[{"value":"United Kingdom","key":"CountryName"},{"value":"England","key":"StateName"},{"value":"Cheshire","key":"CountyName"}]},"MapReference":{"ReferenceId":"27015910","Spot":0.16,"SideOfStreet":"neither","StateId":"20248595","CountyId":"20343157","CityId":"20343640"}}},{"Relevance":1.0,"Distance":64.4,"MatchLevel":"postalCode","MatchQuality":{"PostalCode":1.0},"MatchType":"interpolated","Location":{"LocationId":"NT_vHg96pAS3QLLeBNkqhvGJD_l_27015838_R_zAD","LocationType":"point","DisplayPosition":{"Latitude":53.41847,"Longitude":-2.14296},"MapView":{"TopLeft":{"Latitude":53.4274632,"Longitude":-2.1580501},"BottomRight":{"Latitude":53.4094768,"Longitude":-2.1278699}},"Address":{"Label":"SK1 2EX, Stockport, England, United Kingdom","Country":"GBR","State":"England","County":"Cheshire","City":"Stockport","PostalCode":"SK1 2EX","AdditionalData":[{"value":"United Kingdom","key":"CountryName"},{"value":"England","key":"StateName"},{"value":"Cheshire","key":"CountyName"}]},"MapReference":{"ReferenceId":"27015838","Spot":0.26,"SideOfStreet":"neither","StateId":"20248595","CountyId":"20343157","CityId":"20343640"}}}]}]}}