{"Response":{"MetaInfo":{"Timestamp":"2020-03-28T10:25:21.328+0000","NextPageInformation":"2"},"View":[{"_type":"SearchResultsViewType","ViewId":0,"Result":[{"Relevance":1.0,"Distance":0.0,"Direction":0.0,"MatchLevel":"district","MatchQuality":{"Country":1.0,"State":1.0,"County":1.0,"City":1.0,"District":1.0,"PostalCode":1.0},"Location":{"LocationId":"NT_zF1dNz90zq9I6vN2LpqMVD","LocationType":"point","DisplayPosition":{"Latitude":53.460447,"Longitude":9.9854377},"MapView":{"TopLeft":{"Latitude":53.47695,"Longitude":9.96554},"BottomRight":{"Latitude":53.44883,"Longitude":10.00498}},"Address":{"Label":"Harburg, Hamburg, Deutschland","Country":"DEU","State":"Hamburg","County":"Hamburg","City":"Hamburg","District":"Harburg","PostalCode":"21073","AdditionalData":[{"value":"Deutschland","key":"CountryName"},{"value":"Hamburg","key":"StateName"},{"value":"Hamburg","key":"CountyName"}]},"MapReference":{"ReferenceId":"1176774901","SideOfStreet":"neither","CountryId":"20147700","StateId":"20151514","CountyId":"20151515","CityId":"20151516","DistrictId":"20151524"}}},{"Relevance":1.0,"Distance":25.2,"MatchLevel":"street","MatchQuality":{"Country":1.0,"State":1.0,"County":1.0,"City":1.0,"District":1.0,"PostalCode":1.0},"Location":{"LocationId":"NT_.bUX3F6RHyDC4mrwSKBjjD_l_927323340_R","LocationType":"point","DisplayPosition":{"Latitude":53.4602237,"Longitude":9.9853764},"MapView":{"TopLeft":{"Latitude":53.4605,"Longitude":9.98437},"BottomRight":{"Latitude":53.46022,"Longitude":9.98539}},"Address":{"Label":"21073 Hamburg, Deutschland","Country":"DEU","State":"Hamburg","County":"Hamburg","City":"Hamburg","District":"Harburg","PostalCode":"21073","AdditionalData":[{"value":"Deutschland","key":"CountryName"},{"value":"Hamburg","key":"StateName"},{"value":"Hamburg","key":"CountyName"}]},"MapReference":{"ReferenceId":"927323340","Spot":0.01,"SideOfStreet":"right","CountryId":"20147700","StateId":"20151514","CountyId":"20151515","CityId":"20151516","DistrictId":"20151524"}}},{"Relevance":1.0,"Distance":31.4,"MatchLevel":"houseNumber","MatchQuality":{"Country":1.0,"State":1.0,"County":1.0,"City":1.0,"District":1.0,"Street":[1.0],"HouseNumber":1.0,"PostalCode":1.0},"MatchType":"interpolated","Location":{"LocationId":"NT_9nr0GcP9A.1qWHSXAvH7zA_xA","LocationType":"point","DisplayPosition":{"Latitude":53.46073,"Longitude":9.98461},"MapView":{"TopLeft":{"Latitude":53.4618542,"Longitude":9.9827219},"BottomRight":{"Latitude":53.4596058,"Longitude":9.9864981}},"Address":{"Label":"Am Wall 1, 21073 Hamburg, Deutschland","Country":"DEU","State":"Hamburg","County":"Hamburg","City":"Hamburg","District":"Harburg","Street":"Am Wall","HouseNumber":"1","PostalCode":"21073","AdditionalData":[{"value":"Deutschland","key":"CountryName"},{"value":"Hamburg","key":"StateName"},{"value":"Hamburg","key":"CountyName"}]},"MapReference":{"ReferenceId":"51680924","Spot":0.46,"SideOfStreet":"right","CountryId":"20147700","StateId":"20151514","CountyId":"20151515","CityId":"20151516","DistrictId":"20151524","AddressId":"711203952","RoadLinkId":"36521280"}}},{"Relevance":1.0,"Distance":60.5,"MatchLevel":"houseNumber","MatchQuality":{"Country":1.0,"State":1.0,"County":1.0,"City":1.0,"District":1.0,"Street":[1.0],"HouseNumber":1.0,"PostalCode":1.0},"MatchType":"interpolated","Location":{"LocationId":"NT_tow4Ksv8JNjiJ1d-AjQZ3A_xQE","LocationType":"point","DisplayPosition":{"Latitude":53.46085,"Longitude":9.98632},"MapView":{"TopLeft":{"Latitude":53.4619742,"Longitude":9.9844318},"BottomRight":{"Latitude":53.4597258,"Longitude":9.9882082}},"Address":{"Label":"Buxtehuder Straße 1D, 21073 Hamburg, Deutschland","Country":"DEU","State":"Hamburg","County":"Hamburg","City":"Hamburg","District":"Harburg","Street":"Buxtehuder Straße","HouseNumber":"1D","PostalCode":"21073","AdditionalData":[{"value":"Deutschland","key":"CountryName"},{"value":"Hamburg","key":"StateName"},{"value":"Hamburg","key":"CountyName"}]},"MapReference":{"ReferenceId":"1189919787","Spot":0.12,"SideOfStreet":"left","CountryId":"20147700","StateId":"20151514","CountyId":"20151515","CityId":"20151516","DistrictId":"20151524","AddressId":"170084016","RoadLinkId":"499164812"}}},{"Relevance":1.0,"Distance":60.7,"MatchLevel":"houseNumber","MatchQuality":{"Country":1.0,"State":1.0,"County":1.0,"City":1.0,"District":1.0,"Street":[1.0],"HouseNumber":1.0,"PostalCode":1.0},"MatchType":"interpolated","Location":{"LocationId":"NT_g3Twq6FMkJ-TADpFkA2lAB_xA","LocationType":"point","DisplayPosition":{"Latitude":53.45992,"Longitude":9.9852},"MapView":{"TopLeft":{"Latitude":53.4610442,"Longitude":9.9833119},"BottomRight":{"Latitude":53.4587958,"Longitude":9.9870881}},"Address":{"Label":"Lauterbachstraße 1, 21073 Hamburg, Deutschland","Country":"DEU","State":"Hamburg","County":"Hamburg","City":"Hamburg","District":"Harburg","Street":"Lauterbachstraße","HouseNumber":"1","PostalCode":"21073","AdditionalData":[{"value":"Deutschland","key":"CountryName"},{"value":"Hamburg","key":"StateName"},{"value":"Hamburg","key":"CountyName"}]},"MapReference":{"ReferenceId":"51681059","Spot":0.26,"SideOfStreet":"left","CountryId":"20147700","StateId":"20151514","CountyId":"20151515","CityId":"20151516","DistrictId":"20151524","AddressId":"168991201","RoadLinkId":"36824019"}}},{"Relevance":1.0,"Distance":61.6,"MatchLevel":"houseNumber","MatchQuality":{"Country":1.0,"State":1.0,"County":1.0,"City":1.0,"District":1.0,"Street":[1.0],"HouseNumber":1.0,"PostalCode":1.0},"MatchType":"interpolated","Location":{"LocationId":"NT_F3.4J4DXXnY29V45bLsz.B_l_776459846_L_1ED","LocationType":"point","DisplayPosition":{"Latitude":53.4598315,"Longitude":9.985931},"MapView":{"TopLeft":{"Latitude":53.4609556,"Longitude":9.9840429},"BottomRight":{"Latitude":53.4587073,"Longitude":9.9878191}},"Address":{"Label":"Goldtschmidtstraße 51, 21073 Hamburg, Deutschland","Country":"DEU","State":"Hamburg","County":"Hamburg","City":"Hamburg","District":"Harburg","Street":"Goldtschmidtstraße","HouseNumber":"51","PostalCode":"21073","AdditionalData":[{"value":"Deutschland","key":"CountryName"},{"value":"Hamburg","key":"StateName"},{"value":"Hamburg","key":"CountyName"}]},"MapReference":{"ReferenceId":"776459846","Spot":0.51,"SideOfStreet":"left","CountryId":"20147700","StateId":"20151514","CountyId":"20151515","CityId":"20151516","DistrictId":"20151524"}}},{"Relevance":1.0,"Distance":62.6,"MatchLevel":"houseNumber","MatchQuality":{"Country":1.0,"State":1.0,"County":1.0,"City":1.0,"District":1.0,"Street":[1.0],"HouseNumber":1.0,"PostalCode":1.0},"MatchType":"interpolated","Location":{"LocationId":"NT_g3Twq6FMkJ-TADpFkA2lAB_3A","LocationType":"point","DisplayPosition":{"Latitude":53.45974,"Longitude":9.98548},"MapView":{"TopLeft":{"Latitude":53.4608642,"Longitude":9.9835919},"BottomRight":{"Latitude":53.4586158,"Longitude":9.9873681}},"Address":{"Label":"Lauterbachstraße 7, 21073 Hamburg, Deutschland","Country":"DEU","State":"Hamburg","County":"Hamburg","City":"Hamburg","District":"Harburg","Street":"Lauterbachstraße","HouseNumber":"7","PostalCode":"21073","AdditionalData":[{"value":"Deutschland","key":"CountryName"},{"value":"Hamburg","key":"StateName"},{"value":"Hamburg","key":"CountyName"}]},"MapReference":{"ReferenceId":"51681074","Spot":0.5,"SideOfStreet":"right","CountryId":"20147700","StateId":"20151514","CountyId":"20151515","CityId":"20151516","DistrictId":"20151524","AddressId":"169339054","RoadLinkId":"36828908"}}},{"Relevance":1.0,"Distance":65.6,"MatchLevel":"street","MatchQuality":{"Country":1.0,"State":1.0,"County":1.0,"City":1.0,"District":1.0,"Street":[1.0],"PostalCode":1.0},"Location":{"LocationId":"NT_F3.4J4DXXnY29V45bLsz.B_l_51706504_L","LocationType":"point","DisplayPosition":{"Latitude":53.45997,"Longitude":9.98602},"MapView":{"TopLeft":{"Latitude":53.46018,"Longitude":9.98597},"BottomRight":{"Latitude":53.45989,"Longitude":9.98647}},"Address":{"Label":"Goldtschmidtstraße, 21073 Hamburg, Deutschland","Country":"DEU","State":"Hamburg","County":"Hamburg","City":"Hamburg","District":"Harburg","Street":"Goldtschmidtstraße","PostalCode":"21073","AdditionalData":[{"value":"Deutschland","key":"CountryName"},{"value":"Hamburg","key":"StateName"},{"value":"Hamburg","key":"CountyName"}]},"MapReference":{"ReferenceId":"51706504","Spot":0.16,"SideOfStreet":"left","CountryId":"20147700","StateId":"20151514","CountyId":"20151515","CityId":"20151516","DistrictId":"20151524"}}},{"Relevance":1.0,"Distance":70.2,"MatchLevel":"houseNumber","MatchQuality":{"Country":1.0,"State":1.0,"County":1.0,"City":1.0,"District":1.0,"Street":[1.0],"HouseNumber":1.0,"PostalCode":1.0},"MatchType":"interpolated","Location":{"LocationId":"NT_9nr0GcP9A.1qWHSXAvH7zA_xQD","LocationType":"point","DisplayPosition":{"Latitude":53.46105,"Longitude":9.98494},"MapView":{"TopLeft":{"Latitude":53.4621742,"Longitude":9.9830518},"BottomRight":{"Latitude":53.4599258,"Longitude":9.9868282}},"Address":{"Label":"Am Wall 14, 21073 Hamburg, Deutschland","Country":"DEU","State":"Hamburg","County":"Hamburg","City":"Hamburg","District":"Harburg","Street":"Am Wall","HouseNumber":"14","PostalCode":"21073","AdditionalData":[{"value":"Deutschland","key":"CountryName"},{"value":"Hamburg","key":"StateName"},{"value":"Hamburg","key":"CountyName"}]},"MapReference":{"ReferenceId":"51680885","Spot":0.08,"SideOfStreet":"right","CountryId":"20147700","StateId":"20151514","CountyId":"20151515","CityId":"20151516","DistrictId":"20151524","AddressId":"168279980","RoadLinkId":"36497355"}}},{"Relevance":1.0,"Distance":71.3,"MatchLevel":"street","MatchQuality":{"Country":1.0,"State":1.0,"County":1.0,"City":1.0,"District":1.0,"Street":[1.0],"PostalCode":1.0},"Location":{"LocationId":"NT_F3.4J4DXXnY29V45bLsz.B_l_51706502_R","LocationType":"point","DisplayPosition":{"Latitude":53.45989,"Longitude":9.98597},"MapView":{"TopLeft":{"Latitude":53.45991,"Longitude":9.98597},"BottomRight":{"Latitude":53.45988,"Longitude":9.98656}},"Address":{"Label":"Goldtschmidtstraße, 21073 Hamburg, Deutschland","Country":"DEU","State":"Hamburg","County":"Hamburg","City":"Hamburg","District":"Harburg","Street":"Goldtschmidtstraße","PostalCode":"21073","AdditionalData":[{"value":"Deutschland","key":"CountryName"},{"value":"Hamburg","key":"StateName"},{"value":"Hamburg","key":"CountyName"}]},"MapReference":{"ReferenceId":"51706502","Spot":1.0,"SideOfStreet":"right","CountryId":"20147700","StateId":"20151514","CountyId":"20151515","CityId":"20151516","DistrictId":"20151524"}}}]}]}}