{"Response":{"MetaInfo":{"Timestamp":"2020-03-28T11:45:14.819+0000","NextPageInformation":"2"},"View":[{"_type":"SearchResultsViewType","ViewId":0,"Result":[{"Relevance":1.0,"Distance":0.0,"Direction":0.0,"MatchLevel":"district","MatchQuality":{"Country":1.0,"State":1.0,"County":1.0,"City":1.0,"District":1.0,"PostalCode":1.0},"Location":{"LocationId":"NT_sVBc8CmgNUxrUp-d5vDPFA","LocationType":"point","DisplayPosition":{"Latitude":53.431477,"Longitude":10.3758394},"MapView":{"TopLeft":{"Latitude":53.4605,"Longitude":10.32145},"BottomRight":{"Latitude":53.42285,"Longitude":10.40536}},"Address":{"Label":"Geesthacht, Schleswig-Holstein, Deutschland","Country":"DEU","State":"Schleswig-Holstein","County":"Herzogtum Lauenburg","City":"Geesthacht","District":"Geesthacht","PostalCode":"21502","AdditionalData":[{"value":"Deutschland","key":"CountryName"},{"value":"Schleswig-Holstein","key":"StateName"},{"value":"Herzogtum Lauenburg","key":"CountyName"}]},"MapReference":{"ReferenceId":"539185697","SideOfStreet":"neither","CountryId":"20147700","StateId":"20147701","CountyId":"20148138","CityId":"20148235","DistrictId":"20148237"}}},{"Relevance":1.0,"Distance":11.9,"MatchLevel":"houseNumber","MatchQuality":{"Country":1.0,"State":1.0,"County":1.0,"City":1.0,"District":1.0,"Street":[1.0],"HouseNumber":1.0,"PostalCode":1.0},"MatchType":"interpolated","Location":{"LocationId":"NT_MFxvZ.RKdfA8Q0V1DsTJ-A_4A","LocationType":"point","DisplayPosition":{"Latitude":53.43149,"Longitude":10.37608},"MapView":{"TopLeft":{"Latitude":53.4326142,"Longitude":10.3741932},"BottomRight":{"Latitude":53.4303658,"Longitude":10.3779668}},"Address":{"Label":"Rathausstraße 8, 21502 Geesthacht, Deutschland","Country":"DEU","State":"Schleswig-Holstein","County":"Herzogtum Lauenburg","City":"Geesthacht","District":"Geesthacht","Street":"Rathausstraße","HouseNumber":"8","PostalCode":"21502","AdditionalData":[{"value":"Deutschland","key":"CountryName"},{"value":"Schleswig-Holstein","key":"StateName"},{"value":"Herzogtum Lauenburg","key":"CountyName"}]},"MapReference":{"ReferenceId":"759042955","Spot":0.12,"SideOfStreet":"left","CountryId":"20147700","StateId":"20147701","CountyId":"20148138","CityId":"20148235","DistrictId":"20148237","AddressId":"196559120","RoadLinkId":"153651050"}}},{"Relevance":1.0,"Distance":23.1,"MatchLevel":"houseNumber","MatchQuality":{"Country":1.0,"State":1.0,"County":1.0,"City":1.0,"District":1.0,"Street":[1.0],"HouseNumber":1.0,"PostalCode":1.0},"MatchType":"interpolated","Location":{"LocationId":"NT_MFxvZ.RKdfA8Q0V1DsTJ-A_1A","LocationType":"point","DisplayPosition":{"Latitude":53.43127,"Longitude":10.37582},"MapView":{"TopLeft":{"Latitude":53.4323942,"Longitude":10.3739332},"BottomRight":{"Latitude":53.4301458,"Longitude":10.3777068}},"Address":{"Label":"Rathausstraße 5, 21502 Geesthacht, Deutschland","Country":"DEU","State":"Schleswig-Holstein","County":"Herzogtum Lauenburg","City":"Geesthacht","District":"Geesthacht","Street":"Rathausstraße","HouseNumber":"5","PostalCode":"21502","AdditionalData":[{"value":"Deutschland","key":"CountryName"},{"value":"Schleswig-Holstein","key":"StateName"},{"value":"Herzogtum Lauenburg","key":"CountyName"}]},"MapReference":{"ReferenceId":"759042954","Spot":0.42,"SideOfStreet":"right","CountryId":"20147700","StateId":"20147701","CountyId":"20148138","CityId":"20148235","DistrictId":"20148237","AddressId":"193486519","RoadLinkId":"153651049"}}},{"Relevance":1.0,"Distance":47.6,"MatchLevel":"houseNumber","MatchQuality":{"Country":1.0,"State":1.0,"County":1.0,"City":1.0,"District":1.0,"Street":[1.0],"HouseNumber":1.0,"PostalCode":1.0},"MatchType":"interpolated","Location":{"LocationId":"NT_IwQA7ky6SkLwVPbqSNVz1D_xcD","LocationType":"point","DisplayPosition":{"Latitude":53.43105,"Longitude":10.37578},"MapView":{"TopLeft":{"Latitude":53.4321742,"Longitude":10.3738932},"BottomRight":{"Latitude":53.4299258,"Longitude":10.3776668}},"Address":{"Label":"Bandrieter Weg 17, 21502 Geesthacht, Deutschland","Country":"DEU","State":"Schleswig-Holstein","County":"Herzogtum Lauenburg","City":"Geesthacht","District":"Geesthacht","Street":"Bandrieter Weg","HouseNumber":"17","PostalCode":"21502","AdditionalData":[{"value":"Deutschland","key":"CountryName"},{"value":"Schleswig-Holstein","key":"StateName"},{"value":"Herzogtum Lauenburg","key":"CountyName"}]},"MapReference":{"ReferenceId":"540669215","Spot":0.61,"SideOfStreet":"left","CountryId":"20147700","StateId":"20147701","CountyId":"20148138","CityId":"20148235","DistrictId":"20148237","AddressId":"622870224","RoadLinkId":"493810438"}}},{"Relevance":1.0,"Distance":53.9,"MatchLevel":"houseNumber","MatchQuality":{"Country":1.0,"State":1.0,"County":1.0,"City":1.0,"District":1.0,"Street":[1.0],"HouseNumber":1.0,"PostalCode":1.0},"MatchType":"interpolated","Location":{"LocationId":"NT_IS0PbKGxvHUXo3wpyKfKPA_0A","LocationType":"point","DisplayPosition":{"Latitude":53.43209,"Longitude":10.37586},"MapView":{"TopLeft":{"Latitude":53.4332142,"Longitude":10.3739731},"BottomRight":{"Latitude":53.4309658,"Longitude":10.3777469}},"Address":{"Label":"Hafenstraße 4, 21502 Geesthacht, Deutschland","Country":"DEU","State":"Schleswig-Holstein","County":"Herzogtum Lauenburg","City":"Geesthacht","District":"Geesthacht","Street":"Hafenstraße","HouseNumber":"4","PostalCode":"21502","AdditionalData":[{"value":"Deutschland","key":"CountryName"},{"value":"Schleswig-Holstein","key":"StateName"},{"value":"Herzogtum Lauenburg","key":"CountyName"}]},"MapReference":{"ReferenceId":"539188948","Spot":0.72,"SideOfStreet":"right","CountryId":"20147700","StateId":"20147701","CountyId":"20148138","CityId":"20148235","DistrictId":"20148237","AddressId":"195454147","RoadLinkId":"36412832"}}},{"Relevance":1.0,"Distance":54.4,"MatchLevel":"houseNumber","MatchQuality":{"Country":1.0,"State":1.0,"County":1.0,"City":1.0,"District":1.0,"Street":[1.0],"HouseNumber":1.0,"PostalCode":1.0},"MatchType":"interpolated","Location":{"LocationId":"NT_nJhNOISdZC.LQzT2hlQxOC_yQD","LocationType":"point","DisplayPosition":{"Latitude":53.43105,"Longitude":10.37544},"MapView":{"TopLeft":{"Latitude":53.4321742,"Longitude":10.3735532},"BottomRight":{"Latitude":53.4299258,"Longitude":10.3773268}},"Address":{"Label":"Markt 24, 21502 Geesthacht, Deutschland","Country":"DEU","State":"Schleswig-Holstein","County":"Herzogtum Lauenburg","City":"Geesthacht","District":"Geesthacht","Street":"Markt","HouseNumber":"24","PostalCode":"21502","AdditionalData":[{"value":"Deutschland","key":"CountryName"},{"value":"Schleswig-Holstein","key":"StateName"},{"value":"Herzogtum Lauenburg","key":"CountyName"}]},"MapReference":{"ReferenceId":"992584923","Spot":0.48,"SideOfStreet":"left","CountryId":"20147700","StateId":"20147701","CountyId":"20148138","CityId":"20148235","DistrictId":"20148237","AddressId":"193850191","RoadLinkId":"321145370"}}},{"Relevance":1.0,"Distance":54.4,"MatchLevel":"houseNumber","MatchQuality":{"Country":1.0,"State":1.0,"County":1.0,"City":1.0,"District":1.0,"Street":[1.0],"HouseNumber":1.0,"PostalCode":1.0},"MatchType":"interpolated","Location":{"LocationId":"NT_agPFOu0MCwA3AO96sIkI6B_2A","LocationType":"point","DisplayPosition":{"Latitude":53.43106,"Longitude":10.37648},"MapView":{"TopLeft":{"Latitude":53.4321842,"Longitude":10.3745932},"BottomRight":{"Latitude":53.4299358,"Longitude":10.3783668}},"Address":{"Label":"Marktstraße 6, 21502 Geesthacht, Deutschland","Country":"DEU","State":"Schleswig-Holstein","County":"Herzogtum Lauenburg","City":"Geesthacht","District":"Geesthacht","Street":"Marktstraße","HouseNumber":"6","PostalCode":"21502","AdditionalData":[{"value":"Deutschland","key":"CountryName"},{"value":"Schleswig-Holstein","key":"StateName"},{"value":"Herzogtum Lauenburg","key":"CountyName"}]},"MapReference":{"ReferenceId":"539216744","Spot":0.52,"SideOfStreet":"left","CountryId":"20147700","StateId":"20147701","CountyId":"20148138","CityId":"20148235","DistrictId":"20148237","AddressId":"193429710","RoadLinkId":"36666589"}}},{"Relevance":1.0,"Distance":66.0,"MatchLevel":"houseNumber","MatchQuality":{"Country":1.0,"State":1.0,"County":1.0,"City":1.0,"District":1.0,"Street":[1.0],"HouseNumber":1.0,"PostalCode":1.0},"MatchType":"interpolated","Location":{"LocationId":"NT_6QvNrpTPRnBN39iKVMkwwC_xA","LocationType":"point","DisplayPosition":{"Latitude":53.43113,"Longitude":10.37476},"MapView":{"TopLeft":{"Latitude":53.4322542,"Longitude":10.3728732},"BottomRight":{"Latitude":53.4300058,"Longitude":10.3766468}},"Address":{"Label":"Schillerstraße 1, 21502 Geesthacht, Deutschland","Country":"DEU","State":"Schleswig-Holstein","County":"Herzogtum Lauenburg","City":"Geesthacht","District":"Geesthacht","Street":"Schillerstraße","HouseNumber":"1","PostalCode":"21502","AdditionalData":[{"value":"Deutschland","key":"CountryName"},{"value":"Schleswig-Holstein","key":"StateName"},{"value":"Herzogtum Lauenburg","key":"CountyName"}]},"MapReference":{"ReferenceId":"539188946","Spot":0.38,"SideOfStreet":"right","CountryId":"20147700","StateId":"20147701","CountyId":"20148138","CityId":"20148235","DistrictId":"20148237","AddressId":"193834299","RoadLinkId":"36483407"}}},{"Relevance":1.0,"Distance":73.9,"MatchLevel":"street","MatchQuality":{"Country":1.0,"State":1.0,"County":1.0,"City":1.0,"District":1.0,"Street":[1.0],"PostalCode":1.0},"Location":{"LocationId":"NT_nJhNOISdZC.LQzT2hlQxOC_l_992584922_L","LocationType":"point","DisplayPosition":{"Latitude":53.43092,"Longitude":10.37523},"MapView":{"TopLeft":{"Latitude":53.43092,"Longitude":10.37511},"BottomRight":{"Latitude":53.43083,"Longitude":10.37523}},"Address":{"Label":"Markt, 21502 Geesthacht, Deutschland","Country":"DEU","State":"Schleswig-Holstein","County":"Herzogtum Lauenburg","City":"Geesthacht","District":"Geesthacht","Street":"Markt","PostalCode":"21502","AdditionalData":[{"value":"Deutschland","key":"CountryName"},{"value":"Schleswig-Holstein","key":"StateName"},{"value":"Herzogtum Lauenburg","key":"CountyName"}]},"MapReference":{"ReferenceId":"992584922","Spot":1.0,"SideOfStreet":"left","CountryId":"20147700","StateId":"20147701","CountyId":"20148138","CityId":"20148235","DistrictId":"20148237"}}},{"Relevance":1.0,"Distance":87.7,"MatchLevel":"houseNumber","MatchQuality":{"Country":1.0,"State":1.0,"County":1.0,"City":1.0,"District":1.0,"Street":[1.0],"HouseNumber":1.0,"PostalCode":1.0},"MatchType":"interpolated","Location":{"LocationId":"NT_mFnZLNuPLBj0ycuziEdVrC_xA","LocationType":"point","DisplayPosition":{"Latitude":53.43213,"Longitude":10.37672},"MapView":{"TopLeft":{"Latitude":53.4332542,"Longitude":10.3748331},"BottomRight":{"Latitude":53.4310058,"Longitude":10.3786069}},"Address":{"Label":"Lauenburger Straße 1, 21502 Geesthacht, Deutschland","Country":"DEU","State":"Schleswig-Holstein","County":"Herzogtum Lauenburg","City":"Geesthacht","District":"Geesthacht","Street":"Lauenburger Straße","HouseNumber":"1","PostalCode":"21502","AdditionalData":[{"value":"Deutschland","key":"CountryName"},{"value":"Schleswig-Holstein","key":"StateName"},{"value":"Herzogtum Lauenburg","key":"CountyName"}]},"MapReference":{"ReferenceId":"539185985","Spot":0.12,"SideOfStreet":"right","CountryId":"20147700","StateId":"20147701","CountyId":"20148138","CityId":"20148235","DistrictId":"20148237","AddressId":"194971379","RoadLinkId":"36313773"}}}]}]}}