{"Response":{"MetaInfo":{"Timestamp":"2020-03-28T09:51:15.529+0000","NextPageInformation":"2"},"View":[{"_type":"SearchResultsViewType","ViewId":0,"Result":[{"Relevance":1.0,"Distance":-17.8,"MatchLevel":"landmark","MatchQuality":{"Country":1.0,"State":1.0,"County":1.0,"City":1.0,"District":1.0,"Street":[1.0],"PostalCode":1.0,"Name":1.0},"Location":{"LocationId":"NT_W9jEia0rf9anzMDumI9NHA_p_aHI6FzK-0M5FR-8M3CLVoA","LocationType":"shoppingCentre","Name":"Fallowfield Shopping Centre","DisplayPosition":{"Latitude":53.44337,"Longitude":-2.20529},"MapView":{"TopLeft":{"Latitude":53.44419,"Longitude":-2.20583},"BottomRight":{"Latitude":53.44204,"Longitude":-2.20327}},"Address":{"Label":"Fallowfield Retail Park, Manchester, M14 6, United Kingdom","Country":"GBR","State":"England","County":"Lancashire","City":"Manchester","District":"Ladybarn","Street":"Fallowfield Retail Park","PostalCode":"M14 6","AdditionalData":[{"value":"United Kingdom","key":"CountryName"},{"value":"England","key":"StateName"},{"value":"Lancashire","key":"CountyName"}]},"MapReference":{"StateId":"20248595","CountyId":"20343938","CityId":"20344206","DistrictId":"20344233","PlaceId":"1000977737"}}},{"Relevance":1.0,"Distance":0.0,"Direction":0.0,"MatchLevel":"district","MatchQuality":{"Country":1.0,"State":1.0,"County":1.0,"City":1.0,"District":1.0,"PostalCode":1.0},"Location":{"LocationId":"NT_czZ8iRd2laUyvWhuuEdZrC","LocationType":"point","DisplayPosition":{"Latitude":53.4422329,"Longitude":-2.2049782},"MapView":{"TopLeft":{"Latitude":53.44953,"Longitude":-2.2196},"BottomRight":{"Latitude":53.4335,"Longitude":-2.20024}},"Address":{"Label":"Ladybarn, Manchester, England, United Kingdom","Country":"GBR","State":"England","County":"Lancashire","City":"Manchester","District":"Ladybarn","PostalCode":"M14 6","AdditionalData":[{"value":"United Kingdom","key":"CountryName"},{"value":"England","key":"StateName"},{"value":"Lancashire","key":"CountyName"}]},"MapReference":{"ReferenceId":"27280324","SideOfStreet":"neither","StateId":"20248595","CountyId":"20343938","CityId":"20344206","DistrictId":"20344233"}}},{"Relevance":1.0,"Distance":17.8,"MatchLevel":"street","MatchQuality":{"Country":1.0,"State":1.0,"County":1.0,"City":1.0,"District":1.0,"PostalCode":1.0},"Location":{"LocationId":"NT_j-MTCPhewDk-jsTEKrVF-B_l_565952233_R","LocationType":"point","DisplayPosition":{"Latitude":53.44208,"Longitude":-2.20506},"MapView":{"TopLeft":{"Latitude":53.4421,"Longitude":-2.20521},"BottomRight":{"Latitude":53.44208,"Longitude":-2.20506}},"Address":{"Label":"Manchester, M14 6, United Kingdom","Country":"GBR","State":"England","County":"Lancashire","City":"Manchester","District":"Ladybarn","PostalCode":"M14 6","AdditionalData":[{"value":"United Kingdom","key":"CountryName"},{"value":"England","key":"StateName"},{"value":"Lancashire","key":"CountyName"}]},"MapReference":{"ReferenceId":"565952233","Spot":0.0,"SideOfStreet":"right","StateId":"20248595","CountyId":"20343938","CityId":"20344206","DistrictId":"20344233"}}},{"Relevance":1.0,"Distance":17.8,"MatchLevel":"street","MatchQuality":{"Country":1.0,"State":1.0,"County":1.0,"City":1.0,"District":1.0,"PostalCode":1.0},"Location":{"LocationId":"NT_j-MTCPhewDk-jsTEKrVF-B_l_1186236818_R","LocationType":"point","DisplayPosition":{"Latitude":53.44208,"Longitude":-2.20506},"MapView":{"TopLeft":{"Latitude":53.44208,"Longitude":-2.20506},"BottomRight":{"Latitude":53.44204,"Longitude":-2.20503}},"Address":{"Label":"Manchester, M14 6, United Kingdom","Country":"GBR","State":"England","County":"Lancashire","City":"Manchester","District":"Ladybarn","PostalCode":"M14 6","AdditionalData":[{"value":"United Kingdom","key":"CountryName"},{"value":"England","key":"StateName"},{"value":"Lancashire","key":"CountyName"}]},"MapReference":{"ReferenceId":"1186236818","Spot":1.0,"SideOfStreet":"right","StateId":"20248595","CountyId":"20343938","CityId":"20344206","DistrictId":"20344233"}}},{"Relevance":1.0,"Distance":17.9,"MatchLevel":"street","MatchQuality":{"Country":1.0,"State":1.0,"County":1.0,"City":1.0,"District":1.0,"Street":[1.0],"PostalCode":1.0},"Location":{"LocationId":"NT_LLYxxVQU9BGXjuaeR.EwWA_l_27278933_R","LocationType":"point","DisplayPosition":{"Latitude":53.4420721,"Longitude":-2.2049989},"MapView":{"TopLeft":{"Latitude":53.44208,"Longitude":-2.20506},"BottomRight":{"Latitude":53.44204,"Longitude":-2.20475}},"Address":{"Label":"Moseley Road, Manchester, M14 6, United Kingdom","Country":"GBR","State":"England","County":"Lancashire","City":"Manchester","District":"Ladybarn","Street":"Moseley Road","PostalCode":"M14 6","AdditionalData":[{"value":"United Kingdom","key":"CountryName"},{"value":"England","key":"StateName"},{"value":"Lancashire","key":"CountyName"}]},"MapReference":{"ReferenceId":"27278933","Spot":0.8,"SideOfStreet":"right","StateId":"20248595","CountyId":"20343938","CityId":"20344206","DistrictId":"20344233"}}},{"Relevance":1.0,"Distance":19.7,"MatchLevel":"houseNumber","MatchQuality":{"Country":1.0,"State":1.0,"County":1.0,"City":1.0,"District":1.0,"Street":[1.0],"HouseNumber":1.0,"PostalCode":1.0},"MatchType":"interpolated","Location":{"LocationId":"NT_RS1wl9Sv9bMNIbLHoYPhiC_l_1148337222_L_xcjN","LocationType":"point","DisplayPosition":{"Latitude":53.44217,"Longitude":-2.2052567},"MapView":{"TopLeft":{"Latitude":53.4432942,"Longitude":-2.207144},"BottomRight":{"Latitude":53.4410459,"Longitude":-2.2033694}},"Address":{"Label":"176 Birchfields Road, Manchester, M14 6PE, United Kingdom","Country":"GBR","State":"England","County":"Lancashire","City":"Manchester","District":"Ladybarn","Street":"Birchfields Road","HouseNumber":"176","PostalCode":"M14 6PE","AdditionalData":[{"value":"United Kingdom","key":"CountryName"},{"value":"England","key":"StateName"},{"value":"Lancashire","key":"CountyName"}]},"MapReference":{"ReferenceId":"1148337222","Spot":0.33,"SideOfStreet":"left","StateId":"20248595","CountyId":"20343938","CityId":"20344206","DistrictId":"20344233"}}},{"Relevance":1.0,"Distance":21.7,"MatchLevel":"street","MatchQuality":{"Country":1.0,"State":1.0,"County":1.0,"City":1.0,"District":1.0,"PostalCode":1.0},"Location":{"LocationId":"NT_j-MTCPhewDk-jsTEKrVF-B_l_1186236817_R","LocationType":"point","DisplayPosition":{"Latitude":53.44204,"Longitude":-2.20503},"MapView":{"TopLeft":{"Latitude":53.44204,"Longitude":-2.20504},"BottomRight":{"Latitude":53.44197,"Longitude":-2.20503}},"Address":{"Label":"Manchester, M14 6, United Kingdom","Country":"GBR","State":"England","County":"Lancashire","City":"Manchester","District":"Ladybarn","PostalCode":"M14 6","AdditionalData":[{"value":"United Kingdom","key":"CountryName"},{"value":"England","key":"StateName"},{"value":"Lancashire","key":"CountyName"}]},"MapReference":{"ReferenceId":"1186236817","Spot":1.0,"SideOfStreet":"right","StateId":"20248595","CountyId":"20343938","CityId":"20344206","DistrictId":"20344233"}}},{"Relevance":1.0,"Distance":22.1,"MatchLevel":"street","MatchQuality":{"Country":1.0,"State":1.0,"County":1.0,"City":1.0,"District":1.0,"PostalCode":1.0},"Location":{"LocationId":"NT_j-MTCPhewDk-jsTEKrVF-B_l_30093104_L","LocationType":"point","DisplayPosition":{"Latitude":53.44209,"Longitude":-2.20521},"MapView":{"TopLeft":{"Latitude":53.44209,"Longitude":-2.20527},"BottomRight":{"Latitude":53.44205,"Longitude":-2.20521}},"Address":{"Label":"Manchester, M14 6, United Kingdom","Country":"GBR","State":"England","County":"Lancashire","City":"Manchester","District":"Ladybarn","PostalCode":"M14 6","AdditionalData":[{"value":"United Kingdom","key":"CountryName"},{"value":"England","key":"StateName"},{"value":"Lancashire","key":"CountyName"}]},"MapReference":{"ReferenceId":"30093104","Spot":1.0,"SideOfStreet":"left","StateId":"20248595","CountyId":"20343938","CityId":"20344206","DistrictId":"20344233"}}},{"Relevance":1.0,"Distance":26.2,"MatchLevel":"street","MatchQuality":{"Country":1.0,"State":1.0,"County":1.0,"City":1.0,"District":1.0,"Street":[1.0],"PostalCode":1.0},"Location":{"LocationId":"NT_RS1wl9Sv9bMNIbLHoYPhiC_l_27278932_L","LocationType":"point","DisplayPosition":{"Latitude":53.44204,"Longitude":-2.20475},"MapView":{"TopLeft":{"Latitude":53.44206,"Longitude":-2.20475},"BottomRight":{"Latitude":53.44204,"Longitude":-2.20465}},"Address":{"Label":"Moseley Road, Manchester, M14 6, United Kingdom","Country":"GBR","State":"England","County":"Lancashire","City":"Manchester","District":"Ladybarn","Street":"Moseley Road","PostalCode":"M14 6","AdditionalData":[{"value":"United Kingdom","key":"CountryName"},{"value":"England","key":"StateName"},{"value":"Lancashire","key":"CountyName"}]},"MapReference":{"ReferenceId":"27278932","Spot":0.0,"SideOfStreet":"left","StateId":"20248595","CountyId":"20343938","CityId":"20344206","DistrictId":"20344233"}}},{"Relevance":1.0,"Distance":26.3,"MatchLevel":"street","MatchQuality":{"Country":1.0,"State":1.0,"County":1.0,"City":1.0,"District":1.0,"Street":[1.0],"PostalCode":1.0},"Location":{"LocationId":"NT_LLYxxVQU9BGXjuaeR.EwWA_l_27278962_L","LocationType":"point","DisplayPosition":{"Latitude":53.4419986,"Longitude":-2.2049216},"MapView":{"TopLeft":{"Latitude":53.44204,"Longitude":-2.20504},"BottomRight":{"Latitude":53.44197,"Longitude":-2.20475}},"Address":{"Label":"Moseley Road, Manchester, M14 6, United Kingdom","Country":"GBR","State":"England","County":"Lancashire","City":"Manchester","District":"Ladybarn","Street":"Moseley Road","PostalCode":"M14 6","AdditionalData":[{"value":"United Kingdom","key":"CountryName"},{"value":"England","key":"StateName"},{"value":"Lancashire","key":"CountyName"}]},"MapReference":{"ReferenceId":"27278962","Spot":0.41,"SideOfStreet":"left","StateId":"20248595","CountyId":"20343938","CityId":"20344206","DistrictId":"20344233"}}}]}]}}