{"Response":{"MetaInfo":{"Timestamp":"2020-03-28T10:46:04.971+0000","NextPageInformation":"2"},"View":[{"_type":"SearchResultsViewType","ViewId":0,"Result":[{"Relevance":1.0,"Distance":0.0,"Direction":0.0,"MatchLevel":"district","MatchQuality":{"Country":1.0,"State":1.0,"County":1.0,"City":1.0,"District":1.0,"PostalCode":1.0},"Location":{"LocationId":"NT_g5HEvhX.DMPonw3TO5IpVC","LocationType":"point","DisplayPosition":{"Latitude":53.4383161,"Longitude":14.5762407},"MapView":{"TopLeft":{"Latitude":53.53394,"Longitude":14.46159},"BottomRight":{"Latitude":53.3333,"Longitude":14.786}},"Address":{"Label":"Szczecin, Woj. Zachodniopomorskie, Polska","Country":"POL","State":"Woj. Zachodniopomorskie","County":"Szczecin","City":"Szczecin","District":"Szczecin","PostalCode":"70-560","AdditionalData":[{"value":"Polska","key":"CountryName"},{"value":"Woj. Zachodniopomorskie","key":"StateName"},{"value":"Szczecin","key":"CountyName"}]},"MapReference":{"ReferenceId":"915371547","SideOfStreet":"neither","CountryId":"20624059","StateId":"20631896","CountyId":"20632163","CityId":"20632164","DistrictId":"20646826"}}},{"Relevance":1.0,"Distance":37.9,"MatchLevel":"street","MatchQuality":{"Country":1.0,"State":1.0,"County":1.0,"City":1.0,"District":1.0,"PostalCode":1.0},"Location":{"LocationId":"NT_7DeSsHQC1d4maR-JDTt-cD_l_1201308572_L","LocationType":"point","DisplayPosition":{"Latitude":53.43841,"Longitude":14.57679},"MapView":{"TopLeft":{"Latitude":53.43868,"Longitude":14.57679},"BottomRight":{"Latitude":53.43835,"Longitude":14.57717}},"Address":{"Label":"71-641 Szczecin, Polska","Country":"POL","State":"Woj. Zachodniopomorskie","County":"Szczecin","City":"Szczecin","District":"Szczecin","PostalCode":"71-641","AdditionalData":[{"value":"Polska","key":"CountryName"},{"value":"Woj. Zachodniopomorskie","key":"StateName"},{"value":"Szczecin","key":"CountyName"}]},"MapReference":{"ReferenceId":"1201308572","Spot":0.61,"SideOfStreet":"left","CountryId":"20624059","StateId":"20631896","CountyId":"20632163","CityId":"20632164","DistrictId":"20646826"}}},{"Relevance":1.0,"Distance":40.7,"MatchLevel":"houseNumber","MatchQuality":{"Country":1.0,"State":1.0,"County":1.0,"City":1.0,"District":1.0,"Street":[1.0],"HouseNumber":1.0,"PostalCode":1.0},"MatchType":"interpolated","Location":{"LocationId":"NT_Xxit1ZhWRO3H-vqrReJ8xA_ycD","LocationType":"point","DisplayPosition":{"Latitude":53.43754,"Longitude":14.576},"MapView":{"TopLeft":{"Latitude":53.4386642,"Longitude":14.5741129},"BottomRight":{"Latitude":53.4364158,"Longitude":14.5778871}},"Address":{"Label":"ulica Stanisława Dubois 27, 71-610 Szczecin, Polska","Country":"POL","State":"Woj. Zachodniopomorskie","County":"Szczecin","City":"Szczecin","District":"Szczecin","Street":"ulica Stanisława Dubois","HouseNumber":"27","PostalCode":"71-610","AdditionalData":[{"value":"Polska","key":"CountryName"},{"value":"Woj. Zachodniopomorskie","key":"StateName"},{"value":"Szczecin","key":"CountyName"}]},"MapReference":{"ReferenceId":"1200900954","Spot":0.0,"SideOfStreet":"right","CountryId":"20624059","StateId":"20631896","CountyId":"20632163","CityId":"20632164","DistrictId":"20646826","AddressId":"210079677","RoadLinkId":"513333856"}}},{"Relevance":1.0,"Distance":41.1,"MatchLevel":"houseNumber","MatchQuality":{"Country":1.0,"State":1.0,"County":1.0,"City":1.0,"District":1.0,"Street":[1.0],"HouseNumber":1.0,"PostalCode":1.0},"MatchType":"interpolated","Location":{"LocationId":"NT_eaUX1SAN3SLMYtu4qj9ShB_xYD","LocationType":"point","DisplayPosition":{"Latitude":53.43877,"Longitude":14.57592},"MapView":{"TopLeft":{"Latitude":53.4398942,"Longitude":14.5740328},"BottomRight":{"Latitude":53.4376458,"Longitude":14.5778072}},"Address":{"Label":"ulica Ignacego Łyskowskiego 16, 71-641 Szczecin, Polska","Country":"POL","State":"Woj. Zachodniopomorskie","County":"Szczecin","City":"Szczecin","District":"Szczecin","Street":"ulica Ignacego Łyskowskiego","HouseNumber":"16","PostalCode":"71-641","AdditionalData":[{"value":"Polska","key":"CountryName"},{"value":"Woj. Zachodniopomorskie","key":"StateName"},{"value":"Szczecin","key":"CountyName"}]},"MapReference":{"ReferenceId":"1201307420","Spot":0.87,"SideOfStreet":"right","CountryId":"20624059","StateId":"20631896","CountyId":"20632163","CityId":"20632164","DistrictId":"20646826","AddressId":"209831129","RoadLinkId":"513827764"}}},{"Relevance":1.0,"Distance":48.2,"MatchLevel":"houseNumber","MatchQuality":{"Country":1.0,"State":1.0,"County":1.0,"City":1.0,"District":1.0,"Street":[1.0],"HouseNumber":1.0,"PostalCode":1.0},"MatchType":"interpolated","Location":{"LocationId":"NT_eaUX1SAN3SLMYtu4qj9ShB_xgD","LocationType":"point","DisplayPosition":{"Latitude":53.43896,"Longitude":14.5766},"MapView":{"TopLeft":{"Latitude":53.4400842,"Longitude":14.5747128},"BottomRight":{"Latitude":53.4378358,"Longitude":14.5784872}},"Address":{"Label":"ulica Ignacego Łyskowskiego 18, 71-641 Szczecin, Polska","Country":"POL","State":"Woj. Zachodniopomorskie","County":"Szczecin","City":"Szczecin","District":"Szczecin","Street":"ulica Ignacego Łyskowskiego","HouseNumber":"18","PostalCode":"71-641","AdditionalData":[{"value":"Polska","key":"CountryName"},{"value":"Woj. Zachodniopomorskie","key":"StateName"},{"value":"Szczecin","key":"CountyName"}]},"MapReference":{"ReferenceId":"1201308569","Spot":0.2,"SideOfStreet":"right","CountryId":"20624059","StateId":"20631896","CountyId":"20632163","CityId":"20632164","DistrictId":"20646826","AddressId":"210421141","RoadLinkId":"513829077"}}},{"Relevance":1.0,"Distance":63.5,"MatchLevel":"street","MatchQuality":{"Country":1.0,"State":1.0,"County":1.0,"City":1.0,"District":1.0,"PostalCode":1.0},"Location":{"LocationId":"NT_7DeSsHQC1d4maR-JDTt-cD_l_1201308573_L","LocationType":"point","DisplayPosition":{"Latitude":53.43868,"Longitude":14.57698},"MapView":{"TopLeft":{"Latitude":53.43884,"Longitude":14.57698},"BottomRight":{"Latitude":53.43868,"Longitude":14.57711}},"Address":{"Label":"71-641 Szczecin, Polska","Country":"POL","State":"Woj. Zachodniopomorskie","County":"Szczecin","City":"Szczecin","District":"Szczecin","PostalCode":"71-641","AdditionalData":[{"value":"Polska","key":"CountryName"},{"value":"Woj. Zachodniopomorskie","key":"StateName"},{"value":"Szczecin","key":"CountyName"}]},"MapReference":{"ReferenceId":"1201308573","Spot":0.0,"SideOfStreet":"left","CountryId":"20624059","StateId":"20631896","CountyId":"20632163","CityId":"20632164","DistrictId":"20646826"}}},{"Relevance":1.0,"Distance":65.8,"MatchLevel":"street","MatchQuality":{"Country":1.0,"State":1.0,"County":1.0,"City":1.0,"District":1.0,"Street":[1.0],"PostalCode":1.0},"Location":{"LocationId":"NT_eaUX1SAN3SLMYtu4qj9ShB_l_1201307421_R","LocationType":"point","DisplayPosition":{"Latitude":53.4389,"Longitude":14.57608},"MapView":{"TopLeft":{"Latitude":53.43896,"Longitude":14.57608},"BottomRight":{"Latitude":53.4389,"Longitude":14.57647}},"Address":{"Label":"ulica Ignacego Łyskowskiego, 71-641 Szczecin, Polska","Country":"POL","State":"Woj. Zachodniopomorskie","County":"Szczecin","City":"Szczecin","District":"Szczecin","Street":"ulica Ignacego Łyskowskiego","PostalCode":"71-641","AdditionalData":[{"value":"Polska","key":"CountryName"},{"value":"Woj. Zachodniopomorskie","key":"StateName"},{"value":"Szczecin","key":"CountyName"}]},"MapReference":{"ReferenceId":"1201307421","Spot":0.0,"SideOfStreet":"right","CountryId":"20624059","StateId":"20631896","CountyId":"20632163","CityId":"20632164","DistrictId":"20646826"}}},{"Relevance":1.0,"Distance":65.8,"MatchLevel":"street","MatchQuality":{"Country":1.0,"State":1.0,"County":1.0,"City":1.0,"District":1.0,"PostalCode":1.0},"Location":{"LocationId":"NT_7DeSsHQC1d4maR-JDTt-cD_l_1201307422_R","LocationType":"point","DisplayPosition":{"Latitude":53.4389,"Longitude":14.57608},"MapView":{"TopLeft":{"Latitude":53.43929,"Longitude":14.57599},"BottomRight":{"Latitude":53.4389,"Longitude":14.57608}},"Address":{"Label":"71-641 Szczecin, Polska","Country":"POL","State":"Woj. Zachodniopomorskie","County":"Szczecin","City":"Szczecin","District":"Szczecin","PostalCode":"71-641","AdditionalData":[{"value":"Polska","key":"CountryName"},{"value":"Woj. Zachodniopomorskie","key":"StateName"},{"value":"Szczecin","key":"CountyName"}]},"MapReference":{"ReferenceId":"1201307422","Spot":0.0,"SideOfStreet":"right","CountryId":"20624059","StateId":"20631896","CountyId":"20632163","CityId":"20632164","DistrictId":"20646826"}}},{"Relevance":1.0,"Distance":73.2,"MatchLevel":"street","MatchQuality":{"Country":1.0,"State":1.0,"County":1.0,"City":1.0,"District":1.0,"PostalCode":1.0},"Location":{"LocationId":"NT_7DeSsHQC1d4maR-JDTt-cD_l_1150638440_L","LocationType":"point","DisplayPosition":{"Latitude":53.43896,"Longitude":14.57647},"MapView":{"TopLeft":{"Latitude":53.43911,"Longitude":14.57645},"BottomRight":{"Latitude":53.43896,"Longitude":14.57647}},"Address":{"Label":"71-641 Szczecin, Polska","Country":"POL","State":"Woj. Zachodniopomorskie","County":"Szczecin","City":"Szczecin","District":"Szczecin","PostalCode":"71-641","AdditionalData":[{"value":"Polska","key":"CountryName"},{"value":"Woj. Zachodniopomorskie","key":"StateName"},{"value":"Szczecin","key":"CountyName"}]},"MapReference":{"ReferenceId":"1150638440","Spot":0.0,"SideOfStreet":"left","CountryId":"20624059","StateId":"20631896","CountyId":"20632163","CityId":"20632164","DistrictId":"20646826"}}},{"Relevance":1.0,"Distance":87.8,"MatchLevel":"street","MatchQuality":{"Country":1.0,"State":1.0,"County":1.0,"City":1.0,"District":1.0,"Street":[1.0],"PostalCode":1.0},"Location":{"LocationId":"NT_Xxit1ZhWRO3H-vqrReJ8xA_l_1201306119_L","LocationType":"point","DisplayPosition":{"Latitude":53.43754,"Longitude":14.576},"MapView":{"TopLeft":{"Latitude":53.43754,"Longitude":14.5756},"BottomRight":{"Latitude":53.43693,"Longitude":14.576}},"Address":{"Label":"ulica Stanisława Dubois, 71-610 Szczecin, Polska","Country":"POL","State":"Woj. Zachodniopomorskie","County":"Szczecin","City":"Szczecin","District":"Szczecin","Street":"ulica Stanisława Dubois","PostalCode":"71-610","AdditionalData":[{"value":"Polska","key":"CountryName"},{"value":"Woj. Zachodniopomorskie","key":"StateName"},{"value":"Szczecin","key":"CountyName"}]},"MapReference":{"ReferenceId":"1201306119","Spot":1.0,"SideOfStreet":"left","CountryId":"20624059","StateId":"20631896","CountyId":"20632163","CityId":"20632164","DistrictId":"20646826"}}}]}]}}