{"Response":{"MetaInfo":{"Timestamp":"2020-03-28T10:34:31.088+0000","NextPageInformation":"2"},"View":[{"_type":"SearchResultsViewType","ViewId":0,"Result":[{"Relevance":1.0,"Distance":0.0,"Direction":0.0,"MatchLevel":"district","MatchQuality":{"Country":1.0,"State":1.0,"County":1.0,"City":1.0,"District":1.0,"PostalCode":1.0},"Location":{"LocationId":"NT_KP6ribEn.GU5Y.1NzVsDYA","LocationType":"point","DisplayPosition":{"Latitude":53.4099432,"Longitude":-1.5077145},"MapView":{"TopLeft":{"Latitude":53.45298,"Longitude":-1.57369},"BottomRight":{"Latitude":53.31558,"Longitude":-1.32661}},"Address":{"Label":"Sheffield, England, United Kingdom","Country":"GBR","State":"England","County":"South Yorkshire","City":"Sheffield","District":"Sheffield","PostalCode":"S1 2","AdditionalData":[{"value":"United Kingdom","key":"CountryName"},{"value":"England","key":"StateName"},{"value":"South Yorkshire","key":"CountyName"}]},"MapReference":{"ReferenceId":"27539861","SideOfStreet":"neither","StateId":"20248595","CountyId":"20344788","CityId":"20344969","DistrictId":"20344970"}}},{"Relevance":1.0,"Distance":0.9,"MatchLevel":"houseNumber","MatchQuality":{"Country":1.0,"State":1.0,"County":1.0,"City":1.0,"District":1.0,"Street":[1.0],"HouseNumber":1.0,"PostalCode":1.0},"MatchType":"interpolated","Location":{"LocationId":"NT_03ZDlnOIuBCij2IPde8cYC_l_27112459_R_2UD","LocationType":"point","DisplayPosition":{"Latitude":53.4100827,"Longitude":-1.5077426},"MapView":{"TopLeft":{"Latitude":53.4112069,"Longitude":-1.5096285},"BottomRight":{"Latitude":53.4089585,"Longitude":-1.5058568}},"Address":{"Label":"65 Wadsley Lane, Sheffield, S6 4, United Kingdom","Country":"GBR","State":"England","County":"South Yorkshire","City":"Sheffield","District":"Sheffield","Street":"Wadsley Lane","HouseNumber":"65","PostalCode":"S6 4","AdditionalData":[{"value":"United Kingdom","key":"CountryName"},{"value":"England","key":"StateName"},{"value":"South Yorkshire","key":"CountyName"}]},"MapReference":{"ReferenceId":"27112459","Spot":0.52,"SideOfStreet":"right","StateId":"20248595","CountyId":"20344788","CityId":"20344969","DistrictId":"20344970"}}},{"Relevance":1.0,"Distance":6.9,"MatchLevel":"houseNumber","MatchQuality":{"Country":1.0,"State":1.0,"County":1.0,"City":1.0,"District":1.0,"Street":[1.0],"HouseNumber":1.0,"PostalCode":1.0},"MatchType":"interpolated","Location":{"LocationId":"NT_mRGTVvTZeoNB9Jjb67PM7B_l_27112644_R_xA","LocationType":"point","DisplayPosition":{"Latitude":53.4098212,"Longitude":-1.5079642},"MapView":{"TopLeft":{"Latitude":53.4109453,"Longitude":-1.5098501},"BottomRight":{"Latitude":53.408697,"Longitude":-1.5060783}},"Address":{"Label":"1 Far Lane, Sheffield, S6 4FA, United Kingdom","Country":"GBR","State":"England","County":"South Yorkshire","City":"Sheffield","District":"Sheffield","Street":"Far Lane","HouseNumber":"1","PostalCode":"S6 4FA","AdditionalData":[{"value":"United Kingdom","key":"CountryName"},{"value":"England","key":"StateName"},{"value":"South Yorkshire","key":"CountyName"}]},"MapReference":{"ReferenceId":"27112644","Spot":0.77,"SideOfStreet":"right","StateId":"20248595","CountyId":"20344788","CityId":"20344969","DistrictId":"20344970"}}},{"Relevance":1.0,"Distance":27.9,"MatchLevel":"houseNumber","MatchQuality":{"Country":1.0,"State":1.0,"County":1.0,"City":1.0,"District":1.0,"Street":[1.0],"HouseNumber":1.0,"PostalCode":1.0},"MatchType":"interpolated","Location":{"LocationId":"NT_muAp89x3rp9KL9CLXYfwvA_l_27112672_L_xITO","LocationType":"point","DisplayPosition":{"Latitude":53.4099331,"Longitude":-1.5072146},"MapView":{"TopLeft":{"Latitude":53.4110572,"Longitude":-1.5091005},"BottomRight":{"Latitude":53.4088089,"Longitude":-1.5053287}},"Address":{"Label":"129 Dixon Road, Sheffield, S6 4GA, United Kingdom","Country":"GBR","State":"England","County":"South Yorkshire","City":"Sheffield","District":"Sheffield","Street":"Dixon Road","HouseNumber":"129","PostalCode":"S6 4GA","AdditionalData":[{"value":"United Kingdom","key":"CountryName"},{"value":"England","key":"StateName"},{"value":"South Yorkshire","key":"CountyName"}]},"MapReference":{"ReferenceId":"27112672","Spot":0.84,"SideOfStreet":"left","StateId":"20248595","CountyId":"20344788","CityId":"20344969","DistrictId":"20344970"}}},{"Relevance":1.0,"Distance":39.4,"MatchLevel":"houseNumber","MatchQuality":{"Country":1.0,"State":1.0,"County":1.0,"City":1.0,"District":1.0,"Street":[1.0],"HouseNumber":1.0,"PostalCode":1.0},"MatchType":"interpolated","Location":{"LocationId":"NT_03ZDlnOIuBCij2IPde8cYC_l_27112434_R_2MD","LocationType":"point","DisplayPosition":{"Latitude":53.4101601,"Longitude":-1.5071596},"MapView":{"TopLeft":{"Latitude":53.4112842,"Longitude":-1.5090455},"BottomRight":{"Latitude":53.4090359,"Longitude":-1.5052737}},"Address":{"Label":"63 Wadsley Lane, Sheffield, S6 4EA, United Kingdom","Country":"GBR","State":"England","County":"South Yorkshire","City":"Sheffield","District":"Sheffield","Street":"Wadsley Lane","HouseNumber":"63","PostalCode":"S6 4EA","AdditionalData":[{"value":"United Kingdom","key":"CountryName"},{"value":"England","key":"StateName"},{"value":"South Yorkshire","key":"CountyName"}]},"MapReference":{"ReferenceId":"27112434","Spot":0.09,"SideOfStreet":"right","StateId":"20248595","CountyId":"20344788","CityId":"20344969","DistrictId":"20344970"}}},{"Relevance":1.0,"Distance":43.8,"MatchLevel":"houseNumber","MatchQuality":{"Country":1.0,"State":1.0,"County":1.0,"City":1.0,"District":1.0,"Street":[1.0],"HouseNumber":1.0,"PostalCode":1.0},"MatchType":"interpolated","Location":{"LocationId":"NT_03ZDlnOIuBCij2IPde8cYC_l_1056177793_L_2cD","LocationType":"point","DisplayPosition":{"Latitude":53.41005,"Longitude":-1.50835},"MapView":{"TopLeft":{"Latitude":53.4111742,"Longitude":-1.5102359},"BottomRight":{"Latitude":53.4089259,"Longitude":-1.5064641}},"Address":{"Label":"67 Wadsley Lane, Sheffield, S6 4ED, United Kingdom","Country":"GBR","State":"England","County":"South Yorkshire","City":"Sheffield","District":"Sheffield","Street":"Wadsley Lane","HouseNumber":"67","PostalCode":"S6 4ED","AdditionalData":[{"value":"United Kingdom","key":"CountryName"},{"value":"England","key":"StateName"},{"value":"South Yorkshire","key":"CountyName"}]},"MapReference":{"ReferenceId":"1056177793","Spot":0.44,"SideOfStreet":"left","StateId":"20248595","CountyId":"20344788","CityId":"20344969","DistrictId":"20344970"}}},{"Relevance":1.0,"Distance":62.8,"MatchLevel":"houseNumber","MatchQuality":{"Country":1.0,"State":1.0,"County":1.0,"City":1.0,"District":1.0,"Street":[1.0],"HouseNumber":1.0,"PostalCode":1.0},"MatchType":"interpolated","Location":{"LocationId":"NT_03ZDlnOIuBCij2IPde8cYC_l_1056177794_R_xIDM","LocationType":"point","DisplayPosition":{"Latitude":53.41011,"Longitude":-1.50862},"MapView":{"TopLeft":{"Latitude":53.4112342,"Longitude":-1.5105059},"BottomRight":{"Latitude":53.4089859,"Longitude":-1.5067341}},"Address":{"Label":"120 Wadsley Lane, Sheffield, S6 4ED, United Kingdom","Country":"GBR","State":"England","County":"South Yorkshire","City":"Sheffield","District":"Sheffield","Street":"Wadsley Lane","HouseNumber":"120","PostalCode":"S6 4ED","AdditionalData":[{"value":"United Kingdom","key":"CountryName"},{"value":"England","key":"StateName"},{"value":"South Yorkshire","key":"CountyName"}]},"MapReference":{"ReferenceId":"1056177794","Spot":0.0,"SideOfStreet":"right","StateId":"20248595","CountyId":"20344788","CityId":"20344969","DistrictId":"20344970"}}},{"Relevance":1.0,"Distance":66.6,"MatchLevel":"postalCode","MatchQuality":{"PostalCode":1.0},"MatchType":"interpolated","Location":{"LocationId":"NT_mRGTVvTZeoNB9Jjb67PM7B_l_27112644_R_xA","LocationType":"point","DisplayPosition":{"Latitude":53.40935,"Longitude":-1.50785},"MapView":{"TopLeft":{"Latitude":53.4183432,"Longitude":-1.5229369},"BottomRight":{"Latitude":53.4003568,"Longitude":-1.4927631}},"Address":{"Label":"S6 4FA, Sheffield, England, United Kingdom","Country":"GBR","State":"England","County":"South Yorkshire","City":"Sheffield","PostalCode":"S6 4FA","AdditionalData":[{"value":"United Kingdom","key":"CountryName"},{"value":"England","key":"StateName"},{"value":"South Yorkshire","key":"CountyName"}]},"MapReference":{"ReferenceId":"27112644","Spot":0.77,"SideOfStreet":"neither","StateId":"20248595","CountyId":"20344788","CityId":"20344969"}}},{"Relevance":1.0,"Distance":75.2,"MatchLevel":"houseNumber","MatchQuality":{"Country":1.0,"State":1.0,"County":1.0,"City":1.0,"District":1.0,"Street":[1.0],"HouseNumber":1.0,"PostalCode":1.0},"MatchType":"interpolated","Location":{"LocationId":"NT_1.T-Wx6L.QHfOPkYK0AdwD_l_27112332_R_5UD","LocationType":"point","DisplayPosition":{"Latitude":53.4107437,"Longitude":-1.5079293},"MapView":{"TopLeft":{"Latitude":53.4118679,"Longitude":-1.5098152},"BottomRight":{"Latitude":53.4096196,"Longitude":-1.5060434}},"Address":{"Label":"95 Carlton Road, Sheffield, S6 1, United Kingdom","Country":"GBR","State":"England","County":"South Yorkshire","City":"Sheffield","District":"Sheffield","Street":"Carlton Road","HouseNumber":"95","PostalCode":"S6 1","AdditionalData":[{"value":"United Kingdom","key":"CountryName"},{"value":"England","key":"StateName"},{"value":"South Yorkshire","key":"CountyName"}]},"MapReference":{"ReferenceId":"27112332","Spot":0.14,"SideOfStreet":"right","StateId":"20248595","CountyId":"20344788","CityId":"20344969","DistrictId":"20344970"}}},{"Relevance":1.0,"Distance":80.1,"MatchLevel":"postalCode","MatchQuality":{"PostalCode":1.0},"MatchType":"interpolated","Location":{"LocationId":"NT_03ZDlnOIuBCij2IPde8cYC_l_1056177794_R_xIDM","LocationType":"point","DisplayPosition":{"Latitude":53.41022,"Longitude":-1.50883},"MapView":{"TopLeft":{"Latitude":53.4192132,"Longitude":-1.5239172},"BottomRight":{"Latitude":53.4012268,"Longitude":-1.4937428}},"Address":{"Label":"S6 4ED, Sheffield, England, United Kingdom","Country":"GBR","State":"England","County":"South Yorkshire","City":"Sheffield","PostalCode":"S6 4ED","AdditionalData":[{"value":"United Kingdom","key":"CountryName"},{"value":"England","key":"StateName"},{"value":"South Yorkshire","key":"CountyName"}]},"MapReference":{"ReferenceId":"1056177794","Spot":0.0,"SideOfStreet":"neither","StateId":"20248595","CountyId":"20344788","CityId":"20344969"}}}]}]}}