{"Response":{"MetaInfo":{"Timestamp":"2020-03-28T10:37:27.281+0000","NextPageInformation":"2"},"View":[{"_type":"SearchResultsViewType","ViewId":0,"Result":[{"Relevance":1.0,"Distance":0.0,"Direction":0.0,"MatchLevel":"district","MatchQuality":{"Country":1.0,"State":1.0,"County":1.0,"City":1.0,"District":1.0,"PostalCode":1.0},"Location":{"LocationId":"NT_lPeJMGrMWmF2iUoxH5daQB","LocationType":"point","DisplayPosition":{"Latitude":53.4061537,"Longitude":-2.2647844},"MapView":{"TopLeft":{"Latitude":53.41611,"Longitude":-2.26987},"BottomRight":{"Latitude":53.39146,"Longitude":-2.24088}},"Address":{"Label":"Northenden, Manchester, England, United Kingdom","Country":"GBR","State":"England","County":"Lancashire","City":"Manchester","District":"Northenden","PostalCode":"M22 4","AdditionalData":[{"value":"United Kingdom","key":"CountryName"},{"value":"England","key":"StateName"},{"value":"Lancashire","key":"CountyName"}]},"MapReference":{"ReferenceId":"945010296","SideOfStreet":"neither","StateId":"20248595","CountyId":"20343938","CityId":"20344206","DistrictId":"20344245"}}},{"Relevance":1.0,"Distance":24.8,"MatchLevel":"houseNumber","MatchQuality":{"Country":1.0,"State":1.0,"County":1.0,"City":1.0,"District":1.0,"Street":[1.0],"HouseNumber":1.0,"PostalCode":1.0},"MatchType":"interpolated","Location":{"LocationId":"NT_137eeI7kqPhbhCxFX3v85A_l_27291158_R_xA","LocationType":"point","DisplayPosition":{"Latitude":53.4058808,"Longitude":-2.2651593},"MapView":{"TopLeft":{"Latitude":53.407005,"Longitude":-2.267045},"BottomRight":{"Latitude":53.4047567,"Longitude":-2.2632736}},"Address":{"Label":"1 Shawdene Road, Manchester, M22 4BY, United Kingdom","Country":"GBR","State":"England","County":"Lancashire","City":"Manchester","District":"Northenden","Street":"Shawdene Road","HouseNumber":"1","PostalCode":"M22 4BY","AdditionalData":[{"value":"United Kingdom","key":"CountryName"},{"value":"England","key":"StateName"},{"value":"Lancashire","key":"CountyName"}]},"MapReference":{"ReferenceId":"27291158","Spot":0.73,"SideOfStreet":"right","StateId":"20248595","CountyId":"20343938","CityId":"20344206","DistrictId":"20344245"}}},{"Relevance":1.0,"Distance":31.8,"MatchLevel":"houseNumber","MatchQuality":{"Country":1.0,"State":1.0,"County":1.0,"City":1.0,"District":1.0,"Street":[1.0],"HouseNumber":1.0,"PostalCode":1.0},"MatchType":"interpolated","Location":{"LocationId":"NT_16fcb0AytDogIlA6rYWPQA_l_27305195_R_1A","LocationType":"point","DisplayPosition":{"Latitude":53.40625,"Longitude":-2.2654625},"MapView":{"TopLeft":{"Latitude":53.4073742,"Longitude":-2.2673482},"BottomRight":{"Latitude":53.4051259,"Longitude":-2.2635768}},"Address":{"Label":"5 Gibwood Road, Manchester, M22 4BR, United Kingdom","Country":"GBR","State":"England","County":"Lancashire","City":"Manchester","District":"Northenden","Street":"Gibwood Road","HouseNumber":"5","PostalCode":"M22 4BR","AdditionalData":[{"value":"United Kingdom","key":"CountryName"},{"value":"England","key":"StateName"},{"value":"Lancashire","key":"CountyName"}]},"MapReference":{"ReferenceId":"27305195","Spot":0.35,"SideOfStreet":"right","StateId":"20248595","CountyId":"20343938","CityId":"20344206","DistrictId":"20344245"}}},{"Relevance":1.0,"Distance":34.7,"MatchLevel":"houseNumber","MatchQuality":{"Country":1.0,"State":1.0,"County":1.0,"City":1.0,"District":1.0,"Street":[1.0],"HouseNumber":1.0,"PostalCode":1.0},"MatchType":"interpolated","Location":{"LocationId":"NT_chim6hLYsIuoEAlvKe1fzD_l_27286044_L_0cTO","LocationType":"point","DisplayPosition":{"Latitude":53.4065951,"Longitude":-2.2646789},"MapView":{"TopLeft":{"Latitude":53.4077193,"Longitude":-2.2665646},"BottomRight":{"Latitude":53.405471,"Longitude":-2.2627931}},"Address":{"Label":"479 Palatine Road, Manchester, M22 4, United Kingdom","Country":"GBR","State":"England","County":"Lancashire","City":"Manchester","District":"Northenden","Street":"Palatine Road","HouseNumber":"479","PostalCode":"M22 4","AdditionalData":[{"value":"United Kingdom","key":"CountryName"},{"value":"England","key":"StateName"},{"value":"Lancashire","key":"CountyName"}]},"MapReference":{"ReferenceId":"27286044","Spot":0.3,"SideOfStreet":"left","StateId":"20248595","CountyId":"20343938","CityId":"20344206","DistrictId":"20344245"}}},{"Relevance":1.0,"Distance":48.1,"MatchLevel":"postalCode","MatchQuality":{"PostalCode":1.0},"MatchType":"interpolated","Location":{"LocationId":"NT_chim6hLYsIuoEAlvKe1fzD_l_27286044_L_0cTO","LocationType":"point","DisplayPosition":{"Latitude":53.40657,"Longitude":-2.26498},"MapView":{"TopLeft":{"Latitude":53.4155632,"Longitude":-2.2800659},"BottomRight":{"Latitude":53.3975768,"Longitude":-2.2498941}},"Address":{"Label":"M22 4DH, Manchester, England, United Kingdom","Country":"GBR","State":"England","County":"Lancashire","City":"Manchester","PostalCode":"M22 4DH","AdditionalData":[{"value":"United Kingdom","key":"CountryName"},{"value":"England","key":"StateName"},{"value":"Lancashire","key":"CountyName"}]},"MapReference":{"ReferenceId":"27286044","Spot":0.3,"SideOfStreet":"neither","StateId":"20248595","CountyId":"20343938","CityId":"20344206"}}},{"Relevance":1.0,"Distance":53.8,"MatchLevel":"street","MatchQuality":{"Country":1.0,"State":1.0,"County":1.0,"City":1.0,"District":1.0,"Street":[1.0],"PostalCode":1.0},"Location":{"LocationId":"NT_DeIZo6hQbrzey1ld263BgD_l_27286043_L","LocationType":"point","DisplayPosition":{"Latitude":53.40658,"Longitude":-2.2644},"MapView":{"TopLeft":{"Latitude":53.40748,"Longitude":-2.2644},"BottomRight":{"Latitude":53.40658,"Longitude":-2.26406}},"Address":{"Label":"Homewood Avenue, Manchester, M22 4, United Kingdom","Country":"GBR","State":"England","County":"Lancashire","City":"Manchester","District":"Northenden","Street":"Homewood Avenue","PostalCode":"M22 4","AdditionalData":[{"value":"United Kingdom","key":"CountryName"},{"value":"England","key":"StateName"},{"value":"Lancashire","key":"CountyName"}]},"MapReference":{"ReferenceId":"27286043","Spot":0.0,"SideOfStreet":"left","StateId":"20248595","CountyId":"20343938","CityId":"20344206","DistrictId":"20344245"}}},{"Relevance":1.0,"Distance":64.4,"MatchLevel":"houseNumber","MatchQuality":{"Country":1.0,"State":1.0,"County":1.0,"City":1.0,"District":1.0,"Street":[1.0],"HouseNumber":1.0,"PostalCode":1.0},"MatchType":"interpolated","Location":{"LocationId":"NT_chim6hLYsIuoEAlvKe1fzD_l_976650642_R_0YDN","LocationType":"point","DisplayPosition":{"Latitude":53.4065667,"Longitude":-2.2641033},"MapView":{"TopLeft":{"Latitude":53.4076908,"Longitude":-2.2659891},"BottomRight":{"Latitude":53.4054425,"Longitude":-2.2622176}},"Address":{"Label":"464 Palatine Road, Manchester, M22 4, United Kingdom","Country":"GBR","State":"England","County":"Lancashire","City":"Manchester","District":"Northenden","Street":"Palatine Road","HouseNumber":"464","PostalCode":"M22 4","AdditionalData":[{"value":"United Kingdom","key":"CountryName"},{"value":"England","key":"StateName"},{"value":"Lancashire","key":"CountyName"}]},"MapReference":{"ReferenceId":"976650642","Spot":0.54,"SideOfStreet":"right","StateId":"20248595","CountyId":"20343938","CityId":"20344206","DistrictId":"20344245"}}},{"Relevance":1.0,"Distance":65.6,"MatchLevel":"street","MatchQuality":{"Country":1.0,"State":1.0,"County":1.0,"City":1.0,"District":1.0,"Street":[1.0],"PostalCode":1.0},"Location":{"LocationId":"NT_1OMUTQXMGIlx6bK.obYqcD_l_991951374_L","LocationType":"point","DisplayPosition":{"Latitude":53.40665,"Longitude":-2.26532},"MapView":{"TopLeft":{"Latitude":53.40675,"Longitude":-2.26618},"BottomRight":{"Latitude":53.40665,"Longitude":-2.26532}},"Address":{"Label":"Palatine Road, Manchester, M22 4, United Kingdom","Country":"GBR","State":"England","County":"Lancashire","City":"Manchester","District":"Northenden","Street":"Palatine Road","PostalCode":"M22 4","AdditionalData":[{"value":"United Kingdom","key":"CountryName"},{"value":"England","key":"StateName"},{"value":"Lancashire","key":"CountyName"}]},"MapReference":{"ReferenceId":"991951374","Spot":0.0,"SideOfStreet":"left","StateId":"20248595","CountyId":"20343938","CityId":"20344206","DistrictId":"20344245"}}},{"Relevance":1.0,"Distance":69.6,"MatchLevel":"houseNumber","MatchQuality":{"Country":1.0,"State":1.0,"County":1.0,"City":1.0,"District":1.0,"Street":[1.0],"HouseNumber":1.0,"PostalCode":1.0},"MatchType":"interpolated","Location":{"LocationId":"NT_16fcb0AytDogIlA6rYWPQA_l_27291125_R_5A","LocationType":"point","DisplayPosition":{"Latitude":53.4059435,"Longitude":-2.2657736},"MapView":{"TopLeft":{"Latitude":53.4070677,"Longitude":-2.2676593},"BottomRight":{"Latitude":53.4048193,"Longitude":-2.2638879}},"Address":{"Label":"9 Gibwood Road, Manchester, M22 4BR, United Kingdom","Country":"GBR","State":"England","County":"Lancashire","City":"Manchester","District":"Northenden","Street":"Gibwood Road","HouseNumber":"9","PostalCode":"M22 4BR","AdditionalData":[{"value":"United Kingdom","key":"CountryName"},{"value":"England","key":"StateName"},{"value":"Lancashire","key":"CountyName"}]},"MapReference":{"ReferenceId":"27291125","Spot":0.53,"SideOfStreet":"right","StateId":"20248595","CountyId":"20343938","CityId":"20344206","DistrictId":"20344245"}}},{"Relevance":1.0,"Distance":85.5,"MatchLevel":"houseNumber","MatchQuality":{"Country":1.0,"State":1.0,"County":1.0,"City":1.0,"District":1.0,"Street":[1.0],"HouseNumber":1.0,"PostalCode":1.0},"MatchType":"interpolated","Location":{"LocationId":"NT_1OMUTQXMGIlx6bK.obYqcD_l_976650641_L_0cTN","LocationType":"point","DisplayPosition":{"Latitude":53.406555,"Longitude":-2.26357},"MapView":{"TopLeft":{"Latitude":53.4076792,"Longitude":-2.2654558},"BottomRight":{"Latitude":53.4054308,"Longitude":-2.2616843}},"Address":{"Label":"475 Palatine Road, Manchester, M22 4DA, United Kingdom","Country":"GBR","State":"England","County":"Lancashire","City":"Manchester","District":"Northenden","Street":"Palatine Road","HouseNumber":"475","PostalCode":"M22 4DA","AdditionalData":[{"value":"United Kingdom","key":"CountryName"},{"value":"England","key":"StateName"},{"value":"Lancashire","key":"CountyName"}]},"MapReference":{"ReferenceId":"976650641","Spot":0.5,"SideOfStreet":"left","StateId":"20248595","CountyId":"20343938","CityId":"20344206","DistrictId":"20344245"}}}]}]}}