{"Response":{"MetaInfo":{"Timestamp":"2020-03-28T11:19:42.929+0000","NextPageInformation":"2"},"View":[{"_type":"SearchResultsViewType","ViewId":0,"Result":[{"Relevance":1.0,"Distance":0.0,"Direction":0.0,"MatchLevel":"district","MatchQuality":{"Country":1.0,"State":1.0,"County":1.0,"City":1.0,"District":1.0,"PostalCode":1.0},"Location":{"LocationId":"NT_PvYvkKAR4r5MlQNPA5rffD","LocationType":"point","DisplayPosition":{"Latitude":53.4309144,"Longitude":-2.2300388},"MapView":{"TopLeft":{"Latitude":53.44316,"Longitude":-2.24544},"BottomRight":{"Latitude":53.42181,"Longitude":-2.20978}},"Address":{"Label":"Withington, Manchester, England, United Kingdom","Country":"GBR","State":"England","County":"Lancashire","City":"Manchester","District":"Withington","PostalCode":"M20 3","AdditionalData":[{"value":"United Kingdom","key":"CountryName"},{"value":"England","key":"StateName"},{"value":"Lancashire","key":"CountyName"}]},"MapReference":{"ReferenceId":"27280329","SideOfStreet":"neither","StateId":"20248595","CountyId":"20343938","CityId":"20344206","DistrictId":"20344261"}}},{"Relevance":1.0,"Distance":9.1,"MatchLevel":"street","MatchQuality":{"Country":1.0,"State":1.0,"County":1.0,"City":1.0,"District":1.0,"Street":[1.0],"PostalCode":1.0},"Location":{"LocationId":"NT_4-uiNhU1lAeR-KIfAdinKA_l_585782752_L","LocationType":"point","DisplayPosition":{"Latitude":53.4309965,"Longitude":-2.2300313},"MapView":{"TopLeft":{"Latitude":53.43127,"Longitude":-2.23089},"BottomRight":{"Latitude":53.43097,"Longitude":-2.22963}},"Address":{"Label":"Tatton Grove, Manchester, M20 4, United Kingdom","Country":"GBR","State":"England","County":"Lancashire","City":"Manchester","District":"Withington","Street":"Tatton Grove","PostalCode":"M20 4","AdditionalData":[{"value":"United Kingdom","key":"CountryName"},{"value":"England","key":"StateName"},{"value":"Lancashire","key":"CountyName"}]},"MapReference":{"ReferenceId":"585782752","Spot":0.31,"SideOfStreet":"left","StateId":"20248595","CountyId":"20343938","CityId":"20344206","DistrictId":"20344261"}}},{"Relevance":1.0,"Distance":10.0,"MatchLevel":"postalCode","MatchQuality":{"PostalCode":1.0},"MatchType":"interpolated","Location":{"LocationId":"NT_4-uiNhU1lAeR-KIfAdinKA_l_585782753_R_xAD","LocationType":"point","DisplayPosition":{"Latitude":53.43093,"Longitude":-2.22989},"MapView":{"TopLeft":{"Latitude":53.4399232,"Longitude":-2.2449846},"BottomRight":{"Latitude":53.4219368,"Longitude":-2.2147954}},"Address":{"Label":"M20 4BP, Manchester, England, United Kingdom","Country":"GBR","State":"England","County":"Lancashire","City":"Manchester","PostalCode":"M20 4BP","AdditionalData":[{"value":"United Kingdom","key":"CountryName"},{"value":"England","key":"StateName"},{"value":"Lancashire","key":"CountyName"}]},"MapReference":{"ReferenceId":"585782753","Spot":0.51,"SideOfStreet":"neither","StateId":"20248595","CountyId":"20343938","CityId":"20344206"}}},{"Relevance":1.0,"Distance":27.4,"MatchLevel":"street","MatchQuality":{"Country":1.0,"State":1.0,"County":1.0,"City":1.0,"District":1.0,"Street":[1.0],"PostalCode":1.0},"Location":{"LocationId":"NT_vOh3V.aCcfXcgRu-S47tOD_l_585782754_L","LocationType":"point","DisplayPosition":{"Latitude":53.4309437,"Longitude":-2.2296281},"MapView":{"TopLeft":{"Latitude":53.43097,"Longitude":-2.22963},"BottomRight":{"Latitude":53.43069,"Longitude":-2.22961}},"Address":{"Label":"Tatton View, Manchester, M20 4, United Kingdom","Country":"GBR","State":"England","County":"Lancashire","City":"Manchester","District":"Withington","Street":"Tatton View","PostalCode":"M20 4","AdditionalData":[{"value":"United Kingdom","key":"CountryName"},{"value":"England","key":"StateName"},{"value":"Lancashire","key":"CountyName"}]},"MapReference":{"ReferenceId":"585782754","Spot":0.91,"SideOfStreet":"left","StateId":"20248595","CountyId":"20343938","CityId":"20344206","DistrictId":"20344261"}}},{"Relevance":1.0,"Distance":36.6,"MatchLevel":"postalCode","MatchQuality":{"PostalCode":1.0},"Location":{"LocationId":"NT_vOh3V.aCcfXcgRu-S47tOD_l_585782754_L","LocationType":"point","DisplayPosition":{"Latitude":53.43068,"Longitude":-2.22965},"MapView":{"TopLeft":{"Latitude":53.4396732,"Longitude":-2.2447445},"BottomRight":{"Latitude":53.4216868,"Longitude":-2.2145555}},"Address":{"Label":"M20 4BU, Manchester, England, United Kingdom","Country":"GBR","State":"England","County":"Lancashire","City":"Manchester","PostalCode":"M20 4BU","AdditionalData":[{"value":"United Kingdom","key":"CountryName"},{"value":"England","key":"StateName"},{"value":"Lancashire","key":"CountyName"}]},"MapReference":{"ReferenceId":"585782754","Spot":0.91,"SideOfStreet":"neither","StateId":"20248595","CountyId":"20343938","CityId":"20344206"}}},{"Relevance":1.0,"Distance":56.0,"MatchLevel":"street","MatchQuality":{"Country":1.0,"State":1.0,"County":1.0,"City":1.0,"District":1.0,"PostalCode":1.0},"Location":{"LocationId":"NT_qKZV5r9HfZTmZ.TNpIQUtA_l_1003675027_R","LocationType":"point","DisplayPosition":{"Latitude":53.4304152,"Longitude":-2.2301529},"MapView":{"TopLeft":{"Latitude":53.43084,"Longitude":-2.2313},"BottomRight":{"Latitude":53.43041,"Longitude":-2.23013}},"Address":{"Label":"Manchester, M20 3, United Kingdom","Country":"GBR","State":"England","County":"Lancashire","City":"Manchester","District":"Withington","PostalCode":"M20 3","AdditionalData":[{"value":"United Kingdom","key":"CountryName"},{"value":"England","key":"StateName"},{"value":"Lancashire","key":"CountyName"}]},"MapReference":{"ReferenceId":"1003675027","Spot":0.02,"SideOfStreet":"right","StateId":"20248595","CountyId":"20343938","CityId":"20344206","DistrictId":"20344261"}}},{"Relevance":1.0,"Distance":56.2,"MatchLevel":"houseNumber","MatchQuality":{"Country":1.0,"State":1.0,"County":1.0,"City":1.0,"District":1.0,"Street":[1.0],"HouseNumber":1.0,"PostalCode":1.0},"MatchType":"interpolated","Location":{"LocationId":"NT_q.TLCKsFdPq7hB7xOmvr.D_l_27280854_R_yMD","LocationType":"point","DisplayPosition":{"Latitude":53.4313801,"Longitude":-2.2307699},"MapView":{"TopLeft":{"Latitude":53.4325042,"Longitude":-2.2326568},"BottomRight":{"Latitude":53.4302559,"Longitude":-2.2288831}},"Address":{"Label":"23 Palatine Road, Manchester, M20 3LH, United Kingdom","Country":"GBR","State":"England","County":"Lancashire","City":"Manchester","District":"Withington","Street":"Palatine Road","HouseNumber":"23","PostalCode":"M20 3LH","AdditionalData":[{"value":"United Kingdom","key":"CountryName"},{"value":"England","key":"StateName"},{"value":"Lancashire","key":"CountyName"}]},"MapReference":{"ReferenceId":"27280854","Spot":0.14,"SideOfStreet":"right","StateId":"20248595","CountyId":"20343938","CityId":"20344206","DistrictId":"20344261"}}},{"Relevance":1.0,"Distance":56.4,"MatchLevel":"landmark","MatchQuality":{"Country":1.0,"State":1.0,"County":1.0,"City":1.0,"District":1.0,"Street":[1.0],"PostalCode":1.0,"Name":1.0},"Location":{"LocationId":"NT_.abKm7dmj99Ky-F1mKrHzC_p_Xf1qb6xumQvriAeSMQL5-C","LocationType":"hospital","Name":"The Christie","DisplayPosition":{"Latitude":53.43053,"Longitude":-2.23161},"MapView":{"TopLeft":{"Latitude":53.43084,"Longitude":-2.23283},"BottomRight":{"Latitude":53.42789,"Longitude":-2.22783}},"Address":{"Label":"Palatine Road, Manchester, M20 3, United Kingdom","Country":"GBR","State":"England","County":"Lancashire","City":"Manchester","District":"Withington","Street":"Palatine Road","PostalCode":"M20 3","AdditionalData":[{"value":"United Kingdom","key":"CountryName"},{"value":"England","key":"StateName"},{"value":"Lancashire","key":"CountyName"}]},"MapReference":{"StateId":"20248595","CountyId":"20343938","CityId":"20344206","DistrictId":"20344261","PlaceId":"1132240574"}}},{"Relevance":1.0,"Distance":56.4,"MatchLevel":"street","MatchQuality":{"Country":1.0,"State":1.0,"County":1.0,"City":1.0,"District":1.0,"PostalCode":1.0},"Location":{"LocationId":"NT_qKZV5r9HfZTmZ.TNpIQUtA_l_1003675026_R","LocationType":"point","DisplayPosition":{"Latitude":53.4304074,"Longitude":-2.2300569},"MapView":{"TopLeft":{"Latitude":53.43041,"Longitude":-2.23013},"BottomRight":{"Latitude":53.43038,"Longitude":-2.22843}},"Address":{"Label":"Manchester, M20 3, United Kingdom","Country":"GBR","State":"England","County":"Lancashire","City":"Manchester","District":"Withington","PostalCode":"M20 3","AdditionalData":[{"value":"United Kingdom","key":"CountryName"},{"value":"England","key":"StateName"},{"value":"Lancashire","key":"CountyName"}]},"MapReference":{"ReferenceId":"1003675026","Spot":0.96,"SideOfStreet":"right","StateId":"20248595","CountyId":"20343938","CityId":"20344206","DistrictId":"20344261"}}},{"Relevance":1.0,"Distance":58.8,"MatchLevel":"houseNumber","MatchQuality":{"Country":1.0,"State":1.0,"County":1.0,"City":1.0,"District":1.0,"Street":[1.0],"HouseNumber":1.0,"PostalCode":1.0},"MatchType":"interpolated","Location":{"LocationId":"NT_4-uiNhU1lAeR-KIfAdinKA_l_585782753_R_xAD","LocationType":"point","DisplayPosition":{"Latitude":53.43097,"Longitude":-2.2291564},"MapView":{"TopLeft":{"Latitude":53.4320942,"Longitude":-2.2310432},"BottomRight":{"Latitude":53.4298458,"Longitude":-2.2272696}},"Address":{"Label":"10 Tatton Grove, Manchester, M20 4BP, United Kingdom","Country":"GBR","State":"England","County":"Lancashire","City":"Manchester","District":"Withington","Street":"Tatton Grove","HouseNumber":"10","PostalCode":"M20 4BP","AdditionalData":[{"value":"United Kingdom","key":"CountryName"},{"value":"England","key":"StateName"},{"value":"Lancashire","key":"CountyName"}]},"MapReference":{"ReferenceId":"585782753","Spot":0.51,"SideOfStreet":"right","StateId":"20248595","CountyId":"20343938","CityId":"20344206","DistrictId":"20344261"}}}]}]}}