{"Response":{"MetaInfo":{"Timestamp":"2020-03-28T11:18:40.710+0000","NextPageInformation":"2"},"View":[{"_type":"SearchResultsViewType","ViewId":0,"Result":[{"Relevance":1.0,"Distance":0.0,"Direction":0.0,"MatchLevel":"district","MatchQuality":{"Country":1.0,"State":1.0,"County":1.0,"City":1.0,"District":1.0,"PostalCode":1.0},"Location":{"LocationId":"NT_L7yXHlVUFVTRV9Fo6CguUC","LocationType":"point","DisplayPosition":{"Latitude":53.4165361,"Longitude":-1.3433016},"MapView":{"TopLeft":{"Latitude":53.45836,"Longitude":-1.42586},"BottomRight":{"Latitude":53.40199,"Longitude":-1.30119}},"Address":{"Label":"Rotherham, England, United Kingdom","Country":"GBR","State":"England","County":"South Yorkshire","City":"Rotherham","District":"Rotherham","PostalCode":"S60 2","AdditionalData":[{"value":"United Kingdom","key":"CountryName"},{"value":"England","key":"StateName"},{"value":"South Yorkshire","key":"CountyName"}]},"MapReference":{"ReferenceId":"1055888092","SideOfStreet":"neither","StateId":"20248595","CountyId":"20344788","CityId":"20344930","DistrictId":"20344931"}}},{"Relevance":1.0,"Distance":12.3,"MatchLevel":"street","MatchQuality":{"Country":1.0,"State":1.0,"County":1.0,"City":1.0,"District":1.0,"Street":[1.0],"PostalCode":1.0},"Location":{"LocationId":"NT_YgDkrvX1b3j.Ttad2F9o6B_l_1226252241_L","LocationType":"point","DisplayPosition":{"Latitude":53.416639,"Longitude":-1.3432342},"MapView":{"TopLeft":{"Latitude":53.4168,"Longitude":-1.34348},"BottomRight":{"Latitude":53.41661,"Longitude":-1.34319}},"Address":{"Label":"Moorgate Road, Rotherham, S60 2, United Kingdom","Country":"GBR","State":"England","County":"South Yorkshire","City":"Rotherham","District":"Rotherham","Street":"Moorgate Road","PostalCode":"S60 2","AdditionalData":[{"value":"United Kingdom","key":"CountryName"},{"value":"England","key":"StateName"},{"value":"South Yorkshire","key":"CountyName"}]},"MapReference":{"ReferenceId":"1226252241","Spot":0.15,"SideOfStreet":"left","StateId":"20248595","CountyId":"20344788","CityId":"20344930","DistrictId":"20344931"}}},{"Relevance":1.0,"Distance":24.0,"MatchLevel":"houseNumber","MatchQuality":{"Country":1.0,"State":1.0,"County":1.0,"City":1.0,"District":1.0,"Street":[1.0],"HouseNumber":1.0,"PostalCode":1.0},"MatchType":"interpolated","Location":{"LocationId":"NT_IYqGM7C7BbtZbGVQzHlY6C_l_27111219_R_yA","LocationType":"point","DisplayPosition":{"Latitude":53.4167,"Longitude":-1.3430199},"MapView":{"TopLeft":{"Latitude":53.4178242,"Longitude":-1.3449061},"BottomRight":{"Latitude":53.4155759,"Longitude":-1.3411337}},"Address":{"Label":"2 Sitwell Vale, Rotherham, S60 2, United Kingdom","Country":"GBR","State":"England","County":"South Yorkshire","City":"Rotherham","District":"Rotherham","Street":"Sitwell Vale","HouseNumber":"2","PostalCode":"S60 2","AdditionalData":[{"value":"United Kingdom","key":"CountryName"},{"value":"England","key":"StateName"},{"value":"South Yorkshire","key":"CountyName"}]},"MapReference":{"ReferenceId":"27111219","Spot":0.12,"SideOfStreet":"right","StateId":"20248595","CountyId":"20344788","CityId":"20344930","DistrictId":"20344931"}}},{"Relevance":1.0,"Distance":31.6,"MatchLevel":"street","MatchQuality":{"Country":1.0,"State":1.0,"County":1.0,"City":1.0,"District":1.0,"Street":[1.0],"PostalCode":1.0},"Location":{"LocationId":"NT_XUYZhihs62ImZnJtjYeKwB_l_1226252242_L","LocationType":"point","DisplayPosition":{"Latitude":53.4168,"Longitude":-1.34348},"MapView":{"TopLeft":{"Latitude":53.41697,"Longitude":-1.34375},"BottomRight":{"Latitude":53.4168,"Longitude":-1.34348}},"Address":{"Label":"Moorgate Road, Rotherham, S60 2, United Kingdom","Country":"GBR","State":"England","County":"South Yorkshire","City":"Rotherham","District":"Rotherham","Street":"Moorgate Road","PostalCode":"S60 2","AdditionalData":[{"value":"United Kingdom","key":"CountryName"},{"value":"England","key":"StateName"},{"value":"South Yorkshire","key":"CountyName"}]},"MapReference":{"ReferenceId":"1226252242","Spot":0.0,"SideOfStreet":"left","StateId":"20248595","CountyId":"20344788","CityId":"20344930","DistrictId":"20344931"}}},{"Relevance":1.0,"Distance":44.9,"MatchLevel":"houseNumber","MatchQuality":{"Country":1.0,"State":1.0,"County":1.0,"City":1.0,"District":1.0,"Street":[1.0],"HouseNumber":1.0,"PostalCode":1.0},"MatchType":"interpolated","Location":{"LocationId":"NT_znPi9DI6YS4VnBvVGNgozC_l_27111152_R_yA","LocationType":"point","DisplayPosition":{"Latitude":53.4170501,"Longitude":-1.3435698},"MapView":{"TopLeft":{"Latitude":53.4181743,"Longitude":-1.345456},"BottomRight":{"Latitude":53.415926,"Longitude":-1.3416836}},"Address":{"Label":"2 Rencliffe Avenue, Rotherham, S60 2RP, United Kingdom","Country":"GBR","State":"England","County":"South Yorkshire","City":"Rotherham","District":"Rotherham","Street":"Rencliffe Avenue","HouseNumber":"2","PostalCode":"S60 2RP","AdditionalData":[{"value":"United Kingdom","key":"CountryName"},{"value":"England","key":"StateName"},{"value":"South Yorkshire","key":"CountyName"}]},"MapReference":{"ReferenceId":"27111152","Spot":0.05,"SideOfStreet":"right","StateId":"20248595","CountyId":"20344788","CityId":"20344930","DistrictId":"20344931"}}},{"Relevance":1.0,"Distance":56.7,"MatchLevel":"street","MatchQuality":{"Country":1.0,"State":1.0,"County":1.0,"City":1.0,"District":1.0,"Street":[1.0],"PostalCode":1.0},"Location":{"LocationId":"NT_XUYZhihs62ImZnJtjYeKwB_l_841460100_L","LocationType":"point","DisplayPosition":{"Latitude":53.41697,"Longitude":-1.34375},"MapView":{"TopLeft":{"Latitude":53.41709,"Longitude":-1.34394},"BottomRight":{"Latitude":53.41697,"Longitude":-1.34375}},"Address":{"Label":"Moorgate Road, Rotherham, S60 2, United Kingdom","Country":"GBR","State":"England","County":"South Yorkshire","City":"Rotherham","District":"Rotherham","Street":"Moorgate Road","PostalCode":"S60 2","AdditionalData":[{"value":"United Kingdom","key":"CountryName"},{"value":"England","key":"StateName"},{"value":"South Yorkshire","key":"CountyName"}]},"MapReference":{"ReferenceId":"841460100","Spot":0.0,"SideOfStreet":"left","StateId":"20248595","CountyId":"20344788","CityId":"20344930","DistrictId":"20344931"}}},{"Relevance":1.0,"Distance":64.1,"MatchLevel":"houseNumber","MatchQuality":{"Country":1.0,"State":1.0,"County":1.0,"City":1.0,"District":1.0,"Street":[1.0],"HouseNumber":1.0,"PostalCode":1.0},"MatchType":"interpolated","Location":{"LocationId":"NT_YgDkrvX1b3j.Ttad2F9o6B_l_27111377_R_xMTM","LocationType":"point","DisplayPosition":{"Latitude":53.4161856,"Longitude":-1.342486},"MapView":{"TopLeft":{"Latitude":53.4173097,"Longitude":-1.3443722},"BottomRight":{"Latitude":53.4150614,"Longitude":-1.3405998}},"Address":{"Label":"131 Moorgate Road, Rotherham, S60 2TZ, United Kingdom","Country":"GBR","State":"England","County":"South Yorkshire","City":"Rotherham","District":"Rotherham","Street":"Moorgate Road","HouseNumber":"131","PostalCode":"S60 2TZ","AdditionalData":[{"value":"United Kingdom","key":"CountryName"},{"value":"England","key":"StateName"},{"value":"South Yorkshire","key":"CountyName"}]},"MapReference":{"ReferenceId":"27111377","Spot":0.5,"SideOfStreet":"right","StateId":"20248595","CountyId":"20344788","CityId":"20344930","DistrictId":"20344931"}}},{"Relevance":1.0,"Distance":74.7,"MatchLevel":"street","MatchQuality":{"Country":1.0,"State":1.0,"County":1.0,"City":1.0,"District":1.0,"Street":[1.0],"PostalCode":1.0},"Location":{"LocationId":"NT_YgDkrvX1b3j.Ttad2F9o6B_l_1226252235_L","LocationType":"point","DisplayPosition":{"Latitude":53.41709,"Longitude":-1.34394},"MapView":{"TopLeft":{"Latitude":53.41724,"Longitude":-1.34418},"BottomRight":{"Latitude":53.41709,"Longitude":-1.34394}},"Address":{"Label":"Moorgate Road, Rotherham, S60 2, United Kingdom","Country":"GBR","State":"England","County":"South Yorkshire","City":"Rotherham","District":"Rotherham","Street":"Moorgate Road","PostalCode":"S60 2","AdditionalData":[{"value":"United Kingdom","key":"CountryName"},{"value":"England","key":"StateName"},{"value":"South Yorkshire","key":"CountyName"}]},"MapReference":{"ReferenceId":"1226252235","Spot":0.0,"SideOfStreet":"left","StateId":"20248595","CountyId":"20344788","CityId":"20344930","DistrictId":"20344931"}}},{"Relevance":1.0,"Distance":77.9,"MatchLevel":"postalCode","MatchQuality":{"PostalCode":1.0},"MatchType":"interpolated","Location":{"LocationId":"NT_YgDkrvX1b3j.Ttad2F9o6B_l_27111377_R_xMTM","LocationType":"point","DisplayPosition":{"Latitude":53.41615,"Longitude":-1.34232},"MapView":{"TopLeft":{"Latitude":53.4251432,"Longitude":-1.3574093},"BottomRight":{"Latitude":53.4071568,"Longitude":-1.3272307}},"Address":{"Label":"S60 2UG, Rotherham, England, United Kingdom","Country":"GBR","State":"England","County":"South Yorkshire","City":"Rotherham","PostalCode":"S60 2UG","AdditionalData":[{"value":"United Kingdom","key":"CountryName"},{"value":"England","key":"StateName"},{"value":"South Yorkshire","key":"CountyName"}]},"MapReference":{"ReferenceId":"27111377","Spot":0.5,"SideOfStreet":"neither","StateId":"20248595","CountyId":"20344788","CityId":"20344930"}}},{"Relevance":1.0,"Distance":106.2,"MatchLevel":"postalCode","MatchQuality":{"PostalCode":1.0},"MatchType":"interpolated","Location":{"LocationId":"NT_IYqGM7C7BbtZbGVQzHlY6C_l_27111219_R_yA","LocationType":"point","DisplayPosition":{"Latitude":53.41714,"Longitude":-1.34206},"MapView":{"TopLeft":{"Latitude":53.4261332,"Longitude":-1.3571497},"BottomRight":{"Latitude":53.4081468,"Longitude":-1.3269703}},"Address":{"Label":"S60 2UF, Rotherham, England, United Kingdom","Country":"GBR","State":"England","County":"South Yorkshire","City":"Rotherham","PostalCode":"S60 2UF","AdditionalData":[{"value":"United Kingdom","key":"CountryName"},{"value":"England","key":"StateName"},{"value":"South Yorkshire","key":"CountyName"}]},"MapReference":{"ReferenceId":"27111219","Spot":0.12,"SideOfStreet":"neither","StateId":"20248595","CountyId":"20344788","CityId":"20344930"}}}]}]}}