{"Response":{"MetaInfo":{"Timestamp":"2020-03-28T11:02:19.138+0000","NextPageInformation":"2"},"View":[{"_type":"SearchResultsViewType","ViewId":0,"Result":[{"Relevance":1.0,"Distance":0.0,"Direction":0.0,"MatchLevel":"district","MatchQuality":{"Country":1.0,"State":1.0,"County":1.0,"City":1.0,"District":1.0,"PostalCode":1.0},"Location":{"LocationId":"NT_OAAAvxGT-nttFOdezOhRgC","LocationType":"point","DisplayPosition":{"Latitude":53.4682442,"Longitude":7.4959198},"MapView":{"TopLeft":{"Latitude":53.48766,"Longitude":7.4559},"BottomRight":{"Latitude":53.45465,"Longitude":7.51718}},"Address":{"Label":"Aurich, Niedersachsen, Deutschland","Country":"DEU","State":"Niedersachsen","County":"Aurich","City":"Aurich","District":"Aurich","PostalCode":"26603","AdditionalData":[{"value":"Deutschland","key":"CountryName"},{"value":"Niedersachsen","key":"StateName"},{"value":"Aurich","key":"CountyName"}]},"MapReference":{"ReferenceId":"1078915956","SideOfStreet":"neither","CountryId":"20147700","StateId":"20151542","CountyId":"20156017","CityId":"20156018","DistrictId":"20156030"}}},{"Relevance":1.0,"Distance":10.7,"MatchLevel":"houseNumber","MatchQuality":{"Country":1.0,"State":1.0,"County":1.0,"City":1.0,"District":1.0,"Street":[1.0],"HouseNumber":1.0,"PostalCode":1.0},"MatchType":"interpolated","Location":{"LocationId":"NT_kFkE1yvmVafhUaLngRZ71C_yA","LocationType":"point","DisplayPosition":{"Latitude":53.46832,"Longitude":7.49602},"MapView":{"TopLeft":{"Latitude":53.4694442,"Longitude":7.4941315},"BottomRight":{"Latitude":53.4671958,"Longitude":7.4979085}},"Address":{"Label":"Wallinghausener Straße 2, 26603 Aurich, Deutschland","Country":"DEU","State":"Niedersachsen","County":"Aurich","City":"Aurich","District":"Aurich","Street":"Wallinghausener Straße","HouseNumber":"2","PostalCode":"26603","AdditionalData":[{"value":"Deutschland","key":"CountryName"},{"value":"Niedersachsen","key":"StateName"},{"value":"Aurich","key":"CountyName"}]},"MapReference":{"ReferenceId":"1189802959","Spot":0.85,"SideOfStreet":"right","CountryId":"20147700","StateId":"20151542","CountyId":"20156017","CityId":"20156018","DistrictId":"20156030","AddressId":"178472898","RoadLinkId":"499018644"}}},{"Relevance":1.0,"Distance":24.4,"MatchLevel":"landmark","MatchQuality":{"Country":1.0,"State":1.0,"County":1.0,"City":1.0,"District":1.0,"Street":[1.0],"HouseNumber":1.0,"PostalCode":1.0,"Name":1.0},"Location":{"LocationId":"NT_uCzP.9Z2FlK9kZRwJn8SbA_p_VHcZpdjMZoBVXV4b9NiNGA","LocationType":"hospital","Name":"Ubbo-Emmius-Klinik","DisplayPosition":{"Latitude":53.46873,"Longitude":7.49776},"MapView":{"TopLeft":{"Latitude":53.4698542,"Longitude":7.4958715},"BottomRight":{"Latitude":53.4676058,"Longitude":7.4996485}},"Address":{"Label":"Wallinghausener Straße 12, 26603 Aurich, Deutschland","Country":"DEU","State":"Niedersachsen","County":"Aurich","City":"Aurich","District":"Aurich","Street":"Wallinghausener Straße","HouseNumber":"12","PostalCode":"26603","AdditionalData":[{"value":"Deutschland","key":"CountryName"},{"value":"Niedersachsen","key":"StateName"},{"value":"Aurich","key":"CountyName"}]},"MapReference":{"CountryId":"20147700","StateId":"20151542","CountyId":"20156017","CityId":"20156018","DistrictId":"20156030","PlaceId":"58131478"}}},{"Relevance":1.0,"Distance":27.7,"MatchLevel":"houseNumber","MatchQuality":{"Country":1.0,"State":1.0,"County":1.0,"City":1.0,"District":1.0,"Street":[1.0],"HouseNumber":1.0,"PostalCode":1.0},"MatchType":"interpolated","Location":{"LocationId":"NT_kFkE1yvmVafhUaLngRZ71C_2A","LocationType":"point","DisplayPosition":{"Latitude":53.46839,"Longitude":7.49626},"MapView":{"TopLeft":{"Latitude":53.4695142,"Longitude":7.4943715},"BottomRight":{"Latitude":53.4672658,"Longitude":7.4981485}},"Address":{"Label":"Wallinghausener Straße 6, 26603 Aurich, Deutschland","Country":"DEU","State":"Niedersachsen","County":"Aurich","City":"Aurich","District":"Aurich","Street":"Wallinghausener Straße","HouseNumber":"6","PostalCode":"26603","AdditionalData":[{"value":"Deutschland","key":"CountryName"},{"value":"Niedersachsen","key":"StateName"},{"value":"Aurich","key":"CountyName"}]},"MapReference":{"ReferenceId":"586507298","Spot":0.05,"SideOfStreet":"right","CountryId":"20147700","StateId":"20151542","CountyId":"20156017","CityId":"20156018","DistrictId":"20156030","AddressId":"181475269","RoadLinkId":"36926382"}}},{"Relevance":1.0,"Distance":43.1,"MatchLevel":"houseNumber","MatchQuality":{"Country":1.0,"State":1.0,"County":1.0,"City":1.0,"District":1.0,"Street":[1.0],"HouseNumber":1.0,"PostalCode":1.0},"MatchType":"interpolated","Location":{"LocationId":"NT_7CtOlOz4e9OhnCLSDVWkuA_xA","LocationType":"point","DisplayPosition":{"Latitude":53.46863,"Longitude":7.49599},"MapView":{"TopLeft":{"Latitude":53.4697542,"Longitude":7.4941015},"BottomRight":{"Latitude":53.4675058,"Longitude":7.4978785}},"Address":{"Label":"Goethestraße 1, 26603 Aurich, Deutschland","Country":"DEU","State":"Niedersachsen","County":"Aurich","City":"Aurich","District":"Aurich","Street":"Goethestraße","HouseNumber":"1","PostalCode":"26603","AdditionalData":[{"value":"Deutschland","key":"CountryName"},{"value":"Niedersachsen","key":"StateName"},{"value":"Aurich","key":"CountyName"}]},"MapReference":{"ReferenceId":"539291548","Spot":0.07,"SideOfStreet":"left","CountryId":"20147700","StateId":"20151542","CountyId":"20156017","CityId":"20156018","DistrictId":"20156030","AddressId":"181353186","RoadLinkId":"36542978"}}},{"Relevance":1.0,"Distance":70.8,"MatchLevel":"houseNumber","MatchQuality":{"Country":1.0,"State":1.0,"County":1.0,"City":1.0,"District":1.0,"Street":[1.0],"HouseNumber":1.0,"PostalCode":1.0},"MatchType":"interpolated","Location":{"LocationId":"NT_YCo.cgt9jPsvz9XT4JcM4D_xA","LocationType":"point","DisplayPosition":{"Latitude":53.46759,"Longitude":7.49493},"MapView":{"TopLeft":{"Latitude":53.4687142,"Longitude":7.4930415},"BottomRight":{"Latitude":53.4664658,"Longitude":7.4968185}},"Address":{"Label":"Egelser Straße 1, 26605 Aurich, Deutschland","Country":"DEU","State":"Niedersachsen","County":"Aurich","City":"Aurich","District":"Aurich","Street":"Egelser Straße","HouseNumber":"1","PostalCode":"26605","AdditionalData":[{"value":"Deutschland","key":"CountryName"},{"value":"Niedersachsen","key":"StateName"},{"value":"Aurich","key":"CountyName"}]},"MapReference":{"ReferenceId":"1189804129","Spot":0.39,"SideOfStreet":"right","CountryId":"20147700","StateId":"20151542","CountyId":"20156017","CityId":"20156018","DistrictId":"20156030","AddressId":"180884634","RoadLinkId":"499020004"}}},{"Relevance":1.0,"Distance":73.0,"MatchLevel":"houseNumber","MatchQuality":{"Country":1.0,"State":1.0,"County":1.0,"City":1.0,"District":1.0,"Street":[1.0],"HouseNumber":1.0,"PostalCode":1.0},"MatchType":"interpolated","Location":{"LocationId":"NT_kFkE1yvmVafhUaLngRZ71C_xA","LocationType":"point","DisplayPosition":{"Latitude":53.46792,"Longitude":7.49496},"MapView":{"TopLeft":{"Latitude":53.4690442,"Longitude":7.4930715},"BottomRight":{"Latitude":53.4667958,"Longitude":7.4968485}},"Address":{"Label":"Wallinghausener Straße 1, 26603 Aurich, Deutschland","Country":"DEU","State":"Niedersachsen","County":"Aurich","City":"Aurich","District":"Aurich","Street":"Wallinghausener Straße","HouseNumber":"1","PostalCode":"26603","AdditionalData":[{"value":"Deutschland","key":"CountryName"},{"value":"Niedersachsen","key":"StateName"},{"value":"Aurich","key":"CountyName"}]},"MapReference":{"ReferenceId":"1189802958","Spot":0.94,"SideOfStreet":"left","CountryId":"20147700","StateId":"20151542","CountyId":"20156017","CityId":"20156018","DistrictId":"20156030","AddressId":"181288956","RoadLinkId":"499018643"}}},{"Relevance":1.0,"Distance":75.1,"MatchLevel":"houseNumber","MatchQuality":{"Country":1.0,"State":1.0,"County":1.0,"City":1.0,"District":1.0,"Street":[1.0],"HouseNumber":1.0,"PostalCode":1.0},"MatchType":"interpolated","Location":{"LocationId":"NT_YCo.cgt9jPsvz9XT4JcM4D_zA","LocationType":"point","DisplayPosition":{"Latitude":53.46744,"Longitude":7.49525},"MapView":{"TopLeft":{"Latitude":53.4685642,"Longitude":7.4933616},"BottomRight":{"Latitude":53.4663158,"Longitude":7.4971384}},"Address":{"Label":"Egelser Straße 3, 26605 Aurich, Deutschland","Country":"DEU","State":"Niedersachsen","County":"Aurich","City":"Aurich","District":"Aurich","Street":"Egelser Straße","HouseNumber":"3","PostalCode":"26605","AdditionalData":[{"value":"Deutschland","key":"CountryName"},{"value":"Niedersachsen","key":"StateName"},{"value":"Aurich","key":"CountyName"}]},"MapReference":{"ReferenceId":"1189804174","Spot":0.65,"SideOfStreet":"right","CountryId":"20147700","StateId":"20151542","CountyId":"20156017","CityId":"20156018","DistrictId":"20156030","AddressId":"180884635","RoadLinkId":"499020046"}}},{"Relevance":1.0,"Distance":90.8,"MatchLevel":"houseNumber","MatchQuality":{"Country":1.0,"State":1.0,"County":1.0,"City":1.0,"District":1.0,"Street":[1.0],"HouseNumber":1.0,"PostalCode":1.0},"MatchType":"interpolated","Location":{"LocationId":"NT_kFkE1yvmVafhUaLngRZ71C_4A","LocationType":"point","DisplayPosition":{"Latitude":53.46865,"Longitude":7.49711},"MapView":{"TopLeft":{"Latitude":53.4697742,"Longitude":7.4952215},"BottomRight":{"Latitude":53.4675258,"Longitude":7.4989985}},"Address":{"Label":"Wallinghausener Straße 8, 26603 Aurich, Deutschland","Country":"DEU","State":"Niedersachsen","County":"Aurich","City":"Aurich","District":"Aurich","Street":"Wallinghausener Straße","HouseNumber":"8","PostalCode":"26603","AdditionalData":[{"value":"Deutschland","key":"CountryName"},{"value":"Niedersachsen","key":"StateName"},{"value":"Aurich","key":"CountyName"}]},"MapReference":{"ReferenceId":"586507299","Spot":0.0,"SideOfStreet":"right","CountryId":"20147700","StateId":"20151542","CountyId":"20156017","CityId":"20156018","DistrictId":"20156030","AddressId":"178331658","RoadLinkId":"36945662"}}},{"Relevance":1.0,"Distance":90.8,"MatchLevel":"street","MatchQuality":{"Country":1.0,"State":1.0,"County":1.0,"City":1.0,"District":1.0,"Street":[1.0],"PostalCode":1.0},"Location":{"LocationId":"NT_TCu0ohnYOo1anXJV2MemhA_l_983472862_R","LocationType":"point","DisplayPosition":{"Latitude":53.46865,"Longitude":7.49711},"MapView":{"TopLeft":{"Latitude":53.46887,"Longitude":7.49711},"BottomRight":{"Latitude":53.46865,"Longitude":7.4978}},"Address":{"Label":"Wallinghausener Straße, 26603 Aurich, Deutschland","Country":"DEU","State":"Niedersachsen","County":"Aurich","City":"Aurich","District":"Aurich","Street":"Wallinghausener Straße","PostalCode":"26603","AdditionalData":[{"value":"Deutschland","key":"CountryName"},{"value":"Niedersachsen","key":"StateName"},{"value":"Aurich","key":"CountyName"}]},"MapReference":{"ReferenceId":"983472862","Spot":0.0,"SideOfStreet":"right","CountryId":"20147700","StateId":"20151542","CountyId":"20156017","CityId":"20156018","DistrictId":"20156030"}}}]}]}}