{"Response":{"MetaInfo":{"Timestamp":"2020-03-28T10:41:40.989+0000","NextPageInformation":"2"},"View":[{"_type":"SearchResultsViewType","ViewId":0,"Result":[{"Relevance":1.0,"Distance":0.0,"Direction":0.0,"MatchLevel":"district","MatchQuality":{"Country":1.0,"State":1.0,"County":1.0,"City":1.0,"District":1.0,"PostalCode":1.0},"Location":{"LocationId":"NT_IES62dfgvqv0v23XpZnyfB","LocationType":"point","DisplayPosition":{"Latitude":53.4222103,"Longitude":-1.2803586},"MapView":{"TopLeft":{"Latitude":53.42895,"Longitude":-1.29868},"BottomRight":{"Latitude":53.39895,"Longitude":-1.26101}},"Address":{"Label":"Wickersley, Rotherham, England, United Kingdom","Country":"GBR","State":"England","County":"South Yorkshire","City":"Rotherham","District":"Wickersley","PostalCode":"S66 1","AdditionalData":[{"value":"United Kingdom","key":"CountryName"},{"value":"England","key":"StateName"},{"value":"South Yorkshire","key":"CountyName"}]},"MapReference":{"ReferenceId":"1057001623","SideOfStreet":"neither","StateId":"20248595","CountyId":"20344788","CityId":"20344930","DistrictId":"20344968"}}},{"Relevance":1.0,"Distance":8.2,"MatchLevel":"houseNumber","MatchQuality":{"Country":1.0,"State":1.0,"County":1.0,"City":1.0,"District":1.0,"Street":[1.0],"HouseNumber":1.0,"PostalCode":1.0},"MatchType":"interpolated","Location":{"LocationId":"NT_rYmeBQOQhMbEBhvFshVjGA_l_27109831_R_5A","LocationType":"point","DisplayPosition":{"Latitude":53.4222601,"Longitude":-1.28045},"MapView":{"TopLeft":{"Latitude":53.4233843,"Longitude":-1.2823364},"BottomRight":{"Latitude":53.421136,"Longitude":-1.2785635}},"Address":{"Label":"9 Northfield Court, Rotherham, S66 2NZ, United Kingdom","Country":"GBR","State":"England","County":"South Yorkshire","City":"Rotherham","District":"Wickersley","Street":"Northfield Court","HouseNumber":"9","PostalCode":"S66 2NZ","AdditionalData":[{"value":"United Kingdom","key":"CountryName"},{"value":"England","key":"StateName"},{"value":"South Yorkshire","key":"CountyName"}]},"MapReference":{"ReferenceId":"27109831","Spot":0.14,"SideOfStreet":"right","StateId":"20248595","CountyId":"20344788","CityId":"20344930","DistrictId":"20344968"}}},{"Relevance":1.0,"Distance":9.8,"MatchLevel":"houseNumber","MatchQuality":{"Country":1.0,"State":1.0,"County":1.0,"City":1.0,"District":1.0,"Street":[1.0],"HouseNumber":1.0,"PostalCode":1.0},"MatchType":"interpolated","Location":{"LocationId":"NT_LTBvrXODsBtNp3abli7n5B_l_27109847_L_xA","LocationType":"point","DisplayPosition":{"Latitude":53.42215,"Longitude":-1.2802499},"MapView":{"TopLeft":{"Latitude":53.4232742,"Longitude":-1.2821364},"BottomRight":{"Latitude":53.4210258,"Longitude":-1.2783635}},"Address":{"Label":"1 Poplar Glade, Rotherham, S66 2JQ, United Kingdom","Country":"GBR","State":"England","County":"South Yorkshire","City":"Rotherham","District":"Wickersley","Street":"Poplar Glade","HouseNumber":"1","PostalCode":"S66 2JQ","AdditionalData":[{"value":"United Kingdom","key":"CountryName"},{"value":"England","key":"StateName"},{"value":"South Yorkshire","key":"CountyName"}]},"MapReference":{"ReferenceId":"27109847","Spot":0.15,"SideOfStreet":"left","StateId":"20248595","CountyId":"20344788","CityId":"20344930","DistrictId":"20344968"}}},{"Relevance":1.0,"Distance":11.6,"MatchLevel":"street","MatchQuality":{"Country":1.0,"State":1.0,"County":1.0,"City":1.0,"District":1.0,"Street":[1.0],"PostalCode":1.0},"Location":{"LocationId":"NT_rYmeBQOQhMbEBhvFshVjGA_l_27109883_R","LocationType":"point","DisplayPosition":{"Latitude":53.42213,"Longitude":-1.28047},"MapView":{"TopLeft":{"Latitude":53.42213,"Longitude":-1.28058},"BottomRight":{"Latitude":53.42193,"Longitude":-1.28047}},"Address":{"Label":"Northfield Court, Rotherham, S66 2, United Kingdom","Country":"GBR","State":"England","County":"South Yorkshire","City":"Rotherham","District":"Wickersley","Street":"Northfield Court","PostalCode":"S66 2","AdditionalData":[{"value":"United Kingdom","key":"CountryName"},{"value":"England","key":"StateName"},{"value":"South Yorkshire","key":"CountyName"}]},"MapReference":{"ReferenceId":"27109883","Spot":1.0,"SideOfStreet":"right","StateId":"20248595","CountyId":"20344788","CityId":"20344930","DistrictId":"20344968"}}},{"Relevance":1.0,"Distance":34.4,"MatchLevel":"street","MatchQuality":{"Country":1.0,"State":1.0,"County":1.0,"City":1.0,"District":1.0,"Street":[1.0],"PostalCode":1.0},"Location":{"LocationId":"NT_vrfjyaM5RV4cVmmY4fOTnB_l_27109884_R","LocationType":"point","DisplayPosition":{"Latitude":53.42193,"Longitude":-1.28058},"MapView":{"TopLeft":{"Latitude":53.42197,"Longitude":-1.28087},"BottomRight":{"Latitude":53.42193,"Longitude":-1.28058}},"Address":{"Label":"Wickersley Roundabout, Rotherham, S66 2, United Kingdom","Country":"GBR","State":"England","County":"South Yorkshire","City":"Rotherham","District":"Wickersley","Street":"Wickersley Roundabout","PostalCode":"S66 2","AdditionalData":[{"value":"United Kingdom","key":"CountryName"},{"value":"England","key":"StateName"},{"value":"South Yorkshire","key":"CountyName"}]},"MapReference":{"ReferenceId":"27109884","Spot":0.0,"SideOfStreet":"right","StateId":"20248595","CountyId":"20344788","CityId":"20344930","DistrictId":"20344968"}}},{"Relevance":1.0,"Distance":35.9,"MatchLevel":"street","MatchQuality":{"Country":1.0,"State":1.0,"County":1.0,"City":1.0,"District":1.0,"Street":[1.0],"PostalCode":1.0},"Location":{"LocationId":"NT_2g306pEuef31AwpcE11roB_l_840346588_L","LocationType":"point","DisplayPosition":{"Latitude":53.4218873,"Longitude":-1.2803671},"MapView":{"TopLeft":{"Latitude":53.4219,"Longitude":-1.28047},"BottomRight":{"Latitude":53.42188,"Longitude":-1.2796}},"Address":{"Label":"Bawtry Road, Rotherham, S66 2, United Kingdom","Country":"GBR","State":"England","County":"South Yorkshire","City":"Rotherham","District":"Wickersley","Street":"Bawtry Road","PostalCode":"S66 2","AdditionalData":[{"value":"United Kingdom","key":"CountryName"},{"value":"England","key":"StateName"},{"value":"South Yorkshire","key":"CountyName"}]},"MapReference":{"ReferenceId":"840346588","Spot":0.12,"SideOfStreet":"left","StateId":"20248595","CountyId":"20344788","CityId":"20344930","DistrictId":"20344968"}}},{"Relevance":1.0,"Distance":36.3,"MatchLevel":"street","MatchQuality":{"Country":1.0,"State":1.0,"County":1.0,"City":1.0,"District":1.0,"Street":[1.0],"PostalCode":1.0},"Location":{"LocationId":"NT_vrfjyaM5RV4cVmmY4fOTnB_l_27109891_R","LocationType":"point","DisplayPosition":{"Latitude":53.4218916,"Longitude":-1.2804745},"MapView":{"TopLeft":{"Latitude":53.42193,"Longitude":-1.28058},"BottomRight":{"Latitude":53.42189,"Longitude":-1.28047}},"Address":{"Label":"Wickersley Roundabout, Rotherham, S66 2, United Kingdom","Country":"GBR","State":"England","County":"South Yorkshire","City":"Rotherham","District":"Wickersley","Street":"Wickersley Roundabout","PostalCode":"S66 2","AdditionalData":[{"value":"United Kingdom","key":"CountryName"},{"value":"England","key":"StateName"},{"value":"South Yorkshire","key":"CountyName"}]},"MapReference":{"ReferenceId":"27109891","Spot":0.04,"SideOfStreet":"right","StateId":"20248595","CountyId":"20344788","CityId":"20344930","DistrictId":"20344968"}}},{"Relevance":1.0,"Distance":36.4,"MatchLevel":"street","MatchQuality":{"Country":1.0,"State":1.0,"County":1.0,"City":1.0,"District":1.0,"Street":[1.0],"PostalCode":1.0},"Location":{"LocationId":"NT_vrfjyaM5RV4cVmmY4fOTnB_l_27109984_R","LocationType":"point","DisplayPosition":{"Latitude":53.42189,"Longitude":-1.28047},"MapView":{"TopLeft":{"Latitude":53.42189,"Longitude":-1.28047},"BottomRight":{"Latitude":53.42163,"Longitude":-1.28032}},"Address":{"Label":"Wickersley Roundabout, Rotherham, S66 2, United Kingdom","Country":"GBR","State":"England","County":"South Yorkshire","City":"Rotherham","District":"Wickersley","Street":"Wickersley Roundabout","PostalCode":"S66 2","AdditionalData":[{"value":"United Kingdom","key":"CountryName"},{"value":"England","key":"StateName"},{"value":"South Yorkshire","key":"CountyName"}]},"MapReference":{"ReferenceId":"27109984","Spot":1.0,"SideOfStreet":"right","StateId":"20248595","CountyId":"20344788","CityId":"20344930","DistrictId":"20344968"}}},{"Relevance":1.0,"Distance":43.2,"MatchLevel":"street","MatchQuality":{"Country":1.0,"State":1.0,"County":1.0,"City":1.0,"District":1.0,"Street":[1.0],"PostalCode":1.0},"Location":{"LocationId":"NT_vrfjyaM5RV4cVmmY4fOTnB_l_1185670487_L","LocationType":"point","DisplayPosition":{"Latitude":53.42197,"Longitude":-1.28087},"MapView":{"TopLeft":{"Latitude":53.42197,"Longitude":-1.28109},"BottomRight":{"Latitude":53.42194,"Longitude":-1.28087}},"Address":{"Label":"Wickersley Roundabout, Rotherham, S66 2, United Kingdom","Country":"GBR","State":"England","County":"South Yorkshire","City":"Rotherham","District":"Wickersley","Street":"Wickersley Roundabout","PostalCode":"S66 2","AdditionalData":[{"value":"United Kingdom","key":"CountryName"},{"value":"England","key":"StateName"},{"value":"South Yorkshire","key":"CountyName"}]},"MapReference":{"ReferenceId":"1185670487","Spot":1.0,"SideOfStreet":"left","StateId":"20248595","CountyId":"20344788","CityId":"20344930","DistrictId":"20344968"}}},{"Relevance":1.0,"Distance":46.2,"MatchLevel":"houseNumber","MatchQuality":{"Country":1.0,"State":1.0,"County":1.0,"City":1.0,"District":1.0,"Street":[1.0],"HouseNumber":1.0,"PostalCode":1.0},"MatchType":"interpolated","Location":{"LocationId":"NT_yQAs1.AAjwitCK-RGJ3mYA_l_27109878_R_xAD","LocationType":"point","DisplayPosition":{"Latitude":53.422,"Longitude":-1.28108},"MapView":{"TopLeft":{"Latitude":53.4231242,"Longitude":-1.2829665},"BottomRight":{"Latitude":53.4208759,"Longitude":-1.2791936}},"Address":{"Label":"10 Northfield Lane, Rotherham, S66 2HL, United Kingdom","Country":"GBR","State":"England","County":"South Yorkshire","City":"Rotherham","District":"Wickersley","Street":"Northfield Lane","HouseNumber":"10","PostalCode":"S66 2HL","AdditionalData":[{"value":"United Kingdom","key":"CountryName"},{"value":"England","key":"StateName"},{"value":"South Yorkshire","key":"CountyName"}]},"MapReference":{"ReferenceId":"27109878","Spot":0.3,"SideOfStreet":"right","StateId":"20248595","CountyId":"20344788","CityId":"20344930","DistrictId":"20344968"}}}]}]}}