{"Response":{"MetaInfo":{"Timestamp":"2020-03-28T11:18:03.205+0000","NextPageInformation":"2"},"View":[{"_type":"SearchResultsViewType","ViewId":0,"Result":[{"Relevance":1.0,"Distance":0.0,"Direction":0.0,"MatchLevel":"district","MatchQuality":{"Country":1.0,"State":1.0,"County":1.0,"City":1.0,"District":1.0,"PostalCode":1.0},"Location":{"LocationId":"NT_Io3I2hCkJZLVyMcneRwclC","LocationType":"point","DisplayPosition":{"Latitude":53.4650809,"Longitude":-0.05516},"MapView":{"TopLeft":{"Latitude":53.47193,"Longitude":-0.06516},"BottomRight":{"Latitude":53.46087,"Longitude":-0.03898}},"Address":{"Label":"North Thoresby, Grimsby, England, United Kingdom","Country":"GBR","State":"England","County":"South Humberside","City":"Grimsby","District":"North Thoresby","PostalCode":"DN36 5","AdditionalData":[{"value":"United Kingdom","key":"CountryName"},{"value":"England","key":"StateName"},{"value":"South Humberside","key":"CountyName"}]},"MapReference":{"ReferenceId":"1003881239","SideOfStreet":"neither","StateId":"20248595","CountyId":"20344777","CityId":"20344784","DistrictId":"20357830"}}},{"Relevance":1.0,"Distance":16.3,"MatchLevel":"houseNumber","MatchQuality":{"Country":1.0,"State":1.0,"County":1.0,"City":1.0,"District":1.0,"Street":[1.0],"HouseNumber":1.0,"PostalCode":1.0},"MatchType":"interpolated","Location":{"LocationId":"NT_UwsruF.GFTBYfOfT.UQATA_l_26019300_L_0ED","LocationType":"point","DisplayPosition":{"Latitude":53.4648229,"Longitude":-0.0549856},"MapView":{"TopLeft":{"Latitude":53.4659471,"Longitude":-0.0568739},"BottomRight":{"Latitude":53.4636987,"Longitude":-0.0530973}},"Address":{"Label":"41 Highfield Road, Grimsby, DN36 5RT, United Kingdom","Country":"GBR","State":"England","County":"South Humberside","City":"Grimsby","District":"North Thoresby","Street":"Highfield Road","HouseNumber":"41","PostalCode":"DN36 5RT","AdditionalData":[{"value":"United Kingdom","key":"CountryName"},{"value":"England","key":"StateName"},{"value":"South Humberside","key":"CountyName"}]},"MapReference":{"ReferenceId":"26019300","Spot":0.57,"SideOfStreet":"left","StateId":"20248595","CountyId":"20344777","CityId":"20344784","DistrictId":"20357830"}}},{"Relevance":1.0,"Distance":23.2,"MatchLevel":"street","MatchQuality":{"Country":1.0,"State":1.0,"County":1.0,"City":1.0,"District":1.0,"Street":[1.0],"PostalCode":1.0},"Location":{"LocationId":"NT_k3NP1gYXL4hrWJT-4YI40B_l_26019276_R","LocationType":"point","DisplayPosition":{"Latitude":53.4652858,"Longitude":-0.0552268},"MapView":{"TopLeft":{"Latitude":53.46554,"Longitude":-0.05549},"BottomRight":{"Latitude":53.4652,"Longitude":-0.05459}},"Address":{"Label":"Bormans Lane, Grimsby, DN36 5, United Kingdom","Country":"GBR","State":"England","County":"South Humberside","City":"Grimsby","District":"North Thoresby","Street":"Bormans Lane","PostalCode":"DN36 5","AdditionalData":[{"value":"United Kingdom","key":"CountryName"},{"value":"England","key":"StateName"},{"value":"South Humberside","key":"CountyName"}]},"MapReference":{"ReferenceId":"26019276","Spot":0.29,"SideOfStreet":"right","StateId":"20248595","CountyId":"20344777","CityId":"20344784","DistrictId":"20357830"}}},{"Relevance":1.0,"Distance":27.8,"MatchLevel":"postalCode","MatchQuality":{"PostalCode":1.0},"Location":{"LocationId":"NT_k3NP1gYXL4hrWJT-4YI40B_l_26019276_R","LocationType":"point","DisplayPosition":{"Latitude":53.46531,"Longitude":-0.05533},"MapView":{"TopLeft":{"Latitude":53.4743032,"Longitude":-0.0704368},"BottomRight":{"Latitude":53.4563168,"Longitude":-0.0402232}},"Address":{"Label":"DN36 5RQ, Grimsby, England, United Kingdom","Country":"GBR","State":"England","County":"South Humberside","City":"Grimsby","PostalCode":"DN36 5RQ","AdditionalData":[{"value":"United Kingdom","key":"CountryName"},{"value":"England","key":"StateName"},{"value":"South Humberside","key":"CountyName"}]},"MapReference":{"ReferenceId":"26019276","Spot":0.29,"SideOfStreet":"neither","StateId":"20248595","CountyId":"20344777","CityId":"20344784"}}},{"Relevance":1.0,"Distance":63.5,"MatchLevel":"street","MatchQuality":{"Country":1.0,"State":1.0,"County":1.0,"City":1.0,"District":1.0,"Street":[1.0],"PostalCode":1.0},"Location":{"LocationId":"NT_l9K2KKut9qh0DOHXqt31uB_l_26019275_L","LocationType":"point","DisplayPosition":{"Latitude":53.46554,"Longitude":-0.05459},"MapView":{"TopLeft":{"Latitude":53.46554,"Longitude":-0.05459},"BottomRight":{"Latitude":53.46524,"Longitude":-0.05409}},"Address":{"Label":"Ludborough Road, Grimsby, DN36 5, United Kingdom","Country":"GBR","State":"England","County":"South Humberside","City":"Grimsby","District":"North Thoresby","Street":"Ludborough Road","PostalCode":"DN36 5","AdditionalData":[{"value":"United Kingdom","key":"CountryName"},{"value":"England","key":"StateName"},{"value":"South Humberside","key":"CountyName"}]},"MapReference":{"ReferenceId":"26019275","Spot":1.0,"SideOfStreet":"left","StateId":"20248595","CountyId":"20344777","CityId":"20344784","DistrictId":"20357830"}}},{"Relevance":1.0,"Distance":69.5,"MatchLevel":"street","MatchQuality":{"Country":1.0,"State":1.0,"County":1.0,"City":1.0,"District":1.0,"Street":[1.0],"PostalCode":1.0},"Location":{"LocationId":"NT_l9K2KKut9qh0DOHXqt31uB_l_26019268_L","LocationType":"point","DisplayPosition":{"Latitude":53.4656721,"Longitude":-0.0548189},"MapView":{"TopLeft":{"Latitude":53.46569,"Longitude":-0.05485},"BottomRight":{"Latitude":53.46554,"Longitude":-0.05459}},"Address":{"Label":"Ludborough Road, Grimsby, DN36 5, United Kingdom","Country":"GBR","State":"England","County":"South Humberside","City":"Grimsby","District":"North Thoresby","Street":"Ludborough Road","PostalCode":"DN36 5","AdditionalData":[{"value":"United Kingdom","key":"CountryName"},{"value":"England","key":"StateName"},{"value":"South Humberside","key":"CountyName"}]},"MapReference":{"ReferenceId":"26019268","Spot":0.88,"SideOfStreet":"left","StateId":"20248595","CountyId":"20344777","CityId":"20344784","DistrictId":"20357830"}}},{"Relevance":1.0,"Distance":70.8,"MatchLevel":"street","MatchQuality":{"Country":1.0,"State":1.0,"County":1.0,"City":1.0,"District":1.0,"Street":[1.0],"PostalCode":1.0},"Location":{"LocationId":"NT_l9K2KKut9qh0DOHXqt31uB_l_26019264_L","LocationType":"point","DisplayPosition":{"Latitude":53.46569,"Longitude":-0.05485},"MapView":{"TopLeft":{"Latitude":53.46625,"Longitude":-0.05553},"BottomRight":{"Latitude":53.46569,"Longitude":-0.05485}},"Address":{"Label":"Ludborough Road, Grimsby, DN36 5, United Kingdom","Country":"GBR","State":"England","County":"South Humberside","City":"Grimsby","District":"North Thoresby","Street":"Ludborough Road","PostalCode":"DN36 5","AdditionalData":[{"value":"United Kingdom","key":"CountryName"},{"value":"England","key":"StateName"},{"value":"South Humberside","key":"CountyName"}]},"MapReference":{"ReferenceId":"26019264","Spot":0.0,"SideOfStreet":"left","StateId":"20248595","CountyId":"20344777","CityId":"20344784","DistrictId":"20357830"}}},{"Relevance":1.0,"Distance":70.8,"MatchLevel":"street","MatchQuality":{"Country":1.0,"State":1.0,"County":1.0,"City":1.0,"District":1.0,"Street":[1.0],"PostalCode":1.0},"Location":{"LocationId":"NT_u6jgsXKfFeOpsOOIaVHjfB_l_26019263_R","LocationType":"point","DisplayPosition":{"Latitude":53.46569,"Longitude":-0.05485},"MapView":{"TopLeft":{"Latitude":53.4658,"Longitude":-0.05485},"BottomRight":{"Latitude":53.46569,"Longitude":-0.0528}},"Address":{"Label":"Dickinson's Lane, Grimsby, DN36 5, United Kingdom","Country":"GBR","State":"England","County":"South Humberside","City":"Grimsby","District":"North Thoresby","Street":"Dickinson's Lane","PostalCode":"DN36 5","AdditionalData":[{"value":"United Kingdom","key":"CountryName"},{"value":"England","key":"StateName"},{"value":"South Humberside","key":"CountyName"}]},"MapReference":{"ReferenceId":"26019263","Spot":0.0,"SideOfStreet":"right","StateId":"20248595","CountyId":"20344777","CityId":"20344784","DistrictId":"20357830"}}},{"Relevance":1.0,"Distance":73.0,"MatchLevel":"street","MatchQuality":{"Country":1.0,"State":1.0,"County":1.0,"City":1.0,"District":1.0,"Street":[1.0],"PostalCode":1.0},"Location":{"LocationId":"NT_l9K2KKut9qh0DOHXqt31uB_l_26019281_L","LocationType":"point","DisplayPosition":{"Latitude":53.46524,"Longitude":-0.05409},"MapView":{"TopLeft":{"Latitude":53.46524,"Longitude":-0.05409},"BottomRight":{"Latitude":53.46507,"Longitude":-0.05373}},"Address":{"Label":"Ludborough Road, Grimsby, DN36 5, United Kingdom","Country":"GBR","State":"England","County":"South Humberside","City":"Grimsby","District":"North Thoresby","Street":"Ludborough Road","PostalCode":"DN36 5","AdditionalData":[{"value":"United Kingdom","key":"CountryName"},{"value":"England","key":"StateName"},{"value":"South Humberside","key":"CountyName"}]},"MapReference":{"ReferenceId":"26019281","Spot":1.0,"SideOfStreet":"left","StateId":"20248595","CountyId":"20344777","CityId":"20344784","DistrictId":"20357830"}}},{"Relevance":1.0,"Distance":90.0,"MatchLevel":"houseNumber","MatchQuality":{"Country":1.0,"State":1.0,"County":1.0,"City":1.0,"District":1.0,"Street":[1.0],"HouseNumber":1.0,"PostalCode":1.0},"MatchType":"interpolated","Location":{"LocationId":"NT_UwsruF.GFTBYfOfT.UQATA_l_26019299_R_ykD","LocationType":"point","DisplayPosition":{"Latitude":53.4645901,"Longitude":-0.0564302},"MapView":{"TopLeft":{"Latitude":53.4657142,"Longitude":-0.0583185},"BottomRight":{"Latitude":53.4634659,"Longitude":-0.0545419}},"Address":{"Label":"29 Highfield Road, Grimsby, DN36 5, United Kingdom","Country":"GBR","State":"England","County":"South Humberside","City":"Grimsby","District":"North Thoresby","Street":"Highfield Road","HouseNumber":"29","PostalCode":"DN36 5","AdditionalData":[{"value":"United Kingdom","key":"CountryName"},{"value":"England","key":"StateName"},{"value":"South Humberside","key":"CountyName"}]},"MapReference":{"ReferenceId":"26019299","Spot":0.05,"SideOfStreet":"right","StateId":"20248595","CountyId":"20344777","CityId":"20344784","DistrictId":"20357830"}}}]}]}}