{"Response":{"MetaInfo":{"Timestamp":"2020-03-28T10:35:33.769+0000","NextPageInformation":"2"},"View":[{"_type":"SearchResultsViewType","ViewId":0,"Result":[{"Relevance":1.0,"Distance":0.0,"Direction":0.0,"MatchLevel":"district","MatchQuality":{"Country":1.0,"State":1.0,"County":1.0,"City":1.0,"District":1.0,"PostalCode":1.0},"Location":{"LocationId":"NT_sqFk8eponUak6nAQLUC2JA","LocationType":"point","DisplayPosition":{"Latitude":53.4000919,"Longitude":-2.5451634},"MapView":{"TopLeft":{"Latitude":53.40893,"Longitude":-2.56236},"BottomRight":{"Latitude":53.39431,"Longitude":-2.50154}},"Address":{"Label":"Woolston, Warrington, England, United Kingdom","Country":"GBR","State":"England","County":"Cheshire","City":"Warrington","District":"Woolston","PostalCode":"WA1 4","AdditionalData":[{"value":"United Kingdom","key":"CountryName"},{"value":"England","key":"StateName"},{"value":"Cheshire","key":"CountyName"}]},"MapReference":{"ReferenceId":"27295269","SideOfStreet":"neither","StateId":"20248595","CountyId":"20343157","CityId":"20343688","DistrictId":"20343742"}}},{"Relevance":1.0,"Distance":27.4,"MatchLevel":"houseNumber","MatchQuality":{"Country":1.0,"State":1.0,"County":1.0,"City":1.0,"District":1.0,"Street":[1.0],"HouseNumber":1.0,"PostalCode":1.0},"MatchType":"interpolated","Location":{"LocationId":"NT_9QEhqB9T6.C0f0qmxgkkzA_l_996205719_L_ygD","LocationType":"point","DisplayPosition":{"Latitude":53.3997653,"Longitude":-2.5448347},"MapView":{"TopLeft":{"Latitude":53.4008894,"Longitude":-2.5467201},"BottomRight":{"Latitude":53.3986411,"Longitude":-2.5429493}},"Address":{"Label":"28 Holes Lane, Warrington, WA1 4NE, United Kingdom","Country":"GBR","State":"England","County":"Cheshire","City":"Warrington","District":"Woolston","Street":"Holes Lane","HouseNumber":"28","PostalCode":"WA1 4NE","AdditionalData":[{"value":"United Kingdom","key":"CountryName"},{"value":"England","key":"StateName"},{"value":"Cheshire","key":"CountyName"}]},"MapReference":{"ReferenceId":"996205719","Spot":0.53,"SideOfStreet":"left","StateId":"20248595","CountyId":"20343157","CityId":"20343688","DistrictId":"20343742"}}},{"Relevance":1.0,"Distance":28.1,"MatchLevel":"street","MatchQuality":{"Country":1.0,"State":1.0,"County":1.0,"City":1.0,"District":1.0,"PostalCode":1.0},"Location":{"LocationId":"NT_jQGkD9GV4tS2vLyuo8lx3A_l_1230919935_L","LocationType":"point","DisplayPosition":{"Latitude":53.40009,"Longitude":-2.54474},"MapView":{"TopLeft":{"Latitude":53.40009,"Longitude":-2.54474},"BottomRight":{"Latitude":53.40004,"Longitude":-2.54468}},"Address":{"Label":"Warrington, WA1 4, United Kingdom","Country":"GBR","State":"England","County":"Cheshire","City":"Warrington","District":"Woolston","PostalCode":"WA1 4","AdditionalData":[{"value":"United Kingdom","key":"CountryName"},{"value":"England","key":"StateName"},{"value":"Cheshire","key":"CountyName"}]},"MapReference":{"ReferenceId":"1230919935","Spot":1.0,"SideOfStreet":"left","StateId":"20248595","CountyId":"20343157","CityId":"20343688","DistrictId":"20343742"}}},{"Relevance":1.0,"Distance":28.1,"MatchLevel":"street","MatchQuality":{"Country":1.0,"State":1.0,"County":1.0,"City":1.0,"District":1.0,"PostalCode":1.0},"Location":{"LocationId":"NT_jQGkD9GV4tS2vLyuo8lx3A_l_1230919936_L","LocationType":"point","DisplayPosition":{"Latitude":53.40009,"Longitude":-2.54474},"MapView":{"TopLeft":{"Latitude":53.40014,"Longitude":-2.54474},"BottomRight":{"Latitude":53.40009,"Longitude":-2.54468}},"Address":{"Label":"Warrington, WA1 4, United Kingdom","Country":"GBR","State":"England","County":"Cheshire","City":"Warrington","District":"Woolston","PostalCode":"WA1 4","AdditionalData":[{"value":"United Kingdom","key":"CountryName"},{"value":"England","key":"StateName"},{"value":"Cheshire","key":"CountyName"}]},"MapReference":{"ReferenceId":"1230919936","Spot":0.0,"SideOfStreet":"left","StateId":"20248595","CountyId":"20343157","CityId":"20343688","DistrictId":"20343742"}}},{"Relevance":1.0,"Distance":32.4,"MatchLevel":"houseNumber","MatchQuality":{"Country":1.0,"State":1.0,"County":1.0,"City":1.0,"District":1.0,"Street":[1.0],"HouseNumber":1.0,"PostalCode":1.0},"MatchType":"interpolated","Location":{"LocationId":"NT_9QEhqB9T6.C0f0qmxgkkzA_l_996205720_R_ycD","LocationType":"point","DisplayPosition":{"Latitude":53.4000005,"Longitude":-2.5446998},"MapView":{"TopLeft":{"Latitude":53.4011246,"Longitude":-2.5465852},"BottomRight":{"Latitude":53.3988763,"Longitude":-2.5428143}},"Address":{"Label":"27 Holes Lane, Warrington, WA1 4LS, United Kingdom","Country":"GBR","State":"England","County":"Cheshire","City":"Warrington","District":"Woolston","Street":"Holes Lane","HouseNumber":"27","PostalCode":"WA1 4LS","AdditionalData":[{"value":"United Kingdom","key":"CountryName"},{"value":"England","key":"StateName"},{"value":"Cheshire","key":"CountyName"}]},"MapReference":{"ReferenceId":"996205720","Spot":0.66,"SideOfStreet":"right","StateId":"20248595","CountyId":"20343157","CityId":"20343688","DistrictId":"20343742"}}},{"Relevance":1.0,"Distance":32.5,"MatchLevel":"street","MatchQuality":{"Country":1.0,"State":1.0,"County":1.0,"City":1.0,"District":1.0,"PostalCode":1.0},"Location":{"LocationId":"NT_jQGkD9GV4tS2vLyuo8lx3A_l_1230919934_L","LocationType":"point","DisplayPosition":{"Latitude":53.40014,"Longitude":-2.54468},"MapView":{"TopLeft":{"Latitude":53.40014,"Longitude":-2.54468},"BottomRight":{"Latitude":53.40009,"Longitude":-2.54458}},"Address":{"Label":"Warrington, WA1 4, United Kingdom","Country":"GBR","State":"England","County":"Cheshire","City":"Warrington","District":"Woolston","PostalCode":"WA1 4","AdditionalData":[{"value":"United Kingdom","key":"CountryName"},{"value":"England","key":"StateName"},{"value":"Cheshire","key":"CountyName"}]},"MapReference":{"ReferenceId":"1230919934","Spot":1.0,"SideOfStreet":"left","StateId":"20248595","CountyId":"20343157","CityId":"20343688","DistrictId":"20343742"}}},{"Relevance":1.0,"Distance":32.6,"MatchLevel":"street","MatchQuality":{"Country":1.0,"State":1.0,"County":1.0,"City":1.0,"District":1.0,"PostalCode":1.0},"Location":{"LocationId":"NT_jQGkD9GV4tS2vLyuo8lx3A_l_1230919933_L","LocationType":"point","DisplayPosition":{"Latitude":53.40004,"Longitude":-2.54468},"MapView":{"TopLeft":{"Latitude":53.40009,"Longitude":-2.54468},"BottomRight":{"Latitude":53.40004,"Longitude":-2.54458}},"Address":{"Label":"Warrington, WA1 4, United Kingdom","Country":"GBR","State":"England","County":"Cheshire","City":"Warrington","District":"Woolston","PostalCode":"WA1 4","AdditionalData":[{"value":"United Kingdom","key":"CountryName"},{"value":"England","key":"StateName"},{"value":"Cheshire","key":"CountyName"}]},"MapReference":{"ReferenceId":"1230919933","Spot":0.0,"SideOfStreet":"left","StateId":"20248595","CountyId":"20343157","CityId":"20343688","DistrictId":"20343742"}}},{"Relevance":1.0,"Distance":35.0,"MatchLevel":"street","MatchQuality":{"Country":1.0,"State":1.0,"County":1.0,"City":1.0,"District":1.0,"Street":[1.0],"PostalCode":1.0},"Location":{"LocationId":"NT_TnwNlEsCNS8jPc.6S6XWiB_l_758465731_L","LocationType":"point","DisplayPosition":{"Latitude":53.4002673,"Longitude":-2.5447249},"MapView":{"TopLeft":{"Latitude":53.40077,"Longitude":-2.54494},"BottomRight":{"Latitude":53.40014,"Longitude":-2.54468}},"Address":{"Label":"Green Lane, Warrington, WA1 4, United Kingdom","Country":"GBR","State":"England","County":"Cheshire","City":"Warrington","District":"Woolston","Street":"Green Lane","PostalCode":"WA1 4","AdditionalData":[{"value":"United Kingdom","key":"CountryName"},{"value":"England","key":"StateName"},{"value":"Cheshire","key":"CountyName"}]},"MapReference":{"ReferenceId":"758465731","Spot":0.2,"SideOfStreet":"left","StateId":"20248595","CountyId":"20343157","CityId":"20343688","DistrictId":"20343742"}}},{"Relevance":1.0,"Distance":38.8,"MatchLevel":"postalCode","MatchQuality":{"PostalCode":1.0},"MatchType":"interpolated","Location":{"LocationId":"NT_9QEhqB9T6.C0f0qmxgkkzA_l_996205719_L_ygD","LocationType":"point","DisplayPosition":{"Latitude":53.39979,"Longitude":-2.54487},"MapView":{"TopLeft":{"Latitude":53.4087832,"Longitude":-2.5599535},"BottomRight":{"Latitude":53.3907968,"Longitude":-2.5297865}},"Address":{"Label":"WA1 4NE, Warrington, England, United Kingdom","Country":"GBR","State":"England","County":"Cheshire","City":"Warrington","PostalCode":"WA1 4NE","AdditionalData":[{"value":"United Kingdom","key":"CountryName"},{"value":"England","key":"StateName"},{"value":"Cheshire","key":"CountyName"}]},"MapReference":{"ReferenceId":"996205719","Spot":0.53,"SideOfStreet":"neither","StateId":"20248595","CountyId":"20343157","CityId":"20343688"}}},{"Relevance":1.0,"Distance":49.1,"MatchLevel":"houseNumber","MatchQuality":{"Country":1.0,"State":1.0,"County":1.0,"City":1.0,"District":1.0,"Street":[1.0],"HouseNumber":1.0,"PostalCode":1.0},"MatchType":"interpolated","Location":{"LocationId":"NT_5wutl15EdxulPm55fHpIXC_l_27019504_L_xA","LocationType":"point","DisplayPosition":{"Latitude":53.3996,"Longitude":-2.5447197},"MapView":{"TopLeft":{"Latitude":53.4007242,"Longitude":-2.5466051},"BottomRight":{"Latitude":53.3984759,"Longitude":-2.5428343}},"Address":{"Label":"1 Austral Avenue, Warrington, WA1 4ND, United Kingdom","Country":"GBR","State":"England","County":"Cheshire","City":"Warrington","District":"Woolston","Street":"Austral Avenue","HouseNumber":"1","PostalCode":"WA1 4ND","AdditionalData":[{"value":"United Kingdom","key":"CountryName"},{"value":"England","key":"StateName"},{"value":"Cheshire","key":"CountyName"}]},"MapReference":{"ReferenceId":"27019504","Spot":0.05,"SideOfStreet":"left","StateId":"20248595","CountyId":"20343157","CityId":"20343688","DistrictId":"20343742"}}}]}]}}