{"Response":{"MetaInfo":{"Timestamp":"2020-03-28T11:54:52.703+0000","NextPageInformation":"2"},"View":[{"_type":"SearchResultsViewType","ViewId":0,"Result":[{"Relevance":1.0,"Distance":0.0,"Direction":0.0,"MatchLevel":"district","MatchQuality":{"Country":1.0,"State":1.0,"County":1.0,"City":1.0,"District":1.0,"PostalCode":1.0},"Location":{"LocationId":"NT_iqnuXy0Qhdc3Yi3rzbvxHB","LocationType":"point","DisplayPosition":{"Latitude":53.4058452,"Longitude":-2.9851236},"MapView":{"TopLeft":{"Latitude":53.40879,"Longitude":-2.98595},"BottomRight":{"Latitude":53.40185,"Longitude":-2.97269}},"Address":{"Label":"City Central, Liverpool, England, United Kingdom","Country":"GBR","State":"England","County":"Merseyside","City":"Liverpool","District":"City Central","PostalCode":"L1 1","AdditionalData":[{"value":"United Kingdom","key":"CountryName"},{"value":"England","key":"StateName"},{"value":"Merseyside","key":"CountyName"}]},"MapReference":{"ReferenceId":"585783582","SideOfStreet":"neither","StateId":"20248595","CountyId":"20343208","CityId":"20343768"}}},{"Relevance":1.0,"Distance":3.1,"MatchLevel":"street","MatchQuality":{"Country":1.0,"State":1.0,"County":1.0,"City":1.0,"District":1.0,"Street":[1.0],"PostalCode":1.0},"Location":{"LocationId":"NT_abB0LQtCzWqKVax7E7vnvA_l_78754141_L","LocationType":"point","DisplayPosition":{"Latitude":53.4058732,"Longitude":-2.9851189},"MapView":{"TopLeft":{"Latitude":53.40598,"Longitude":-2.98555},"BottomRight":{"Latitude":53.40581,"Longitude":-2.98474}},"Address":{"Label":"Leigh Street, Liverpool, L1 1, United Kingdom","Country":"GBR","State":"England","County":"Merseyside","City":"Liverpool","District":"City Central","Street":"Leigh Street","PostalCode":"L1 1","AdditionalData":[{"value":"United Kingdom","key":"CountryName"},{"value":"England","key":"StateName"},{"value":"Merseyside","key":"CountyName"}]},"MapReference":{"ReferenceId":"78754141","Spot":0.46,"SideOfStreet":"neither","StateId":"20248595","CountyId":"20343208","CityId":"20343768"}}},{"Relevance":1.0,"Distance":8.4,"MatchLevel":"postalCode","MatchQuality":{"PostalCode":1.0},"Location":{"LocationId":"NT_abB0LQtCzWqKVax7E7vnvA_l_78754141_L","LocationType":"point","DisplayPosition":{"Latitude":53.40585,"Longitude":-2.98525},"MapView":{"TopLeft":{"Latitude":53.4148432,"Longitude":-3.0003357},"BottomRight":{"Latitude":53.3968568,"Longitude":-2.9701643}},"Address":{"Label":"L1 1HQ, Liverpool, England, United Kingdom","Country":"GBR","State":"England","County":"Merseyside","City":"Liverpool","PostalCode":"L1 1HQ","AdditionalData":[{"value":"United Kingdom","key":"CountryName"},{"value":"England","key":"StateName"},{"value":"Merseyside","key":"CountyName"}]},"MapReference":{"ReferenceId":"78754141","Spot":0.46,"SideOfStreet":"neither","StateId":"20248595","CountyId":"20343208","CityId":"20343768"}}},{"Relevance":1.0,"Distance":17.9,"MatchLevel":"houseNumber","MatchQuality":{"Country":1.0,"State":1.0,"County":1.0,"City":1.0,"District":1.0,"Street":[1.0],"HouseNumber":1.0,"PostalCode":1.0},"MatchType":"interpolated","Location":{"LocationId":"NT_YsEnpnuGuc9UAL2OEP-LvA_l_78754137_R_yID","LocationType":"point","DisplayPosition":{"Latitude":53.40595,"Longitude":-2.985565},"MapView":{"TopLeft":{"Latitude":53.4070742,"Longitude":-2.9874507},"BottomRight":{"Latitude":53.4048259,"Longitude":-2.9836793}},"Address":{"Label":"22 Whitechapel, Liverpool, L1 1, United Kingdom","Country":"GBR","State":"England","County":"Merseyside","City":"Liverpool","District":"City Central","Street":"Whitechapel","HouseNumber":"22","PostalCode":"L1 1","AdditionalData":[{"value":"United Kingdom","key":"CountryName"},{"value":"England","key":"StateName"},{"value":"Merseyside","key":"CountyName"}]},"MapReference":{"ReferenceId":"78754137","Spot":0.5,"SideOfStreet":"right","StateId":"20248595","CountyId":"20343208","CityId":"20343768"}}},{"Relevance":1.0,"Distance":18.2,"MatchLevel":"houseNumber","MatchQuality":{"Country":1.0,"State":1.0,"County":1.0,"City":1.0,"District":1.0,"Street":[1.0],"HouseNumber":1.0,"PostalCode":1.0},"MatchType":"interpolated","Location":{"LocationId":"NT_YsEnpnuGuc9UAL2OEP-LvA_l_78754138_R_yQD","LocationType":"point","DisplayPosition":{"Latitude":53.40598,"Longitude":-2.98555},"MapView":{"TopLeft":{"Latitude":53.4071042,"Longitude":-2.9874357},"BottomRight":{"Latitude":53.4048559,"Longitude":-2.9836643}},"Address":{"Label":"24 Whitechapel, Liverpool, L1 1, United Kingdom","Country":"GBR","State":"England","County":"Merseyside","City":"Liverpool","District":"City Central","Street":"Whitechapel","HouseNumber":"24","PostalCode":"L1 1","AdditionalData":[{"value":"United Kingdom","key":"CountryName"},{"value":"England","key":"StateName"},{"value":"Merseyside","key":"CountyName"}]},"MapReference":{"ReferenceId":"78754138","Spot":0.0,"SideOfStreet":"right","StateId":"20248595","CountyId":"20343208","CityId":"20343768"}}},{"Relevance":1.0,"Distance":25.7,"MatchLevel":"street","MatchQuality":{"Country":1.0,"State":1.0,"County":1.0,"City":1.0,"District":1.0,"Street":[1.0],"PostalCode":1.0},"Location":{"LocationId":"NT_uz5zGIM4Sol9nfppJ-4ceB_l_827885772_L","LocationType":"point","DisplayPosition":{"Latitude":53.40581,"Longitude":-2.98474},"MapView":{"TopLeft":{"Latitude":53.40593,"Longitude":-2.98474},"BottomRight":{"Latitude":53.40581,"Longitude":-2.9847}},"Address":{"Label":"Williamson Street, Liverpool, L1 1, United Kingdom","Country":"GBR","State":"England","County":"Merseyside","City":"Liverpool","District":"City Central","Street":"Williamson Street","PostalCode":"L1 1","AdditionalData":[{"value":"United Kingdom","key":"CountryName"},{"value":"England","key":"StateName"},{"value":"Merseyside","key":"CountyName"}]},"MapReference":{"ReferenceId":"827885772","Spot":0.0,"SideOfStreet":"left","StateId":"20248595","CountyId":"20343208","CityId":"20343768"}}},{"Relevance":1.0,"Distance":27.2,"MatchLevel":"street","MatchQuality":{"Country":1.0,"State":1.0,"County":1.0,"City":1.0,"District":1.0,"Street":[1.0],"PostalCode":1.0},"Location":{"LocationId":"NT_uz5zGIM4Sol9nfppJ-4ceB_l_825650975_L","LocationType":"point","DisplayPosition":{"Latitude":53.4057147,"Longitude":-2.9847757},"MapView":{"TopLeft":{"Latitude":53.40581,"Longitude":-2.98493},"BottomRight":{"Latitude":53.4053,"Longitude":-2.98474}},"Address":{"Label":"Williamson Street, Liverpool, L1 1, United Kingdom","Country":"GBR","State":"England","County":"Merseyside","City":"Liverpool","District":"City Central","Street":"Williamson Street","PostalCode":"L1 1","AdditionalData":[{"value":"United Kingdom","key":"CountryName"},{"value":"England","key":"StateName"},{"value":"Merseyside","key":"CountyName"}]},"MapReference":{"ReferenceId":"825650975","Spot":0.81,"SideOfStreet":"left","StateId":"20248595","CountyId":"20343208","CityId":"20343768"}}},{"Relevance":1.0,"Distance":29.0,"MatchLevel":"houseNumber","MatchQuality":{"Country":1.0,"State":1.0,"County":1.0,"City":1.0,"District":1.0,"Street":[1.0],"HouseNumber":1.0,"PostalCode":1.0},"MatchType":"interpolated","Location":{"LocationId":"NT_YsEnpnuGuc9UAL2OEP-LvA_l_825650993_R_xgD","LocationType":"point","DisplayPosition":{"Latitude":53.4057443,"Longitude":-2.9856343},"MapView":{"TopLeft":{"Latitude":53.4068684,"Longitude":-2.98752},"BottomRight":{"Latitude":53.4046201,"Longitude":-2.9837486}},"Address":{"Label":"18 Whitechapel, Liverpool, L1 1, United Kingdom","Country":"GBR","State":"England","County":"Merseyside","City":"Liverpool","District":"City Central","Street":"Whitechapel","HouseNumber":"18","PostalCode":"L1 1","AdditionalData":[{"value":"United Kingdom","key":"CountryName"},{"value":"England","key":"StateName"},{"value":"Merseyside","key":"CountyName"}]},"MapReference":{"ReferenceId":"825650993","Spot":0.67,"SideOfStreet":"right","StateId":"20248595","CountyId":"20343208","CityId":"20343768"}}},{"Relevance":1.0,"Distance":29.6,"MatchLevel":"street","MatchQuality":{"Country":1.0,"State":1.0,"County":1.0,"City":1.0,"District":1.0,"Street":[1.0],"PostalCode":1.0},"Location":{"LocationId":"NT_abB0LQtCzWqKVax7E7vnvA_l_827885776_L","LocationType":"point","DisplayPosition":{"Latitude":53.40593,"Longitude":-2.9847},"MapView":{"TopLeft":{"Latitude":53.40593,"Longitude":-2.9847},"BottomRight":{"Latitude":53.40581,"Longitude":-2.98392}},"Address":{"Label":"Leigh Street, Liverpool, L1 1, United Kingdom","Country":"GBR","State":"England","County":"Merseyside","City":"Liverpool","District":"City Central","Street":"Leigh Street","PostalCode":"L1 1","AdditionalData":[{"value":"United Kingdom","key":"CountryName"},{"value":"England","key":"StateName"},{"value":"Merseyside","key":"CountyName"}]},"MapReference":{"ReferenceId":"827885776","Spot":1.0,"SideOfStreet":"left","StateId":"20248595","CountyId":"20343208","CityId":"20343768"}}},{"Relevance":1.0,"Distance":29.6,"MatchLevel":"street","MatchQuality":{"Country":1.0,"State":1.0,"County":1.0,"City":1.0,"District":1.0,"Street":[1.0],"PostalCode":1.0},"Location":{"LocationId":"NT_uz5zGIM4Sol9nfppJ-4ceB_l_827885773_L","LocationType":"point","DisplayPosition":{"Latitude":53.40593,"Longitude":-2.9847},"MapView":{"TopLeft":{"Latitude":53.40654,"Longitude":-2.9847},"BottomRight":{"Latitude":53.40593,"Longitude":-2.98446}},"Address":{"Label":"Williamson Street, Liverpool, L1 1, United Kingdom","Country":"GBR","State":"England","County":"Merseyside","City":"Liverpool","District":"City Central","Street":"Williamson Street","PostalCode":"L1 1","AdditionalData":[{"value":"United Kingdom","key":"CountryName"},{"value":"England","key":"StateName"},{"value":"Merseyside","key":"CountyName"}]},"MapReference":{"ReferenceId":"827885773","Spot":0.0,"SideOfStreet":"left","StateId":"20248595","CountyId":"20343208","CityId":"20343768"}}}]}]}}