{"Response":{"MetaInfo":{"Timestamp":"2020-03-28T09:52:06.563+0000","NextPageInformation":"2"},"View":[{"_type":"SearchResultsViewType","ViewId":0,"Result":[{"Relevance":1.0,"Distance":0.0,"Direction":0.0,"MatchLevel":"district","MatchQuality":{"Country":1.0,"State":1.0,"County":1.0,"City":1.0,"District":1.0,"PostalCode":1.0},"Location":{"LocationId":"NT_wHjnR3Qz6h8qtN42mgjPxD","LocationType":"point","DisplayPosition":{"Latitude":53.4256939,"Longitude":-2.8052521},"MapView":{"TopLeft":{"Latitude":53.43684,"Longitude":-2.82017},"BottomRight":{"Latitude":53.39964,"Longitude":-2.77625}},"Address":{"Label":"Prescot, England, United Kingdom","Country":"GBR","State":"England","County":"Merseyside","City":"Prescot","District":"Prescot","PostalCode":"L34 6","AdditionalData":[{"value":"United Kingdom","key":"CountryName"},{"value":"England","key":"StateName"},{"value":"Merseyside","key":"CountyName"}]},"MapReference":{"ReferenceId":"27333722","SideOfStreet":"neither","StateId":"20248595","CountyId":"20343208","CityId":"20343845","DistrictId":"20343846"}}},{"Relevance":1.0,"Distance":11.4,"MatchLevel":"street","MatchQuality":{"Country":1.0,"State":1.0,"County":1.0,"City":1.0,"District":1.0,"Street":[1.0],"PostalCode":1.0},"Location":{"LocationId":"NT_H3FD43BRxxmLKINwUaVGaD_l_1204552950_R","LocationType":"point","DisplayPosition":{"Latitude":53.4255917,"Longitude":-2.8052631},"MapView":{"TopLeft":{"Latitude":53.4256,"Longitude":-2.80534},"BottomRight":{"Latitude":53.42556,"Longitude":-2.80497}},"Address":{"Label":"Manchester Road, Prescot, L34 1, United Kingdom","Country":"GBR","State":"England","County":"Merseyside","City":"Prescot","District":"Prescot","Street":"Manchester Road","PostalCode":"L34 1","AdditionalData":[{"value":"United Kingdom","key":"CountryName"},{"value":"England","key":"StateName"},{"value":"Merseyside","key":"CountyName"}]},"MapReference":{"ReferenceId":"1204552950","Spot":0.79,"SideOfStreet":"right","StateId":"20248595","CountyId":"20343208","CityId":"20343845","DistrictId":"20343846"}}},{"Relevance":1.0,"Distance":12.0,"MatchLevel":"street","MatchQuality":{"Country":1.0,"State":1.0,"County":1.0,"City":1.0,"District":1.0,"Street":[1.0],"PostalCode":1.0},"Location":{"LocationId":"NT_H3FD43BRxxmLKINwUaVGaD_l_1204552951_R","LocationType":"point","DisplayPosition":{"Latitude":53.4256,"Longitude":-2.80534},"MapView":{"TopLeft":{"Latitude":53.42563,"Longitude":-2.80556},"BottomRight":{"Latitude":53.4256,"Longitude":-2.80534}},"Address":{"Label":"Manchester Road, Prescot, L34 1, United Kingdom","Country":"GBR","State":"England","County":"Merseyside","City":"Prescot","District":"Prescot","Street":"Manchester Road","PostalCode":"L34 1","AdditionalData":[{"value":"United Kingdom","key":"CountryName"},{"value":"England","key":"StateName"},{"value":"Merseyside","key":"CountyName"}]},"MapReference":{"ReferenceId":"1204552951","Spot":0.0,"SideOfStreet":"right","StateId":"20248595","CountyId":"20343208","CityId":"20343845","DistrictId":"20343846"}}},{"Relevance":1.0,"Distance":23.9,"MatchLevel":"street","MatchQuality":{"Country":1.0,"State":1.0,"County":1.0,"City":1.0,"District":1.0,"PostalCode":1.0},"Location":{"LocationId":"NT_MKkSubHQFuEAqQorvpAJzA_l_78754001_L","LocationType":"point","DisplayPosition":{"Latitude":53.42556,"Longitude":-2.80497},"MapView":{"TopLeft":{"Latitude":53.42573,"Longitude":-2.80497},"BottomRight":{"Latitude":53.42556,"Longitude":-2.80467}},"Address":{"Label":"Prescot, L34 1, United Kingdom","Country":"GBR","State":"England","County":"Merseyside","City":"Prescot","District":"Prescot","PostalCode":"L34 1","AdditionalData":[{"value":"United Kingdom","key":"CountryName"},{"value":"England","key":"StateName"},{"value":"Merseyside","key":"CountyName"}]},"MapReference":{"ReferenceId":"78754001","Spot":0.0,"SideOfStreet":"left","StateId":"20248595","CountyId":"20343208","CityId":"20343845","DistrictId":"20343846"}}},{"Relevance":1.0,"Distance":26.5,"MatchLevel":"street","MatchQuality":{"Country":1.0,"State":1.0,"County":1.0,"City":1.0,"District":1.0,"PostalCode":1.0},"Location":{"LocationId":"NT_MKkSubHQFuEAqQorvpAJzA_l_585788613_L","LocationType":"point","DisplayPosition":{"Latitude":53.4255003,"Longitude":-2.8050198},"MapView":{"TopLeft":{"Latitude":53.42556,"Longitude":-2.80504},"BottomRight":{"Latitude":53.42529,"Longitude":-2.80493}},"Address":{"Label":"Prescot, L34 1, United Kingdom","Country":"GBR","State":"England","County":"Merseyside","City":"Prescot","District":"Prescot","PostalCode":"L34 1","AdditionalData":[{"value":"United Kingdom","key":"CountryName"},{"value":"England","key":"StateName"},{"value":"Merseyside","key":"CountyName"}]},"MapReference":{"ReferenceId":"585788613","Spot":0.77,"SideOfStreet":"left","StateId":"20248595","CountyId":"20343208","CityId":"20343845","DistrictId":"20343846"}}},{"Relevance":1.0,"Distance":33.6,"MatchLevel":"houseNumber","MatchQuality":{"Country":1.0,"State":1.0,"County":1.0,"City":1.0,"District":1.0,"Street":[1.0],"HouseNumber":1.0,"PostalCode":1.0},"MatchType":"interpolated","Location":{"LocationId":"NT_H3FD43BRxxmLKINwUaVGaD_l_982099824_R_1UD","LocationType":"point","DisplayPosition":{"Latitude":53.42567,"Longitude":-2.8057701},"MapView":{"TopLeft":{"Latitude":53.4267942,"Longitude":-2.8076566},"BottomRight":{"Latitude":53.4245459,"Longitude":-2.8038835}},"Address":{"Label":"55 Manchester Road, Prescot, L34 1, United Kingdom","Country":"GBR","State":"England","County":"Merseyside","City":"Prescot","District":"Prescot","Street":"Manchester Road","HouseNumber":"55","PostalCode":"L34 1","AdditionalData":[{"value":"United Kingdom","key":"CountryName"},{"value":"England","key":"StateName"},{"value":"Merseyside","key":"CountyName"}]},"MapReference":{"ReferenceId":"982099824","Spot":0.25,"SideOfStreet":"right","StateId":"20248595","CountyId":"20343208","CityId":"20343845","DistrictId":"20343846"}}},{"Relevance":1.0,"Distance":35.6,"MatchLevel":"houseNumber","MatchQuality":{"Country":1.0,"State":1.0,"County":1.0,"City":1.0,"District":1.0,"Street":[1.0],"HouseNumber":1.0,"PostalCode":1.0},"MatchType":"interpolated","Location":{"LocationId":"NT_Av-xfeRU0HbkkgS-DYjm5D_l_27335379_R_yA","LocationType":"point","DisplayPosition":{"Latitude":53.42561,"Longitude":-2.8057804},"MapView":{"TopLeft":{"Latitude":53.4267341,"Longitude":-2.807667},"BottomRight":{"Latitude":53.4244858,"Longitude":-2.8038938}},"Address":{"Label":"2 South Avenue, Prescot, L34 1LY, United Kingdom","Country":"GBR","State":"England","County":"Merseyside","City":"Prescot","District":"Prescot","Street":"South Avenue","HouseNumber":"2","PostalCode":"L34 1LY","AdditionalData":[{"value":"United Kingdom","key":"CountryName"},{"value":"England","key":"StateName"},{"value":"Merseyside","key":"CountyName"}]},"MapReference":{"ReferenceId":"27335379","Spot":0.04,"SideOfStreet":"right","StateId":"20248595","CountyId":"20343208","CityId":"20343845","DistrictId":"20343846"}}},{"Relevance":1.0,"Distance":38.8,"MatchLevel":"street","MatchQuality":{"Country":1.0,"State":1.0,"County":1.0,"City":1.0,"District":1.0,"PostalCode":1.0},"Location":{"LocationId":"NT_MKkSubHQFuEAqQorvpAJzA_l_78754009_R","LocationType":"point","DisplayPosition":{"Latitude":53.42573,"Longitude":-2.80467},"MapView":{"TopLeft":{"Latitude":53.42574,"Longitude":-2.80467},"BottomRight":{"Latitude":53.42567,"Longitude":-2.80431}},"Address":{"Label":"Prescot, L34 1, United Kingdom","Country":"GBR","State":"England","County":"Merseyside","City":"Prescot","District":"Prescot","PostalCode":"L34 1","AdditionalData":[{"value":"United Kingdom","key":"CountryName"},{"value":"England","key":"StateName"},{"value":"Merseyside","key":"CountyName"}]},"MapReference":{"ReferenceId":"78754009","Spot":1.0,"SideOfStreet":"right","StateId":"20248595","CountyId":"20343208","CityId":"20343845","DistrictId":"20343846"}}},{"Relevance":1.0,"Distance":44.3,"MatchLevel":"landmark","MatchQuality":{"Country":1.0,"State":1.0,"County":1.0,"City":1.0,"District":1.0,"Street":[1.0],"PostalCode":1.0,"Name":1.0},"Location":{"LocationId":"NT_q.sE6y4vcyb8G70RaAIKcD_p_oYDNu8WdDfAA8kgZPS1aUD","LocationType":"shoppingCentre","Name":"Prescot Cables Retail Park","DisplayPosition":{"Latitude":53.42548,"Longitude":-2.80229},"MapView":{"TopLeft":{"Latitude":53.42755,"Longitude":-2.80507},"BottomRight":{"Latitude":53.4253,"Longitude":-2.79796}},"Address":{"Label":"Sewell Street, Prescot, L34 1, United Kingdom","Country":"GBR","State":"England","County":"Merseyside","City":"Prescot","District":"Prescot","Street":"Sewell Street","PostalCode":"L34 1","AdditionalData":[{"value":"United Kingdom","key":"CountryName"},{"value":"England","key":"StateName"},{"value":"Merseyside","key":"CountyName"}]},"MapReference":{"StateId":"20248595","CountyId":"20343208","CityId":"20343845","DistrictId":"20343846","PlaceId":"1001026041"}}},{"Relevance":1.0,"Distance":44.3,"MatchLevel":"street","MatchQuality":{"Country":1.0,"State":1.0,"County":1.0,"City":1.0,"District":1.0,"Street":[1.0],"PostalCode":1.0},"Location":{"LocationId":"NT_gYrZwdTPu6eCiOsDnIFpyB_l_78754003_L","LocationType":"point","DisplayPosition":{"Latitude":53.42597,"Longitude":-2.80477},"MapView":{"TopLeft":{"Latitude":53.42617,"Longitude":-2.80486},"BottomRight":{"Latitude":53.42573,"Longitude":-2.80467}},"Address":{"Label":"Sewell Street, Prescot, L34 1, United Kingdom","Country":"GBR","State":"England","County":"Merseyside","City":"Prescot","District":"Prescot","Street":"Sewell Street","PostalCode":"L34 1","AdditionalData":[{"value":"United Kingdom","key":"CountryName"},{"value":"England","key":"StateName"},{"value":"Merseyside","key":"CountyName"}]},"MapReference":{"ReferenceId":"78754003","Spot":0.54,"SideOfStreet":"left","StateId":"20248595","CountyId":"20343208","CityId":"20343845","DistrictId":"20343846"}}}]}]}}