{"Response":{"MetaInfo":{"Timestamp":"2020-03-28T09:51:40.070+0000","NextPageInformation":"2"},"View":[{"_type":"SearchResultsViewType","ViewId":0,"Result":[{"Relevance":1.0,"Distance":0.0,"Direction":0.0,"MatchLevel":"district","MatchQuality":{"Country":1.0,"State":1.0,"County":1.0,"City":1.0,"District":1.0,"PostalCode":1.0},"Location":{"LocationId":"NT_9L2CskP1jb.nzpf.fgqVyD","LocationType":"point","DisplayPosition":{"Latitude":53.4565259,"Longitude":-2.7429316},"MapView":{"TopLeft":{"Latitude":53.48515,"Longitude":-2.78762},"BottomRight":{"Latitude":53.41058,"Longitude":-2.67741}},"Address":{"Label":"St Helens, England, United Kingdom","Country":"GBR","State":"England","County":"Merseyside","City":"St Helens","District":"St Helens","PostalCode":"WA10 1","AdditionalData":[{"value":"United Kingdom","key":"CountryName"},{"value":"England","key":"StateName"},{"value":"Merseyside","key":"CountyName"}]},"MapReference":{"ReferenceId":"27009970","SideOfStreet":"neither","StateId":"20248595","CountyId":"20343208","CityId":"20343904","DistrictId":"20343905"}}},{"Relevance":1.0,"Distance":6.3,"MatchLevel":"houseNumber","MatchQuality":{"Country":1.0,"State":1.0,"County":1.0,"City":1.0,"District":1.0,"Street":[1.0],"HouseNumber":1.0,"PostalCode":1.0},"MatchType":"interpolated","Location":{"LocationId":"NT_re1ZX02TjBm2Nn8URYqLxC_l_27008303_R_xATN","LocationType":"point","DisplayPosition":{"Latitude":53.4565221,"Longitude":-2.7430654},"MapView":{"TopLeft":{"Latitude":53.4576463,"Longitude":-2.7449534},"BottomRight":{"Latitude":53.455398,"Longitude":-2.7411774}},"Address":{"Label":"105 Crab Street, St Helens, WA10 2DJ, United Kingdom","Country":"GBR","State":"England","County":"Merseyside","City":"St Helens","District":"St Helens","Street":"Crab Street","HouseNumber":"105","PostalCode":"WA10 2DJ","AdditionalData":[{"value":"United Kingdom","key":"CountryName"},{"value":"England","key":"StateName"},{"value":"Merseyside","key":"CountyName"}]},"MapReference":{"ReferenceId":"27008303","Spot":0.53,"SideOfStreet":"right","StateId":"20248595","CountyId":"20343208","CityId":"20343904","DistrictId":"20343905"}}},{"Relevance":1.0,"Distance":17.7,"MatchLevel":"houseNumber","MatchQuality":{"Country":1.0,"State":1.0,"County":1.0,"City":1.0,"District":1.0,"Street":[1.0],"HouseNumber":1.0,"PostalCode":1.0},"MatchType":"interpolated","Location":{"LocationId":"NT_RDO1XETskm95el2PWAnQkA_l_837217556_R_xMDM","LocationType":"point","DisplayPosition":{"Latitude":53.45631,"Longitude":-2.74322},"MapView":{"TopLeft":{"Latitude":53.4574342,"Longitude":-2.745108},"BottomRight":{"Latitude":53.4551859,"Longitude":-2.7413321}},"Address":{"Label":"130 Duke Street, St Helens, WA10 2JL, United Kingdom","Country":"GBR","State":"England","County":"Merseyside","City":"St Helens","District":"St Helens","Street":"Duke Street","HouseNumber":"130","PostalCode":"WA10 2JL","AdditionalData":[{"value":"United Kingdom","key":"CountryName"},{"value":"England","key":"StateName"},{"value":"Merseyside","key":"CountyName"}]},"MapReference":{"ReferenceId":"837217556","Spot":0.0,"SideOfStreet":"right","StateId":"20248595","CountyId":"20343208","CityId":"20343904","DistrictId":"20343905"}}},{"Relevance":1.0,"Distance":18.8,"MatchLevel":"postalCode","MatchQuality":{"PostalCode":1.0},"MatchType":"interpolated","Location":{"LocationId":"NT_re1ZX02TjBm2Nn8URYqLxC_l_27008303_R_xATN","LocationType":"point","DisplayPosition":{"Latitude":53.45669,"Longitude":-2.743},"MapView":{"TopLeft":{"Latitude":53.4656832,"Longitude":-2.7581037},"BottomRight":{"Latitude":53.4476968,"Longitude":-2.7278963}},"Address":{"Label":"WA10 2DJ, St Helens, England, United Kingdom","Country":"GBR","State":"England","County":"Merseyside","City":"St Helens","PostalCode":"WA10 2DJ","AdditionalData":[{"value":"United Kingdom","key":"CountryName"},{"value":"England","key":"StateName"},{"value":"Merseyside","key":"CountyName"}]},"MapReference":{"ReferenceId":"27008303","Spot":0.53,"SideOfStreet":"neither","StateId":"20248595","CountyId":"20343208","CityId":"20343904"}}},{"Relevance":1.0,"Distance":24.0,"MatchLevel":"street","MatchQuality":{"Country":1.0,"State":1.0,"County":1.0,"City":1.0,"District":1.0,"Street":[1.0],"PostalCode":1.0},"Location":{"LocationId":"NT_Y2MqAcxwnVv5lACr-xdvxB_l_936590389_L","LocationType":"point","DisplayPosition":{"Latitude":53.45637,"Longitude":-2.74268},"MapView":{"TopLeft":{"Latitude":53.45645,"Longitude":-2.74268},"BottomRight":{"Latitude":53.45637,"Longitude":-2.74237}},"Address":{"Label":"Carillon Way, St Helens, WA10 2, United Kingdom","Country":"GBR","State":"England","County":"Merseyside","City":"St Helens","District":"St Helens","Street":"Carillon Way","PostalCode":"WA10 2","AdditionalData":[{"value":"United Kingdom","key":"CountryName"},{"value":"England","key":"StateName"},{"value":"Merseyside","key":"CountyName"}]},"MapReference":{"ReferenceId":"936590389","Spot":0.0,"SideOfStreet":"left","StateId":"20248595","CountyId":"20343208","CityId":"20343904","DistrictId":"20343905"}}},{"Relevance":1.0,"Distance":25.1,"MatchLevel":"houseNumber","MatchQuality":{"Country":1.0,"State":1.0,"County":1.0,"City":1.0,"District":1.0,"Street":[1.0],"HouseNumber":1.0,"PostalCode":1.0},"MatchType":"interpolated","Location":{"LocationId":"NT_RDO1XETskm95el2PWAnQkA_l_78713688_R_xEjM","LocationType":"point","DisplayPosition":{"Latitude":53.4561738,"Longitude":-2.7430189},"MapView":{"TopLeft":{"Latitude":53.457298,"Longitude":-2.7449068},"BottomRight":{"Latitude":53.4550497,"Longitude":-2.7411309}},"Address":{"Label":"112 Duke Street, St Helens, WA10 2, United Kingdom","Country":"GBR","State":"England","County":"Merseyside","City":"St Helens","District":"St Helens","Street":"Duke Street","HouseNumber":"112","PostalCode":"WA10 2","AdditionalData":[{"value":"United Kingdom","key":"CountryName"},{"value":"England","key":"StateName"},{"value":"Merseyside","key":"CountyName"}]},"MapReference":{"ReferenceId":"78713688","Spot":0.71,"SideOfStreet":"right","StateId":"20248595","CountyId":"20343208","CityId":"20343904","DistrictId":"20343905"}}},{"Relevance":1.0,"Distance":28.4,"MatchLevel":"street","MatchQuality":{"Country":1.0,"State":1.0,"County":1.0,"City":1.0,"District":1.0,"Street":[1.0],"PostalCode":1.0},"Location":{"LocationId":"NT_tnS9wnuoxLBMad4bcJTPAB_l_27008225_R","LocationType":"point","DisplayPosition":{"Latitude":53.45677,"Longitude":-2.74306},"MapView":{"TopLeft":{"Latitude":53.4575,"Longitude":-2.74333},"BottomRight":{"Latitude":53.45677,"Longitude":-2.74306}},"Address":{"Label":"Oxford Street, St Helens, WA10 2, United Kingdom","Country":"GBR","State":"England","County":"Merseyside","City":"St Helens","District":"St Helens","Street":"Oxford Street","PostalCode":"WA10 2","AdditionalData":[{"value":"United Kingdom","key":"CountryName"},{"value":"England","key":"StateName"},{"value":"Merseyside","key":"CountyName"}]},"MapReference":{"ReferenceId":"27008225","Spot":0.0,"SideOfStreet":"right","StateId":"20248595","CountyId":"20343208","CityId":"20343904","DistrictId":"20343905"}}},{"Relevance":1.0,"Distance":38.1,"MatchLevel":"street","MatchQuality":{"Country":1.0,"State":1.0,"County":1.0,"City":1.0,"District":1.0,"Street":[1.0],"PostalCode":1.0},"Location":{"LocationId":"NT_Y2MqAcxwnVv5lACr-xdvxB_l_936590390_L","LocationType":"point","DisplayPosition":{"Latitude":53.45645,"Longitude":-2.74237},"MapView":{"TopLeft":{"Latitude":53.45652,"Longitude":-2.74237},"BottomRight":{"Latitude":53.45645,"Longitude":-2.74214}},"Address":{"Label":"Carillon Way, St Helens, WA10 2, United Kingdom","Country":"GBR","State":"England","County":"Merseyside","City":"St Helens","District":"St Helens","Street":"Carillon Way","PostalCode":"WA10 2","AdditionalData":[{"value":"United Kingdom","key":"CountryName"},{"value":"England","key":"StateName"},{"value":"Merseyside","key":"CountyName"}]},"MapReference":{"ReferenceId":"936590390","Spot":0.0,"SideOfStreet":"left","StateId":"20248595","CountyId":"20343208","CityId":"20343904","DistrictId":"20343905"}}},{"Relevance":1.0,"Distance":38.1,"MatchLevel":"street","MatchQuality":{"Country":1.0,"State":1.0,"County":1.0,"City":1.0,"District":1.0,"Street":[1.0],"PostalCode":1.0},"Location":{"LocationId":"NT_Y2MqAcxwnVv5lACr-xdvxB_l_936590391_L","LocationType":"point","DisplayPosition":{"Latitude":53.45645,"Longitude":-2.74237},"MapView":{"TopLeft":{"Latitude":53.45645,"Longitude":-2.74237},"BottomRight":{"Latitude":53.45632,"Longitude":-2.74216}},"Address":{"Label":"Carillon Way, St Helens, WA10 2, United Kingdom","Country":"GBR","State":"England","County":"Merseyside","City":"St Helens","District":"St Helens","Street":"Carillon Way","PostalCode":"WA10 2","AdditionalData":[{"value":"United Kingdom","key":"CountryName"},{"value":"England","key":"StateName"},{"value":"Merseyside","key":"CountyName"}]},"MapReference":{"ReferenceId":"936590391","Spot":1.0,"SideOfStreet":"left","StateId":"20248595","CountyId":"20343208","CityId":"20343904","DistrictId":"20343905"}}},{"Relevance":1.0,"Distance":38.9,"MatchLevel":"houseNumber","MatchQuality":{"Country":1.0,"State":1.0,"County":1.0,"City":1.0,"District":1.0,"Street":[1.0],"HouseNumber":1.0,"PostalCode":1.0},"MatchType":"interpolated","Location":{"LocationId":"NT_NOUr2-4Pl9PUVoMmYdWZxD_l_832841281_L_yA","LocationType":"point","DisplayPosition":{"Latitude":53.4562208,"Longitude":-2.7433468},"MapView":{"TopLeft":{"Latitude":53.4573449,"Longitude":-2.7452348},"BottomRight":{"Latitude":53.4550966,"Longitude":-2.7414589}},"Address":{"Label":"2 Talbot Close, St Helens, WA10 2HJ, United Kingdom","Country":"GBR","State":"England","County":"Merseyside","City":"St Helens","District":"St Helens","Street":"Talbot Close","HouseNumber":"2","PostalCode":"WA10 2HJ","AdditionalData":[{"value":"United Kingdom","key":"CountryName"},{"value":"England","key":"StateName"},{"value":"Merseyside","key":"CountyName"}]},"MapReference":{"ReferenceId":"832841281","Spot":0.53,"SideOfStreet":"left","StateId":"20248595","CountyId":"20343208","CityId":"20343904","DistrictId":"20343905"}}}]}]}}