{"Response":{"MetaInfo":{"Timestamp":"2020-03-28T10:46:26.028+0000","NextPageInformation":"2"},"View":[{"_type":"SearchResultsViewType","ViewId":0,"Result":[{"Relevance":1.0,"Distance":0.0,"Direction":0.0,"MatchLevel":"district","MatchQuality":{"Country":1.0,"State":1.0,"County":1.0,"City":1.0,"District":1.0,"PostalCode":1.0},"Location":{"LocationId":"NT_g5HEvhX.DMPonw3TO5IpVC","LocationType":"point","DisplayPosition":{"Latitude":53.4415783,"Longitude":14.5147772},"MapView":{"TopLeft":{"Latitude":53.53394,"Longitude":14.46159},"BottomRight":{"Latitude":53.3333,"Longitude":14.786}},"Address":{"Label":"Szczecin, Woj. Zachodniopomorskie, Polska","Country":"POL","State":"Woj. Zachodniopomorskie","County":"Szczecin","City":"Szczecin","District":"Szczecin","PostalCode":"70-560","AdditionalData":[{"value":"Polska","key":"CountryName"},{"value":"Woj. Zachodniopomorskie","key":"StateName"},{"value":"Szczecin","key":"CountyName"}]},"MapReference":{"ReferenceId":"915371547","SideOfStreet":"neither","CountryId":"20624059","StateId":"20631896","CountyId":"20632163","CityId":"20632164","DistrictId":"20646826"}}},{"Relevance":1.0,"Distance":1.5,"MatchLevel":"houseNumber","MatchQuality":{"Country":1.0,"State":1.0,"County":1.0,"City":1.0,"District":1.0,"Street":[1.0],"HouseNumber":1.0,"PostalCode":1.0},"MatchType":"interpolated","Location":{"LocationId":"NT_ZoNjSw.Rc.MXmyJA.4xFHD_xAzQ","LocationType":"point","DisplayPosition":{"Latitude":53.44157,"Longitude":14.51476},"MapView":{"TopLeft":{"Latitude":53.4426942,"Longitude":14.5128727},"BottomRight":{"Latitude":53.4404458,"Longitude":14.5166473}},"Address":{"Label":"ulica Augusta Cieszkowskiego 10C, 71-301 Szczecin, Polska","Country":"POL","State":"Woj. Zachodniopomorskie","County":"Szczecin","City":"Szczecin","District":"Szczecin","Street":"ulica Augusta Cieszkowskiego","HouseNumber":"10C","PostalCode":"71-301","AdditionalData":[{"value":"Polska","key":"CountryName"},{"value":"Woj. Zachodniopomorskie","key":"StateName"},{"value":"Szczecin","key":"CountyName"}]},"MapReference":{"ReferenceId":"594875903","Spot":0.35,"SideOfStreet":"left","CountryId":"20624059","StateId":"20631896","CountyId":"20632163","CityId":"20632164","DistrictId":"20646826","AddressId":"210549440","RoadLinkId":"95205213"}}},{"Relevance":1.0,"Distance":21.7,"MatchLevel":"street","MatchQuality":{"Country":1.0,"State":1.0,"County":1.0,"City":1.0,"District":1.0,"Street":[1.0],"PostalCode":1.0},"Location":{"LocationId":"NT_ZoNjSw.Rc.MXmyJA.4xFHD_l_594875911_R","LocationType":"point","DisplayPosition":{"Latitude":53.44149,"Longitude":14.51507},"MapView":{"TopLeft":{"Latitude":53.44149,"Longitude":14.51507},"BottomRight":{"Latitude":53.44134,"Longitude":14.51565}},"Address":{"Label":"ulica Augusta Cieszkowskiego, 71-301 Szczecin, Polska","Country":"POL","State":"Woj. Zachodniopomorskie","County":"Szczecin","City":"Szczecin","District":"Szczecin","Street":"ulica Augusta Cieszkowskiego","PostalCode":"71-301","AdditionalData":[{"value":"Polska","key":"CountryName"},{"value":"Woj. Zachodniopomorskie","key":"StateName"},{"value":"Szczecin","key":"CountyName"}]},"MapReference":{"ReferenceId":"594875911","Spot":1.0,"SideOfStreet":"right","CountryId":"20624059","StateId":"20631896","CountyId":"20632163","CityId":"20632164","DistrictId":"20646826"}}},{"Relevance":1.0,"Distance":21.7,"MatchLevel":"street","MatchQuality":{"Country":1.0,"State":1.0,"County":1.0,"City":1.0,"District":1.0,"PostalCode":1.0},"Location":{"LocationId":"NT_C3beT7MgWyu2yXz1JCcJpA_l_594875902_L","LocationType":"point","DisplayPosition":{"Latitude":53.44149,"Longitude":14.51507},"MapView":{"TopLeft":{"Latitude":53.4432,"Longitude":14.51507},"BottomRight":{"Latitude":53.44149,"Longitude":14.51677}},"Address":{"Label":"71-303 Szczecin, Polska","Country":"POL","State":"Woj. Zachodniopomorskie","County":"Szczecin","City":"Szczecin","District":"Szczecin","PostalCode":"71-303","AdditionalData":[{"value":"Polska","key":"CountryName"},{"value":"Woj. Zachodniopomorskie","key":"StateName"},{"value":"Szczecin","key":"CountyName"}]},"MapReference":{"ReferenceId":"594875902","Spot":0.0,"SideOfStreet":"left","CountryId":"20624059","StateId":"20631896","CountyId":"20632163","CityId":"20632164","DistrictId":"20646826"}}},{"Relevance":1.0,"Distance":27.9,"MatchLevel":"houseNumber","MatchQuality":{"Country":1.0,"State":1.0,"County":1.0,"City":1.0,"District":1.0,"Street":[1.0],"HouseNumber":1.0,"PostalCode":1.0},"MatchType":"interpolated","Location":{"LocationId":"NT_wgNpKpltiq9twvxPqwxljB_xATMBB","LocationType":"point","DisplayPosition":{"Latitude":53.44179,"Longitude":14.51424},"MapView":{"TopLeft":{"Latitude":53.4429142,"Longitude":14.5123527},"BottomRight":{"Latitude":53.4406658,"Longitude":14.5161273}},"Address":{"Label":"ulica Romualda Traugutta 101A, 71-300 Szczecin, Polska","Country":"POL","State":"Woj. Zachodniopomorskie","County":"Szczecin","City":"Szczecin","District":"Szczecin","Street":"ulica Romualda Traugutta","HouseNumber":"101A","PostalCode":"71-300","AdditionalData":[{"value":"Polska","key":"CountryName"},{"value":"Woj. Zachodniopomorskie","key":"StateName"},{"value":"Szczecin","key":"CountyName"}]},"MapReference":{"ReferenceId":"915190816","Spot":0.68,"SideOfStreet":"right","CountryId":"20624059","StateId":"20631896","CountyId":"20632163","CityId":"20632164","DistrictId":"20646826","AddressId":"209533775","RoadLinkId":"272989299"}}},{"Relevance":1.0,"Distance":29.0,"MatchLevel":"houseNumber","MatchQuality":{"Country":1.0,"State":1.0,"County":1.0,"City":1.0,"District":1.0,"Street":[1.0],"HouseNumber":1.0,"PostalCode":1.0},"MatchType":"interpolated","Location":{"LocationId":"NT_wgNpKpltiq9twvxPqwxljB_xATMCB","LocationType":"point","DisplayPosition":{"Latitude":53.44183,"Longitude":14.51427},"MapView":{"TopLeft":{"Latitude":53.4429542,"Longitude":14.5123827},"BottomRight":{"Latitude":53.4407058,"Longitude":14.5161573}},"Address":{"Label":"ulica Romualda Traugutta 101B, 71-300 Szczecin, Polska","Country":"POL","State":"Woj. Zachodniopomorskie","County":"Szczecin","City":"Szczecin","District":"Szczecin","Street":"ulica Romualda Traugutta","HouseNumber":"101B","PostalCode":"71-300","AdditionalData":[{"value":"Polska","key":"CountryName"},{"value":"Woj. Zachodniopomorskie","key":"StateName"},{"value":"Szczecin","key":"CountyName"}]},"MapReference":{"ReferenceId":"1201068668","Spot":0.0,"SideOfStreet":"right","CountryId":"20624059","StateId":"20631896","CountyId":"20632163","CityId":"20632164","DistrictId":"20646826","AddressId":"210820461","RoadLinkId":"513556551"}}},{"Relevance":1.0,"Distance":37.6,"MatchLevel":"houseNumber","MatchQuality":{"Country":1.0,"State":1.0,"County":1.0,"City":1.0,"District":1.0,"Street":[1.0],"HouseNumber":1.0,"PostalCode":1.0},"MatchType":"interpolated","Location":{"LocationId":"NT_wgNpKpltiq9twvxPqwxljB_xADM","LocationType":"point","DisplayPosition":{"Latitude":53.44125,"Longitude":14.51382},"MapView":{"TopLeft":{"Latitude":53.4423742,"Longitude":14.5119327},"BottomRight":{"Latitude":53.4401258,"Longitude":14.5157073}},"Address":{"Label":"ulica Romualda Traugutta 100, 71-300 Szczecin, Polska","Country":"POL","State":"Woj. Zachodniopomorskie","County":"Szczecin","City":"Szczecin","District":"Szczecin","Street":"ulica Romualda Traugutta","HouseNumber":"100","PostalCode":"71-300","AdditionalData":[{"value":"Polska","key":"CountryName"},{"value":"Woj. Zachodniopomorskie","key":"StateName"},{"value":"Szczecin","key":"CountyName"}]},"MapReference":{"ReferenceId":"915192349","Spot":0.49,"SideOfStreet":"right","CountryId":"20624059","StateId":"20631896","CountyId":"20632163","CityId":"20632164","DistrictId":"20646826","AddressId":"210022768","RoadLinkId":"272991149"}}},{"Relevance":1.0,"Distance":43.4,"MatchLevel":"houseNumber","MatchQuality":{"Country":1.0,"State":1.0,"County":1.0,"City":1.0,"District":1.0,"Street":[1.0],"HouseNumber":1.0,"PostalCode":1.0},"MatchType":"interpolated","Location":{"LocationId":"NT_wgNpKpltiq9twvxPqwxljB_3UD","LocationType":"point","DisplayPosition":{"Latitude":53.44167,"Longitude":14.51414},"MapView":{"TopLeft":{"Latitude":53.4427942,"Longitude":14.5122527},"BottomRight":{"Latitude":53.4405458,"Longitude":14.5160273}},"Address":{"Label":"ulica Romualda Traugutta 75, 71-300 Szczecin, Polska","Country":"POL","State":"Woj. Zachodniopomorskie","County":"Szczecin","City":"Szczecin","District":"Szczecin","Street":"ulica Romualda Traugutta","HouseNumber":"75","PostalCode":"71-300","AdditionalData":[{"value":"Polska","key":"CountryName"},{"value":"Woj. Zachodniopomorskie","key":"StateName"},{"value":"Szczecin","key":"CountyName"}]},"MapReference":{"ReferenceId":"594875896","Spot":0.67,"SideOfStreet":"left","CountryId":"20624059","StateId":"20631896","CountyId":"20632163","CityId":"20632164","DistrictId":"20646826","AddressId":"209794877","RoadLinkId":"95135615"}}},{"Relevance":1.0,"Distance":52.2,"MatchLevel":"houseNumber","MatchQuality":{"Country":1.0,"State":1.0,"County":1.0,"City":1.0,"District":1.0,"Street":[1.0],"HouseNumber":1.0,"PostalCode":1.0},"MatchType":"interpolated","Location":{"LocationId":"NT_mub3Pc-F31b1Wm15aEq5cD_yYD","LocationType":"point","DisplayPosition":{"Latitude":53.44111,"Longitude":14.51548},"MapView":{"TopLeft":{"Latitude":53.4422342,"Longitude":14.5135927},"BottomRight":{"Latitude":53.4399858,"Longitude":14.5173673}},"Address":{"Label":"ulica Bronisława Trentowskiego 26, 71-303 Szczecin, Polska","Country":"POL","State":"Woj. Zachodniopomorskie","County":"Szczecin","City":"Szczecin","District":"Szczecin","Street":"ulica Bronisława Trentowskiego","HouseNumber":"26","PostalCode":"71-303","AdditionalData":[{"value":"Polska","key":"CountryName"},{"value":"Woj. Zachodniopomorskie","key":"StateName"},{"value":"Szczecin","key":"CountyName"}]},"MapReference":{"ReferenceId":"1115144195","Spot":0.74,"SideOfStreet":"left","CountryId":"20624059","StateId":"20631896","CountyId":"20632163","CityId":"20632164","DistrictId":"20646826","AddressId":"210303540","RoadLinkId":"425088914"}}},{"Relevance":1.0,"Distance":63.6,"MatchLevel":"street","MatchQuality":{"Country":1.0,"State":1.0,"County":1.0,"City":1.0,"District":1.0,"Street":[1.0],"PostalCode":1.0},"Location":{"LocationId":"NT_ZoNjSw.Rc.MXmyJA.4xFHD_l_594875912_R","LocationType":"point","DisplayPosition":{"Latitude":53.44134,"Longitude":14.51565},"MapView":{"TopLeft":{"Latitude":53.44134,"Longitude":14.51565},"BottomRight":{"Latitude":53.44129,"Longitude":14.51586}},"Address":{"Label":"ulica Augusta Cieszkowskiego, 71-301 Szczecin, Polska","Country":"POL","State":"Woj. Zachodniopomorskie","County":"Szczecin","City":"Szczecin","District":"Szczecin","Street":"ulica Augusta Cieszkowskiego","PostalCode":"71-301","AdditionalData":[{"value":"Polska","key":"CountryName"},{"value":"Woj. Zachodniopomorskie","key":"StateName"},{"value":"Szczecin","key":"CountyName"}]},"MapReference":{"ReferenceId":"594875912","Spot":1.0,"SideOfStreet":"right","CountryId":"20624059","StateId":"20631896","CountyId":"20632163","CityId":"20632164","DistrictId":"20646826"}}}]}]}}