{"Response":{"MetaInfo":{"Timestamp":"2020-03-28T10:07:21.339+0000","NextPageInformation":"2"},"View":[{"_type":"SearchResultsViewType","ViewId":0,"Result":[{"Relevance":1.0,"Distance":0.0,"Direction":0.0,"MatchLevel":"district","MatchQuality":{"Country":1.0,"State":1.0,"County":1.0,"City":1.0,"District":1.0,"PostalCode":1.0},"Location":{"LocationId":"NT_F5FfVpdMfHPbbyMoPRAmqB","LocationType":"point","DisplayPosition":{"Latitude":53.5985612,"Longitude":-2.5506586},"MapView":{"TopLeft":{"Latitude":53.60907,"Longitude":-2.57401},"BottomRight":{"Latitude":53.57396,"Longitude":-2.51094}},"Address":{"Label":"Horwich, Bolton, England, United Kingdom","Country":"GBR","State":"England","County":"Lancashire","City":"Bolton","District":"Horwich","PostalCode":"BL6 7","AdditionalData":[{"value":"United Kingdom","key":"CountryName"},{"value":"England","key":"StateName"},{"value":"Lancashire","key":"CountyName"}]},"MapReference":{"ReferenceId":"27152390","SideOfStreet":"neither","StateId":"20248595","CountyId":"20343938","CityId":"20343985","DistrictId":"20343997"}}},{"Relevance":1.0,"Distance":6.3,"MatchLevel":"street","MatchQuality":{"Country":1.0,"State":1.0,"County":1.0,"City":1.0,"District":1.0,"Street":[1.0],"PostalCode":1.0},"Location":{"LocationId":"NT_JnCuN0qCXr.eIHan25qXrC_l_1130610754_R","LocationType":"point","DisplayPosition":{"Latitude":53.5986165,"Longitude":-2.5506793},"MapView":{"TopLeft":{"Latitude":53.59874,"Longitude":-2.55083},"BottomRight":{"Latitude":53.59856,"Longitude":-2.55035}},"Address":{"Label":"Curteis Street, Bolton, BL6 7, United Kingdom","Country":"GBR","State":"England","County":"Lancashire","City":"Bolton","District":"Horwich","Street":"Curteis Street","PostalCode":"BL6 7","AdditionalData":[{"value":"United Kingdom","key":"CountryName"},{"value":"England","key":"StateName"},{"value":"Lancashire","key":"CountyName"}]},"MapReference":{"ReferenceId":"1130610754","Spot":0.31,"SideOfStreet":"right","StateId":"20248595","CountyId":"20343938","CityId":"20343985","DistrictId":"20343997"}}},{"Relevance":1.0,"Distance":8.7,"MatchLevel":"houseNumber","MatchQuality":{"Country":1.0,"State":1.0,"County":1.0,"City":1.0,"District":1.0,"Street":[1.0],"HouseNumber":1.0,"PostalCode":1.0},"MatchType":"interpolated","Location":{"LocationId":"NT_l.kdsAf0sqmDedR61NcmcC_l_1204075403_R_xQzM","LocationType":"point","DisplayPosition":{"Latitude":53.598409,"Longitude":-2.5506432},"MapView":{"TopLeft":{"Latitude":53.5995332,"Longitude":-2.5525375},"BottomRight":{"Latitude":53.5972849,"Longitude":-2.5487489}},"Address":{"Label":"143 Chorley New Road, Bolton, BL6 5QE, United Kingdom","Country":"GBR","State":"England","County":"Lancashire","City":"Bolton","District":"Horwich","Street":"Chorley New Road","HouseNumber":"143","PostalCode":"BL6 5QE","AdditionalData":[{"value":"United Kingdom","key":"CountryName"},{"value":"England","key":"StateName"},{"value":"Lancashire","key":"CountyName"}]},"MapReference":{"ReferenceId":"1204075403","Spot":0.79,"SideOfStreet":"right","StateId":"20248595","CountyId":"20343938","CityId":"20343985","DistrictId":"20343997"}}},{"Relevance":1.0,"Distance":11.3,"MatchLevel":"street","MatchQuality":{"Country":1.0,"State":1.0,"County":1.0,"City":1.0,"District":1.0,"Street":[1.0],"PostalCode":1.0},"Location":{"LocationId":"NT_Ej2o1hHGiKTYMfBqptFIYD_l_27153207_R","LocationType":"point","DisplayPosition":{"Latitude":53.59856,"Longitude":-2.55083},"MapView":{"TopLeft":{"Latitude":53.59856,"Longitude":-2.55149},"BottomRight":{"Latitude":53.5983,"Longitude":-2.55083}},"Address":{"Label":"Rock Street, Bolton, BL6 5, United Kingdom","Country":"GBR","State":"England","County":"Lancashire","City":"Bolton","District":"Horwich","Street":"Rock Street","PostalCode":"BL6 5","AdditionalData":[{"value":"United Kingdom","key":"CountryName"},{"value":"England","key":"StateName"},{"value":"Lancashire","key":"CountyName"}]},"MapReference":{"ReferenceId":"27153207","Spot":1.0,"SideOfStreet":"right","StateId":"20248595","CountyId":"20343938","CityId":"20343985","DistrictId":"20343997"}}},{"Relevance":1.0,"Distance":22.7,"MatchLevel":"houseNumber","MatchQuality":{"Country":1.0,"State":1.0,"County":1.0,"City":1.0,"District":1.0,"Street":[1.0],"HouseNumber":1.0,"PostalCode":1.0},"MatchType":"interpolated","Location":{"LocationId":"NT_l.kdsAf0sqmDedR61NcmcC_l_27153097_R_xMzN","LocationType":"point","DisplayPosition":{"Latitude":53.5986701,"Longitude":-2.5509501},"MapView":{"TopLeft":{"Latitude":53.5997943,"Longitude":-2.5528445},"BottomRight":{"Latitude":53.597546,"Longitude":-2.5490558}},"Address":{"Label":"137 Chorley New Road, Bolton, BL6 5QF, United Kingdom","Country":"GBR","State":"England","County":"Lancashire","City":"Bolton","District":"Horwich","Street":"Chorley New Road","HouseNumber":"137","PostalCode":"BL6 5QF","AdditionalData":[{"value":"United Kingdom","key":"CountryName"},{"value":"England","key":"StateName"},{"value":"Lancashire","key":"CountyName"}]},"MapReference":{"ReferenceId":"27153097","Spot":0.13,"SideOfStreet":"right","StateId":"20248595","CountyId":"20343938","CityId":"20343985","DistrictId":"20343997"}}},{"Relevance":1.0,"Distance":28.5,"MatchLevel":"street","MatchQuality":{"Country":1.0,"State":1.0,"County":1.0,"City":1.0,"District":1.0,"Street":[1.0],"PostalCode":1.0},"Location":{"LocationId":"NT_JnCuN0qCXr.eIHan25qXrC_l_1130610755_R","LocationType":"point","DisplayPosition":{"Latitude":53.59874,"Longitude":-2.55035},"MapView":{"TopLeft":{"Latitude":53.59885,"Longitude":-2.55035},"BottomRight":{"Latitude":53.59874,"Longitude":-2.55009}},"Address":{"Label":"Curteis Street, Bolton, BL6 7, United Kingdom","Country":"GBR","State":"England","County":"Lancashire","City":"Bolton","District":"Horwich","Street":"Curteis Street","PostalCode":"BL6 7","AdditionalData":[{"value":"United Kingdom","key":"CountryName"},{"value":"England","key":"StateName"},{"value":"Lancashire","key":"CountyName"}]},"MapReference":{"ReferenceId":"1130610755","Spot":0.0,"SideOfStreet":"right","StateId":"20248595","CountyId":"20343938","CityId":"20343985","DistrictId":"20343997"}}},{"Relevance":1.0,"Distance":31.8,"MatchLevel":"street","MatchQuality":{"Country":1.0,"State":1.0,"County":1.0,"City":1.0,"District":1.0,"Street":[1.0],"PostalCode":1.0},"Location":{"LocationId":"NT_FlfHC6BrdQzf4ZVShRGK7B_l_1130610756_L","LocationType":"point","DisplayPosition":{"Latitude":53.5988132,"Longitude":-2.550431},"MapView":{"TopLeft":{"Latitude":53.59902,"Longitude":-2.55066},"BottomRight":{"Latitude":53.59874,"Longitude":-2.55035}},"Address":{"Label":"Back Chorley New Road East, Bolton, BL6 7, United Kingdom","Country":"GBR","State":"England","County":"Lancashire","City":"Bolton","District":"Horwich","Street":"Back Chorley New Road East","PostalCode":"BL6 7","AdditionalData":[{"value":"United Kingdom","key":"CountryName"},{"value":"England","key":"StateName"},{"value":"Lancashire","key":"CountyName"}]},"MapReference":{"ReferenceId":"1130610756","Spot":0.26,"SideOfStreet":"left","StateId":"20248595","CountyId":"20343938","CityId":"20343985","DistrictId":"20343997"}}},{"Relevance":1.0,"Distance":39.7,"MatchLevel":"houseNumber","MatchQuality":{"Country":1.0,"State":1.0,"County":1.0,"City":1.0,"District":1.0,"Street":[1.0],"HouseNumber":1.0,"PostalCode":1.0},"MatchType":"interpolated","Location":{"LocationId":"NT_IwskYKqzZEX8ESR3vhnq5C_l_27153183_L_yA","LocationType":"point","DisplayPosition":{"Latitude":53.5987115,"Longitude":-2.54995},"MapView":{"TopLeft":{"Latitude":53.5998357,"Longitude":-2.5518443},"BottomRight":{"Latitude":53.5975874,"Longitude":-2.5480557}},"Address":{"Label":"2 Dixon Street, Bolton, BL6 7PH, United Kingdom","Country":"GBR","State":"England","County":"Lancashire","City":"Bolton","District":"Horwich","Street":"Dixon Street","HouseNumber":"2","PostalCode":"BL6 7PH","AdditionalData":[{"value":"United Kingdom","key":"CountryName"},{"value":"England","key":"StateName"},{"value":"Lancashire","key":"CountyName"}]},"MapReference":{"ReferenceId":"27153183","Spot":0.71,"SideOfStreet":"left","StateId":"20248595","CountyId":"20343938","CityId":"20343985","DistrictId":"20343997"}}},{"Relevance":1.0,"Distance":49.1,"MatchLevel":"houseNumber","MatchQuality":{"Country":1.0,"State":1.0,"County":1.0,"City":1.0,"District":1.0,"Street":[1.0],"HouseNumber":1.0,"PostalCode":1.0},"MatchType":"interpolated","Location":{"LocationId":"NT_apFzpqeVDY6wve9aY7RRgA_l_27153621_R_2kD","LocationType":"point","DisplayPosition":{"Latitude":53.5981621,"Longitude":-2.5513394},"MapView":{"TopLeft":{"Latitude":53.5992862,"Longitude":-2.5532337},"BottomRight":{"Latitude":53.5970379,"Longitude":-2.5494451}},"Address":{"Label":"69 Tomlinson Street, Bolton, BL6 5, United Kingdom","Country":"GBR","State":"England","County":"Lancashire","City":"Bolton","District":"Horwich","Street":"Tomlinson Street","HouseNumber":"69","PostalCode":"BL6 5","AdditionalData":[{"value":"United Kingdom","key":"CountryName"},{"value":"England","key":"StateName"},{"value":"Lancashire","key":"CountyName"}]},"MapReference":{"ReferenceId":"27153621","Spot":0.84,"SideOfStreet":"right","StateId":"20248595","CountyId":"20343938","CityId":"20343985","DistrictId":"20343997"}}},{"Relevance":1.0,"Distance":49.4,"MatchLevel":"street","MatchQuality":{"Country":1.0,"State":1.0,"County":1.0,"City":1.0,"District":1.0,"Street":[1.0],"PostalCode":1.0},"Location":{"LocationId":"NT_JnCuN0qCXr.eIHan25qXrC_l_27152933_R","LocationType":"point","DisplayPosition":{"Latitude":53.59885,"Longitude":-2.55009},"MapView":{"TopLeft":{"Latitude":53.59906,"Longitude":-2.55009},"BottomRight":{"Latitude":53.59885,"Longitude":-2.54955}},"Address":{"Label":"Curteis Street, Bolton, BL6 7, United Kingdom","Country":"GBR","State":"England","County":"Lancashire","City":"Bolton","District":"Horwich","Street":"Curteis Street","PostalCode":"BL6 7","AdditionalData":[{"value":"United Kingdom","key":"CountryName"},{"value":"England","key":"StateName"},{"value":"Lancashire","key":"CountyName"}]},"MapReference":{"ReferenceId":"27152933","Spot":0.0,"SideOfStreet":"right","StateId":"20248595","CountyId":"20343938","CityId":"20343985","DistrictId":"20343997"}}}]}]}}