{"Response":{"MetaInfo":{"Timestamp":"2020-03-28T11:15:42.488+0000","NextPageInformation":"2"},"View":[{"_type":"SearchResultsViewType","ViewId":0,"Result":[{"Relevance":1.0,"Distance":0.0,"Direction":0.0,"MatchLevel":"district","MatchQuality":{"Country":1.0,"State":1.0,"County":1.0,"City":1.0,"District":1.0,"PostalCode":1.0},"Location":{"LocationId":"NT_gDUoCKGo1gvA-P5R49rvdA","LocationType":"point","DisplayPosition":{"Latitude":53.543179,"Longitude":-1.4683226},"MapView":{"TopLeft":{"Latitude":53.5891,"Longitude":-1.51946},"BottomRight":{"Latitude":53.52608,"Longitude":-1.40966}},"Address":{"Label":"Barnsley, England, United Kingdom","Country":"GBR","State":"England","County":"South Yorkshire","City":"Barnsley","District":"Barnsley","PostalCode":"S70 2","AdditionalData":[{"value":"United Kingdom","key":"CountryName"},{"value":"England","key":"StateName"},{"value":"South Yorkshire","key":"CountyName"}]},"MapReference":{"ReferenceId":"767396930","SideOfStreet":"neither","StateId":"20248595","CountyId":"20344788","CityId":"20344789","DistrictId":"20344790"}}},{"Relevance":1.0,"Distance":53.7,"MatchLevel":"street","MatchQuality":{"Country":1.0,"State":1.0,"County":1.0,"City":1.0,"District":1.0,"Street":[1.0],"PostalCode":1.0},"Location":{"LocationId":"NT_QTOIqyRMgBsh2ktn52.fQD_l_1003913171_R","LocationType":"point","DisplayPosition":{"Latitude":53.5427003,"Longitude":-1.4682121},"MapView":{"TopLeft":{"Latitude":53.54287,"Longitude":-1.47041},"BottomRight":{"Latitude":53.5426,"Longitude":-1.46817}},"Address":{"Label":"Pindar Oaks, Barnsley, S70 4, United Kingdom","Country":"GBR","State":"England","County":"South Yorkshire","City":"Barnsley","District":"Worsbrough Common","Street":"Pindar Oaks","PostalCode":"S70 4","AdditionalData":[{"value":"United Kingdom","key":"CountryName"},{"value":"England","key":"StateName"},{"value":"South Yorkshire","key":"CountyName"}]},"MapReference":{"ReferenceId":"1003913171","Spot":0.02,"SideOfStreet":"right","StateId":"20248595","CountyId":"20344788","CityId":"20344789","DistrictId":"20344833"}}},{"Relevance":1.0,"Distance":69.1,"MatchLevel":"postalCode","MatchQuality":{"PostalCode":1.0},"Location":{"LocationId":"NT_QTOIqyRMgBsh2ktn52.fQD_l_1003913171_R","LocationType":"point","DisplayPosition":{"Latitude":53.54258,"Longitude":-1.4686},"MapView":{"TopLeft":{"Latitude":53.5515732,"Longitude":-1.4837344},"BottomRight":{"Latitude":53.5335868,"Longitude":-1.4534656}},"Address":{"Label":"S70 4PX, Barnsley, England, United Kingdom","Country":"GBR","State":"England","County":"South Yorkshire","City":"Barnsley","PostalCode":"S70 4PX","AdditionalData":[{"value":"United Kingdom","key":"CountryName"},{"value":"England","key":"StateName"},{"value":"South Yorkshire","key":"CountyName"}]},"MapReference":{"ReferenceId":"1003913171","Spot":0.02,"SideOfStreet":"neither","StateId":"20248595","CountyId":"20344788","CityId":"20344789"}}},{"Relevance":1.0,"Distance":96.2,"MatchLevel":"houseNumber","MatchQuality":{"Country":1.0,"State":1.0,"County":1.0,"City":1.0,"District":1.0,"Street":[1.0],"HouseNumber":1.0,"PostalCode":1.0},"MatchType":"interpolated","Location":{"LocationId":"NT_LbU0dq1DZlbasEEOyFmi7A_l_1001502787_R_xQD","LocationType":"point","DisplayPosition":{"Latitude":53.5424589,"Longitude":-1.4694678},"MapView":{"TopLeft":{"Latitude":53.5435831,"Longitude":-1.4713596},"BottomRight":{"Latitude":53.5413348,"Longitude":-1.467576}},"Address":{"Label":"14 Templing Close, Barnsley, S70 4NZ, United Kingdom","Country":"GBR","State":"England","County":"South Yorkshire","City":"Barnsley","District":"Worsbrough Common","Street":"Templing Close","HouseNumber":"14","PostalCode":"S70 4NZ","AdditionalData":[{"value":"United Kingdom","key":"CountryName"},{"value":"England","key":"StateName"},{"value":"South Yorkshire","key":"CountyName"}]},"MapReference":{"ReferenceId":"1001502787","Spot":0.5,"SideOfStreet":"right","StateId":"20248595","CountyId":"20344788","CityId":"20344789","DistrictId":"20344833"}}},{"Relevance":1.0,"Distance":104.3,"MatchLevel":"postalCode","MatchQuality":{"PostalCode":1.0},"MatchType":"interpolated","Location":{"LocationId":"NT_XFLNQkmv5Z4pbsaY6r381D_l_27092725_R_xED","LocationType":"point","DisplayPosition":{"Latitude":53.54373,"Longitude":-1.4696},"MapView":{"TopLeft":{"Latitude":53.5527232,"Longitude":-1.4847348},"BottomRight":{"Latitude":53.5347368,"Longitude":-1.4544652}},"Address":{"Label":"S70 4NQ, Barnsley, England, United Kingdom","Country":"GBR","State":"England","County":"South Yorkshire","City":"Barnsley","PostalCode":"S70 4NQ","AdditionalData":[{"value":"United Kingdom","key":"CountryName"},{"value":"England","key":"StateName"},{"value":"South Yorkshire","key":"CountyName"}]},"MapReference":{"ReferenceId":"27092725","Spot":0.36,"SideOfStreet":"neither","StateId":"20248595","CountyId":"20344788","CityId":"20344789"}}},{"Relevance":1.0,"Distance":115.1,"MatchLevel":"postalCode","MatchQuality":{"PostalCode":1.0},"MatchType":"interpolated","Location":{"LocationId":"NT_LbU0dq1DZlbasEEOyFmi7A_l_1001502787_R_xQD","LocationType":"point","DisplayPosition":{"Latitude":53.54238,"Longitude":-1.46943},"MapView":{"TopLeft":{"Latitude":53.5513732,"Longitude":-1.4845643},"BottomRight":{"Latitude":53.5333868,"Longitude":-1.4542957}},"Address":{"Label":"S70 4NZ, Barnsley, England, United Kingdom","Country":"GBR","State":"England","County":"South Yorkshire","City":"Barnsley","PostalCode":"S70 4NZ","AdditionalData":[{"value":"United Kingdom","key":"CountryName"},{"value":"England","key":"StateName"},{"value":"South Yorkshire","key":"CountyName"}]},"MapReference":{"ReferenceId":"1001502787","Spot":0.5,"SideOfStreet":"neither","StateId":"20248595","CountyId":"20344788","CityId":"20344789"}}},{"Relevance":1.0,"Distance":121.2,"MatchLevel":"houseNumber","MatchQuality":{"Country":1.0,"State":1.0,"County":1.0,"City":1.0,"District":1.0,"Street":[1.0],"HouseNumber":1.0,"PostalCode":1.0},"MatchType":"interpolated","Location":{"LocationId":"NT_XFLNQkmv5Z4pbsaY6r381D_l_27092725_R_xED","LocationType":"point","DisplayPosition":{"Latitude":53.5439001,"Longitude":-1.46971},"MapView":{"TopLeft":{"Latitude":53.5450242,"Longitude":-1.4716019},"BottomRight":{"Latitude":53.5427759,"Longitude":-1.4678182}},"Address":{"Label":"11 Middleburn Close, Barnsley, S70 4NQ, United Kingdom","Country":"GBR","State":"England","County":"South Yorkshire","City":"Barnsley","District":"Worsbrough Common","Street":"Middleburn Close","HouseNumber":"11","PostalCode":"S70 4NQ","AdditionalData":[{"value":"United Kingdom","key":"CountryName"},{"value":"England","key":"StateName"},{"value":"South Yorkshire","key":"CountyName"}]},"MapReference":{"ReferenceId":"27092725","Spot":0.36,"SideOfStreet":"right","StateId":"20248595","CountyId":"20344788","CityId":"20344789","DistrictId":"20344833"}}},{"Relevance":1.0,"Distance":138.5,"MatchLevel":"street","MatchQuality":{"Country":1.0,"State":1.0,"County":1.0,"City":1.0,"District":1.0,"Street":[1.0],"PostalCode":1.0},"Location":{"LocationId":"NT_Q7S.V2yDz56bXyEP0pL8zB_l_1001502786_L","LocationType":"point","DisplayPosition":{"Latitude":53.54207,"Longitude":-1.46737},"MapView":{"TopLeft":{"Latitude":53.54207,"Longitude":-1.46737},"BottomRight":{"Latitude":53.54158,"Longitude":-1.46719}},"Address":{"Label":"Turnshaw Mews, Barnsley, S70 4, United Kingdom","Country":"GBR","State":"England","County":"South Yorkshire","City":"Barnsley","District":"Worsbrough Common","Street":"Turnshaw Mews","PostalCode":"S70 4","AdditionalData":[{"value":"United Kingdom","key":"CountryName"},{"value":"England","key":"StateName"},{"value":"South Yorkshire","key":"CountyName"}]},"MapReference":{"ReferenceId":"1001502786","Spot":1.0,"SideOfStreet":"left","StateId":"20248595","CountyId":"20344788","CityId":"20344789","DistrictId":"20344833"}}},{"Relevance":1.0,"Distance":139.8,"MatchLevel":"postalCode","MatchQuality":{"PostalCode":1.0},"Location":{"LocationId":"NT_IhkFyvC4qUe0S7BESrLVoC_l_1001502784_L","LocationType":"point","DisplayPosition":{"Latitude":53.54193,"Longitude":-1.46808},"MapView":{"TopLeft":{"Latitude":53.5509232,"Longitude":-1.4832141},"BottomRight":{"Latitude":53.5329368,"Longitude":-1.4529459}},"Address":{"Label":"S70 4PY, Barnsley, England, United Kingdom","Country":"GBR","State":"England","County":"South Yorkshire","City":"Barnsley","PostalCode":"S70 4PY","AdditionalData":[{"value":"United Kingdom","key":"CountryName"},{"value":"England","key":"StateName"},{"value":"South Yorkshire","key":"CountyName"}]},"MapReference":{"ReferenceId":"1001502784","Spot":0.68,"SideOfStreet":"neither","StateId":"20248595","CountyId":"20344788","CityId":"20344789"}}},{"Relevance":1.0,"Distance":141.9,"MatchLevel":"street","MatchQuality":{"Country":1.0,"State":1.0,"County":1.0,"City":1.0,"District":1.0,"Street":[1.0],"PostalCode":1.0},"Location":{"LocationId":"NT_.EjlhWrtM36uwN1chMH.dC_l_1004197391_R","LocationType":"point","DisplayPosition":{"Latitude":53.54248,"Longitude":-1.47012},"MapView":{"TopLeft":{"Latitude":53.54273,"Longitude":-1.47043},"BottomRight":{"Latitude":53.54248,"Longitude":-1.47012}},"Address":{"Label":"Rookery View, Barnsley, S70 4, United Kingdom","Country":"GBR","State":"England","County":"South Yorkshire","City":"Barnsley","District":"Worsbrough Common","Street":"Rookery View","PostalCode":"S70 4","AdditionalData":[{"value":"United Kingdom","key":"CountryName"},{"value":"England","key":"StateName"},{"value":"South Yorkshire","key":"CountyName"}]},"MapReference":{"ReferenceId":"1004197391","Spot":0.0,"SideOfStreet":"right","StateId":"20248595","CountyId":"20344788","CityId":"20344789","DistrictId":"20344833"}}}]}]}}