{"Response":{"MetaInfo":{"Timestamp":"2020-03-28T10:11:00.362+0000","NextPageInformation":"2"},"View":[{"_type":"SearchResultsViewType","ViewId":0,"Result":[{"Relevance":1.0,"Distance":0.0,"Direction":0.0,"MatchLevel":"district","MatchQuality":{"Country":1.0,"State":1.0,"County":1.0,"City":1.0,"District":1.0,"PostalCode":1.0},"Location":{"LocationId":"NT_tdXflyOqvDpdx9U4RBSzWD","LocationType":"point","DisplayPosition":{"Latitude":53.5937792,"Longitude":-2.4311553},"MapView":{"TopLeft":{"Latitude":53.61689,"Longitude":-2.50933},"BottomRight":{"Latitude":53.55481,"Longitude":-2.37253}},"Address":{"Label":"Bolton, England, United Kingdom","Country":"GBR","State":"England","County":"Lancashire","City":"Bolton","District":"Bolton","PostalCode":"BL1 1","AdditionalData":[{"value":"United Kingdom","key":"CountryName"},{"value":"England","key":"StateName"},{"value":"Lancashire","key":"CountyName"}]},"MapReference":{"ReferenceId":"773533915","SideOfStreet":"neither","StateId":"20248595","CountyId":"20343938","CityId":"20343985","DistrictId":"20343986"}}},{"Relevance":1.0,"Distance":2.5,"MatchLevel":"houseNumber","MatchQuality":{"Country":1.0,"State":1.0,"County":1.0,"City":1.0,"District":1.0,"Street":[1.0],"HouseNumber":1.0,"PostalCode":1.0},"MatchType":"interpolated","Location":{"LocationId":"NT_F8QhLxjKsjLSVnWKaIZlNA_l_27155891_R_ycDN","LocationType":"point","DisplayPosition":{"Latitude":53.5937388,"Longitude":-2.4314025},"MapView":{"TopLeft":{"Latitude":53.5948629,"Longitude":-2.4332966},"BottomRight":{"Latitude":53.5926146,"Longitude":-2.4295084}},"Address":{"Label":"274 Blackburn Road, Bolton, BL1 8DT, United Kingdom","Country":"GBR","State":"England","County":"Lancashire","City":"Bolton","District":"Bolton","Street":"Blackburn Road","HouseNumber":"274","PostalCode":"BL1 8DT","AdditionalData":[{"value":"United Kingdom","key":"CountryName"},{"value":"England","key":"StateName"},{"value":"Lancashire","key":"CountyName"}]},"MapReference":{"ReferenceId":"27155891","Spot":0.57,"SideOfStreet":"right","StateId":"20248595","CountyId":"20343938","CityId":"20343985","DistrictId":"20343986"}}},{"Relevance":1.0,"Distance":19.5,"MatchLevel":"houseNumber","MatchQuality":{"Country":1.0,"State":1.0,"County":1.0,"City":1.0,"District":1.0,"Street":[1.0],"HouseNumber":1.0,"PostalCode":1.0},"MatchType":"interpolated","Location":{"LocationId":"NT_ymoNeMuLaLAMqZHwgMN3FA_l_27155448_R_yA","LocationType":"point","DisplayPosition":{"Latitude":53.5940712,"Longitude":-2.431039},"MapView":{"TopLeft":{"Latitude":53.5951953,"Longitude":-2.4329331},"BottomRight":{"Latitude":53.592947,"Longitude":-2.4291449}},"Address":{"Label":"2 Ulleswater Street, Bolton, BL1 8LY, United Kingdom","Country":"GBR","State":"England","County":"Lancashire","City":"Bolton","District":"Bolton","Street":"Ulleswater Street","HouseNumber":"2","PostalCode":"BL1 8LY","AdditionalData":[{"value":"United Kingdom","key":"CountryName"},{"value":"England","key":"StateName"},{"value":"Lancashire","key":"CountyName"}]},"MapReference":{"ReferenceId":"27155448","Spot":0.52,"SideOfStreet":"right","StateId":"20248595","CountyId":"20343938","CityId":"20343985","DistrictId":"20343986"}}},{"Relevance":1.0,"Distance":20.2,"MatchLevel":"postalCode","MatchQuality":{"PostalCode":1.0},"MatchType":"interpolated","Location":{"LocationId":"NT_F8QhLxjKsjLSVnWKaIZlNA_l_27155891_R_ycDN","LocationType":"point","DisplayPosition":{"Latitude":53.59373,"Longitude":-2.43145},"MapView":{"TopLeft":{"Latitude":53.6027232,"Longitude":-2.4466027},"BottomRight":{"Latitude":53.5847368,"Longitude":-2.4162973}},"Address":{"Label":"BL1 8HB, Bolton, England, United Kingdom","Country":"GBR","State":"England","County":"Lancashire","City":"Bolton","PostalCode":"BL1 8HB","AdditionalData":[{"value":"United Kingdom","key":"CountryName"},{"value":"England","key":"StateName"},{"value":"Lancashire","key":"CountyName"}]},"MapReference":{"ReferenceId":"27155891","Spot":0.57,"SideOfStreet":"neither","StateId":"20248595","CountyId":"20343938","CityId":"20343985"}}},{"Relevance":1.0,"Distance":39.1,"MatchLevel":"street","MatchQuality":{"Country":1.0,"State":1.0,"County":1.0,"City":1.0,"District":1.0,"Street":[1.0],"PostalCode":1.0},"Location":{"LocationId":"NT_ldUIcW7EiqTijYhDQIUtMB_l_30093256_L","LocationType":"point","DisplayPosition":{"Latitude":53.5938955,"Longitude":-2.4305954},"MapView":{"TopLeft":{"Latitude":53.59411,"Longitude":-2.43064},"BottomRight":{"Latitude":53.59267,"Longitude":-2.43034}},"Address":{"Label":"Back Grasmere Street, Bolton, BL1 8, United Kingdom","Country":"GBR","State":"England","County":"Lancashire","City":"Bolton","District":"Bolton","Street":"Back Grasmere Street","PostalCode":"BL1 8","AdditionalData":[{"value":"United Kingdom","key":"CountryName"},{"value":"England","key":"StateName"},{"value":"Lancashire","key":"CountyName"}]},"MapReference":{"ReferenceId":"30093256","Spot":0.85,"SideOfStreet":"left","StateId":"20248595","CountyId":"20343938","CityId":"20343985","DistrictId":"20343986"}}},{"Relevance":1.0,"Distance":40.6,"MatchLevel":"houseNumber","MatchQuality":{"Country":1.0,"State":1.0,"County":1.0,"City":1.0,"District":1.0,"Street":[1.0],"HouseNumber":1.0,"PostalCode":1.0},"MatchType":"interpolated","Location":{"LocationId":"NT_F8QhLxjKsjLSVnWKaIZlNA_l_27155449_R_ygDM","LocationType":"point","DisplayPosition":{"Latitude":53.5940953,"Longitude":-2.4314811},"MapView":{"TopLeft":{"Latitude":53.5952195,"Longitude":-2.4333752},"BottomRight":{"Latitude":53.5929712,"Longitude":-2.429587}},"Address":{"Label":"280 Blackburn Road, Bolton, BL1 8, United Kingdom","Country":"GBR","State":"England","County":"Lancashire","City":"Bolton","District":"Bolton","Street":"Blackburn Road","HouseNumber":"280","PostalCode":"BL1 8","AdditionalData":[{"value":"United Kingdom","key":"CountryName"},{"value":"England","key":"StateName"},{"value":"Lancashire","key":"CountyName"}]},"MapReference":{"ReferenceId":"27155449","Spot":0.55,"SideOfStreet":"right","StateId":"20248595","CountyId":"20343938","CityId":"20343985","DistrictId":"20343986"}}},{"Relevance":1.0,"Distance":46.0,"MatchLevel":"houseNumber","MatchQuality":{"Country":1.0,"State":1.0,"County":1.0,"City":1.0,"District":1.0,"Street":[1.0],"HouseNumber":1.0,"PostalCode":1.0},"MatchType":"interpolated","Location":{"LocationId":"NT_jo8AdAQ0Qzbf38mCmB.IxA_l_27155413_R_zA","LocationType":"point","DisplayPosition":{"Latitude":53.5941113,"Longitude":-2.4317843},"MapView":{"TopLeft":{"Latitude":53.5952354,"Longitude":-2.4336784},"BottomRight":{"Latitude":53.5929871,"Longitude":-2.4298902}},"Address":{"Label":"3 Astley Street, Bolton, BL1 8EH, United Kingdom","Country":"GBR","State":"England","County":"Lancashire","City":"Bolton","District":"Bolton","Street":"Astley Street","HouseNumber":"3","PostalCode":"BL1 8EH","AdditionalData":[{"value":"United Kingdom","key":"CountryName"},{"value":"England","key":"StateName"},{"value":"Lancashire","key":"CountyName"}]},"MapReference":{"ReferenceId":"27155413","Spot":0.52,"SideOfStreet":"right","StateId":"20248595","CountyId":"20343938","CityId":"20343985","DistrictId":"20343986"}}},{"Relevance":1.0,"Distance":48.1,"MatchLevel":"postalCode","MatchQuality":{"PostalCode":1.0},"MatchType":"interpolated","Location":{"LocationId":"NT_ymoNeMuLaLAMqZHwgMN3FA_l_27155448_R_yA","LocationType":"point","DisplayPosition":{"Latitude":53.59415,"Longitude":-2.43078},"MapView":{"TopLeft":{"Latitude":53.6031432,"Longitude":-2.4459328},"BottomRight":{"Latitude":53.5851568,"Longitude":-2.4156272}},"Address":{"Label":"BL1 8LY, Bolton, England, United Kingdom","Country":"GBR","State":"England","County":"Lancashire","City":"Bolton","PostalCode":"BL1 8LY","AdditionalData":[{"value":"United Kingdom","key":"CountryName"},{"value":"England","key":"StateName"},{"value":"Lancashire","key":"CountyName"}]},"MapReference":{"ReferenceId":"27155448","Spot":0.52,"SideOfStreet":"neither","StateId":"20248595","CountyId":"20343938","CityId":"20343985"}}},{"Relevance":1.0,"Distance":50.0,"MatchLevel":"street","MatchQuality":{"Country":1.0,"State":1.0,"County":1.0,"City":1.0,"District":1.0,"Street":[1.0],"PostalCode":1.0},"Location":{"LocationId":"NT_F8QhLxjKsjLSVnWKaIZlNA_l_865225645_R","LocationType":"point","DisplayPosition":{"Latitude":53.59334,"Longitude":-2.43132},"MapView":{"TopLeft":{"Latitude":53.59334,"Longitude":-2.43132},"BottomRight":{"Latitude":53.59301,"Longitude":-2.43125}},"Address":{"Label":"Blackburn Road, Bolton, BL1 8, United Kingdom","Country":"GBR","State":"England","County":"Lancashire","City":"Bolton","District":"Bolton","Street":"Blackburn Road","PostalCode":"BL1 8","AdditionalData":[{"value":"United Kingdom","key":"CountryName"},{"value":"England","key":"StateName"},{"value":"Lancashire","key":"CountyName"}]},"MapReference":{"ReferenceId":"865225645","Spot":1.0,"SideOfStreet":"right","StateId":"20248595","CountyId":"20343938","CityId":"20343985","DistrictId":"20343986"}}},{"Relevance":1.0,"Distance":50.0,"MatchLevel":"street","MatchQuality":{"Country":1.0,"State":1.0,"County":1.0,"City":1.0,"District":1.0,"Street":[1.0],"PostalCode":1.0},"Location":{"LocationId":"NT_7jLFb.-IF2f1OOP9tyUDyA_l_865690004_L","LocationType":"point","DisplayPosition":{"Latitude":53.59334,"Longitude":-2.43132},"MapView":{"TopLeft":{"Latitude":53.59334,"Longitude":-2.43206},"BottomRight":{"Latitude":53.59326,"Longitude":-2.43132}},"Address":{"Label":"Canning Street, Bolton, BL1 8, United Kingdom","Country":"GBR","State":"England","County":"Lancashire","City":"Bolton","District":"Bolton","Street":"Canning Street","PostalCode":"BL1 8","AdditionalData":[{"value":"United Kingdom","key":"CountryName"},{"value":"England","key":"StateName"},{"value":"Lancashire","key":"CountyName"}]},"MapReference":{"ReferenceId":"865690004","Spot":1.0,"SideOfStreet":"left","StateId":"20248595","CountyId":"20343938","CityId":"20343985","DistrictId":"20343986"}}}]}]}}