{"Response":{"MetaInfo":{"Timestamp":"2020-03-28T10:12:22.655+0000","NextPageInformation":"2"},"View":[{"_type":"SearchResultsViewType","ViewId":0,"Result":[{"Relevance":1.0,"Distance":0.0,"Direction":0.0,"MatchLevel":"district","MatchQuality":{"Country":1.0,"County":1.0,"City":1.0,"District":1.0,"PostalCode":1.0},"Location":{"LocationId":"NT_12fLhX-EFQJ6a1-qbX6uMD","LocationType":"point","DisplayPosition":{"Latitude":53.5253354,"Longitude":-7.3347343},"MapView":{"TopLeft":{"Latitude":53.54754,"Longitude":-7.3878},"BottomRight":{"Latitude":53.50364,"Longitude":-7.29886}},"Address":{"Label":"Mullingar, Ireland","Country":"IRL","County":"County Westmeath","City":"Mullingar","District":"Mullingar","AdditionalData":[{"value":"Ireland","key":"CountryName"},{"value":"County Westmeath","key":"CountyName"}]},"MapReference":{"ReferenceId":"999162552","SideOfStreet":"neither","CountryId":"20403667","CountyId":"20411239","CityId":"20554067","DistrictId":"20554801"}}},{"Relevance":1.0,"Distance":8.0,"MatchLevel":"houseNumber","MatchQuality":{"Country":1.0,"County":1.0,"City":1.0,"District":1.0,"Street":[1.0],"PostalCode":1.0},"MatchType":"interpolated","Location":{"LocationId":"NT_YuKhbuVPq1sO26ImyFd1YC","LocationType":"point","DisplayPosition":{"Latitude":53.52529,"Longitude":-7.33443},"MapView":{"TopLeft":{"Latitude":53.5264142,"Longitude":-7.336321},"BottomRight":{"Latitude":53.5241658,"Longitude":-7.332539}},"Address":{"Label":"\"Menlo House\" Millmount Road, Mullingar, County Westmeath, N91 AP29, Ireland","Country":"IRL","County":"County Westmeath","City":"Mullingar","District":"Mullingar","Street":"Millmount Road","PostalCode":"N91 AP29","AdditionalData":[{"value":"Ireland","key":"CountryName"},{"value":"County Westmeath","key":"CountyName"}],"Building":"Menlo House"},"MapReference":{"ReferenceId":"780597876","Spot":0.22,"SideOfStreet":"left","CountryId":"20403667","CountyId":"20411239","CityId":"20554067","DistrictId":"20554801","AddressId":"359996176","RoadLinkId":"173809380"}}},{"Relevance":1.0,"Distance":22.8,"MatchLevel":"postalCode","MatchQuality":{"PostalCode":1.0},"MatchType":"interpolated","Location":{"LocationId":"NT_YuKhbuVPq1sO26ImyFd1YC","LocationType":"point","DisplayPosition":{"Latitude":53.52542,"Longitude":-7.33442},"MapView":{"TopLeft":{"Latitude":53.5344132,"Longitude":-7.3495482},"BottomRight":{"Latitude":53.5164268,"Longitude":-7.3192918}},"Address":{"Label":"N91 HY6F, Mullingar, Ireland","Country":"IRL","County":"County Westmeath","City":"Mullingar","PostalCode":"N91 HY6F","AdditionalData":[{"value":"Ireland","key":"CountryName"},{"value":"County Westmeath","key":"CountyName"}]},"MapReference":{"ReferenceId":"780597876","Spot":0.22,"SideOfStreet":"neither","CountryId":"20403667","CountyId":"20411239","CityId":"20554067"}}},{"Relevance":1.0,"Distance":25.8,"MatchLevel":"street","MatchQuality":{"Country":1.0,"County":1.0,"City":1.0,"District":1.0,"Street":[1.0],"PostalCode":1.0},"Location":{"LocationId":"NT_YuKhbuVPq1sO26ImyFd1YC_l_587834480_L","LocationType":"point","DisplayPosition":{"Latitude":53.52519,"Longitude":-7.33443},"MapView":{"TopLeft":{"Latitude":53.52519,"Longitude":-7.33443},"BottomRight":{"Latitude":53.52508,"Longitude":-7.33443}},"Address":{"Label":"Millmount Road, Mullingar, County Westmeath, N91, Ireland","Country":"IRL","County":"County Westmeath","City":"Mullingar","District":"Mullingar","Street":"Millmount Road","PostalCode":"N91","AdditionalData":[{"value":"Ireland","key":"CountryName"},{"value":"County Westmeath","key":"CountyName"}]},"MapReference":{"ReferenceId":"587834480","Spot":1.0,"SideOfStreet":"left","CountryId":"20403667","CountyId":"20411239","CityId":"20554067","DistrictId":"20554801"}}},{"Relevance":1.0,"Distance":34.9,"MatchLevel":"street","MatchQuality":{"Country":1.0,"County":1.0,"City":1.0,"District":1.0,"Street":[1.0],"PostalCode":1.0},"Location":{"LocationId":"NT_YuKhbuVPq1sO26ImyFd1YC_l_587834481_L","LocationType":"point","DisplayPosition":{"Latitude":53.5250246,"Longitude":-7.3346592},"MapView":{"TopLeft":{"Latitude":53.52508,"Longitude":-7.3371},"BottomRight":{"Latitude":53.52452,"Longitude":-7.33443}},"Address":{"Label":"Millmount Road, Mullingar, County Westmeath, N91, Ireland","Country":"IRL","County":"County Westmeath","City":"Mullingar","District":"Mullingar","Street":"Millmount Road","PostalCode":"N91","AdditionalData":[{"value":"Ireland","key":"CountryName"},{"value":"County Westmeath","key":"CountyName"}]},"MapReference":{"ReferenceId":"587834481","Spot":0.92,"SideOfStreet":"left","CountryId":"20403667","CountyId":"20411239","CityId":"20554067","DistrictId":"20554801"}}},{"Relevance":1.0,"Distance":42.9,"MatchLevel":"houseNumber","MatchQuality":{"Country":1.0,"County":1.0,"City":1.0,"District":1.0,"Street":[1.0],"HouseNumber":1.0,"PostalCode":1.0},"MatchType":"interpolated","Location":{"LocationId":"NT_ESl0EWkp3gi9KCAuUc.eWD_1ED","LocationType":"point","DisplayPosition":{"Latitude":53.5259,"Longitude":-7.33487},"MapView":{"TopLeft":{"Latitude":53.5270242,"Longitude":-7.336761},"BottomRight":{"Latitude":53.5247758,"Longitude":-7.332979}},"Address":{"Label":"51 Austin Friars Street, Mullingar, County Westmeath, N91 CK27, Ireland","Country":"IRL","County":"County Westmeath","City":"Mullingar","District":"Mullingar","Street":"Austin Friars Street","HouseNumber":"51","PostalCode":"N91 CK27","AdditionalData":[{"value":"Ireland","key":"CountryName"},{"value":"County Westmeath","key":"CountyName"}]},"MapReference":{"ReferenceId":"778275490","Spot":0.09,"SideOfStreet":"left","CountryId":"20403667","CountyId":"20411239","CityId":"20554067","DistrictId":"20554801","AddressId":"214828846","RoadLinkId":"171675661"}}},{"Relevance":1.0,"Distance":42.9,"MatchLevel":"postalCode","MatchQuality":{"PostalCode":1.0},"MatchType":"interpolated","Location":{"LocationId":"NT_ESl0EWkp3gi9KCAuUc.eWD_1ED","LocationType":"point","DisplayPosition":{"Latitude":53.52571,"Longitude":-7.33489},"MapView":{"TopLeft":{"Latitude":53.5347032,"Longitude":-7.3500183},"BottomRight":{"Latitude":53.5167168,"Longitude":-7.3197617}},"Address":{"Label":"N91 EF90, Mullingar, Ireland","Country":"IRL","County":"County Westmeath","City":"Mullingar","PostalCode":"N91 EF90","AdditionalData":[{"value":"Ireland","key":"CountryName"},{"value":"County Westmeath","key":"CountyName"}]},"MapReference":{"ReferenceId":"778275490","Spot":0.09,"SideOfStreet":"neither","CountryId":"20403667","CountyId":"20411239","CityId":"20554067"}}},{"Relevance":1.0,"Distance":46.0,"MatchLevel":"houseNumber","MatchQuality":{"Country":1.0,"County":1.0,"City":1.0,"District":1.0,"Street":[1.0],"HouseNumber":1.0,"PostalCode":1.0},"MatchType":"interpolated","Location":{"LocationId":"NT_J4.upuUS5HSX5aP.GGvwAD_yQD","LocationType":"point","DisplayPosition":{"Latitude":53.52519,"Longitude":-7.33403},"MapView":{"TopLeft":{"Latitude":53.5263142,"Longitude":-7.335921},"BottomRight":{"Latitude":53.5240658,"Longitude":-7.332139}},"Address":{"Label":"24 Millmount Avenue, Mullingar, County Westmeath, N91 VHP4, Ireland","Country":"IRL","County":"County Westmeath","City":"Mullingar","District":"Mullingar","Street":"Millmount Avenue","HouseNumber":"24","PostalCode":"N91 VHP4","AdditionalData":[{"value":"Ireland","key":"CountryName"},{"value":"County Westmeath","key":"CountyName"}]},"MapReference":{"ReferenceId":"587834479","Spot":0.23,"SideOfStreet":"left","CountryId":"20403667","CountyId":"20411239","CityId":"20554067","DistrictId":"20554801","AddressId":"214577565","RoadLinkId":"86485948"}}},{"Relevance":1.0,"Distance":47.2,"MatchLevel":"houseNumber","MatchQuality":{"Country":1.0,"County":1.0,"City":1.0,"District":1.0,"Street":[1.0],"HouseNumber":1.0,"PostalCode":1.0},"MatchType":"interpolated","Location":{"LocationId":"NT_YuKhbuVPq1sO26ImyFd1YC_yA","LocationType":"point","DisplayPosition":{"Latitude":53.52571,"Longitude":-7.3344},"MapView":{"TopLeft":{"Latitude":53.5268342,"Longitude":-7.336291},"BottomRight":{"Latitude":53.5245858,"Longitude":-7.332509}},"Address":{"Label":"2 Millmount Road, Mullingar, County Westmeath, N91 XP23, Ireland","Country":"IRL","County":"County Westmeath","City":"Mullingar","District":"Mullingar","Street":"Millmount Road","HouseNumber":"2","PostalCode":"N91 XP23","AdditionalData":[{"value":"Ireland","key":"CountryName"},{"value":"County Westmeath","key":"CountyName"}]},"MapReference":{"ReferenceId":"780597877","Spot":0.26,"SideOfStreet":"right","CountryId":"20403667","CountyId":"20411239","CityId":"20554067","DistrictId":"20554801","AddressId":"214647551","RoadLinkId":"173809381"}}},{"Relevance":1.0,"Distance":53.1,"MatchLevel":"postalCode","MatchQuality":{"PostalCode":1.0},"MatchType":"interpolated","Location":{"LocationId":"NT_YuKhbuVPq1sO26ImyFd1YC_yA","LocationType":"point","DisplayPosition":{"Latitude":53.52577,"Longitude":-7.3344},"MapView":{"TopLeft":{"Latitude":53.5347632,"Longitude":-7.3495283},"BottomRight":{"Latitude":53.5167768,"Longitude":-7.3192717}},"Address":{"Label":"N91 X3FK, Mullingar, Ireland","Country":"IRL","County":"County Westmeath","City":"Mullingar","PostalCode":"N91 X3FK","AdditionalData":[{"value":"Ireland","key":"CountryName"},{"value":"County Westmeath","key":"CountyName"}]},"MapReference":{"ReferenceId":"780597877","Spot":0.26,"SideOfStreet":"neither","CountryId":"20403667","CountyId":"20411239","CityId":"20554067"}}}]}]}}