{"Response":{"MetaInfo":{"Timestamp":"2020-03-28T11:02:39.648+0000","NextPageInformation":"2"},"View":[{"_type":"SearchResultsViewType","ViewId":0,"Result":[{"Relevance":1.0,"Distance":-5.1,"MatchLevel":"landmark","MatchQuality":{"Country":1.0,"State":1.0,"County":1.0,"City":1.0,"District":1.0,"PostalCode":1.0,"Name":1.0},"Location":{"LocationId":"NT_mqFXJWtFfcNNebIKG0TWhB","LocationType":"hospital","Name":"Wilhelmsburger KH Groß-Sand","DisplayPosition":{"Latitude":53.50346,"Longitude":9.98702},"MapView":{"TopLeft":{"Latitude":53.50449,"Longitude":9.98522},"BottomRight":{"Latitude":53.50242,"Longitude":9.98871}},"Address":{"Label":"21109 Hamburg, Deutschland","Country":"DEU","State":"Hamburg","County":"Hamburg","City":"Hamburg","District":"Wilhelmsburg","PostalCode":"21109","AdditionalData":[{"value":"Deutschland","key":"CountryName"},{"value":"Hamburg","key":"StateName"},{"value":"Hamburg","key":"CountyName"}]},"MapReference":{"CountryId":"20147700","StateId":"20151514","CountyId":"20151515","CityId":"20151516","DistrictId":"20300752","PlaceId":"58218543"}}},{"Relevance":1.0,"Distance":0.0,"Direction":0.0,"MatchLevel":"district","MatchQuality":{"Country":1.0,"State":1.0,"County":1.0,"City":1.0,"District":1.0,"PostalCode":1.0},"Location":{"LocationId":"NT_bn3if45m1pQD1hGjQWSXfB","LocationType":"point","DisplayPosition":{"Latitude":53.5029293,"Longitude":9.9864512},"MapView":{"TopLeft":{"Latitude":53.52663,"Longitude":9.94103},"BottomRight":{"Latitude":53.45439,"Longitude":10.07506}},"Address":{"Label":"Wilhelmsburg, Hamburg, Deutschland","Country":"DEU","State":"Hamburg","County":"Hamburg","City":"Hamburg","District":"Wilhelmsburg","PostalCode":"21109","AdditionalData":[{"value":"Deutschland","key":"CountryName"},{"value":"Hamburg","key":"StateName"},{"value":"Hamburg","key":"CountyName"}]},"MapReference":{"ReferenceId":"772727675","SideOfStreet":"neither","CountryId":"20147700","StateId":"20151514","CountyId":"20151515","CityId":"20151516","DistrictId":"20300752"}}},{"Relevance":1.0,"Distance":17.4,"MatchLevel":"houseNumber","MatchQuality":{"Country":1.0,"State":1.0,"County":1.0,"City":1.0,"District":1.0,"Street":[1.0],"HouseNumber":1.0,"PostalCode":1.0},"MatchType":"interpolated","Location":{"LocationId":"NT_77Y3RbR3G0utY5fI5ZgMXC_5ME","LocationType":"point","DisplayPosition":{"Latitude":53.5028,"Longitude":9.9866},"MapView":{"TopLeft":{"Latitude":53.5039242,"Longitude":9.98471},"BottomRight":{"Latitude":53.5016758,"Longitude":9.98849}},"Address":{"Label":"Groß-Sand 9C, 21107 Hamburg, Deutschland","Country":"DEU","State":"Hamburg","County":"Hamburg","City":"Hamburg","District":"Wilhelmsburg","Street":"Groß-Sand","HouseNumber":"9C","PostalCode":"21107","AdditionalData":[{"value":"Deutschland","key":"CountryName"},{"value":"Hamburg","key":"StateName"},{"value":"Hamburg","key":"CountyName"}]},"MapReference":{"ReferenceId":"586505437","Spot":0.6,"SideOfStreet":"right","CountryId":"20147700","StateId":"20151514","CountyId":"20151515","CityId":"20151516","DistrictId":"20300752","AddressId":"168341676","RoadLinkId":"36825769"}}},{"Relevance":1.0,"Distance":30.8,"MatchLevel":"street","MatchQuality":{"Country":1.0,"State":1.0,"County":1.0,"City":1.0,"District":1.0,"Street":[1.0],"PostalCode":1.0},"Location":{"LocationId":"NT_77Y3RbR3G0utY5fI5ZgMXC_l_51706264_R","LocationType":"point","DisplayPosition":{"Latitude":53.50307,"Longitude":9.98605},"MapView":{"TopLeft":{"Latitude":53.50307,"Longitude":9.98576},"BottomRight":{"Latitude":53.5028,"Longitude":9.98605}},"Address":{"Label":"Groß-Sand, 21107 Hamburg, Deutschland","Country":"DEU","State":"Hamburg","County":"Hamburg","City":"Hamburg","District":"Wilhelmsburg","Street":"Groß-Sand","PostalCode":"21107","AdditionalData":[{"value":"Deutschland","key":"CountryName"},{"value":"Hamburg","key":"StateName"},{"value":"Hamburg","key":"CountyName"}]},"MapReference":{"ReferenceId":"51706264","Spot":1.0,"SideOfStreet":"right","CountryId":"20147700","StateId":"20151514","CountyId":"20151515","CityId":"20151516","DistrictId":"20300752"}}},{"Relevance":1.0,"Distance":47.9,"MatchLevel":"street","MatchQuality":{"Country":1.0,"State":1.0,"County":1.0,"City":1.0,"District":1.0,"Street":[1.0],"PostalCode":1.0},"Location":{"LocationId":"NT_77Y3RbR3G0utY5fI5ZgMXC_l_1104645431_R","LocationType":"point","DisplayPosition":{"Latitude":53.5028,"Longitude":9.98576},"MapView":{"TopLeft":{"Latitude":53.5028,"Longitude":9.98558},"BottomRight":{"Latitude":53.50268,"Longitude":9.98576}},"Address":{"Label":"Groß-Sand, 21107 Hamburg, Deutschland","Country":"DEU","State":"Hamburg","County":"Hamburg","City":"Hamburg","District":"Wilhelmsburg","Street":"Groß-Sand","PostalCode":"21107","AdditionalData":[{"value":"Deutschland","key":"CountryName"},{"value":"Hamburg","key":"StateName"},{"value":"Hamburg","key":"CountyName"}]},"MapReference":{"ReferenceId":"1104645431","Spot":1.0,"SideOfStreet":"right","CountryId":"20147700","StateId":"20151514","CountyId":"20151515","CityId":"20151516","DistrictId":"20300752"}}},{"Relevance":1.0,"Distance":63.9,"MatchLevel":"street","MatchQuality":{"Country":1.0,"State":1.0,"County":1.0,"City":1.0,"District":1.0,"Street":[1.0],"PostalCode":1.0},"Location":{"LocationId":"NT_77Y3RbR3G0utY5fI5ZgMXC_l_1239568510_R","LocationType":"point","DisplayPosition":{"Latitude":53.50268,"Longitude":9.98558},"MapView":{"TopLeft":{"Latitude":53.50268,"Longitude":9.98532},"BottomRight":{"Latitude":53.50236,"Longitude":9.98558}},"Address":{"Label":"Groß-Sand, 21107 Hamburg, Deutschland","Country":"DEU","State":"Hamburg","County":"Hamburg","City":"Hamburg","District":"Wilhelmsburg","Street":"Groß-Sand","PostalCode":"21107","AdditionalData":[{"value":"Deutschland","key":"CountryName"},{"value":"Hamburg","key":"StateName"},{"value":"Hamburg","key":"CountyName"}]},"MapReference":{"ReferenceId":"1239568510","Spot":1.0,"SideOfStreet":"right","CountryId":"20147700","StateId":"20151514","CountyId":"20151515","CityId":"20151516","DistrictId":"20300752"}}},{"Relevance":1.0,"Distance":73.9,"MatchLevel":"houseNumber","MatchQuality":{"Country":1.0,"State":1.0,"County":1.0,"City":1.0,"District":1.0,"Street":[1.0],"HouseNumber":1.0,"PostalCode":1.0},"MatchType":"interpolated","Location":{"LocationId":"NT_77Y3RbR3G0utY5fI5ZgMXC_zA","LocationType":"point","DisplayPosition":{"Latitude":53.50338,"Longitude":9.98563},"MapView":{"TopLeft":{"Latitude":53.5045042,"Longitude":9.98374},"BottomRight":{"Latitude":53.5022558,"Longitude":9.98752}},"Address":{"Label":"Groß-Sand 3, 21107 Hamburg, Deutschland","Country":"DEU","State":"Hamburg","County":"Hamburg","City":"Hamburg","District":"Wilhelmsburg","Street":"Groß-Sand","HouseNumber":"3","PostalCode":"21107","AdditionalData":[{"value":"Deutschland","key":"CountryName"},{"value":"Hamburg","key":"StateName"},{"value":"Hamburg","key":"CountyName"}]},"MapReference":{"ReferenceId":"586504626","Spot":1.0,"SideOfStreet":"right","CountryId":"20147700","StateId":"20151514","CountyId":"20151515","CityId":"20151516","DistrictId":"20300752","AddressId":"168775872","RoadLinkId":"36582583"}}},{"Relevance":1.0,"Distance":89.4,"MatchLevel":"street","MatchQuality":{"Country":1.0,"State":1.0,"County":1.0,"City":1.0,"District":1.0,"PostalCode":1.0},"Location":{"LocationId":"NT_gqv3TBCeR-7x4Wv0GDQ29D_l_1239611689_R","LocationType":"point","DisplayPosition":{"Latitude":53.5021679,"Longitude":9.9860161},"MapView":{"TopLeft":{"Latitude":53.50236,"Longitude":9.98532},"BottomRight":{"Latitude":53.50199,"Longitude":9.98647}},"Address":{"Label":"21107 Hamburg, Deutschland","Country":"DEU","State":"Hamburg","County":"Hamburg","City":"Hamburg","District":"Wilhelmsburg","PostalCode":"21107","AdditionalData":[{"value":"Deutschland","key":"CountryName"},{"value":"Hamburg","key":"StateName"},{"value":"Hamburg","key":"CountyName"}]},"MapReference":{"ReferenceId":"1239611689","Spot":0.41,"SideOfStreet":"right","CountryId":"20147700","StateId":"20151514","CountyId":"20151515","CityId":"20151516","DistrictId":"20300752"}}},{"Relevance":1.0,"Distance":91.7,"MatchLevel":"houseNumber","MatchQuality":{"Country":1.0,"State":1.0,"County":1.0,"City":1.0,"District":1.0,"Street":[1.0],"HouseNumber":1.0,"PostalCode":1.0},"MatchType":"interpolated","Location":{"LocationId":"NT_77Y3RbR3G0utY5fI5ZgMXC_xMDR","LocationType":"point","DisplayPosition":{"Latitude":53.50239,"Longitude":9.9875},"MapView":{"TopLeft":{"Latitude":53.5035142,"Longitude":9.98561},"BottomRight":{"Latitude":53.5012658,"Longitude":9.98939}},"Address":{"Label":"Groß-Sand 13D, 21107 Hamburg, Deutschland","Country":"DEU","State":"Hamburg","County":"Hamburg","City":"Hamburg","District":"Wilhelmsburg","Street":"Groß-Sand","HouseNumber":"13D","PostalCode":"21107","AdditionalData":[{"value":"Deutschland","key":"CountryName"},{"value":"Hamburg","key":"StateName"},{"value":"Hamburg","key":"CountyName"}]},"MapReference":{"ReferenceId":"1239568851","Spot":0.91,"SideOfStreet":"right","CountryId":"20147700","StateId":"20151514","CountyId":"20151515","CityId":"20151516","DistrictId":"20300752","AddressId":"169142048","RoadLinkId":"560583011"}}},{"Relevance":1.0,"Distance":98.0,"MatchLevel":"street","MatchQuality":{"Country":1.0,"State":1.0,"County":1.0,"City":1.0,"District":1.0,"Street":[1.0],"PostalCode":1.0},"Location":{"LocationId":"NT_77Y3RbR3G0utY5fI5ZgMXC_l_1239568509_R","LocationType":"point","DisplayPosition":{"Latitude":53.50236,"Longitude":9.98532},"MapView":{"TopLeft":{"Latitude":53.50236,"Longitude":9.985},"BottomRight":{"Latitude":53.50195,"Longitude":9.98532}},"Address":{"Label":"Groß-Sand, 21107 Hamburg, Deutschland","Country":"DEU","State":"Hamburg","County":"Hamburg","City":"Hamburg","District":"Wilhelmsburg","Street":"Groß-Sand","PostalCode":"21107","AdditionalData":[{"value":"Deutschland","key":"CountryName"},{"value":"Hamburg","key":"StateName"},{"value":"Hamburg","key":"CountyName"}]},"MapReference":{"ReferenceId":"1239568509","Spot":1.0,"SideOfStreet":"right","CountryId":"20147700","StateId":"20151514","CountyId":"20151515","CityId":"20151516","DistrictId":"20300752"}}}]}]}}