{"Response":{"MetaInfo":{"Timestamp":"2020-03-28T10:09:44.966+0000","NextPageInformation":"2"},"View":[{"_type":"SearchResultsViewType","ViewId":0,"Result":[{"Relevance":1.0,"Distance":0.0,"Direction":0.0,"MatchLevel":"district","MatchQuality":{"Country":1.0,"State":1.0,"County":1.0,"City":1.0,"District":1.0,"PostalCode":1.0},"Location":{"LocationId":"NT_4nswNz3p0tWUGE-JzH.PVC","LocationType":"point","DisplayPosition":{"Latitude":53.5879534,"Longitude":-2.3365103},"MapView":{"TopLeft":{"Latitude":53.59707,"Longitude":-2.34797},"BottomRight":{"Latitude":53.58193,"Longitude":-2.30694}},"Address":{"Label":"Elton, Bury, England, United Kingdom","Country":"GBR","State":"England","County":"Lancashire","City":"Bury","District":"Elton","PostalCode":"BL8 2","AdditionalData":[{"value":"United Kingdom","key":"CountryName"},{"value":"England","key":"StateName"},{"value":"Lancashire","key":"CountyName"}]},"MapReference":{"ReferenceId":"78717041","SideOfStreet":"neither","StateId":"20248595","CountyId":"20343938","CityId":"20344020","DistrictId":"20344023"}}},{"Relevance":1.0,"Distance":6.6,"MatchLevel":"houseNumber","MatchQuality":{"Country":1.0,"State":1.0,"County":1.0,"City":1.0,"District":1.0,"Street":[1.0],"HouseNumber":1.0,"PostalCode":1.0},"MatchType":"interpolated","Location":{"LocationId":"NT_KamvFvfTb34q9hJd5kyP4C_l_27159412_R_3gD","LocationType":"point","DisplayPosition":{"Latitude":53.5878701,"Longitude":-2.3367101},"MapView":{"TopLeft":{"Latitude":53.5889942,"Longitude":-2.3386039},"BottomRight":{"Latitude":53.5867459,"Longitude":-2.3348163}},"Address":{"Label":"78 Watling Street, Bury, BL8 2TG, United Kingdom","Country":"GBR","State":"England","County":"Lancashire","City":"Bury","District":"Elton","Street":"Watling Street","HouseNumber":"78","PostalCode":"BL8 2TG","AdditionalData":[{"value":"United Kingdom","key":"CountryName"},{"value":"England","key":"StateName"},{"value":"Lancashire","key":"CountyName"}]},"MapReference":{"ReferenceId":"27159412","Spot":0.08,"SideOfStreet":"right","StateId":"20248595","CountyId":"20343938","CityId":"20344020","DistrictId":"20344023"}}},{"Relevance":1.0,"Distance":22.3,"MatchLevel":"street","MatchQuality":{"Country":1.0,"State":1.0,"County":1.0,"City":1.0,"District":1.0,"Street":[1.0],"PostalCode":1.0},"Location":{"LocationId":"NT_KamvFvfTb34q9hJd5kyP4C_l_27159489_R","LocationType":"point","DisplayPosition":{"Latitude":53.58776,"Longitude":-2.3366},"MapView":{"TopLeft":{"Latitude":53.58776,"Longitude":-2.3366},"BottomRight":{"Latitude":53.58762,"Longitude":-2.33647}},"Address":{"Label":"Watling Street, Bury, BL8 2, United Kingdom","Country":"GBR","State":"England","County":"Lancashire","City":"Bury","District":"Elton","Street":"Watling Street","PostalCode":"BL8 2","AdditionalData":[{"value":"United Kingdom","key":"CountryName"},{"value":"England","key":"StateName"},{"value":"Lancashire","key":"CountyName"}]},"MapReference":{"ReferenceId":"27159489","Spot":1.0,"SideOfStreet":"right","StateId":"20248595","CountyId":"20343938","CityId":"20344020","DistrictId":"20344023"}}},{"Relevance":1.0,"Distance":24.9,"MatchLevel":"houseNumber","MatchQuality":{"Country":1.0,"State":1.0,"County":1.0,"City":1.0,"District":1.0,"Street":[1.0],"HouseNumber":1.0,"PostalCode":1.0},"MatchType":"interpolated","Location":{"LocationId":"NT_Duf8OA2N.QNffOH0x2aTVC_l_27159488_L_4AD","LocationType":"point","DisplayPosition":{"Latitude":53.5877216,"Longitude":-2.33613},"MapView":{"TopLeft":{"Latitude":53.5888457,"Longitude":-2.3380238},"BottomRight":{"Latitude":53.5865974,"Longitude":-2.3342362}},"Address":{"Label":"80 Mile Lane, Bury, BL8 2JR, United Kingdom","Country":"GBR","State":"England","County":"Lancashire","City":"Bury","District":"Elton","Street":"Mile Lane","HouseNumber":"80","PostalCode":"BL8 2JR","AdditionalData":[{"value":"United Kingdom","key":"CountryName"},{"value":"England","key":"StateName"},{"value":"Lancashire","key":"CountyName"}]},"MapReference":{"ReferenceId":"27159488","Spot":0.51,"SideOfStreet":"left","StateId":"20248595","CountyId":"20343938","CityId":"20344020","DistrictId":"20344023"}}},{"Relevance":1.0,"Distance":37.8,"MatchLevel":"houseNumber","MatchQuality":{"Country":1.0,"State":1.0,"County":1.0,"City":1.0,"District":1.0,"Street":[1.0],"HouseNumber":1.0,"PostalCode":1.0},"MatchType":"interpolated","Location":{"LocationId":"NT_qfsg4w15H4T8KZ7H.kZ4lB_l_27159593_L_yA","LocationType":"point","DisplayPosition":{"Latitude":53.5876388,"Longitude":-2.3369525},"MapView":{"TopLeft":{"Latitude":53.5887629,"Longitude":-2.3388463},"BottomRight":{"Latitude":53.5865146,"Longitude":-2.3350587}},"Address":{"Label":"2 Garstang Drive, Bury, BL8 2JS, United Kingdom","Country":"GBR","State":"England","County":"Lancashire","City":"Bury","District":"Elton","Street":"Garstang Drive","HouseNumber":"2","PostalCode":"BL8 2JS","AdditionalData":[{"value":"United Kingdom","key":"CountryName"},{"value":"England","key":"StateName"},{"value":"Lancashire","key":"CountyName"}]},"MapReference":{"ReferenceId":"27159593","Spot":0.74,"SideOfStreet":"left","StateId":"20248595","CountyId":"20343938","CityId":"20344020","DistrictId":"20344023"}}},{"Relevance":1.0,"Distance":48.2,"MatchLevel":"street","MatchQuality":{"Country":1.0,"State":1.0,"County":1.0,"City":1.0,"District":1.0,"Street":[1.0],"PostalCode":1.0},"Location":{"LocationId":"NT_Duf8OA2N.QNffOH0x2aTVC_l_27159377_L","LocationType":"point","DisplayPosition":{"Latitude":53.58783,"Longitude":-2.33581},"MapView":{"TopLeft":{"Latitude":53.58788,"Longitude":-2.33581},"BottomRight":{"Latitude":53.58783,"Longitude":-2.33568}},"Address":{"Label":"Mile Lane, Bury, BL8 2, United Kingdom","Country":"GBR","State":"England","County":"Lancashire","City":"Bury","District":"Elton","Street":"Mile Lane","PostalCode":"BL8 2","AdditionalData":[{"value":"United Kingdom","key":"CountryName"},{"value":"England","key":"StateName"},{"value":"Lancashire","key":"CountyName"}]},"MapReference":{"ReferenceId":"27159377","Spot":0.0,"SideOfStreet":"left","StateId":"20248595","CountyId":"20343938","CityId":"20344020","DistrictId":"20344023"}}},{"Relevance":1.0,"Distance":53.0,"MatchLevel":"houseNumber","MatchQuality":{"Country":1.0,"State":1.0,"County":1.0,"City":1.0,"District":1.0,"Street":[1.0],"HouseNumber":1.0,"PostalCode":1.0},"MatchType":"interpolated","Location":{"LocationId":"NT_Duf8OA2N.QNffOH0x2aTVC_l_27159334_L_3gD","LocationType":"point","DisplayPosition":{"Latitude":53.58799,"Longitude":-2.3357099},"MapView":{"TopLeft":{"Latitude":53.5891142,"Longitude":-2.3376037},"BottomRight":{"Latitude":53.5868659,"Longitude":-2.3338161}},"Address":{"Label":"78 Mile Lane, Bury, BL8 2JR, United Kingdom","Country":"GBR","State":"England","County":"Lancashire","City":"Bury","District":"Elton","Street":"Mile Lane","HouseNumber":"78","PostalCode":"BL8 2JR","AdditionalData":[{"value":"United Kingdom","key":"CountryName"},{"value":"England","key":"StateName"},{"value":"Lancashire","key":"CountyName"}]},"MapReference":{"ReferenceId":"27159334","Spot":0.16,"SideOfStreet":"left","StateId":"20248595","CountyId":"20343938","CityId":"20344020","DistrictId":"20344023"}}},{"Relevance":1.0,"Distance":60.9,"MatchLevel":"houseNumber","MatchQuality":{"Country":1.0,"State":1.0,"County":1.0,"City":1.0,"District":1.0,"Street":[1.0],"HouseNumber":1.0,"PostalCode":1.0},"MatchType":"interpolated","Location":{"LocationId":"NT_KamvFvfTb34q9hJd5kyP4C_l_27159972_R_3AD","LocationType":"point","DisplayPosition":{"Latitude":53.5874097,"Longitude":-2.3363939},"MapView":{"TopLeft":{"Latitude":53.5885339,"Longitude":-2.3382877},"BottomRight":{"Latitude":53.5862856,"Longitude":-2.3345001}},"Address":{"Label":"70 Watling Street, Bury, BL8 2JJ, United Kingdom","Country":"GBR","State":"England","County":"Lancashire","City":"Bury","District":"Elton","Street":"Watling Street","HouseNumber":"70","PostalCode":"BL8 2JJ","AdditionalData":[{"value":"United Kingdom","key":"CountryName"},{"value":"England","key":"StateName"},{"value":"Lancashire","key":"CountyName"}]},"MapReference":{"ReferenceId":"27159972","Spot":0.8,"SideOfStreet":"right","StateId":"20248595","CountyId":"20343938","CityId":"20344020","DistrictId":"20344023"}}},{"Relevance":1.0,"Distance":64.0,"MatchLevel":"houseNumber","MatchQuality":{"Country":1.0,"State":1.0,"County":1.0,"City":1.0,"District":1.0,"Street":[1.0],"HouseNumber":1.0,"PostalCode":1.0},"MatchType":"interpolated","Location":{"LocationId":"NT_Duf8OA2N.QNffOH0x2aTVC_l_27555475_R_2ED","LocationType":"point","DisplayPosition":{"Latitude":53.587926,"Longitude":-2.3355421},"MapView":{"TopLeft":{"Latitude":53.5890501,"Longitude":-2.3374359},"BottomRight":{"Latitude":53.5868018,"Longitude":-2.3336483}},"Address":{"Label":"61 Mile Lane, Bury, BL8 2JR, United Kingdom","Country":"GBR","State":"England","County":"Lancashire","City":"Bury","District":"Elton","Street":"Mile Lane","HouseNumber":"61","PostalCode":"BL8 2JR","AdditionalData":[{"value":"United Kingdom","key":"CountryName"},{"value":"England","key":"StateName"},{"value":"Lancashire","key":"CountyName"}]},"MapReference":{"ReferenceId":"27555475","Spot":0.51,"SideOfStreet":"right","StateId":"20248595","CountyId":"20343938","CityId":"20344020","DistrictId":"20344023"}}},{"Relevance":1.0,"Distance":66.3,"MatchLevel":"houseNumber","MatchQuality":{"Country":1.0,"State":1.0,"County":1.0,"City":1.0,"District":1.0,"Street":[1.0],"HouseNumber":1.0,"PostalCode":1.0},"MatchType":"interpolated","Location":{"LocationId":"NT_df.guPVpzlfeDvD1lCpUTC_l_27158925_L_zQD","LocationType":"point","DisplayPosition":{"Latitude":53.5886601,"Longitude":-2.3362002},"MapView":{"TopLeft":{"Latitude":53.5897843,"Longitude":-2.338094},"BottomRight":{"Latitude":53.587536,"Longitude":-2.3343063}},"Address":{"Label":"34 Bispham Close, Bury, BL8 2TJ, United Kingdom","Country":"GBR","State":"England","County":"Lancashire","City":"Bury","District":"Elton","Street":"Bispham Close","HouseNumber":"34","PostalCode":"BL8 2TJ","AdditionalData":[{"value":"United Kingdom","key":"CountryName"},{"value":"England","key":"StateName"},{"value":"Lancashire","key":"CountyName"}]},"MapReference":{"ReferenceId":"27158925","Spot":0.12,"SideOfStreet":"left","StateId":"20248595","CountyId":"20343938","CityId":"20344020","DistrictId":"20344023"}}}]}]}}