{"Response":{"MetaInfo":{"Timestamp":"2020-03-28T09:51:57.963+0000","NextPageInformation":"2"},"View":[{"_type":"SearchResultsViewType","ViewId":0,"Result":[{"Relevance":1.0,"Distance":0.0,"Direction":0.0,"MatchLevel":"district","MatchQuality":{"Country":1.0,"State":1.0,"County":1.0,"City":1.0,"District":1.0,"PostalCode":1.0},"Location":{"LocationId":"NT_xj2KIZcUWcwy4WlFxIe5mC","LocationType":"point","DisplayPosition":{"Latitude":53.5023597,"Longitude":-2.1844055},"MapView":{"TopLeft":{"Latitude":53.51213,"Longitude":-2.20901},"BottomRight":{"Latitude":53.48828,"Longitude":-2.16338}},"Address":{"Label":"Newton Heath, Manchester, England, United Kingdom","Country":"GBR","State":"England","County":"Lancashire","City":"Manchester","District":"Newton Heath","PostalCode":"M40 2","AdditionalData":[{"value":"United Kingdom","key":"CountryName"},{"value":"England","key":"StateName"},{"value":"Lancashire","key":"CountyName"}]},"MapReference":{"ReferenceId":"27261423","SideOfStreet":"neither","StateId":"20248595","CountyId":"20343938","CityId":"20344206","DistrictId":"20344244"}}},{"Relevance":1.0,"Distance":23.8,"MatchLevel":"street","MatchQuality":{"Country":1.0,"State":1.0,"County":1.0,"City":1.0,"District":1.0,"Street":[1.0],"PostalCode":1.0},"Location":{"LocationId":"NT_bFLUTleFPK9nSMEroUmSTB_l_27261569_R","LocationType":"point","DisplayPosition":{"Latitude":53.5025729,"Longitude":-2.1844325},"MapView":{"TopLeft":{"Latitude":53.50262,"Longitude":-2.18485},"BottomRight":{"Latitude":53.50252,"Longitude":-2.18406}},"Address":{"Label":"Oldham Road, Manchester, M40 2, United Kingdom","Country":"GBR","State":"England","County":"Lancashire","City":"Manchester","District":"Newton Heath","Street":"Oldham Road","PostalCode":"M40 2","AdditionalData":[{"value":"United Kingdom","key":"CountryName"},{"value":"England","key":"StateName"},{"value":"Lancashire","key":"CountyName"}]},"MapReference":{"ReferenceId":"27261569","Spot":0.53,"SideOfStreet":"right","StateId":"20248595","CountyId":"20343938","CityId":"20344206","DistrictId":"20344244"}}},{"Relevance":1.0,"Distance":27.2,"MatchLevel":"houseNumber","MatchQuality":{"Country":1.0,"State":1.0,"County":1.0,"City":1.0,"District":1.0,"Street":[1.0],"HouseNumber":1.0,"PostalCode":1.0},"MatchType":"interpolated","Location":{"LocationId":"NT_Z6dLpx9d3bLI9ozfs7nRBA_l_27261677_L_yA","LocationType":"point","DisplayPosition":{"Latitude":53.502401,"Longitude":-2.1838772},"MapView":{"TopLeft":{"Latitude":53.5035252,"Longitude":-2.1857672},"BottomRight":{"Latitude":53.5012769,"Longitude":-2.1819872}},"Address":{"Label":"2 Old Church Street, Manchester, M40 2, United Kingdom","Country":"GBR","State":"England","County":"Lancashire","City":"Manchester","District":"Newton Heath","Street":"Old Church Street","HouseNumber":"2","PostalCode":"M40 2","AdditionalData":[{"value":"United Kingdom","key":"CountryName"},{"value":"England","key":"StateName"},{"value":"Lancashire","key":"CountyName"}]},"MapReference":{"ReferenceId":"27261677","Spot":0.51,"SideOfStreet":"left","StateId":"20248595","CountyId":"20343938","CityId":"20344206","DistrictId":"20344244"}}},{"Relevance":1.0,"Distance":34.4,"MatchLevel":"street","MatchQuality":{"Country":1.0,"State":1.0,"County":1.0,"City":1.0,"District":1.0,"Street":[1.0],"PostalCode":1.0},"Location":{"LocationId":"NT_RBp3GjWBPyZ3NVxsRFAskC_l_27261570_R","LocationType":"point","DisplayPosition":{"Latitude":53.50252,"Longitude":-2.18485},"MapView":{"TopLeft":{"Latitude":53.50331,"Longitude":-2.18514},"BottomRight":{"Latitude":53.50252,"Longitude":-2.18485}},"Address":{"Label":"Dixon Street, Manchester, M40 2, United Kingdom","Country":"GBR","State":"England","County":"Lancashire","City":"Manchester","District":"Newton Heath","Street":"Dixon Street","PostalCode":"M40 2","AdditionalData":[{"value":"United Kingdom","key":"CountryName"},{"value":"England","key":"StateName"},{"value":"Lancashire","key":"CountyName"}]},"MapReference":{"ReferenceId":"27261570","Spot":0.0,"SideOfStreet":"right","StateId":"20248595","CountyId":"20343938","CityId":"20344206","DistrictId":"20344244"}}},{"Relevance":1.0,"Distance":36.6,"MatchLevel":"street","MatchQuality":{"Country":1.0,"State":1.0,"County":1.0,"City":1.0,"District":1.0,"Street":[1.0],"PostalCode":1.0},"Location":{"LocationId":"NT_d3m8A-wkq955843RuAg..B_l_585781892_L","LocationType":"point","DisplayPosition":{"Latitude":53.5020313,"Longitude":-2.1843672},"MapView":{"TopLeft":{"Latitude":53.50208,"Longitude":-2.18455},"BottomRight":{"Latitude":53.50201,"Longitude":-2.18395}},"Address":{"Label":"Troydale Drive, Manchester, M40 2, United Kingdom","Country":"GBR","State":"England","County":"Lancashire","City":"Manchester","District":"Newton Heath","Street":"Troydale Drive","PostalCode":"M40 2","AdditionalData":[{"value":"United Kingdom","key":"CountryName"},{"value":"England","key":"StateName"},{"value":"Lancashire","key":"CountyName"}]},"MapReference":{"ReferenceId":"585781892","Spot":0.3,"SideOfStreet":"left","StateId":"20248595","CountyId":"20343938","CityId":"20344206","DistrictId":"20344244"}}},{"Relevance":1.0,"Distance":36.9,"MatchLevel":"street","MatchQuality":{"Country":1.0,"State":1.0,"County":1.0,"City":1.0,"District":1.0,"Street":[1.0],"PostalCode":1.0},"Location":{"LocationId":"NT_uXYOfiYs-arUW1GOA52YIB_l_27261541_R","LocationType":"point","DisplayPosition":{"Latitude":53.50262,"Longitude":-2.18406},"MapView":{"TopLeft":{"Latitude":53.5027,"Longitude":-2.18406},"BottomRight":{"Latitude":53.50262,"Longitude":-2.18338}},"Address":{"Label":"Oldham Road, Manchester, M40 2, United Kingdom","Country":"GBR","State":"England","County":"Lancashire","City":"Manchester","District":"Newton Heath","Street":"Oldham Road","PostalCode":"M40 2","AdditionalData":[{"value":"United Kingdom","key":"CountryName"},{"value":"England","key":"StateName"},{"value":"Lancashire","key":"CountyName"}]},"MapReference":{"ReferenceId":"27261541","Spot":0.0,"SideOfStreet":"right","StateId":"20248595","CountyId":"20343938","CityId":"20344206","DistrictId":"20344244"}}},{"Relevance":1.0,"Distance":36.9,"MatchLevel":"street","MatchQuality":{"Country":1.0,"State":1.0,"County":1.0,"City":1.0,"District":1.0,"Street":[1.0],"PostalCode":1.0},"Location":{"LocationId":"NT_9sH4uWABWpoa9p2ov.oskA_l_27261542_L","LocationType":"point","DisplayPosition":{"Latitude":53.50262,"Longitude":-2.18406},"MapView":{"TopLeft":{"Latitude":53.50318,"Longitude":-2.18438},"BottomRight":{"Latitude":53.50262,"Longitude":-2.18406}},"Address":{"Label":"Dean Lane, Manchester, M40 3, United Kingdom","Country":"GBR","State":"England","County":"Lancashire","City":"Manchester","District":"Newton Heath","Street":"Dean Lane","PostalCode":"M40 3","AdditionalData":[{"value":"United Kingdom","key":"CountryName"},{"value":"England","key":"StateName"},{"value":"Lancashire","key":"CountyName"}]},"MapReference":{"ReferenceId":"27261542","Spot":0.0,"SideOfStreet":"left","StateId":"20248595","CountyId":"20343938","CityId":"20344206","DistrictId":"20344244"}}},{"Relevance":1.0,"Distance":43.0,"MatchLevel":"postalCode","MatchQuality":{"PostalCode":1.0},"MatchType":"interpolated","Location":{"LocationId":"NT_uXYOfiYs-arUW1GOA52YIB_l_27261591_R_xIzNwA","LocationType":"point","DisplayPosition":{"Latitude":53.50219,"Longitude":-2.18499},"MapView":{"TopLeft":{"Latitude":53.5111832,"Longitude":-2.2001099},"BottomRight":{"Latitude":53.4931968,"Longitude":-2.1698701}},"Address":{"Label":"M40 2LA, Manchester, England, United Kingdom","Country":"GBR","State":"England","County":"Lancashire","City":"Manchester","PostalCode":"M40 2LA","AdditionalData":[{"value":"United Kingdom","key":"CountryName"},{"value":"England","key":"StateName"},{"value":"Lancashire","key":"CountyName"}]},"MapReference":{"ReferenceId":"27261591","Spot":0.58,"SideOfStreet":"neither","StateId":"20248595","CountyId":"20343938","CityId":"20344206"}}},{"Relevance":1.0,"Distance":43.3,"MatchLevel":"street","MatchQuality":{"Country":1.0,"State":1.0,"County":1.0,"City":1.0,"District":1.0,"Street":[1.0],"PostalCode":1.0},"Location":{"LocationId":"NT_d3m8A-wkq955843RuAg..B_l_585781893_L","LocationType":"point","DisplayPosition":{"Latitude":53.50208,"Longitude":-2.18395},"MapView":{"TopLeft":{"Latitude":53.50219,"Longitude":-2.18395},"BottomRight":{"Latitude":53.50208,"Longitude":-2.18367}},"Address":{"Label":"Troydale Drive, Manchester, M40 2, United Kingdom","Country":"GBR","State":"England","County":"Lancashire","City":"Manchester","District":"Newton Heath","Street":"Troydale Drive","PostalCode":"M40 2","AdditionalData":[{"value":"United Kingdom","key":"CountryName"},{"value":"England","key":"StateName"},{"value":"Lancashire","key":"CountyName"}]},"MapReference":{"ReferenceId":"585781893","Spot":0.0,"SideOfStreet":"left","StateId":"20248595","CountyId":"20343938","CityId":"20344206","DistrictId":"20344244"}}},{"Relevance":1.0,"Distance":43.3,"MatchLevel":"street","MatchQuality":{"Country":1.0,"State":1.0,"County":1.0,"City":1.0,"District":1.0,"Street":[1.0],"PostalCode":1.0},"Location":{"LocationId":"NT_Yr6.DW5fnRdfldfu9XIRJB_l_585781894_L","LocationType":"point","DisplayPosition":{"Latitude":53.50208,"Longitude":-2.18395},"MapView":{"TopLeft":{"Latitude":53.50208,"Longitude":-2.18395},"BottomRight":{"Latitude":53.50155,"Longitude":-2.18386}},"Address":{"Label":"Starcross Walk, Manchester, M40 2, United Kingdom","Country":"GBR","State":"England","County":"Lancashire","City":"Manchester","District":"Newton Heath","Street":"Starcross Walk","PostalCode":"M40 2","AdditionalData":[{"value":"United Kingdom","key":"CountryName"},{"value":"England","key":"StateName"},{"value":"Lancashire","key":"CountyName"}]},"MapReference":{"ReferenceId":"585781894","Spot":1.0,"SideOfStreet":"left","StateId":"20248595","CountyId":"20343938","CityId":"20344206","DistrictId":"20344244"}}}]}]}}