{"Response":{"MetaInfo":{"Timestamp":"2020-03-28T10:25:18.682+0000","NextPageInformation":"2"},"View":[{"_type":"SearchResultsViewType","ViewId":0,"Result":[{"Relevance":1.0,"Distance":0.0,"Direction":0.0,"MatchLevel":"district","MatchQuality":{"Country":1.0,"State":1.0,"County":1.0,"City":1.0,"District":1.0,"PostalCode":1.0},"Location":{"LocationId":"NT_XEIlyw5P0VDokyTwxjh0fB","LocationType":"point","DisplayPosition":{"Latitude":53.57235,"Longitude":7.7892831},"MapView":{"TopLeft":{"Latitude":53.58816,"Longitude":7.75346},"BottomRight":{"Latitude":53.56819,"Longitude":7.80852}},"Address":{"Label":"Wittmund, Niedersachsen, Deutschland","Country":"DEU","State":"Niedersachsen","County":"Wittmund","City":"Wittmund","District":"Wittmund","PostalCode":"26409","AdditionalData":[{"value":"Deutschland","key":"CountryName"},{"value":"Niedersachsen","key":"StateName"},{"value":"Wittmund","key":"CountyName"}]},"MapReference":{"ReferenceId":"1147454694","SideOfStreet":"neither","CountryId":"20147700","StateId":"20151542","CountyId":"20157245","CityId":"20157323","DistrictId":"20157330"}}},{"Relevance":1.0,"Distance":31.5,"MatchLevel":"houseNumber","MatchQuality":{"Country":1.0,"State":1.0,"County":1.0,"City":1.0,"District":1.0,"Street":[1.0],"HouseNumber":1.0,"PostalCode":1.0},"MatchType":"interpolated","Location":{"LocationId":"NT_PTm69C0dDX2oqNENyCJmwA_xQD","LocationType":"point","DisplayPosition":{"Latitude":53.57238,"Longitude":7.78819},"MapView":{"TopLeft":{"Latitude":53.5735042,"Longitude":7.7862969},"BottomRight":{"Latitude":53.5712558,"Longitude":7.7900831}},"Address":{"Label":"Dohuser Weg 14, 26409 Wittmund, Deutschland","Country":"DEU","State":"Niedersachsen","County":"Wittmund","City":"Wittmund","District":"Wittmund","Street":"Dohuser Weg","HouseNumber":"14","PostalCode":"26409","AdditionalData":[{"value":"Deutschland","key":"CountryName"},{"value":"Niedersachsen","key":"StateName"},{"value":"Wittmund","key":"CountyName"}]},"MapReference":{"ReferenceId":"586507409","Spot":0.25,"SideOfStreet":"right","CountryId":"20147700","StateId":"20151542","CountyId":"20157245","CityId":"20157323","DistrictId":"20157330","AddressId":"179533018","RoadLinkId":"36566044"}}},{"Relevance":1.0,"Distance":62.8,"MatchLevel":"houseNumber","MatchQuality":{"Country":1.0,"State":1.0,"County":1.0,"City":1.0,"District":1.0,"Street":[1.0],"HouseNumber":1.0,"PostalCode":1.0},"MatchType":"interpolated","Location":{"LocationId":"NT_BJ-qwQWam5o4fQHFwfkYxD_yA","LocationType":"point","DisplayPosition":{"Latitude":53.57181,"Longitude":7.7902},"MapView":{"TopLeft":{"Latitude":53.5729342,"Longitude":7.7883069},"BottomRight":{"Latitude":53.5706858,"Longitude":7.7920931}},"Address":{"Label":"Agnes-von-Rietberg-Straße 2, 26409 Wittmund, Deutschland","Country":"DEU","State":"Niedersachsen","County":"Wittmund","City":"Wittmund","District":"Wittmund","Street":"Agnes-von-Rietberg-Straße","HouseNumber":"2","PostalCode":"26409","AdditionalData":[{"value":"Deutschland","key":"CountryName"},{"value":"Niedersachsen","key":"StateName"},{"value":"Wittmund","key":"CountyName"}]},"MapReference":{"ReferenceId":"779050995","Spot":0.4,"SideOfStreet":"left","CountryId":"20147700","StateId":"20151542","CountyId":"20157245","CityId":"20157323","DistrictId":"20157330","AddressId":"181195452","RoadLinkId":"172547177"}}},{"Relevance":1.0,"Distance":73.1,"MatchLevel":"houseNumber","MatchQuality":{"Country":1.0,"State":1.0,"County":1.0,"City":1.0,"District":1.0,"Street":[1.0],"HouseNumber":1.0,"PostalCode":1.0},"MatchType":"interpolated","Location":{"LocationId":"NT_62t1aob2wiu-L7rzyO03jD_0A","LocationType":"point","DisplayPosition":{"Latitude":53.57282,"Longitude":7.79027},"MapView":{"TopLeft":{"Latitude":53.5739442,"Longitude":7.7883769},"BottomRight":{"Latitude":53.5716958,"Longitude":7.7921631}},"Address":{"Label":"Focko-Ukena-Straße 4, 26409 Wittmund, Deutschland","Country":"DEU","State":"Niedersachsen","County":"Wittmund","City":"Wittmund","District":"Wittmund","Street":"Focko-Ukena-Straße","HouseNumber":"4","PostalCode":"26409","AdditionalData":[{"value":"Deutschland","key":"CountryName"},{"value":"Niedersachsen","key":"StateName"},{"value":"Wittmund","key":"CountyName"}]},"MapReference":{"ReferenceId":"1114965780","Spot":0.91,"SideOfStreet":"left","CountryId":"20147700","StateId":"20151542","CountyId":"20157245","CityId":"20157323","DistrictId":"20157330","AddressId":"177680091","RoadLinkId":"424914991"}}},{"Relevance":1.0,"Distance":86.8,"MatchLevel":"street","MatchQuality":{"Country":1.0,"State":1.0,"County":1.0,"City":1.0,"District":1.0,"PostalCode":1.0},"Location":{"LocationId":"NT_.ZsgHzOdjId.yA-xWwb2ZB_l_1115385107_L","LocationType":"point","DisplayPosition":{"Latitude":53.57291,"Longitude":7.7902},"MapView":{"TopLeft":{"Latitude":53.57292,"Longitude":7.7902},"BottomRight":{"Latitude":53.5724,"Longitude":7.79129}},"Address":{"Label":"26409 Wittmund, Deutschland","Country":"DEU","State":"Niedersachsen","County":"Wittmund","City":"Wittmund","District":"Wittmund","PostalCode":"26409","AdditionalData":[{"value":"Deutschland","key":"CountryName"},{"value":"Niedersachsen","key":"StateName"},{"value":"Wittmund","key":"CountyName"}]},"MapReference":{"ReferenceId":"1115385107","Spot":1.0,"SideOfStreet":"left","CountryId":"20147700","StateId":"20151542","CountyId":"20157245","CityId":"20157323","DistrictId":"20157330"}}},{"Relevance":1.0,"Distance":87.6,"MatchLevel":"houseNumber","MatchQuality":{"Country":1.0,"State":1.0,"County":1.0,"City":1.0,"District":1.0,"Street":[1.0],"HouseNumber":1.0,"PostalCode":1.0},"MatchType":"interpolated","Location":{"LocationId":"NT_62t1aob2wiu-L7rzyO03jD_yA","LocationType":"point","DisplayPosition":{"Latitude":53.57301,"Longitude":7.79021},"MapView":{"TopLeft":{"Latitude":53.5741342,"Longitude":7.7883168},"BottomRight":{"Latitude":53.5718858,"Longitude":7.7921032}},"Address":{"Label":"Focko-Ukena-Straße 2, 26409 Wittmund, Deutschland","Country":"DEU","State":"Niedersachsen","County":"Wittmund","City":"Wittmund","District":"Wittmund","Street":"Focko-Ukena-Straße","HouseNumber":"2","PostalCode":"26409","AdditionalData":[{"value":"Deutschland","key":"CountryName"},{"value":"Niedersachsen","key":"StateName"},{"value":"Wittmund","key":"CountyName"}]},"MapReference":{"ReferenceId":"1114965781","Spot":0.31,"SideOfStreet":"left","CountryId":"20147700","StateId":"20151542","CountyId":"20157245","CityId":"20157323","DistrictId":"20157330","AddressId":"180752945","RoadLinkId":"424914992"}}},{"Relevance":1.0,"Distance":97.5,"MatchLevel":"houseNumber","MatchQuality":{"Country":1.0,"State":1.0,"County":1.0,"City":1.0,"District":1.0,"Street":[1.0],"HouseNumber":1.0,"PostalCode":1.0},"MatchType":"interpolated","Location":{"LocationId":"NT_PTm69C0dDX2oqNENyCJmwA_5A","LocationType":"point","DisplayPosition":{"Latitude":53.57322,"Longitude":7.7891},"MapView":{"TopLeft":{"Latitude":53.5743442,"Longitude":7.7872068},"BottomRight":{"Latitude":53.5720958,"Longitude":7.7909932}},"Address":{"Label":"Dohuser Weg 9, 26409 Wittmund, Deutschland","Country":"DEU","State":"Niedersachsen","County":"Wittmund","City":"Wittmund","District":"Wittmund","Street":"Dohuser Weg","HouseNumber":"9","PostalCode":"26409","AdditionalData":[{"value":"Deutschland","key":"CountryName"},{"value":"Niedersachsen","key":"StateName"},{"value":"Wittmund","key":"CountyName"}]},"MapReference":{"ReferenceId":"779050994","Spot":0.15,"SideOfStreet":"right","CountryId":"20147700","StateId":"20151542","CountyId":"20157245","CityId":"20157323","DistrictId":"20157330","AddressId":"179302400","RoadLinkId":"172547176"}}},{"Relevance":1.0,"Distance":97.9,"MatchLevel":"street","MatchQuality":{"Country":1.0,"State":1.0,"County":1.0,"City":1.0,"District":1.0,"PostalCode":1.0},"Location":{"LocationId":"NT_.ZsgHzOdjId.yA-xWwb2ZB_l_586507414_R","LocationType":"point","DisplayPosition":{"Latitude":53.57249,"Longitude":7.78782},"MapView":{"TopLeft":{"Latitude":53.57249,"Longitude":7.78762},"BottomRight":{"Latitude":53.57245,"Longitude":7.78782}},"Address":{"Label":"26409 Wittmund, Deutschland","Country":"DEU","State":"Niedersachsen","County":"Wittmund","City":"Wittmund","District":"Wittmund","PostalCode":"26409","AdditionalData":[{"value":"Deutschland","key":"CountryName"},{"value":"Niedersachsen","key":"StateName"},{"value":"Wittmund","key":"CountyName"}]},"MapReference":{"ReferenceId":"586507414","Spot":1.0,"SideOfStreet":"right","CountryId":"20147700","StateId":"20151542","CountyId":"20157245","CityId":"20157323","DistrictId":"20157330"}}},{"Relevance":1.0,"Distance":97.9,"MatchLevel":"street","MatchQuality":{"Country":1.0,"State":1.0,"County":1.0,"City":1.0,"District":1.0,"PostalCode":1.0},"Location":{"LocationId":"NT_.ZsgHzOdjId.yA-xWwb2ZB_l_586507415_R","LocationType":"point","DisplayPosition":{"Latitude":53.57249,"Longitude":7.78782},"MapView":{"TopLeft":{"Latitude":53.57291,"Longitude":7.78755},"BottomRight":{"Latitude":53.57249,"Longitude":7.78782}},"Address":{"Label":"26409 Wittmund, Deutschland","Country":"DEU","State":"Niedersachsen","County":"Wittmund","City":"Wittmund","District":"Wittmund","PostalCode":"26409","AdditionalData":[{"value":"Deutschland","key":"CountryName"},{"value":"Niedersachsen","key":"StateName"},{"value":"Wittmund","key":"CountyName"}]},"MapReference":{"ReferenceId":"586507415","Spot":0.0,"SideOfStreet":"right","CountryId":"20147700","StateId":"20151542","CountyId":"20157245","CityId":"20157323","DistrictId":"20157330"}}},{"Relevance":1.0,"Distance":97.9,"MatchLevel":"houseNumber","MatchQuality":{"Country":1.0,"State":1.0,"County":1.0,"City":1.0,"District":1.0,"Street":[1.0],"HouseNumber":1.0,"PostalCode":1.0},"MatchType":"interpolated","Location":{"LocationId":"NT_PTm69C0dDX2oqNENyCJmwA_5EE","LocationType":"point","DisplayPosition":{"Latitude":53.57322,"Longitude":7.78951},"MapView":{"TopLeft":{"Latitude":53.5743442,"Longitude":7.7876168},"BottomRight":{"Latitude":53.5720958,"Longitude":7.7914032}},"Address":{"Label":"Dohuser Weg 9A, 26409 Wittmund, Deutschland","Country":"DEU","State":"Niedersachsen","County":"Wittmund","City":"Wittmund","District":"Wittmund","Street":"Dohuser Weg","HouseNumber":"9A","PostalCode":"26409","AdditionalData":[{"value":"Deutschland","key":"CountryName"},{"value":"Niedersachsen","key":"StateName"},{"value":"Wittmund","key":"CountyName"}]},"MapReference":{"ReferenceId":"779050993","Spot":0.17,"SideOfStreet":"left","CountryId":"20147700","StateId":"20151542","CountyId":"20157245","CityId":"20157323","DistrictId":"20157330","AddressId":"177703887","RoadLinkId":"172547175"}}}]}]}}