{"Response":{"MetaInfo":{"Timestamp":"2020-03-28T09:51:27.548+0000","NextPageInformation":"2"},"View":[{"_type":"SearchResultsViewType","ViewId":0,"Result":[{"Relevance":1.0,"Distance":0.0,"Direction":0.0,"MatchLevel":"district","MatchQuality":{"Country":1.0,"State":1.0,"County":1.0,"City":1.0,"District":1.0,"PostalCode":1.0},"Location":{"LocationId":"NT_Y4Kbu9CNVEo8v1Yep2p1kB","LocationType":"point","DisplayPosition":{"Latitude":53.5431139,"Longitude":-2.3830766},"MapView":{"TopLeft":{"Latitude":53.55036,"Longitude":-2.39102},"BottomRight":{"Latitude":53.52988,"Longitude":-2.34799}},"Address":{"Label":"Kearsley, Bolton, England, United Kingdom","Country":"GBR","State":"England","County":"Lancashire","City":"Bolton","District":"Kearsley","PostalCode":"BL4 8","AdditionalData":[{"value":"United Kingdom","key":"CountryName"},{"value":"England","key":"StateName"},{"value":"Lancashire","key":"CountyName"}]},"MapReference":{"ReferenceId":"1218478100","SideOfStreet":"neither","StateId":"20248595","CountyId":"20343938","CityId":"20343985","DistrictId":"20343998"}}},{"Relevance":1.0,"Distance":14.2,"MatchLevel":"houseNumber","MatchQuality":{"Country":1.0,"State":1.0,"County":1.0,"City":1.0,"District":1.0,"Street":[1.0],"HouseNumber":1.0,"PostalCode":1.0},"MatchType":"interpolated","Location":{"LocationId":"NT_00gMf2C-J8HgSPGwR.2CoD_l_27179361_L_zA","LocationType":"point","DisplayPosition":{"Latitude":53.5428761,"Longitude":-2.382899},"MapView":{"TopLeft":{"Latitude":53.5440003,"Longitude":-2.3847908},"BottomRight":{"Latitude":53.541752,"Longitude":-2.3810072}},"Address":{"Label":"3 Jackson Street, Bolton, BL4 8DH, United Kingdom","Country":"GBR","State":"England","County":"Lancashire","City":"Bolton","District":"Kearsley","Street":"Jackson Street","HouseNumber":"3","PostalCode":"BL4 8DH","AdditionalData":[{"value":"United Kingdom","key":"CountryName"},{"value":"England","key":"StateName"},{"value":"Lancashire","key":"CountyName"}]},"MapReference":{"ReferenceId":"27179361","Spot":0.49,"SideOfStreet":"left","StateId":"20248595","CountyId":"20343938","CityId":"20343985","DistrictId":"20343998"}}},{"Relevance":1.0,"Distance":27.9,"MatchLevel":"postalCode","MatchQuality":{"PostalCode":1.0},"MatchType":"interpolated","Location":{"LocationId":"NT_00gMf2C-J8HgSPGwR.2CoD_l_27179361_L_zA","LocationType":"point","DisplayPosition":{"Latitude":53.54318,"Longitude":-2.38267},"MapView":{"TopLeft":{"Latitude":53.5521732,"Longitude":-2.3978046},"BottomRight":{"Latitude":53.5341868,"Longitude":-2.3675354}},"Address":{"Label":"BL4 8EP, Bolton, England, United Kingdom","Country":"GBR","State":"England","County":"Lancashire","City":"Bolton","PostalCode":"BL4 8EP","AdditionalData":[{"value":"United Kingdom","key":"CountryName"},{"value":"England","key":"StateName"},{"value":"Lancashire","key":"CountyName"}]},"MapReference":{"ReferenceId":"27179361","Spot":0.49,"SideOfStreet":"neither","StateId":"20248595","CountyId":"20343938","CityId":"20343985"}}},{"Relevance":1.0,"Distance":31.1,"MatchLevel":"houseNumber","MatchQuality":{"Country":1.0,"State":1.0,"County":1.0,"City":1.0,"District":1.0,"Street":[1.0],"HouseNumber":1.0,"PostalCode":1.0},"MatchType":"interpolated","Location":{"LocationId":"NT_lXIJhiIjjf338jx7Mx4JgC_l_778524505_L_0AD","LocationType":"point","DisplayPosition":{"Latitude":53.5434975,"Longitude":-2.3828225},"MapView":{"TopLeft":{"Latitude":53.5446217,"Longitude":-2.3847144},"BottomRight":{"Latitude":53.5423734,"Longitude":-2.3809307}},"Address":{"Label":"40 Oakes Street, Bolton, BL4 8, United Kingdom","Country":"GBR","State":"England","County":"Lancashire","City":"Bolton","District":"Kearsley","Street":"Oakes Street","HouseNumber":"40","PostalCode":"BL4 8","AdditionalData":[{"value":"United Kingdom","key":"CountryName"},{"value":"England","key":"StateName"},{"value":"Lancashire","key":"CountyName"}]},"MapReference":{"ReferenceId":"778524505","Spot":0.33,"SideOfStreet":"left","StateId":"20248595","CountyId":"20343938","CityId":"20343985","DistrictId":"20343998"}}},{"Relevance":1.0,"Distance":40.5,"MatchLevel":"postalCode","MatchQuality":{"PostalCode":1.0},"MatchType":"interpolated","Location":{"LocationId":"NT_lXIJhiIjjf338jx7Mx4JgC_l_778524505_L_0AD","LocationType":"point","DisplayPosition":{"Latitude":53.54345,"Longitude":-2.38284},"MapView":{"TopLeft":{"Latitude":53.5524432,"Longitude":-2.3979747},"BottomRight":{"Latitude":53.5344568,"Longitude":-2.3677053}},"Address":{"Label":"BL4 8DJ, Bolton, England, United Kingdom","Country":"GBR","State":"England","County":"Lancashire","City":"Bolton","PostalCode":"BL4 8DJ","AdditionalData":[{"value":"United Kingdom","key":"CountryName"},{"value":"England","key":"StateName"},{"value":"Lancashire","key":"CountyName"}]},"MapReference":{"ReferenceId":"778524505","Spot":0.33,"SideOfStreet":"neither","StateId":"20248595","CountyId":"20343938","CityId":"20343985"}}},{"Relevance":1.0,"Distance":44.1,"MatchLevel":"postalCode","MatchQuality":{"PostalCode":1.0},"MatchType":"interpolated","Location":{"LocationId":"NT_JmErEdGGtpBa36l8F2Jq0B_l_27178870_R_xAD","LocationType":"point","DisplayPosition":{"Latitude":53.54316,"Longitude":-2.38374},"MapView":{"TopLeft":{"Latitude":53.5521532,"Longitude":-2.3988746},"BottomRight":{"Latitude":53.5341668,"Longitude":-2.3686054}},"Address":{"Label":"BL4 8DQ, Bolton, England, United Kingdom","Country":"GBR","State":"England","County":"Lancashire","City":"Bolton","PostalCode":"BL4 8DQ","AdditionalData":[{"value":"United Kingdom","key":"CountryName"},{"value":"England","key":"StateName"},{"value":"Lancashire","key":"CountyName"}]},"MapReference":{"ReferenceId":"27178870","Spot":0.24,"SideOfStreet":"neither","StateId":"20248595","CountyId":"20343938","CityId":"20343985"}}},{"Relevance":1.0,"Distance":49.6,"MatchLevel":"street","MatchQuality":{"Country":1.0,"State":1.0,"County":1.0,"City":1.0,"District":1.0,"Street":[1.0],"PostalCode":1.0},"Location":{"LocationId":"NT_lXIJhiIjjf338jx7Mx4JgC_l_27178755_L","LocationType":"point","DisplayPosition":{"Latitude":53.54336,"Longitude":-2.38245},"MapView":{"TopLeft":{"Latitude":53.54336,"Longitude":-2.38245},"BottomRight":{"Latitude":53.5433,"Longitude":-2.38239}},"Address":{"Label":"Oakes Street, Bolton, BL4 8, United Kingdom","Country":"GBR","State":"England","County":"Lancashire","City":"Bolton","District":"Kearsley","Street":"Oakes Street","PostalCode":"BL4 8","AdditionalData":[{"value":"United Kingdom","key":"CountryName"},{"value":"England","key":"StateName"},{"value":"Lancashire","key":"CountyName"}]},"MapReference":{"ReferenceId":"27178755","Spot":1.0,"SideOfStreet":"left","StateId":"20248595","CountyId":"20343938","CityId":"20343985","DistrictId":"20343998"}}},{"Relevance":1.0,"Distance":54.9,"MatchLevel":"houseNumber","MatchQuality":{"Country":1.0,"State":1.0,"County":1.0,"City":1.0,"District":1.0,"Street":[1.0],"HouseNumber":1.0,"PostalCode":1.0},"MatchType":"interpolated","Location":{"LocationId":"NT_JmErEdGGtpBa36l8F2Jq0B_l_27178870_R_xAD","LocationType":"point","DisplayPosition":{"Latitude":53.54324,"Longitude":-2.3838801},"MapView":{"TopLeft":{"Latitude":53.5443642,"Longitude":-2.3857719},"BottomRight":{"Latitude":53.5421159,"Longitude":-2.3819883}},"Address":{"Label":"10 Ruskin Avenue, Bolton, BL4 8DQ, United Kingdom","Country":"GBR","State":"England","County":"Lancashire","City":"Bolton","District":"Kearsley","Street":"Ruskin Avenue","HouseNumber":"10","PostalCode":"BL4 8DQ","AdditionalData":[{"value":"United Kingdom","key":"CountryName"},{"value":"England","key":"StateName"},{"value":"Lancashire","key":"CountyName"}]},"MapReference":{"ReferenceId":"27178870","Spot":0.24,"SideOfStreet":"right","StateId":"20248595","CountyId":"20343938","CityId":"20343985","DistrictId":"20343998"}}},{"Relevance":1.0,"Distance":60.1,"MatchLevel":"houseNumber","MatchQuality":{"Country":1.0,"State":1.0,"County":1.0,"City":1.0,"District":1.0,"Street":[1.0],"HouseNumber":1.0,"PostalCode":1.0},"MatchType":"interpolated","Location":{"LocationId":"NT_lXIJhiIjjf338jx7Mx4JgC_l_27179042_L_0QD","LocationType":"point","DisplayPosition":{"Latitude":53.5431785,"Longitude":-2.3821213},"MapView":{"TopLeft":{"Latitude":53.5443027,"Longitude":-2.3840131},"BottomRight":{"Latitude":53.5420544,"Longitude":-2.3802294}},"Address":{"Label":"44 Oakes Street, Bolton, BL4 8, United Kingdom","Country":"GBR","State":"England","County":"Lancashire","City":"Bolton","District":"Kearsley","Street":"Oakes Street","HouseNumber":"44","PostalCode":"BL4 8","AdditionalData":[{"value":"United Kingdom","key":"CountryName"},{"value":"England","key":"StateName"},{"value":"Lancashire","key":"CountyName"}]},"MapReference":{"ReferenceId":"27179042","Spot":0.62,"SideOfStreet":"left","StateId":"20248595","CountyId":"20343938","CityId":"20343985","DistrictId":"20343998"}}},{"Relevance":1.0,"Distance":60.7,"MatchLevel":"houseNumber","MatchQuality":{"Country":1.0,"State":1.0,"County":1.0,"City":1.0,"District":1.0,"Street":[1.0],"HouseNumber":1.0,"PostalCode":1.0},"MatchType":"interpolated","Location":{"LocationId":"NT_ApcFcHgJYcgv80wPYdjhqB_l_27178721_R_yA","LocationType":"point","DisplayPosition":{"Latitude":53.54341,"Longitude":-2.3822299},"MapView":{"TopLeft":{"Latitude":53.5445342,"Longitude":-2.3841217},"BottomRight":{"Latitude":53.5422859,"Longitude":-2.3803381}},"Address":{"Label":"2 Roosevelt Road, Bolton, BL4 8EA, United Kingdom","Country":"GBR","State":"England","County":"Lancashire","City":"Bolton","District":"Kearsley","Street":"Roosevelt Road","HouseNumber":"2","PostalCode":"BL4 8EA","AdditionalData":[{"value":"United Kingdom","key":"CountryName"},{"value":"England","key":"StateName"},{"value":"Lancashire","key":"CountyName"}]},"MapReference":{"ReferenceId":"27178721","Spot":0.15,"SideOfStreet":"right","StateId":"20248595","CountyId":"20343938","CityId":"20343985","DistrictId":"20343998"}}}]}]}}