{"Response":{"MetaInfo":{"Timestamp":"2020-03-28T11:59:40.180+0000","NextPageInformation":"2"},"View":[{"_type":"SearchResultsViewType","ViewId":0,"Result":[{"Relevance":1.0,"Distance":0.0,"Direction":0.0,"MatchLevel":"district","MatchQuality":{"Country":1.0,"State":1.0,"County":1.0,"City":1.0,"District":1.0,"PostalCode":1.0},"Location":{"LocationId":"NT_z87SMWB7W2OWiTaqOjgzUA","LocationType":"point","DisplayPosition":{"Latitude":53.5452583,"Longitude":-2.4711322},"MapView":{"TopLeft":{"Latitude":53.54957,"Longitude":-2.47966},"BottomRight":{"Latitude":53.53839,"Longitude":-2.4625}},"Address":{"Label":"Over Hulton, Bolton, England, United Kingdom","Country":"GBR","State":"England","County":"Lancashire","City":"Bolton","District":"Over Hulton","PostalCode":"BL5 1","AdditionalData":[{"value":"United Kingdom","key":"CountryName"},{"value":"England","key":"StateName"},{"value":"Lancashire","key":"CountyName"}]},"MapReference":{"ReferenceId":"1218485143","SideOfStreet":"neither","StateId":"20248595","CountyId":"20343938","CityId":"20343985","DistrictId":"20344001"}}},{"Relevance":1.0,"Distance":34.4,"MatchLevel":"houseNumber","MatchQuality":{"Country":1.0,"State":1.0,"County":1.0,"City":1.0,"District":1.0,"Street":[1.0],"HouseNumber":1.0,"PostalCode":1.0},"MatchType":"interpolated","Location":{"LocationId":"NT_M5d57MvCSOzoaMpcMfXb9D_l_1218485142_L_1YD","LocationType":"point","DisplayPosition":{"Latitude":53.5450057,"Longitude":-2.4705302},"MapView":{"TopLeft":{"Latitude":53.5461299,"Longitude":-2.4724221},"BottomRight":{"Latitude":53.5438816,"Longitude":-2.4686383}},"Address":{"Label":"56 Newbrook Road, Bolton, BL5 1ER, United Kingdom","Country":"GBR","State":"England","County":"Lancashire","City":"Bolton","District":"Over Hulton","Street":"Newbrook Road","HouseNumber":"56","PostalCode":"BL5 1ER","AdditionalData":[{"value":"United Kingdom","key":"CountryName"},{"value":"England","key":"StateName"},{"value":"Lancashire","key":"CountyName"}]},"MapReference":{"ReferenceId":"1218485142","Spot":0.7,"SideOfStreet":"left","StateId":"20248595","CountyId":"20343938","CityId":"20343985","DistrictId":"20344001"}}},{"Relevance":1.0,"Distance":43.3,"MatchLevel":"houseNumber","MatchQuality":{"Country":1.0,"State":1.0,"County":1.0,"City":1.0,"District":1.0,"Street":[1.0],"HouseNumber":1.0,"PostalCode":1.0},"MatchType":"interpolated","Location":{"LocationId":"NT_WmP3g0fzYuhQrDfTkGoBUC_l_27177258_L_0gD","LocationType":"point","DisplayPosition":{"Latitude":53.5454572,"Longitude":-2.4716957},"MapView":{"TopLeft":{"Latitude":53.5465813,"Longitude":-2.4735876},"BottomRight":{"Latitude":53.544333,"Longitude":-2.4698038}},"Address":{"Label":"48 Rutherford Drive, Bolton, BL5 1DX, United Kingdom","Country":"GBR","State":"England","County":"Lancashire","City":"Bolton","District":"Over Hulton","Street":"Rutherford Drive","HouseNumber":"48","PostalCode":"BL5 1DX","AdditionalData":[{"value":"United Kingdom","key":"CountryName"},{"value":"England","key":"StateName"},{"value":"Lancashire","key":"CountyName"}]},"MapReference":{"ReferenceId":"27177258","Spot":0.24,"SideOfStreet":"left","StateId":"20248595","CountyId":"20343938","CityId":"20343985","DistrictId":"20344001"}}},{"Relevance":1.0,"Distance":51.5,"MatchLevel":"postalCode","MatchQuality":{"PostalCode":1.0},"MatchType":"interpolated","Location":{"LocationId":"NT_WmP3g0fzYuhQrDfTkGoBUC_l_27177258_L_0gD","LocationType":"point","DisplayPosition":{"Latitude":53.54561,"Longitude":-2.47164},"MapView":{"TopLeft":{"Latitude":53.5546032,"Longitude":-2.4867754},"BottomRight":{"Latitude":53.5366168,"Longitude":-2.4565046}},"Address":{"Label":"BL5 1DX, Bolton, England, United Kingdom","Country":"GBR","State":"England","County":"Lancashire","City":"Bolton","PostalCode":"BL5 1DX","AdditionalData":[{"value":"United Kingdom","key":"CountryName"},{"value":"England","key":"StateName"},{"value":"Lancashire","key":"CountyName"}]},"MapReference":{"ReferenceId":"27177258","Spot":0.24,"SideOfStreet":"neither","StateId":"20248595","CountyId":"20343938","CityId":"20343985"}}},{"Relevance":1.0,"Distance":52.4,"MatchLevel":"houseNumber","MatchQuality":{"Country":1.0,"State":1.0,"County":1.0,"City":1.0,"District":1.0,"Street":[1.0],"HouseNumber":1.0,"PostalCode":1.0},"MatchType":"interpolated","Location":{"LocationId":"NT_M5d57MvCSOzoaMpcMfXb9D_l_1218485143_L_1AD","LocationType":"point","DisplayPosition":{"Latitude":53.54533,"Longitude":-2.47028},"MapView":{"TopLeft":{"Latitude":53.5464542,"Longitude":-2.4721719},"BottomRight":{"Latitude":53.5442059,"Longitude":-2.4683881}},"Address":{"Label":"50 Newbrook Road, Bolton, BL5 1ER, United Kingdom","Country":"GBR","State":"England","County":"Lancashire","City":"Bolton","District":"Over Hulton","Street":"Newbrook Road","HouseNumber":"50","PostalCode":"BL5 1ER","AdditionalData":[{"value":"United Kingdom","key":"CountryName"},{"value":"England","key":"StateName"},{"value":"Lancashire","key":"CountyName"}]},"MapReference":{"ReferenceId":"1218485143","Spot":0.0,"SideOfStreet":"left","StateId":"20248595","CountyId":"20343938","CityId":"20343985","DistrictId":"20344001"}}},{"Relevance":1.0,"Distance":56.6,"MatchLevel":"postalCode","MatchQuality":{"PostalCode":1.0},"MatchType":"interpolated","Location":{"LocationId":"NT_M5d57MvCSOzoaMpcMfXb9D_l_1218485142_L_1YD","LocationType":"point","DisplayPosition":{"Latitude":53.54489,"Longitude":-2.47054},"MapView":{"TopLeft":{"Latitude":53.5538832,"Longitude":-2.4856752},"BottomRight":{"Latitude":53.5358968,"Longitude":-2.4554048}},"Address":{"Label":"BL5 1ES, Bolton, England, United Kingdom","Country":"GBR","State":"England","County":"Lancashire","City":"Bolton","PostalCode":"BL5 1ES","AdditionalData":[{"value":"United Kingdom","key":"CountryName"},{"value":"England","key":"StateName"},{"value":"Lancashire","key":"CountyName"}]},"MapReference":{"ReferenceId":"1218485142","Spot":0.7,"SideOfStreet":"neither","StateId":"20248595","CountyId":"20343938","CityId":"20343985"}}},{"Relevance":1.0,"Distance":62.3,"MatchLevel":"houseNumber","MatchQuality":{"Country":1.0,"State":1.0,"County":1.0,"City":1.0,"District":1.0,"Street":[1.0],"HouseNumber":1.0,"PostalCode":1.0},"MatchType":"interpolated","Location":{"LocationId":"NT_WmP3g0fzYuhQrDfTkGoBUC_l_27178200_R_3UD","LocationType":"point","DisplayPosition":{"Latitude":53.5450429,"Longitude":-2.4720276},"MapView":{"TopLeft":{"Latitude":53.546167,"Longitude":-2.4739195},"BottomRight":{"Latitude":53.5439187,"Longitude":-2.4701356}},"Address":{"Label":"75 Rutherford Drive, Bolton, BL5 1, United Kingdom","Country":"GBR","State":"England","County":"Lancashire","City":"Bolton","District":"Over Hulton","Street":"Rutherford Drive","HouseNumber":"75","PostalCode":"BL5 1","AdditionalData":[{"value":"United Kingdom","key":"CountryName"},{"value":"England","key":"StateName"},{"value":"Lancashire","key":"CountyName"}]},"MapReference":{"ReferenceId":"27178200","Spot":0.88,"SideOfStreet":"right","StateId":"20248595","CountyId":"20343938","CityId":"20343985","DistrictId":"20344001"}}},{"Relevance":1.0,"Distance":63.3,"MatchLevel":"houseNumber","MatchQuality":{"Country":1.0,"State":1.0,"County":1.0,"City":1.0,"District":1.0,"Street":[1.0],"HouseNumber":1.0,"PostalCode":1.0},"MatchType":"interpolated","Location":{"LocationId":"NT_ruxEuFGVG1EFvfNCbn09.C_l_27177259_R_ycD","LocationType":"point","DisplayPosition":{"Latitude":53.54525,"Longitude":-2.4720902},"MapView":{"TopLeft":{"Latitude":53.5463742,"Longitude":-2.4739821},"BottomRight":{"Latitude":53.5441259,"Longitude":-2.4701983}},"Address":{"Label":"27 Butterfield Road, Bolton, BL5 1, United Kingdom","Country":"GBR","State":"England","County":"Lancashire","City":"Bolton","District":"Over Hulton","Street":"Butterfield Road","HouseNumber":"27","PostalCode":"BL5 1","AdditionalData":[{"value":"United Kingdom","key":"CountryName"},{"value":"England","key":"StateName"},{"value":"Lancashire","key":"CountyName"}]},"MapReference":{"ReferenceId":"27177259","Spot":0.08,"SideOfStreet":"right","StateId":"20248595","CountyId":"20343938","CityId":"20343985","DistrictId":"20344001"}}},{"Relevance":1.0,"Distance":78.9,"MatchLevel":"street","MatchQuality":{"Country":1.0,"State":1.0,"County":1.0,"City":1.0,"District":1.0,"Street":[1.0],"PostalCode":1.0},"Location":{"LocationId":"NT_DJWvk2sKOx0FBjskNFe4AB_l_866129310_L","LocationType":"point","DisplayPosition":{"Latitude":53.54557,"Longitude":-2.47006},"MapView":{"TopLeft":{"Latitude":53.54557,"Longitude":-2.47006},"BottomRight":{"Latitude":53.54545,"Longitude":-2.46952}},"Address":{"Label":"Geoffrey Street, Bolton, BL5 1, United Kingdom","Country":"GBR","State":"England","County":"Lancashire","City":"Bolton","District":"Over Hulton","Street":"Geoffrey Street","PostalCode":"BL5 1","AdditionalData":[{"value":"United Kingdom","key":"CountryName"},{"value":"England","key":"StateName"},{"value":"Lancashire","key":"CountyName"}]},"MapReference":{"ReferenceId":"866129310","Spot":1.0,"SideOfStreet":"left","StateId":"20248595","CountyId":"20343938","CityId":"20343985","DistrictId":"20344001"}}},{"Relevance":1.0,"Distance":88.0,"MatchLevel":"houseNumber","MatchQuality":{"Country":1.0,"State":1.0,"County":1.0,"City":1.0,"District":1.0,"Street":[1.0],"HouseNumber":1.0,"PostalCode":1.0},"MatchType":"interpolated","Location":{"LocationId":"NT_9chMWCPuh3i-buEbN5AaqC_l_27176686_L_zID","LocationType":"point","DisplayPosition":{"Latitude":53.54617,"Longitude":-2.4713802},"MapView":{"TopLeft":{"Latitude":53.5472942,"Longitude":-2.4732722},"BottomRight":{"Latitude":53.5450459,"Longitude":-2.4694883}},"Address":{"Label":"32 Braddyll Road, Bolton, BL5 1, United Kingdom","Country":"GBR","State":"England","County":"Lancashire","City":"Bolton","District":"Over Hulton","Street":"Braddyll Road","HouseNumber":"32","PostalCode":"BL5 1","AdditionalData":[{"value":"United Kingdom","key":"CountryName"},{"value":"England","key":"StateName"},{"value":"Lancashire","key":"CountyName"}]},"MapReference":{"ReferenceId":"27176686","Spot":0.07,"SideOfStreet":"left","StateId":"20248595","CountyId":"20343938","CityId":"20343985","DistrictId":"20344001"}}}]}]}}