{"Response":{"MetaInfo":{"Timestamp":"2020-03-28T11:15:20.269+0000","NextPageInformation":"2"},"View":[{"_type":"SearchResultsViewType","ViewId":0,"Result":[{"Relevance":1.0,"Distance":0.0,"Direction":0.0,"MatchLevel":"district","MatchQuality":{"Country":1.0,"State":1.0,"County":1.0,"City":1.0,"District":1.0,"PostalCode":1.0},"Location":{"LocationId":"NT_B.EKKlfI9POCfbmJQJHIpD","LocationType":"point","DisplayPosition":{"Latitude":53.5589776,"Longitude":-1.5029604},"MapView":{"TopLeft":{"Latitude":53.56573,"Longitude":-1.5162},"BottomRight":{"Latitude":53.55489,"Longitude":-1.49642}},"Address":{"Label":"Gawber, Barnsley, England, United Kingdom","Country":"GBR","State":"England","County":"South Yorkshire","City":"Barnsley","District":"Gawber","PostalCode":"S75 2","AdditionalData":[{"value":"United Kingdom","key":"CountryName"},{"value":"England","key":"StateName"},{"value":"South Yorkshire","key":"CountyName"}]},"MapReference":{"ReferenceId":"763555183","SideOfStreet":"neither","StateId":"20248595","CountyId":"20344788","CityId":"20344789","DistrictId":"20344804"}}},{"Relevance":1.0,"Distance":21.9,"MatchLevel":"landmark","MatchQuality":{"Country":1.0,"State":1.0,"County":1.0,"City":1.0,"District":1.0,"PostalCode":1.0,"Name":1.0},"Location":{"LocationId":"NT_erwA6lO5e-f17x4tQ1-V7B_p_AuI8E9qdhXwuZgMpvJKI5C","LocationType":"hospital","Name":"Barnsley District General Hospital","DisplayPosition":{"Latitude":53.559,"Longitude":-1.49821},"MapView":{"TopLeft":{"Latitude":53.56003,"Longitude":-1.50282},"BottomRight":{"Latitude":53.55653,"Longitude":-1.49642}},"Address":{"Label":"Barnsley, S75 2, United Kingdom","Country":"GBR","State":"England","County":"South Yorkshire","City":"Barnsley","District":"Gawber","PostalCode":"S75 2","AdditionalData":[{"value":"United Kingdom","key":"CountryName"},{"value":"England","key":"StateName"},{"value":"South Yorkshire","key":"CountyName"}]},"MapReference":{"StateId":"20248595","CountyId":"20344788","CityId":"20344789","DistrictId":"20344804","PlaceId":"18166071"}}},{"Relevance":1.0,"Distance":24.9,"MatchLevel":"houseNumber","MatchQuality":{"Country":1.0,"State":1.0,"County":1.0,"City":1.0,"District":1.0,"Street":[1.0],"HouseNumber":1.0,"PostalCode":1.0},"MatchType":"interpolated","Location":{"LocationId":"NT_zsXbXACu1hbRBZWTil2L.C_l_27090349_R_zcD","LocationType":"point","DisplayPosition":{"Latitude":53.5588404,"Longitude":-1.5035142},"MapView":{"TopLeft":{"Latitude":53.5599645,"Longitude":-1.5054067},"BottomRight":{"Latitude":53.5577162,"Longitude":-1.5016217}},"Address":{"Label":"37 Vernon Way, Barnsley, S75 2NN, United Kingdom","Country":"GBR","State":"England","County":"South Yorkshire","City":"Barnsley","District":"Gawber","Street":"Vernon Way","HouseNumber":"37","PostalCode":"S75 2NN","AdditionalData":[{"value":"United Kingdom","key":"CountryName"},{"value":"England","key":"StateName"},{"value":"South Yorkshire","key":"CountyName"}]},"MapReference":{"ReferenceId":"27090349","Spot":0.88,"SideOfStreet":"right","StateId":"20248595","CountyId":"20344788","CityId":"20344789","DistrictId":"20344804"}}},{"Relevance":1.0,"Distance":36.7,"MatchLevel":"houseNumber","MatchQuality":{"Country":1.0,"State":1.0,"County":1.0,"City":1.0,"District":1.0,"Street":[1.0],"HouseNumber":1.0,"PostalCode":1.0},"MatchType":"interpolated","Location":{"LocationId":"NT_zsXbXACu1hbRBZWTil2L.C_l_27090251_R_zYD","LocationType":"point","DisplayPosition":{"Latitude":53.5591501,"Longitude":-1.50357},"MapView":{"TopLeft":{"Latitude":53.5602742,"Longitude":-1.5054626},"BottomRight":{"Latitude":53.5580259,"Longitude":-1.5016775}},"Address":{"Label":"36 Vernon Way, Barnsley, S75 2NL, United Kingdom","Country":"GBR","State":"England","County":"South Yorkshire","City":"Barnsley","District":"Gawber","Street":"Vernon Way","HouseNumber":"36","PostalCode":"S75 2NL","AdditionalData":[{"value":"United Kingdom","key":"CountryName"},{"value":"England","key":"StateName"},{"value":"South Yorkshire","key":"CountyName"}]},"MapReference":{"ReferenceId":"27090251","Spot":0.23,"SideOfStreet":"right","StateId":"20248595","CountyId":"20344788","CityId":"20344789","DistrictId":"20344804"}}},{"Relevance":1.0,"Distance":38.6,"MatchLevel":"street","MatchQuality":{"Country":1.0,"State":1.0,"County":1.0,"City":1.0,"District":1.0,"Street":[1.0],"PostalCode":1.0},"Location":{"LocationId":"NT_9.zKXCbzkNbi5f6JwfCvCA_l_27090269_R","LocationType":"point","DisplayPosition":{"Latitude":53.55902,"Longitude":-1.50354},"MapView":{"TopLeft":{"Latitude":53.55902,"Longitude":-1.50437},"BottomRight":{"Latitude":53.55895,"Longitude":-1.50354}},"Address":{"Label":"South Place, Barnsley, S75 2, United Kingdom","Country":"GBR","State":"England","County":"South Yorkshire","City":"Barnsley","District":"Gawber","Street":"South Place","PostalCode":"S75 2","AdditionalData":[{"value":"United Kingdom","key":"CountryName"},{"value":"England","key":"StateName"},{"value":"South Yorkshire","key":"CountyName"}]},"MapReference":{"ReferenceId":"27090269","Spot":1.0,"SideOfStreet":"right","StateId":"20248595","CountyId":"20344788","CityId":"20344789","DistrictId":"20344804"}}},{"Relevance":1.0,"Distance":40.4,"MatchLevel":"houseNumber","MatchQuality":{"Country":1.0,"State":1.0,"County":1.0,"City":1.0,"District":1.0,"Street":[1.0],"HouseNumber":1.0,"PostalCode":1.0},"MatchType":"interpolated","Location":{"LocationId":"NT_zQ.1KQzUQbPcuKuRplxF4D_l_27090203_R_yID","LocationType":"point","DisplayPosition":{"Latitude":53.55937,"Longitude":-1.5025398},"MapView":{"TopLeft":{"Latitude":53.5604942,"Longitude":-1.5044324},"BottomRight":{"Latitude":53.5582459,"Longitude":-1.5006473}},"Address":{"Label":"22 Oakham Place, Barnsley, S75 2ND, United Kingdom","Country":"GBR","State":"England","County":"South Yorkshire","City":"Barnsley","District":"Gawber","Street":"Oakham Place","HouseNumber":"22","PostalCode":"S75 2ND","AdditionalData":[{"value":"United Kingdom","key":"CountryName"},{"value":"England","key":"StateName"},{"value":"South Yorkshire","key":"CountyName"}]},"MapReference":{"ReferenceId":"27090203","Spot":0.27,"SideOfStreet":"right","StateId":"20248595","CountyId":"20344788","CityId":"20344789","DistrictId":"20344804"}}},{"Relevance":1.0,"Distance":57.6,"MatchLevel":"postalCode","MatchQuality":{"PostalCode":1.0},"MatchType":"interpolated","Location":{"LocationId":"NT_zsXbXACu1hbRBZWTil2L.C_l_27090349_R_zcD","LocationType":"point","DisplayPosition":{"Latitude":53.55858,"Longitude":-1.50352},"MapView":{"TopLeft":{"Latitude":53.5675732,"Longitude":-1.5186601},"BottomRight":{"Latitude":53.5495868,"Longitude":-1.4883799}},"Address":{"Label":"S75 2NN, Barnsley, England, United Kingdom","Country":"GBR","State":"England","County":"South Yorkshire","City":"Barnsley","PostalCode":"S75 2NN","AdditionalData":[{"value":"United Kingdom","key":"CountryName"},{"value":"England","key":"StateName"},{"value":"South Yorkshire","key":"CountyName"}]},"MapReference":{"ReferenceId":"27090349","Spot":0.88,"SideOfStreet":"neither","StateId":"20248595","CountyId":"20344788","CityId":"20344789"}}},{"Relevance":1.0,"Distance":74.2,"MatchLevel":"postalCode","MatchQuality":{"PostalCode":1.0},"MatchType":"interpolated","Location":{"LocationId":"NT_zQ.1KQzUQbPcuKuRplxF4D_l_27090203_R_yID","LocationType":"point","DisplayPosition":{"Latitude":53.55936,"Longitude":-1.50204},"MapView":{"TopLeft":{"Latitude":53.5683532,"Longitude":-1.5171804},"BottomRight":{"Latitude":53.5503668,"Longitude":-1.4868996}},"Address":{"Label":"S75 2ND, Barnsley, England, United Kingdom","Country":"GBR","State":"England","County":"South Yorkshire","City":"Barnsley","PostalCode":"S75 2ND","AdditionalData":[{"value":"United Kingdom","key":"CountryName"},{"value":"England","key":"StateName"},{"value":"South Yorkshire","key":"CountyName"}]},"MapReference":{"ReferenceId":"27090203","Spot":0.27,"SideOfStreet":"neither","StateId":"20248595","CountyId":"20344788","CityId":"20344789"}}},{"Relevance":1.0,"Distance":79.5,"MatchLevel":"houseNumber","MatchQuality":{"Country":1.0,"State":1.0,"County":1.0,"City":1.0,"District":1.0,"Street":[1.0],"HouseNumber":1.0,"PostalCode":1.0},"MatchType":"interpolated","Location":{"LocationId":"NT_AHN97K8.R1jwmKsIJIpEWD_l_27090193_L_3A","LocationType":"point","DisplayPosition":{"Latitude":53.55955,"Longitude":-1.50194},"MapView":{"TopLeft":{"Latitude":53.5606742,"Longitude":-1.5038326},"BottomRight":{"Latitude":53.5584259,"Longitude":-1.5000475}},"Address":{"Label":"7 Rutland Way, Barnsley, S75 2NE, United Kingdom","Country":"GBR","State":"England","County":"South Yorkshire","City":"Barnsley","District":"Gawber","Street":"Rutland Way","HouseNumber":"7","PostalCode":"S75 2NE","AdditionalData":[{"value":"United Kingdom","key":"CountryName"},{"value":"England","key":"StateName"},{"value":"South Yorkshire","key":"CountyName"}]},"MapReference":{"ReferenceId":"27090193","Spot":0.26,"SideOfStreet":"left","StateId":"20248595","CountyId":"20344788","CityId":"20344789","DistrictId":"20344804"}}},{"Relevance":1.0,"Distance":82.0,"MatchLevel":"postalCode","MatchQuality":{"PostalCode":1.0},"Location":{"LocationId":"NT_9.zKXCbzkNbi5f6JwfCvCA_l_27090269_R","LocationType":"point","DisplayPosition":{"Latitude":53.55901,"Longitude":-1.5042},"MapView":{"TopLeft":{"Latitude":53.5680032,"Longitude":-1.5193402},"BottomRight":{"Latitude":53.5500168,"Longitude":-1.4890598}},"Address":{"Label":"S75 2NP, Barnsley, England, United Kingdom","Country":"GBR","State":"England","County":"South Yorkshire","City":"Barnsley","PostalCode":"S75 2NP","AdditionalData":[{"value":"United Kingdom","key":"CountryName"},{"value":"England","key":"StateName"},{"value":"South Yorkshire","key":"CountyName"}]},"MapReference":{"ReferenceId":"27090269","Spot":1.0,"SideOfStreet":"neither","StateId":"20248595","CountyId":"20344788","CityId":"20344789"}}}]}]}}