{"Response":{"MetaInfo":{"Timestamp":"2020-03-28T11:17:13.858+0000","NextPageInformation":"2"},"View":[{"_type":"SearchResultsViewType","ViewId":0,"Result":[{"Relevance":1.0,"Distance":0.0,"Direction":0.0,"MatchLevel":"district","MatchQuality":{"Country":1.0,"State":1.0,"County":1.0,"City":1.0,"District":1.0,"PostalCode":1.0},"Location":{"LocationId":"NT_gDUoCKGo1gvA-P5R49rvdA","LocationType":"point","DisplayPosition":{"Latitude":53.5466872,"Longitude":-1.4554657},"MapView":{"TopLeft":{"Latitude":53.5891,"Longitude":-1.51946},"BottomRight":{"Latitude":53.52608,"Longitude":-1.40966}},"Address":{"Label":"Barnsley, England, United Kingdom","Country":"GBR","State":"England","County":"South Yorkshire","City":"Barnsley","District":"Barnsley","PostalCode":"S70 2","AdditionalData":[{"value":"United Kingdom","key":"CountryName"},{"value":"England","key":"StateName"},{"value":"South Yorkshire","key":"CountyName"}]},"MapReference":{"ReferenceId":"767396930","SideOfStreet":"neither","StateId":"20248595","CountyId":"20344788","CityId":"20344789","DistrictId":"20344790"}}},{"Relevance":1.0,"Distance":30.9,"MatchLevel":"houseNumber","MatchQuality":{"Country":1.0,"State":1.0,"County":1.0,"City":1.0,"District":1.0,"Street":[1.0],"HouseNumber":1.0,"PostalCode":1.0},"MatchType":"interpolated","Location":{"LocationId":"NT_4K4SpGNkl2OQmz6joHCyEB_l_1148628722_R_zMjN","LocationType":"point","DisplayPosition":{"Latitude":53.5467612,"Longitude":-1.4559163},"MapView":{"TopLeft":{"Latitude":53.5478853,"Longitude":-1.4578083},"BottomRight":{"Latitude":53.545637,"Longitude":-1.4540243}},"Address":{"Label":"336 Doncaster Road, Barnsley, S70 3RD, United Kingdom","Country":"GBR","State":"England","County":"South Yorkshire","City":"Barnsley","District":"Barnsley","Street":"Doncaster Road","HouseNumber":"336","PostalCode":"S70 3RD","AdditionalData":[{"value":"United Kingdom","key":"CountryName"},{"value":"England","key":"StateName"},{"value":"South Yorkshire","key":"CountyName"}]},"MapReference":{"ReferenceId":"1148628722","Spot":0.5,"SideOfStreet":"right","StateId":"20248595","CountyId":"20344788","CityId":"20344789","DistrictId":"20344790"}}},{"Relevance":1.0,"Distance":51.2,"MatchLevel":"street","MatchQuality":{"Country":1.0,"State":1.0,"County":1.0,"City":1.0,"District":1.0,"Street":[1.0],"PostalCode":1.0},"Location":{"LocationId":"NT_.YkxLReJANMrU.cIN5v4dC_l_709830874_R","LocationType":"point","DisplayPosition":{"Latitude":53.5471473,"Longitude":-1.4554876},"MapView":{"TopLeft":{"Latitude":53.54717,"Longitude":-1.45564},"BottomRight":{"Latitude":53.54714,"Longitude":-1.45438}},"Address":{"Label":"Old Oaks View, Barnsley, S70 3, United Kingdom","Country":"GBR","State":"England","County":"South Yorkshire","City":"Barnsley","District":"Barnsley","Street":"Old Oaks View","PostalCode":"S70 3","AdditionalData":[{"value":"United Kingdom","key":"CountryName"},{"value":"England","key":"StateName"},{"value":"South Yorkshire","key":"CountyName"}]},"MapReference":{"ReferenceId":"709830874","Spot":0.12,"SideOfStreet":"right","StateId":"20248595","CountyId":"20344788","CityId":"20344789","DistrictId":"20344790"}}},{"Relevance":1.0,"Distance":56.1,"MatchLevel":"postalCode","MatchQuality":{"PostalCode":1.0},"Location":{"LocationId":"NT_.YkxLReJANMrU.cIN5v4dC_l_709830874_R","LocationType":"point","DisplayPosition":{"Latitude":53.54718,"Longitude":-1.45565},"MapView":{"TopLeft":{"Latitude":53.5561732,"Longitude":-1.470786},"BottomRight":{"Latitude":53.5381868,"Longitude":-1.440514}},"Address":{"Label":"S70 3RE, Barnsley, England, United Kingdom","Country":"GBR","State":"England","County":"South Yorkshire","City":"Barnsley","PostalCode":"S70 3RE","AdditionalData":[{"value":"United Kingdom","key":"CountryName"},{"value":"England","key":"StateName"},{"value":"South Yorkshire","key":"CountyName"}]},"MapReference":{"ReferenceId":"709830874","Spot":0.12,"SideOfStreet":"neither","StateId":"20248595","CountyId":"20344788","CityId":"20344789"}}},{"Relevance":1.0,"Distance":71.4,"MatchLevel":"street","MatchQuality":{"Country":1.0,"State":1.0,"County":1.0,"City":1.0,"District":1.0,"Street":[1.0],"PostalCode":1.0},"Location":{"LocationId":"NT_.YkxLReJANMrU.cIN5v4dC_l_585770800_L","LocationType":"point","DisplayPosition":{"Latitude":53.54675,"Longitude":-1.45439},"MapView":{"TopLeft":{"Latitude":53.54714,"Longitude":-1.45439},"BottomRight":{"Latitude":53.54675,"Longitude":-1.45438}},"Address":{"Label":"Old Oaks View, Barnsley, S70 3, United Kingdom","Country":"GBR","State":"England","County":"South Yorkshire","City":"Barnsley","District":"Barnsley","Street":"Old Oaks View","PostalCode":"S70 3","AdditionalData":[{"value":"United Kingdom","key":"CountryName"},{"value":"England","key":"StateName"},{"value":"South Yorkshire","key":"CountyName"}]},"MapReference":{"ReferenceId":"585770800","Spot":0.0,"SideOfStreet":"left","StateId":"20248595","CountyId":"20344788","CityId":"20344789","DistrictId":"20344790"}}},{"Relevance":1.0,"Distance":75.5,"MatchLevel":"postalCode","MatchQuality":{"PostalCode":1.0},"MatchType":"interpolated","Location":{"LocationId":"NT_4K4SpGNkl2OQmz6joHCyEB_l_585770799_R_zMDO","LocationType":"point","DisplayPosition":{"Latitude":53.54696,"Longitude":-1.45442},"MapView":{"TopLeft":{"Latitude":53.5559532,"Longitude":-1.4695559},"BottomRight":{"Latitude":53.5379668,"Longitude":-1.4392841}},"Address":{"Label":"S70 3RD, Barnsley, England, United Kingdom","Country":"GBR","State":"England","County":"South Yorkshire","City":"Barnsley","PostalCode":"S70 3RD","AdditionalData":[{"value":"United Kingdom","key":"CountryName"},{"value":"England","key":"StateName"},{"value":"South Yorkshire","key":"CountyName"}]},"MapReference":{"ReferenceId":"585770799","Spot":0.53,"SideOfStreet":"neither","StateId":"20248595","CountyId":"20344788","CityId":"20344789"}}},{"Relevance":1.0,"Distance":85.3,"MatchLevel":"houseNumber","MatchQuality":{"Country":1.0,"State":1.0,"County":1.0,"City":1.0,"District":1.0,"Street":[1.0],"HouseNumber":1.0,"PostalCode":1.0},"MatchType":"interpolated","Location":{"LocationId":"NT_4K4SpGNkl2OQmz6joHCyEB_l_585770799_R_zMDO","LocationType":"point","DisplayPosition":{"Latitude":53.5467453,"Longitude":-1.4541782},"MapView":{"TopLeft":{"Latitude":53.5478694,"Longitude":-1.4560702},"BottomRight":{"Latitude":53.5456211,"Longitude":-1.4522863}},"Address":{"Label":"338 Doncaster Road, Barnsley, S70 3RD, United Kingdom","Country":"GBR","State":"England","County":"South Yorkshire","City":"Barnsley","District":"Barnsley","Street":"Doncaster Road","HouseNumber":"338","PostalCode":"S70 3RD","AdditionalData":[{"value":"United Kingdom","key":"CountryName"},{"value":"England","key":"StateName"},{"value":"South Yorkshire","key":"CountyName"}]},"MapReference":{"ReferenceId":"585770799","Spot":0.53,"SideOfStreet":"right","StateId":"20248595","CountyId":"20344788","CityId":"20344789","DistrictId":"20344790"}}},{"Relevance":1.0,"Distance":87.6,"MatchLevel":"street","MatchQuality":{"Country":1.0,"State":1.0,"County":1.0,"City":1.0,"District":1.0,"Street":[1.0],"PostalCode":1.0},"Location":{"LocationId":"NT_.YkxLReJANMrU.cIN5v4dC_l_709831048_L","LocationType":"point","DisplayPosition":{"Latitude":53.54714,"Longitude":-1.45438},"MapView":{"TopLeft":{"Latitude":53.54806,"Longitude":-1.45438},"BottomRight":{"Latitude":53.54714,"Longitude":-1.45317}},"Address":{"Label":"Old Oaks View, Barnsley, S70 3, United Kingdom","Country":"GBR","State":"England","County":"South Yorkshire","City":"Barnsley","District":"Barnsley","Street":"Old Oaks View","PostalCode":"S70 3","AdditionalData":[{"value":"United Kingdom","key":"CountryName"},{"value":"England","key":"StateName"},{"value":"South Yorkshire","key":"CountyName"}]},"MapReference":{"ReferenceId":"709831048","Spot":0.0,"SideOfStreet":"left","StateId":"20248595","CountyId":"20344788","CityId":"20344789","DistrictId":"20344790"}}},{"Relevance":1.0,"Distance":109.9,"MatchLevel":"houseNumber","MatchQuality":{"Country":1.0,"State":1.0,"County":1.0,"City":1.0,"District":1.0,"Street":[1.0],"HouseNumber":1.0,"PostalCode":1.0},"MatchType":"interpolated","Location":{"LocationId":"NT_2YhfGaGVyH1PEHaMvCz1UB_l_27092050_R_zQDM","LocationType":"point","DisplayPosition":{"Latitude":53.5467355,"Longitude":-1.453804},"MapView":{"TopLeft":{"Latitude":53.5478596,"Longitude":-1.455696},"BottomRight":{"Latitude":53.5456113,"Longitude":-1.451912}},"Address":{"Label":"340 Doncaster Road, Barnsley, S70 3RD, United Kingdom","Country":"GBR","State":"England","County":"South Yorkshire","City":"Barnsley","District":"Barnsley","Street":"Doncaster Road","HouseNumber":"340","PostalCode":"S70 3RD","AdditionalData":[{"value":"United Kingdom","key":"CountryName"},{"value":"England","key":"StateName"},{"value":"South Yorkshire","key":"CountyName"}]},"MapReference":{"ReferenceId":"27092050","Spot":0.55,"SideOfStreet":"right","StateId":"20248595","CountyId":"20344788","CityId":"20344789","DistrictId":"20344790"}}},{"Relevance":1.0,"Distance":111.0,"MatchLevel":"houseNumber","MatchQuality":{"Country":1.0,"State":1.0,"County":1.0,"City":1.0,"District":1.0,"Street":[1.0],"HouseNumber":1.0,"PostalCode":1.0},"MatchType":"interpolated","Location":{"LocationId":"NT_pG64fky5FBkxHp9VY48WVD_l_27092067_R_yA","LocationType":"point","DisplayPosition":{"Latitude":53.5469513,"Longitude":-1.4536252},"MapView":{"TopLeft":{"Latitude":53.5480755,"Longitude":-1.4555172},"BottomRight":{"Latitude":53.5458272,"Longitude":-1.4517332}},"Address":{"Label":"2 Oaks Crescent, Barnsley, S70 3RG, United Kingdom","Country":"GBR","State":"England","County":"South Yorkshire","City":"Barnsley","District":"Barnsley","Street":"Oaks Crescent","HouseNumber":"2","PostalCode":"S70 3RG","AdditionalData":[{"value":"United Kingdom","key":"CountryName"},{"value":"England","key":"StateName"},{"value":"South Yorkshire","key":"CountyName"}]},"MapReference":{"ReferenceId":"27092067","Spot":0.93,"SideOfStreet":"right","StateId":"20248595","CountyId":"20344788","CityId":"20344789","DistrictId":"20344790"}}}]}]}}