{"Response":{"MetaInfo":{"Timestamp":"2020-03-28T10:33:32.515+0000","NextPageInformation":"2"},"View":[{"_type":"SearchResultsViewType","ViewId":0,"Result":[{"Relevance":1.0,"Distance":0.0,"Direction":0.0,"MatchLevel":"district","MatchQuality":{"Country":1.0,"State":1.0,"County":1.0,"City":1.0,"District":1.0,"PostalCode":1.0},"Location":{"LocationId":"NT_tdXflyOqvDpdx9U4RBSzWD","LocationType":"point","DisplayPosition":{"Latitude":53.5886393,"Longitude":-2.4592731},"MapView":{"TopLeft":{"Latitude":53.61689,"Longitude":-2.50933},"BottomRight":{"Latitude":53.55481,"Longitude":-2.37253}},"Address":{"Label":"Bolton, England, United Kingdom","Country":"GBR","State":"England","County":"Lancashire","City":"Bolton","District":"Bolton","PostalCode":"BL1 1","AdditionalData":[{"value":"United Kingdom","key":"CountryName"},{"value":"England","key":"StateName"},{"value":"Lancashire","key":"CountyName"}]},"MapReference":{"ReferenceId":"773533915","SideOfStreet":"neither","StateId":"20248595","CountyId":"20343938","CityId":"20343985","DistrictId":"20343986"}}},{"Relevance":1.0,"Distance":9.3,"MatchLevel":"street","MatchQuality":{"Country":1.0,"State":1.0,"County":1.0,"City":1.0,"District":1.0,"Street":[1.0],"PostalCode":1.0},"Location":{"LocationId":"NT_Kso7Iw7TpW4Uypfe326ncC_l_27158682_R","LocationType":"point","DisplayPosition":{"Latitude":53.5887029,"Longitude":-2.4593635},"MapView":{"TopLeft":{"Latitude":53.58885,"Longitude":-2.45945},"BottomRight":{"Latitude":53.58858,"Longitude":-2.45926}},"Address":{"Label":"Avon Street, Bolton, BL1 5, United Kingdom","Country":"GBR","State":"England","County":"Lancashire","City":"Bolton","District":"Bolton","Street":"Avon Street","PostalCode":"BL1 5","AdditionalData":[{"value":"United Kingdom","key":"CountryName"},{"value":"England","key":"StateName"},{"value":"Lancashire","key":"CountyName"}]},"MapReference":{"ReferenceId":"27158682","Spot":0.46,"SideOfStreet":"right","StateId":"20248595","CountyId":"20343938","CityId":"20343985","DistrictId":"20343986"}}},{"Relevance":1.0,"Distance":10.4,"MatchLevel":"street","MatchQuality":{"Country":1.0,"State":1.0,"County":1.0,"City":1.0,"District":1.0,"Street":[1.0],"PostalCode":1.0},"Location":{"LocationId":"NT_ptKhIR--swphZ08-ZzFbFB_l_27158887_R","LocationType":"point","DisplayPosition":{"Latitude":53.5885464,"Longitude":-2.459293},"MapView":{"TopLeft":{"Latitude":53.58858,"Longitude":-2.45945},"BottomRight":{"Latitude":53.58821,"Longitude":-2.458}},"Address":{"Label":"Back Chorley Old Road South, Bolton, BL1 5, United Kingdom","Country":"GBR","State":"England","County":"Lancashire","City":"Bolton","District":"Bolton","Street":"Back Chorley Old Road South","PostalCode":"BL1 5","AdditionalData":[{"value":"United Kingdom","key":"CountryName"},{"value":"England","key":"StateName"},{"value":"Lancashire","key":"CountyName"}]},"MapReference":{"ReferenceId":"27158887","Spot":0.89,"SideOfStreet":"right","StateId":"20248595","CountyId":"20343938","CityId":"20343985","DistrictId":"20343986"}}},{"Relevance":1.0,"Distance":13.4,"MatchLevel":"street","MatchQuality":{"Country":1.0,"State":1.0,"County":1.0,"City":1.0,"District":1.0,"Street":[1.0],"PostalCode":1.0},"Location":{"LocationId":"NT_ptKhIR--swphZ08-ZzFbFB_l_27158683_L","LocationType":"point","DisplayPosition":{"Latitude":53.58858,"Longitude":-2.45945},"MapView":{"TopLeft":{"Latitude":53.5886,"Longitude":-2.46093},"BottomRight":{"Latitude":53.58858,"Longitude":-2.45945}},"Address":{"Label":"Back Chorley Old Road South, Bolton, BL1 5, United Kingdom","Country":"GBR","State":"England","County":"Lancashire","City":"Bolton","District":"Bolton","Street":"Back Chorley Old Road South","PostalCode":"BL1 5","AdditionalData":[{"value":"United Kingdom","key":"CountryName"},{"value":"England","key":"StateName"},{"value":"Lancashire","key":"CountyName"}]},"MapReference":{"ReferenceId":"27158683","Spot":1.0,"SideOfStreet":"left","StateId":"20248595","CountyId":"20343938","CityId":"20343985","DistrictId":"20343986"}}},{"Relevance":1.0,"Distance":13.4,"MatchLevel":"street","MatchQuality":{"Country":1.0,"State":1.0,"County":1.0,"City":1.0,"District":1.0,"Street":[1.0],"PostalCode":1.0},"Location":{"LocationId":"NT_Kso7Iw7TpW4Uypfe326ncC_l_27158804_R","LocationType":"point","DisplayPosition":{"Latitude":53.58858,"Longitude":-2.45945},"MapView":{"TopLeft":{"Latitude":53.58858,"Longitude":-2.45959},"BottomRight":{"Latitude":53.58835,"Longitude":-2.45945}},"Address":{"Label":"Avon Street, Bolton, BL1 5, United Kingdom","Country":"GBR","State":"England","County":"Lancashire","City":"Bolton","District":"Bolton","Street":"Avon Street","PostalCode":"BL1 5","AdditionalData":[{"value":"United Kingdom","key":"CountryName"},{"value":"England","key":"StateName"},{"value":"Lancashire","key":"CountyName"}]},"MapReference":{"ReferenceId":"27158804","Spot":1.0,"SideOfStreet":"right","StateId":"20248595","CountyId":"20343938","CityId":"20343985","DistrictId":"20343986"}}},{"Relevance":1.0,"Distance":13.8,"MatchLevel":"houseNumber","MatchQuality":{"Country":1.0,"State":1.0,"County":1.0,"City":1.0,"District":1.0,"Street":[1.0],"HouseNumber":1.0,"PostalCode":1.0},"MatchType":"interpolated","Location":{"LocationId":"NT_fid6c-YtlYM.UYV4hAsxVD_l_27158541_L_0czM","LocationType":"point","DisplayPosition":{"Latitude":53.5888607,"Longitude":-2.4594146},"MapView":{"TopLeft":{"Latitude":53.5899848,"Longitude":-2.4613084},"BottomRight":{"Latitude":53.5877365,"Longitude":-2.4575207}},"Address":{"Label":"473 Chorley Old Road, Bolton, BL1 6, United Kingdom","Country":"GBR","State":"England","County":"Lancashire","City":"Bolton","District":"Bolton","Street":"Chorley Old Road","HouseNumber":"473","PostalCode":"BL1 6","AdditionalData":[{"value":"United Kingdom","key":"CountryName"},{"value":"England","key":"StateName"},{"value":"Lancashire","key":"CountyName"}]},"MapReference":{"ReferenceId":"27158541","Spot":0.53,"SideOfStreet":"left","StateId":"20248595","CountyId":"20343938","CityId":"20343985","DistrictId":"20343986"}}},{"Relevance":1.0,"Distance":17.0,"MatchLevel":"houseNumber","MatchQuality":{"Country":1.0,"State":1.0,"County":1.0,"City":1.0,"District":1.0,"Street":[1.0],"HouseNumber":1.0,"PostalCode":1.0},"MatchType":"interpolated","Location":{"LocationId":"NT_VDpL7B98Fb5Bf4AOprpIUB_l_27158610_L_0cTM","LocationType":"point","DisplayPosition":{"Latitude":53.5888031,"Longitude":-2.4589987},"MapView":{"TopLeft":{"Latitude":53.5899273,"Longitude":-2.4608925},"BottomRight":{"Latitude":53.587679,"Longitude":-2.4571048}},"Address":{"Label":"471 Chorley Old Road, Bolton, BL1 5, United Kingdom","Country":"GBR","State":"England","County":"Lancashire","City":"Bolton","District":"Bolton","Street":"Chorley Old Road","HouseNumber":"471","PostalCode":"BL1 5","AdditionalData":[{"value":"United Kingdom","key":"CountryName"},{"value":"England","key":"StateName"},{"value":"Lancashire","key":"CountyName"}]},"MapReference":{"ReferenceId":"27158610","Spot":0.67,"SideOfStreet":"left","StateId":"20248595","CountyId":"20343938","CityId":"20343985","DistrictId":"20343986"}}},{"Relevance":1.0,"Distance":25.7,"MatchLevel":"houseNumber","MatchQuality":{"Country":1.0,"State":1.0,"County":1.0,"City":1.0,"District":1.0,"Street":[1.0],"HouseNumber":1.0,"PostalCode":1.0},"MatchType":"interpolated","Location":{"LocationId":"NT_TaWq6ROQ.mbm8B0T.cZ25A_l_27159034_R_zYD","LocationType":"point","DisplayPosition":{"Latitude":53.588275,"Longitude":-2.4593256},"MapView":{"TopLeft":{"Latitude":53.5893992,"Longitude":-2.4612194},"BottomRight":{"Latitude":53.5871509,"Longitude":-2.4574317}},"Address":{"Label":"36 Stanley Road, Bolton, BL1 5, United Kingdom","Country":"GBR","State":"England","County":"Lancashire","City":"Bolton","District":"Bolton","Street":"Stanley Road","HouseNumber":"36","PostalCode":"BL1 5","AdditionalData":[{"value":"United Kingdom","key":"CountryName"},{"value":"England","key":"StateName"},{"value":"Lancashire","key":"CountyName"}]},"MapReference":{"ReferenceId":"27159034","Spot":0.81,"SideOfStreet":"right","StateId":"20248595","CountyId":"20343938","CityId":"20343985","DistrictId":"20343986"}}},{"Relevance":1.0,"Distance":31.5,"MatchLevel":"street","MatchQuality":{"Country":1.0,"State":1.0,"County":1.0,"City":1.0,"District":1.0,"Street":[1.0],"PostalCode":1.0},"Location":{"LocationId":"NT_uM8k2KCITymdq44aVKhAoD_l_27158526_R","LocationType":"point","DisplayPosition":{"Latitude":53.58887,"Longitude":-2.45955},"MapView":{"TopLeft":{"Latitude":53.58918,"Longitude":-2.45955},"BottomRight":{"Latitude":53.58887,"Longitude":-2.45947}},"Address":{"Label":"New Barn Street, Bolton, BL1 6, United Kingdom","Country":"GBR","State":"England","County":"Lancashire","City":"Bolton","District":"Bolton","Street":"New Barn Street","PostalCode":"BL1 6","AdditionalData":[{"value":"United Kingdom","key":"CountryName"},{"value":"England","key":"StateName"},{"value":"Lancashire","key":"CountyName"}]},"MapReference":{"ReferenceId":"27158526","Spot":0.0,"SideOfStreet":"right","StateId":"20248595","CountyId":"20343938","CityId":"20343985","DistrictId":"20343986"}}},{"Relevance":1.0,"Distance":36.9,"MatchLevel":"houseNumber","MatchQuality":{"Country":1.0,"State":1.0,"County":1.0,"City":1.0,"District":1.0,"Street":[1.0],"HouseNumber":1.0,"PostalCode":1.0},"MatchType":"interpolated","Location":{"LocationId":"NT_fid6c-YtlYM.UYV4hAsxVD_l_27158531_R_0cTN","LocationType":"point","DisplayPosition":{"Latitude":53.58887,"Longitude":-2.4598088},"MapView":{"TopLeft":{"Latitude":53.5899942,"Longitude":-2.4617026},"BottomRight":{"Latitude":53.5877458,"Longitude":-2.4579149}},"Address":{"Label":"475 Chorley Old Road, Bolton, BL1 6AE, United Kingdom","Country":"GBR","State":"England","County":"Lancashire","City":"Bolton","District":"Bolton","Street":"Chorley Old Road","HouseNumber":"475","PostalCode":"BL1 6AE","AdditionalData":[{"value":"United Kingdom","key":"CountryName"},{"value":"England","key":"StateName"},{"value":"Lancashire","key":"CountyName"}]},"MapReference":{"ReferenceId":"27158531","Spot":0.76,"SideOfStreet":"right","StateId":"20248595","CountyId":"20343938","CityId":"20343985","DistrictId":"20343986"}}}]}]}}