{"Response":{"MetaInfo":{"Timestamp":"2020-03-28T10:49:50.369+0000","NextPageInformation":"2"},"View":[{"_type":"SearchResultsViewType","ViewId":0,"Result":[{"Relevance":1.0,"Distance":0.0,"Direction":0.0,"MatchLevel":"district","MatchQuality":{"Country":1.0,"State":1.0,"County":1.0,"City":1.0,"District":1.0,"PostalCode":1.0},"Location":{"LocationId":"NT_drgYAnRw6POgA4a59ITTsB","LocationType":"point","DisplayPosition":{"Latitude":53.5634845,"Longitude":20.9892054},"MapView":{"TopLeft":{"Latitude":53.58057,"Longitude":20.96014},"BottomRight":{"Latitude":53.54659,"Longitude":21.032}},"Address":{"Label":"Szczytno, Woj. Warmińsko-Mazurskie, Polska","Country":"POL","State":"Woj. Warmińsko-Mazurskie","County":"Powiat Szczycieński","City":"Szczytno","District":"Szczytno","PostalCode":"12-100","AdditionalData":[{"value":"Polska","key":"CountryName"},{"value":"Woj. Warmińsko-Mazurskie","key":"StateName"},{"value":"Powiat Szczycieński","key":"CountyName"}]},"MapReference":{"ReferenceId":"595101107","SideOfStreet":"neither","CountryId":"20624059","StateId":"20629651","CountyId":"20629889","CityId":"20695629","DistrictId":"20695630"}}},{"Relevance":1.0,"Distance":29.4,"MatchLevel":"houseNumber","MatchQuality":{"Country":1.0,"State":1.0,"County":1.0,"City":1.0,"District":1.0,"Street":[1.0],"HouseNumber":1.0,"PostalCode":1.0},"MatchType":"interpolated","Location":{"LocationId":"NT_9-D-3kma0xfHlITUtaRcQB_xAD","LocationType":"point","DisplayPosition":{"Latitude":53.56301,"Longitude":20.98865},"MapView":{"TopLeft":{"Latitude":53.5641342,"Longitude":20.9867573},"BottomRight":{"Latitude":53.5618858,"Longitude":20.9905427}},"Address":{"Label":"ulica Bolesława Chrobrego 10, 12-100 Szczytno, Polska","Country":"POL","State":"Woj. Warmińsko-Mazurskie","County":"Powiat Szczycieński","City":"Szczytno","District":"Szczytno","Street":"ulica Bolesława Chrobrego","HouseNumber":"10","PostalCode":"12-100","AdditionalData":[{"value":"Polska","key":"CountryName"},{"value":"Woj. Warmińsko-Mazurskie","key":"StateName"},{"value":"Powiat Szczycieński","key":"CountyName"}]},"MapReference":{"ReferenceId":"595100858","Spot":0.38,"SideOfStreet":"right","CountryId":"20624059","StateId":"20629651","CountyId":"20629889","CityId":"20695629","DistrictId":"20695630","AddressId":"210897195","RoadLinkId":"95264226"}}},{"Relevance":1.0,"Distance":37.3,"MatchLevel":"houseNumber","MatchQuality":{"Country":1.0,"State":1.0,"County":1.0,"City":1.0,"District":1.0,"Street":[1.0],"HouseNumber":1.0,"PostalCode":1.0},"MatchType":"interpolated","Location":{"LocationId":"NT_6YaDQM8eIs2dxLvIMBYzCA_3A","LocationType":"point","DisplayPosition":{"Latitude":53.56381,"Longitude":20.98934},"MapView":{"TopLeft":{"Latitude":53.5649342,"Longitude":20.9874473},"BottomRight":{"Latitude":53.5626858,"Longitude":20.9912327}},"Address":{"Label":"ulica gen. Władysława Andersa 7, 12-100 Szczytno, Polska","Country":"POL","State":"Woj. Warmińsko-Mazurskie","County":"Powiat Szczycieński","City":"Szczytno","District":"Szczytno","Street":"ulica gen. Władysława Andersa","HouseNumber":"7","PostalCode":"12-100","AdditionalData":[{"value":"Polska","key":"CountryName"},{"value":"Woj. Warmińsko-Mazurskie","key":"StateName"},{"value":"Powiat Szczycieński","key":"CountyName"}]},"MapReference":{"ReferenceId":"595100830","Spot":0.65,"SideOfStreet":"right","CountryId":"20624059","StateId":"20629651","CountyId":"20629889","CityId":"20695629","DistrictId":"20695630","AddressId":"210239594","RoadLinkId":"95255336"}}},{"Relevance":1.0,"Distance":53.4,"MatchLevel":"houseNumber","MatchQuality":{"Country":1.0,"State":1.0,"County":1.0,"City":1.0,"District":1.0,"Street":[1.0],"HouseNumber":1.0,"PostalCode":1.0},"MatchType":"interpolated","Location":{"LocationId":"NT_9-D-3kma0xfHlITUtaRcQB_4EE","LocationType":"point","DisplayPosition":{"Latitude":53.5628,"Longitude":20.98903},"MapView":{"TopLeft":{"Latitude":53.5639242,"Longitude":20.9871373},"BottomRight":{"Latitude":53.5616758,"Longitude":20.9909227}},"Address":{"Label":"ulica Bolesława Chrobrego 8A, 12-100 Szczytno, Polska","Country":"POL","State":"Woj. Warmińsko-Mazurskie","County":"Powiat Szczycieński","City":"Szczytno","District":"Szczytno","Street":"ulica Bolesława Chrobrego","HouseNumber":"8A","PostalCode":"12-100","AdditionalData":[{"value":"Polska","key":"CountryName"},{"value":"Woj. Warmińsko-Mazurskie","key":"StateName"},{"value":"Powiat Szczycieński","key":"CountyName"}]},"MapReference":{"ReferenceId":"595100918","Spot":0.77,"SideOfStreet":"right","CountryId":"20624059","StateId":"20629651","CountyId":"20629889","CityId":"20695629","DistrictId":"20695630","AddressId":"211197003","RoadLinkId":"95311744"}}},{"Relevance":1.0,"Distance":62.5,"MatchLevel":"houseNumber","MatchQuality":{"Country":1.0,"State":1.0,"County":1.0,"City":1.0,"District":1.0,"Street":[1.0],"HouseNumber":1.0,"PostalCode":1.0},"MatchType":"interpolated","Location":{"LocationId":"NT_9-D-3kma0xfHlITUtaRcQB_xID","LocationType":"point","DisplayPosition":{"Latitude":53.56343,"Longitude":20.98787},"MapView":{"TopLeft":{"Latitude":53.5645542,"Longitude":20.9859773},"BottomRight":{"Latitude":53.5623058,"Longitude":20.9897627}},"Address":{"Label":"ulica Bolesława Chrobrego 12, 12-100 Szczytno, Polska","Country":"POL","State":"Woj. Warmińsko-Mazurskie","County":"Powiat Szczycieński","City":"Szczytno","District":"Szczytno","Street":"ulica Bolesława Chrobrego","HouseNumber":"12","PostalCode":"12-100","AdditionalData":[{"value":"Polska","key":"CountryName"},{"value":"Woj. Warmińsko-Mazurskie","key":"StateName"},{"value":"Powiat Szczycieński","key":"CountyName"}]},"MapReference":{"ReferenceId":"915381580","Spot":0.71,"SideOfStreet":"right","CountryId":"20624059","StateId":"20629651","CountyId":"20629889","CityId":"20695629","DistrictId":"20695630","AddressId":"209256882","RoadLinkId":"273203122"}}},{"Relevance":1.0,"Distance":76.3,"MatchLevel":"houseNumber","MatchQuality":{"Country":1.0,"State":1.0,"County":1.0,"City":1.0,"District":1.0,"Street":[1.0],"HouseNumber":1.0,"PostalCode":1.0},"MatchType":"interpolated","Location":{"LocationId":"NT_B05hjizgrB3Cm-HbIY2hpA_xYD","LocationType":"point","DisplayPosition":{"Latitude":53.56267,"Longitude":20.99007},"MapView":{"TopLeft":{"Latitude":53.5637942,"Longitude":20.9881773},"BottomRight":{"Latitude":53.5615458,"Longitude":20.9919627}},"Address":{"Label":"ulica 3 Maja 16, 12-100 Szczytno, Polska","Country":"POL","State":"Woj. Warmińsko-Mazurskie","County":"Powiat Szczycieński","City":"Szczytno","District":"Szczytno","Street":"ulica 3 Maja","HouseNumber":"16","PostalCode":"12-100","AdditionalData":[{"value":"Polska","key":"CountryName"},{"value":"Woj. Warmińsko-Mazurskie","key":"StateName"},{"value":"Powiat Szczycieński","key":"CountyName"}]},"MapReference":{"ReferenceId":"595100917","Spot":0.25,"SideOfStreet":"left","CountryId":"20624059","StateId":"20629651","CountyId":"20629889","CityId":"20695629","DistrictId":"20695630","AddressId":"210425149","RoadLinkId":"95000357"}}},{"Relevance":1.0,"Distance":84.2,"MatchLevel":"houseNumber","MatchQuality":{"Country":1.0,"State":1.0,"County":1.0,"City":1.0,"District":1.0,"Street":[1.0],"HouseNumber":1.0,"PostalCode":1.0},"MatchType":"interpolated","Location":{"LocationId":"NT_z3hVcl-do2q5b0MUzMkpaA_xMD","LocationType":"point","DisplayPosition":{"Latitude":53.56372,"Longitude":20.99065},"MapView":{"TopLeft":{"Latitude":53.5648442,"Longitude":20.9887573},"BottomRight":{"Latitude":53.5625958,"Longitude":20.9925427}},"Address":{"Label":"ulica Jana Lipperta 13, 12-100 Szczytno, Polska","Country":"POL","State":"Woj. Warmińsko-Mazurskie","County":"Powiat Szczycieński","City":"Szczytno","District":"Szczytno","Street":"ulica Jana Lipperta","HouseNumber":"13","PostalCode":"12-100","AdditionalData":[{"value":"Polska","key":"CountryName"},{"value":"Woj. Warmińsko-Mazurskie","key":"StateName"},{"value":"Powiat Szczycieński","key":"CountyName"}]},"MapReference":{"ReferenceId":"595100799","Spot":0.4,"SideOfStreet":"left","CountryId":"20624059","StateId":"20629651","CountyId":"20629889","CityId":"20695629","DistrictId":"20695630","AddressId":"210743262","RoadLinkId":"95294990"}}},{"Relevance":1.0,"Distance":92.8,"MatchLevel":"houseNumber","MatchQuality":{"Country":1.0,"State":1.0,"County":1.0,"City":1.0,"District":1.0,"Street":[1.0],"HouseNumber":1.0,"PostalCode":1.0},"MatchType":"interpolated","Location":{"LocationId":"NT_pi5kkdAtSFYG8gJXnlcYJC_1A","LocationType":"point","DisplayPosition":{"Latitude":53.5644,"Longitude":20.98861},"MapView":{"TopLeft":{"Latitude":53.5655242,"Longitude":20.9867172},"BottomRight":{"Latitude":53.5632758,"Longitude":20.9905028}},"Address":{"Label":"ulica Walentego Barczewskiego 5, 12-100 Szczytno, Polska","Country":"POL","State":"Woj. Warmińsko-Mazurskie","County":"Powiat Szczycieński","City":"Szczytno","District":"Szczytno","Street":"ulica Walentego Barczewskiego","HouseNumber":"5","PostalCode":"12-100","AdditionalData":[{"value":"Polska","key":"CountryName"},{"value":"Woj. Warmińsko-Mazurskie","key":"StateName"},{"value":"Powiat Szczycieński","key":"CountyName"}]},"MapReference":{"ReferenceId":"595100774","Spot":0.75,"SideOfStreet":"right","CountryId":"20624059","StateId":"20629651","CountyId":"20629889","CityId":"20695629","DistrictId":"20695630","AddressId":"210666243","RoadLinkId":"95027615"}}},{"Relevance":1.0,"Distance":93.4,"MatchLevel":"street","MatchQuality":{"Country":1.0,"State":1.0,"County":1.0,"City":1.0,"District":1.0,"Street":[1.0],"PostalCode":1.0},"Location":{"LocationId":"NT_z3hVcl-do2q5b0MUzMkpaA_l_595100665_L","LocationType":"point","DisplayPosition":{"Latitude":53.5642815,"Longitude":20.9896543},"MapView":{"TopLeft":{"Latitude":53.56465,"Longitude":20.989},"BottomRight":{"Latitude":53.56416,"Longitude":20.98987}},"Address":{"Label":"ulica Jana Lipperta, 12-100 Szczytno, Polska","Country":"POL","State":"Woj. Warmińsko-Mazurskie","County":"Powiat Szczycieński","City":"Szczytno","District":"Szczytno","Street":"ulica Jana Lipperta","PostalCode":"12-100","AdditionalData":[{"value":"Polska","key":"CountryName"},{"value":"Woj. Warmińsko-Mazurskie","key":"StateName"},{"value":"Powiat Szczycieński","key":"CountyName"}]},"MapReference":{"ReferenceId":"595100665","Spot":0.25,"SideOfStreet":"left","CountryId":"20624059","StateId":"20629651","CountyId":"20629889","CityId":"20695629","DistrictId":"20695630"}}},{"Relevance":1.0,"Distance":101.6,"MatchLevel":"street","MatchQuality":{"Country":1.0,"State":1.0,"County":1.0,"City":1.0,"District":1.0,"Street":[1.0],"PostalCode":1.0},"Location":{"LocationId":"NT_9-D-3kma0xfHlITUtaRcQB_l_915381581_R","LocationType":"point","DisplayPosition":{"Latitude":53.56354,"Longitude":20.98767},"MapView":{"TopLeft":{"Latitude":53.56364,"Longitude":20.98749},"BottomRight":{"Latitude":53.56354,"Longitude":20.98767}},"Address":{"Label":"ulica Bolesława Chrobrego, 12-100 Szczytno, Polska","Country":"POL","State":"Woj. Warmińsko-Mazurskie","County":"Powiat Szczycieński","City":"Szczytno","District":"Szczytno","Street":"ulica Bolesława Chrobrego","PostalCode":"12-100","AdditionalData":[{"value":"Polska","key":"CountryName"},{"value":"Woj. Warmińsko-Mazurskie","key":"StateName"},{"value":"Powiat Szczycieński","key":"CountyName"}]},"MapReference":{"ReferenceId":"915381581","Spot":0.0,"SideOfStreet":"right","CountryId":"20624059","StateId":"20629651","CountyId":"20629889","CityId":"20695629","DistrictId":"20695630"}}}]}]}}