{"Response":{"MetaInfo":{"Timestamp":"2020-03-28T11:18:42.118+0000","NextPageInformation":"2"},"View":[{"_type":"SearchResultsViewType","ViewId":0,"Result":[{"Relevance":1.0,"Distance":0.0,"Direction":0.0,"MatchLevel":"district","MatchQuality":{"Country":1.0,"State":1.0,"County":1.0,"City":1.0,"District":1.0,"PostalCode":1.0},"Location":{"LocationId":"NT_IDMoEtkbhz6mxmeFgE4adA","LocationType":"point","DisplayPosition":{"Latitude":53.5570651,"Longitude":-2.6284193},"MapView":{"TopLeft":{"Latitude":53.57385,"Longitude":-2.69841},"BottomRight":{"Latitude":53.51371,"Longitude":-2.5908}},"Address":{"Label":"Wigan, England, United Kingdom","Country":"GBR","State":"England","County":"Lancashire","City":"Wigan","District":"Wigan","PostalCode":"WN1 1","AdditionalData":[{"value":"United Kingdom","key":"CountryName"},{"value":"England","key":"StateName"},{"value":"Lancashire","key":"CountyName"}]},"MapReference":{"ReferenceId":"1079153095","SideOfStreet":"neither","StateId":"20248595","CountyId":"20343938","CityId":"20344473","DistrictId":"20344474"}}},{"Relevance":1.0,"Distance":4.4,"MatchLevel":"landmark","MatchQuality":{"Country":1.0,"State":1.0,"County":1.0,"City":1.0,"District":1.0,"PostalCode":1.0,"Name":1.0},"Location":{"LocationId":"NT_xyZu4vrmvms4tHFrz0D-aA_p_pXeHChtyhQ1TUAwHfZwtgC","LocationType":"hospital","Name":"Royal Albert Edward Infirmary","DisplayPosition":{"Latitude":53.55931,"Longitude":-2.6286},"MapView":{"TopLeft":{"Latitude":53.56028,"Longitude":-2.63113},"BottomRight":{"Latitude":53.55661,"Longitude":-2.62821}},"Address":{"Label":"Wigan, WN1 2, United Kingdom","Country":"GBR","State":"England","County":"Lancashire","City":"Wigan","District":"Wigan","PostalCode":"WN1 2","AdditionalData":[{"value":"United Kingdom","key":"CountryName"},{"value":"England","key":"StateName"},{"value":"Lancashire","key":"CountyName"}]},"MapReference":{"StateId":"20248595","CountyId":"20343938","CityId":"20344473","DistrictId":"20344474","PlaceId":"18156946"}}},{"Relevance":1.0,"Distance":4.4,"MatchLevel":"houseNumber","MatchQuality":{"Country":1.0,"State":1.0,"County":1.0,"City":1.0,"District":1.0,"Street":[1.0],"HouseNumber":1.0,"PostalCode":1.0},"MatchType":"interpolated","Location":{"LocationId":"NT_HxWZGBJ.sYLjHniBzN7LHD_l_1219071271_R_xUTM","LocationType":"point","DisplayPosition":{"Latitude":53.5571,"Longitude":-2.62845},"MapView":{"TopLeft":{"Latitude":53.5582242,"Longitude":-2.6303424},"BottomRight":{"Latitude":53.5559759,"Longitude":-2.6265576}},"Address":{"Label":"151 Wigan Lane, Wigan, WN1 2, United Kingdom","Country":"GBR","State":"England","County":"Lancashire","City":"Wigan","District":"Wigan","Street":"Wigan Lane","HouseNumber":"151","PostalCode":"WN1 2","AdditionalData":[{"value":"United Kingdom","key":"CountryName"},{"value":"England","key":"StateName"},{"value":"Lancashire","key":"CountyName"}]},"MapReference":{"ReferenceId":"1219071271","Spot":0.0,"SideOfStreet":"right","StateId":"20248595","CountyId":"20343938","CityId":"20344473","DistrictId":"20344474"}}},{"Relevance":1.0,"Distance":17.7,"MatchLevel":"houseNumber","MatchQuality":{"Country":1.0,"State":1.0,"County":1.0,"City":1.0,"District":1.0,"Street":[1.0],"HouseNumber":1.0,"PostalCode":1.0},"MatchType":"interpolated","Location":{"LocationId":"NT_IB7ODexYB.HYCJkMIzv1KC_l_27171201_R_xQTO","LocationType":"point","DisplayPosition":{"Latitude":53.556908,"Longitude":-2.628464},"MapView":{"TopLeft":{"Latitude":53.5580322,"Longitude":-2.6303564},"BottomRight":{"Latitude":53.5557839,"Longitude":-2.6265716}},"Address":{"Label":"149 Wigan Lane, Wigan, WN1 2, United Kingdom","Country":"GBR","State":"England","County":"Lancashire","City":"Wigan","District":"Wigan","Street":"Wigan Lane","HouseNumber":"149","PostalCode":"WN1 2","AdditionalData":[{"value":"United Kingdom","key":"CountryName"},{"value":"England","key":"StateName"},{"value":"Lancashire","key":"CountyName"}]},"MapReference":{"ReferenceId":"27171201","Spot":0.64,"SideOfStreet":"right","StateId":"20248595","CountyId":"20343938","CityId":"20344473","DistrictId":"20344474"}}},{"Relevance":1.0,"Distance":22.0,"MatchLevel":"houseNumber","MatchQuality":{"Country":1.0,"State":1.0,"County":1.0,"City":1.0,"District":1.0,"Street":[1.0],"HouseNumber":1.0,"PostalCode":1.0},"MatchType":"interpolated","Location":{"LocationId":"NT_PXs-NHkDpGOJG2VpyqK9dD_l_865739450_L_xA","LocationType":"point","DisplayPosition":{"Latitude":53.5571209,"Longitude":-2.6280999},"MapView":{"TopLeft":{"Latitude":53.5582451,"Longitude":-2.6299924},"BottomRight":{"Latitude":53.5559968,"Longitude":-2.6262075}},"Address":{"Label":"1 Bellingham Drive, Wigan, WN1 2, United Kingdom","Country":"GBR","State":"England","County":"Lancashire","City":"Wigan","District":"Wigan","Street":"Bellingham Drive","HouseNumber":"1","PostalCode":"WN1 2","AdditionalData":[{"value":"United Kingdom","key":"CountryName"},{"value":"England","key":"StateName"},{"value":"Lancashire","key":"CountyName"}]},"MapReference":{"ReferenceId":"865739450","Spot":0.51,"SideOfStreet":"left","StateId":"20248595","CountyId":"20343938","CityId":"20344473","DistrictId":"20344474"}}},{"Relevance":1.0,"Distance":27.2,"MatchLevel":"houseNumber","MatchQuality":{"Country":1.0,"State":1.0,"County":1.0,"City":1.0,"District":1.0,"Street":[1.0],"HouseNumber":1.0,"PostalCode":1.0},"MatchType":"interpolated","Location":{"LocationId":"NT_HxWZGBJ.sYLjHniBzN7LHD_l_1219071272_R_xUTN","LocationType":"point","DisplayPosition":{"Latitude":53.55731,"Longitude":-2.62843},"MapView":{"TopLeft":{"Latitude":53.5584342,"Longitude":-2.6303225},"BottomRight":{"Latitude":53.5561859,"Longitude":-2.6265375}},"Address":{"Label":"155 Wigan Lane, Wigan, WN1 2NH, United Kingdom","Country":"GBR","State":"England","County":"Lancashire","City":"Wigan","District":"Wigan","Street":"Wigan Lane","HouseNumber":"155","PostalCode":"WN1 2NH","AdditionalData":[{"value":"United Kingdom","key":"CountryName"},{"value":"England","key":"StateName"},{"value":"Lancashire","key":"CountyName"}]},"MapReference":{"ReferenceId":"1219071272","Spot":0.0,"SideOfStreet":"right","StateId":"20248595","CountyId":"20343938","CityId":"20344473","DistrictId":"20344474"}}},{"Relevance":1.0,"Distance":44.8,"MatchLevel":"street","MatchQuality":{"Country":1.0,"State":1.0,"County":1.0,"City":1.0,"District":1.0,"Street":[1.0],"PostalCode":1.0},"Location":{"LocationId":"NT_PXs-NHkDpGOJG2VpyqK9dD_l_865739452_L","LocationType":"point","DisplayPosition":{"Latitude":53.55716,"Longitude":-2.62776},"MapView":{"TopLeft":{"Latitude":53.55746,"Longitude":-2.62776},"BottomRight":{"Latitude":53.55716,"Longitude":-2.62773}},"Address":{"Label":"Bellingham Drive, Wigan, WN1 2, United Kingdom","Country":"GBR","State":"England","County":"Lancashire","City":"Wigan","District":"Wigan","Street":"Bellingham Drive","PostalCode":"WN1 2","AdditionalData":[{"value":"United Kingdom","key":"CountryName"},{"value":"England","key":"StateName"},{"value":"Lancashire","key":"CountyName"}]},"MapReference":{"ReferenceId":"865739452","Spot":0.0,"SideOfStreet":"left","StateId":"20248595","CountyId":"20343938","CityId":"20344473","DistrictId":"20344474"}}},{"Relevance":1.0,"Distance":55.9,"MatchLevel":"houseNumber","MatchQuality":{"Country":1.0,"State":1.0,"County":1.0,"City":1.0,"District":1.0,"Street":[1.0],"HouseNumber":1.0,"PostalCode":1.0},"MatchType":"interpolated","Location":{"LocationId":"NT_LY-kmvIBZXBFlzGuSLXErD_l_27171202_R_xA","LocationType":"point","DisplayPosition":{"Latitude":53.55657,"Longitude":-2.6282698},"MapView":{"TopLeft":{"Latitude":53.5576942,"Longitude":-2.6301623},"BottomRight":{"Latitude":53.5554458,"Longitude":-2.6263774}},"Address":{"Label":"1 Bellingham Avenue, Wigan, WN1 2NE, United Kingdom","Country":"GBR","State":"England","County":"Lancashire","City":"Wigan","District":"Wigan","Street":"Bellingham Avenue","HouseNumber":"1","PostalCode":"WN1 2NE","AdditionalData":[{"value":"United Kingdom","key":"CountryName"},{"value":"England","key":"StateName"},{"value":"Lancashire","key":"CountyName"}]},"MapReference":{"ReferenceId":"27171202","Spot":0.22,"SideOfStreet":"right","StateId":"20248595","CountyId":"20343938","CityId":"20344473","DistrictId":"20344474"}}},{"Relevance":1.0,"Distance":56.9,"MatchLevel":"houseNumber","MatchQuality":{"Country":1.0,"State":1.0,"County":1.0,"City":1.0,"District":1.0,"Street":[1.0],"HouseNumber":1.0,"PostalCode":1.0},"MatchType":"interpolated","Location":{"LocationId":"NT_HxWZGBJ.sYLjHniBzN7LHD_l_836910348_R_xUTO","LocationType":"point","DisplayPosition":{"Latitude":53.5575901,"Longitude":-2.62839},"MapView":{"TopLeft":{"Latitude":53.5587142,"Longitude":-2.6302825},"BottomRight":{"Latitude":53.5564659,"Longitude":-2.6264975}},"Address":{"Label":"159 Wigan Lane, Wigan, WN1 2NH, United Kingdom","Country":"GBR","State":"England","County":"Lancashire","City":"Wigan","District":"Wigan","Street":"Wigan Lane","HouseNumber":"159","PostalCode":"WN1 2NH","AdditionalData":[{"value":"United Kingdom","key":"CountryName"},{"value":"England","key":"StateName"},{"value":"Lancashire","key":"CountyName"}]},"MapReference":{"ReferenceId":"836910348","Spot":0.25,"SideOfStreet":"right","StateId":"20248595","CountyId":"20343938","CityId":"20344473","DistrictId":"20344474"}}},{"Relevance":1.0,"Distance":59.4,"MatchLevel":"postalCode","MatchQuality":{"PostalCode":1.0},"Location":{"LocationId":"NT_PXs-NHkDpGOJG2VpyqK9dD_l_865739452_L","LocationType":"point","DisplayPosition":{"Latitude":53.55737,"Longitude":-2.62768},"MapView":{"TopLeft":{"Latitude":53.5663632,"Longitude":-2.6428196},"BottomRight":{"Latitude":53.5483768,"Longitude":-2.6125404}},"Address":{"Label":"WN1 2NF, Wigan, England, United Kingdom","Country":"GBR","State":"England","County":"Lancashire","City":"Wigan","PostalCode":"WN1 2NF","AdditionalData":[{"value":"United Kingdom","key":"CountryName"},{"value":"England","key":"StateName"},{"value":"Lancashire","key":"CountyName"}]},"MapReference":{"ReferenceId":"865739452","Spot":0.0,"SideOfStreet":"neither","StateId":"20248595","CountyId":"20343938","CityId":"20344473"}}}]}]}}