{"Response":{"MetaInfo":{"Timestamp":"2020-03-28T10:57:13.799+0000","NextPageInformation":"2"},"View":[{"_type":"SearchResultsViewType","ViewId":0,"Result":[{"Relevance":1.0,"Distance":-1774.8,"MatchLevel":"landmark","MatchQuality":{"Country":1.0,"State":1.0,"Name":1.0},"Location":{"LocationId":"NT_b0GYMTFGUucImDupc0XizB","LocationType":"park","Name":"Nationalpark Nieders. Wattenmeer","DisplayPosition":{"Latitude":53.60133,"Longitude":6.97243},"MapView":{"TopLeft":{"Latitude":53.84289,"Longitude":6.57255},"BottomRight":{"Latitude":53.35976,"Longitude":8.08731}},"Address":{"Label":"Deutschland","Country":"DEU","State":"Niedersachsen","AdditionalData":[{"value":"Deutschland","key":"CountryName"},{"value":"Niedersachsen","key":"StateName"}]},"MapReference":{"CountryId":"20147700","StateId":"20151542","PlaceId":"58222993"}}},{"Relevance":1.0,"Distance":-996.4,"MatchLevel":"landmark","MatchQuality":{"Country":1.0,"State":1.0,"County":1.0,"City":1.0,"PostalCode":1.0,"Name":1.0},"Location":{"LocationId":"NT_Z0-OmHhVbUWYZQYXbBzDYD","LocationType":"island","Name":"Borkum","DisplayPosition":{"Latitude":53.58617,"Longitude":6.6919},"MapView":{"TopLeft":{"Latitude":53.61715,"Longitude":6.65074},"BottomRight":{"Latitude":53.55519,"Longitude":6.81651}},"Address":{"Label":"26757 Borkum, Deutschland","Country":"DEU","State":"Niedersachsen","County":"Leer","City":"Borkum","PostalCode":"26757","AdditionalData":[{"value":"Deutschland","key":"CountryName"},{"value":"Niedersachsen","key":"StateName"},{"value":"Leer","key":"CountyName"}]},"MapReference":{"CountryId":"20147700","StateId":"20151542","CountyId":"20156694","CityId":"20156698","PlaceId":"50390147"}}},{"Relevance":1.0,"Distance":0.0,"Direction":0.0,"MatchLevel":"district","MatchQuality":{"Country":1.0,"State":1.0,"County":1.0,"City":1.0,"District":1.0,"PostalCode":1.0},"Location":{"LocationId":"NT_3DDBstu-VNQgQMR1QXn8CC","LocationType":"point","DisplayPosition":{"Latitude":53.5859506,"Longitude":6.6704057},"MapView":{"TopLeft":{"Latitude":53.59394,"Longitude":6.6561},"BottomRight":{"Latitude":53.57708,"Longitude":6.69519}},"Address":{"Label":"Borkum, Niedersachsen, Deutschland","Country":"DEU","State":"Niedersachsen","County":"Leer","City":"Borkum","District":"Borkum","PostalCode":"26757","AdditionalData":[{"value":"Deutschland","key":"CountryName"},{"value":"Niedersachsen","key":"StateName"},{"value":"Leer","key":"CountyName"}]},"MapReference":{"ReferenceId":"83729857","SideOfStreet":"neither","CountryId":"20147700","StateId":"20151542","CountyId":"20156694","CityId":"20156698","DistrictId":"20156700"}}},{"Relevance":1.0,"Distance":16.8,"MatchLevel":"houseNumber","MatchQuality":{"Country":1.0,"State":1.0,"County":1.0,"City":1.0,"District":1.0,"Street":[1.0],"HouseNumber":1.0,"PostalCode":1.0},"MatchType":"interpolated","Location":{"LocationId":"NT_9OaN-5odyC4AFEYNg6fkBC_xgzQ","LocationType":"point","DisplayPosition":{"Latitude":53.58596,"Longitude":6.67066},"MapView":{"TopLeft":{"Latitude":53.5870842,"Longitude":6.6687663},"BottomRight":{"Latitude":53.5848358,"Longitude":6.6725537}},"Address":{"Label":"Gartenstraße 18C, 26757 Borkum, Deutschland","Country":"DEU","State":"Niedersachsen","County":"Leer","City":"Borkum","District":"Borkum","Street":"Gartenstraße","HouseNumber":"18C","PostalCode":"26757","AdditionalData":[{"value":"Deutschland","key":"CountryName"},{"value":"Niedersachsen","key":"StateName"},{"value":"Leer","key":"CountyName"}]},"MapReference":{"ReferenceId":"83729504","Spot":0.63,"SideOfStreet":"left","CountryId":"20147700","StateId":"20151542","CountyId":"20156694","CityId":"20156698","DistrictId":"20156700","AddressId":"621969402","RoadLinkId":"37024950"}}},{"Relevance":1.0,"Distance":48.0,"MatchLevel":"houseNumber","MatchQuality":{"Country":1.0,"State":1.0,"County":1.0,"City":1.0,"District":1.0,"Street":[1.0],"HouseNumber":1.0,"PostalCode":1.0},"MatchType":"interpolated","Location":{"LocationId":"NT_37GK9T9Sp.z1Gl35xm3rOD_3A","LocationType":"point","DisplayPosition":{"Latitude":53.58647,"Longitude":6.67026},"MapView":{"TopLeft":{"Latitude":53.5875942,"Longitude":6.6683662},"BottomRight":{"Latitude":53.5853458,"Longitude":6.6721538}},"Address":{"Label":"Wiesenweg 7, 26757 Borkum, Deutschland","Country":"DEU","State":"Niedersachsen","County":"Leer","City":"Borkum","District":"Borkum","Street":"Wiesenweg","HouseNumber":"7","PostalCode":"26757","AdditionalData":[{"value":"Deutschland","key":"CountryName"},{"value":"Niedersachsen","key":"StateName"},{"value":"Leer","key":"CountyName"}]},"MapReference":{"ReferenceId":"917441367","Spot":0.82,"SideOfStreet":"right","CountryId":"20147700","StateId":"20151542","CountyId":"20156694","CityId":"20156698","DistrictId":"20156700","AddressId":"179506633","RoadLinkId":"274999097"}}},{"Relevance":1.0,"Distance":55.0,"MatchLevel":"houseNumber","MatchQuality":{"Country":1.0,"State":1.0,"County":1.0,"City":1.0,"District":1.0,"Street":[1.0],"HouseNumber":1.0,"PostalCode":1.0},"MatchType":"interpolated","Location":{"LocationId":"NT_37GK9T9Sp.z1Gl35xm3rOD_1A","LocationType":"point","DisplayPosition":{"Latitude":53.58652,"Longitude":6.67046},"MapView":{"TopLeft":{"Latitude":53.5876442,"Longitude":6.6685662},"BottomRight":{"Latitude":53.5853958,"Longitude":6.6723538}},"Address":{"Label":"Wiesenweg 5, 26757 Borkum, Deutschland","Country":"DEU","State":"Niedersachsen","County":"Leer","City":"Borkum","District":"Borkum","Street":"Wiesenweg","HouseNumber":"5","PostalCode":"26757","AdditionalData":[{"value":"Deutschland","key":"CountryName"},{"value":"Niedersachsen","key":"StateName"},{"value":"Leer","key":"CountyName"}]},"MapReference":{"ReferenceId":"917441368","Spot":0.05,"SideOfStreet":"right","CountryId":"20147700","StateId":"20151542","CountyId":"20156694","CityId":"20156698","DistrictId":"20156700","AddressId":"180797118","RoadLinkId":"274999098"}}},{"Relevance":1.0,"Distance":66.4,"MatchLevel":"houseNumber","MatchQuality":{"Country":1.0,"State":1.0,"County":1.0,"City":1.0,"District":1.0,"Street":[1.0],"HouseNumber":1.0,"PostalCode":1.0},"MatchType":"interpolated","Location":{"LocationId":"NT_37GK9T9Sp.z1Gl35xm3rOD_xcD","LocationType":"point","DisplayPosition":{"Latitude":53.58625,"Longitude":6.66935},"MapView":{"TopLeft":{"Latitude":53.5873742,"Longitude":6.6674563},"BottomRight":{"Latitude":53.5851258,"Longitude":6.6712437}},"Address":{"Label":"Wiesenweg 17, 26757 Borkum, Deutschland","Country":"DEU","State":"Niedersachsen","County":"Leer","City":"Borkum","District":"Borkum","Street":"Wiesenweg","HouseNumber":"17","PostalCode":"26757","AdditionalData":[{"value":"Deutschland","key":"CountryName"},{"value":"Niedersachsen","key":"StateName"},{"value":"Leer","key":"CountyName"}]},"MapReference":{"ReferenceId":"83729510","Spot":0.36,"SideOfStreet":"right","CountryId":"20147700","StateId":"20151542","CountyId":"20156694","CityId":"20156698","DistrictId":"20156700","AddressId":"181679481","RoadLinkId":"36889764"}}},{"Relevance":1.0,"Distance":69.3,"MatchLevel":"houseNumber","MatchQuality":{"Country":1.0,"State":1.0,"County":1.0,"City":1.0,"District":1.0,"Street":[1.0],"HouseNumber":1.0,"PostalCode":1.0},"MatchType":"interpolated","Location":{"LocationId":"NT_37GK9T9Sp.z1Gl35xm3rOD_xkD","LocationType":"point","DisplayPosition":{"Latitude":53.58603,"Longitude":6.66921},"MapView":{"TopLeft":{"Latitude":53.5871542,"Longitude":6.6673163},"BottomRight":{"Latitude":53.5849058,"Longitude":6.6711037}},"Address":{"Label":"Wiesenweg 19, 26757 Borkum, Deutschland","Country":"DEU","State":"Niedersachsen","County":"Leer","City":"Borkum","District":"Borkum","Street":"Wiesenweg","HouseNumber":"19","PostalCode":"26757","AdditionalData":[{"value":"Deutschland","key":"CountryName"},{"value":"Niedersachsen","key":"StateName"},{"value":"Leer","key":"CountyName"}]},"MapReference":{"ReferenceId":"83729561","Spot":0.94,"SideOfStreet":"right","CountryId":"20147700","StateId":"20151542","CountyId":"20156694","CityId":"20156698","DistrictId":"20156700","AddressId":"177043672","RoadLinkId":"37327257"}}},{"Relevance":1.0,"Distance":75.9,"MatchLevel":"houseNumber","MatchQuality":{"Country":1.0,"State":1.0,"County":1.0,"City":1.0,"District":1.0,"Street":[1.0],"HouseNumber":1.0,"PostalCode":1.0},"MatchType":"interpolated","Location":{"LocationId":"NT_-H6a69yueQRhqJQQ9h2CaC_xID","LocationType":"point","DisplayPosition":{"Latitude":53.58669,"Longitude":6.67033},"MapView":{"TopLeft":{"Latitude":53.5878142,"Longitude":6.6684362},"BottomRight":{"Latitude":53.5855658,"Longitude":6.6722238}},"Address":{"Label":"Rektor-Meyer-Pfad 12, 26757 Borkum, Deutschland","Country":"DEU","State":"Niedersachsen","County":"Leer","City":"Borkum","District":"Borkum","Street":"Rektor-Meyer-Pfad","HouseNumber":"12","PostalCode":"26757","AdditionalData":[{"value":"Deutschland","key":"CountryName"},{"value":"Niedersachsen","key":"StateName"},{"value":"Leer","key":"CountyName"}]},"MapReference":{"ReferenceId":"917543850","Spot":0.25,"SideOfStreet":"left","CountryId":"20147700","StateId":"20151542","CountyId":"20156694","CityId":"20156698","DistrictId":"20156700","AddressId":"341592276","RoadLinkId":"275116925"}}},{"Relevance":1.0,"Distance":87.1,"MatchLevel":"houseNumber","MatchQuality":{"Country":1.0,"State":1.0,"County":1.0,"City":1.0,"District":1.0,"Street":[1.0],"HouseNumber":1.0,"PostalCode":1.0},"MatchType":"interpolated","Location":{"LocationId":"NT_pCzutzhp.rFIyMChMrCDvB_yA","LocationType":"point","DisplayPosition":{"Latitude":53.58666,"Longitude":6.67144},"MapView":{"TopLeft":{"Latitude":53.5877842,"Longitude":6.6695462},"BottomRight":{"Latitude":53.5855358,"Longitude":6.6733338}},"Address":{"Label":"Reedestraße 2, 26757 Borkum, Deutschland","Country":"DEU","State":"Niedersachsen","County":"Leer","City":"Borkum","District":"Borkum","Street":"Reedestraße","HouseNumber":"2","PostalCode":"26757","AdditionalData":[{"value":"Deutschland","key":"CountryName"},{"value":"Niedersachsen","key":"StateName"},{"value":"Leer","key":"CountyName"}]},"MapReference":{"ReferenceId":"83729846","Spot":0.84,"SideOfStreet":"left","CountryId":"20147700","StateId":"20151542","CountyId":"20156694","CityId":"20156698","DistrictId":"20156700","AddressId":"180559914","RoadLinkId":"37012980"}}}]}]}}