{"Response":{"MetaInfo":{"Timestamp":"2020-03-28T11:30:13.520+0000","NextPageInformation":"2"},"View":[{"_type":"SearchResultsViewType","ViewId":0,"Result":[{"Relevance":1.0,"Distance":0.0,"Direction":0.0,"MatchLevel":"district","MatchQuality":{"Country":1.0,"State":1.0,"County":1.0,"City":1.0,"District":1.0,"PostalCode":1.0},"Location":{"LocationId":"NT_EQ9ABp1SnRnzV-TfLKehpA","LocationType":"point","DisplayPosition":{"Latitude":53.5174671,"Longitude":19.0812354},"MapView":{"TopLeft":{"Latitude":53.52725,"Longitude":19.07848},"BottomRight":{"Latitude":53.51194,"Longitude":19.09623}},"Address":{"Label":"Łasin, Woj. Kujawsko-Pomorskie, Polska","Country":"POL","State":"Woj. Kujawsko-Pomorskie","County":"Powiat Grudziądzki","City":"Łasin","District":"Łasin","PostalCode":"86-320","AdditionalData":[{"value":"Polska","key":"CountryName"},{"value":"Woj. Kujawsko-Pomorskie","key":"StateName"},{"value":"Powiat Grudziądzki","key":"CountyName"}]},"MapReference":{"ReferenceId":"762599097","SideOfStreet":"neither","CountryId":"20624059","StateId":"20625395","CountyId":"20625489","CityId":"20625494","DistrictId":"20681541"}}},{"Relevance":1.0,"Distance":13.1,"MatchLevel":"houseNumber","MatchQuality":{"Country":1.0,"State":1.0,"County":1.0,"City":1.0,"District":1.0,"Street":[1.0],"HouseNumber":1.0,"PostalCode":1.0},"MatchType":"interpolated","Location":{"LocationId":"NT_uNgk5gMnHQHlE0budDO4JD_0A","LocationType":"point","DisplayPosition":{"Latitude":53.51725,"Longitude":19.0815},"MapView":{"TopLeft":{"Latitude":53.5183742,"Longitude":19.0796093},"BottomRight":{"Latitude":53.5161258,"Longitude":19.0833907}},"Address":{"Label":"ulica Radzyńska 4, 86-320 Łasin, Polska","Country":"POL","State":"Woj. Kujawsko-Pomorskie","County":"Powiat Grudziądzki","City":"Łasin","District":"Łasin","Street":"ulica Radzyńska","HouseNumber":"4","PostalCode":"86-320","AdditionalData":[{"value":"Polska","key":"CountryName"},{"value":"Woj. Kujawsko-Pomorskie","key":"StateName"},{"value":"Powiat Grudziądzki","key":"CountyName"}]},"MapReference":{"ReferenceId":"1176018639","Spot":0.84,"SideOfStreet":"left","CountryId":"20624059","StateId":"20625395","CountyId":"20625489","CityId":"20625494","DistrictId":"20681541","AddressId":"211244469","RoadLinkId":"483593067"}}},{"Relevance":1.0,"Distance":38.3,"MatchLevel":"houseNumber","MatchQuality":{"Country":1.0,"State":1.0,"County":1.0,"City":1.0,"District":1.0,"Street":[1.0],"HouseNumber":1.0,"PostalCode":1.0},"MatchType":"interpolated","Location":{"LocationId":"NT_uNgk5gMnHQHlE0budDO4JD_xUD","LocationType":"point","DisplayPosition":{"Latitude":53.51732,"Longitude":19.08176},"MapView":{"TopLeft":{"Latitude":53.5184442,"Longitude":19.0798693},"BottomRight":{"Latitude":53.5161958,"Longitude":19.0836507}},"Address":{"Label":"ulica Radzyńska 15, 86-320 Łasin, Polska","Country":"POL","State":"Woj. Kujawsko-Pomorskie","County":"Powiat Grudziądzki","City":"Łasin","District":"Łasin","Street":"ulica Radzyńska","HouseNumber":"15","PostalCode":"86-320","AdditionalData":[{"value":"Polska","key":"CountryName"},{"value":"Woj. Kujawsko-Pomorskie","key":"StateName"},{"value":"Powiat Grudziądzki","key":"CountyName"}]},"MapReference":{"ReferenceId":"1176018640","Spot":0.04,"SideOfStreet":"right","CountryId":"20624059","StateId":"20625395","CountyId":"20625489","CityId":"20625494","DistrictId":"20681541","AddressId":"210803564","RoadLinkId":"483593068"}}},{"Relevance":1.0,"Distance":69.1,"MatchLevel":"street","MatchQuality":{"Country":1.0,"State":1.0,"County":1.0,"City":1.0,"District":1.0,"Street":[1.0],"PostalCode":1.0},"Location":{"LocationId":"NT_uNgk5gMnHQHlE0budDO4JD_l_960536386_L","LocationType":"point","DisplayPosition":{"Latitude":53.51745,"Longitude":19.08228},"MapView":{"TopLeft":{"Latitude":53.51752,"Longitude":19.08228},"BottomRight":{"Latitude":53.51745,"Longitude":19.08254}},"Address":{"Label":"ulica Radzyńska, 86-320 Łasin, Polska","Country":"POL","State":"Woj. Kujawsko-Pomorskie","County":"Powiat Grudziądzki","City":"Łasin","District":"Łasin","Street":"ulica Radzyńska","PostalCode":"86-320","AdditionalData":[{"value":"Polska","key":"CountryName"},{"value":"Woj. Kujawsko-Pomorskie","key":"StateName"},{"value":"Powiat Grudziądzki","key":"CountyName"}]},"MapReference":{"ReferenceId":"960536386","Spot":0.0,"SideOfStreet":"left","CountryId":"20624059","StateId":"20625395","CountyId":"20625489","CityId":"20625494","DistrictId":"20681541"}}},{"Relevance":1.0,"Distance":73.4,"MatchLevel":"houseNumber","MatchQuality":{"Country":1.0,"State":1.0,"County":1.0,"City":1.0,"District":1.0,"Street":[1.0],"HouseNumber":1.0,"PostalCode":1.0},"MatchType":"interpolated","Location":{"LocationId":"NT_uapSJl6smBQHP7Wr4d8uGA_zA","LocationType":"point","DisplayPosition":{"Latitude":53.51823,"Longitude":19.08137},"MapView":{"TopLeft":{"Latitude":53.5193542,"Longitude":19.0794793},"BottomRight":{"Latitude":53.5171058,"Longitude":19.0832607}},"Address":{"Label":"ulica Krótka 3, 86-320 Łasin, Polska","Country":"POL","State":"Woj. Kujawsko-Pomorskie","County":"Powiat Grudziądzki","City":"Łasin","District":"Łasin","Street":"ulica Krótka","HouseNumber":"3","PostalCode":"86-320","AdditionalData":[{"value":"Polska","key":"CountryName"},{"value":"Woj. Kujawsko-Pomorskie","key":"StateName"},{"value":"Powiat Grudziądzki","key":"CountyName"}]},"MapReference":{"ReferenceId":"762599129","Spot":0.64,"SideOfStreet":"right","CountryId":"20624059","StateId":"20625395","CountyId":"20625489","CityId":"20625494","DistrictId":"20681541","AddressId":"210771093","RoadLinkId":"156818396"}}},{"Relevance":1.0,"Distance":83.8,"MatchLevel":"street","MatchQuality":{"Country":1.0,"State":1.0,"County":1.0,"City":1.0,"District":1.0,"Street":[1.0],"PostalCode":1.0},"Location":{"LocationId":"NT_UUh-ZFzHH4N9Zt4BMMhqjB_l_880291674_L","LocationType":"point","DisplayPosition":{"Latitude":53.51766,"Longitude":19.08246},"MapView":{"TopLeft":{"Latitude":53.51766,"Longitude":19.08246},"BottomRight":{"Latitude":53.51752,"Longitude":19.08254}},"Address":{"Label":"ulica Warszawska, 86-320 Łasin, Polska","Country":"POL","State":"Woj. Kujawsko-Pomorskie","County":"Powiat Grudziądzki","City":"Łasin","District":"Łasin","Street":"ulica Warszawska","PostalCode":"86-320","AdditionalData":[{"value":"Polska","key":"CountryName"},{"value":"Woj. Kujawsko-Pomorskie","key":"StateName"},{"value":"Powiat Grudziądzki","key":"CountyName"}]},"MapReference":{"ReferenceId":"880291674","Spot":1.0,"SideOfStreet":"left","CountryId":"20624059","StateId":"20625395","CountyId":"20625489","CityId":"20625494","DistrictId":"20681541"}}},{"Relevance":1.0,"Distance":86.3,"MatchLevel":"street","MatchQuality":{"Country":1.0,"State":1.0,"County":1.0,"City":1.0,"District":1.0,"Street":[1.0],"PostalCode":1.0},"Location":{"LocationId":"NT_hsLZ67d6S19PcQXzJr4pTB_l_1176018633_L","LocationType":"point","DisplayPosition":{"Latitude":53.51785,"Longitude":19.08237},"MapView":{"TopLeft":{"Latitude":53.51785,"Longitude":19.08237},"BottomRight":{"Latitude":53.51766,"Longitude":19.08246}},"Address":{"Label":"ulica Warszawska, 86-320 Łasin, Polska","Country":"POL","State":"Woj. Kujawsko-Pomorskie","County":"Powiat Grudziądzki","City":"Łasin","District":"Łasin","Street":"ulica Warszawska","PostalCode":"86-320","AdditionalData":[{"value":"Polska","key":"CountryName"},{"value":"Woj. Kujawsko-Pomorskie","key":"StateName"},{"value":"Powiat Grudziądzki","key":"CountyName"}]},"MapReference":{"ReferenceId":"1176018633","Spot":1.0,"SideOfStreet":"left","CountryId":"20624059","StateId":"20625395","CountyId":"20625489","CityId":"20625494","DistrictId":"20681541"}}},{"Relevance":1.0,"Distance":86.5,"MatchLevel":"street","MatchQuality":{"Country":1.0,"State":1.0,"County":1.0,"City":1.0,"District":1.0,"Street":[1.0],"PostalCode":1.0},"Location":{"LocationId":"NT_ckz1OoUCkcOok7EXEKbdqC_l_880291677_L","LocationType":"point","DisplayPosition":{"Latitude":53.51752,"Longitude":19.08254},"MapView":{"TopLeft":{"Latitude":53.51752,"Longitude":19.08254},"BottomRight":{"Latitude":53.51743,"Longitude":19.0826}},"Address":{"Label":"ulica Marii Skłodowskiej-Curie, 86-320 Łasin, Polska","Country":"POL","State":"Woj. Kujawsko-Pomorskie","County":"Powiat Grudziądzki","City":"Łasin","District":"Łasin","Street":"ulica Marii Skłodowskiej-Curie","PostalCode":"86-320","AdditionalData":[{"value":"Polska","key":"CountryName"},{"value":"Woj. Kujawsko-Pomorskie","key":"StateName"},{"value":"Powiat Grudziądzki","key":"CountyName"}]},"MapReference":{"ReferenceId":"880291677","Spot":1.0,"SideOfStreet":"left","CountryId":"20624059","StateId":"20625395","CountyId":"20625489","CityId":"20625494","DistrictId":"20681541"}}},{"Relevance":1.0,"Distance":86.5,"MatchLevel":"street","MatchQuality":{"Country":1.0,"State":1.0,"County":1.0,"City":1.0,"District":1.0,"Street":[1.0],"PostalCode":1.0},"Location":{"LocationId":"NT_uNgk5gMnHQHlE0budDO4JD_l_762599053_L","LocationType":"point","DisplayPosition":{"Latitude":53.51752,"Longitude":19.08254},"MapView":{"TopLeft":{"Latitude":53.51759,"Longitude":19.08254},"BottomRight":{"Latitude":53.51752,"Longitude":19.08275}},"Address":{"Label":"ulica Radzyńska, 86-320 Łasin, Polska","Country":"POL","State":"Woj. Kujawsko-Pomorskie","County":"Powiat Grudziądzki","City":"Łasin","District":"Łasin","Street":"ulica Radzyńska","PostalCode":"86-320","AdditionalData":[{"value":"Polska","key":"CountryName"},{"value":"Woj. Kujawsko-Pomorskie","key":"StateName"},{"value":"Powiat Grudziądzki","key":"CountyName"}]},"MapReference":{"ReferenceId":"762599053","Spot":0.0,"SideOfStreet":"left","CountryId":"20624059","StateId":"20625395","CountyId":"20625489","CityId":"20625494","DistrictId":"20681541"}}},{"Relevance":1.0,"Distance":90.3,"MatchLevel":"street","MatchQuality":{"Country":1.0,"State":1.0,"County":1.0,"City":1.0,"District":1.0,"Street":[1.0],"PostalCode":1.0},"Location":{"LocationId":"NT_ckz1OoUCkcOok7EXEKbdqC_l_1176018635_L","LocationType":"point","DisplayPosition":{"Latitude":53.51743,"Longitude":19.0826},"MapView":{"TopLeft":{"Latitude":53.51743,"Longitude":19.0826},"BottomRight":{"Latitude":53.51724,"Longitude":19.08274}},"Address":{"Label":"ulica Marii Skłodowskiej-Curie, 86-320 Łasin, Polska","Country":"POL","State":"Woj. Kujawsko-Pomorskie","County":"Powiat Grudziądzki","City":"Łasin","District":"Łasin","Street":"ulica Marii Skłodowskiej-Curie","PostalCode":"86-320","AdditionalData":[{"value":"Polska","key":"CountryName"},{"value":"Woj. Kujawsko-Pomorskie","key":"StateName"},{"value":"Powiat Grudziądzki","key":"CountyName"}]},"MapReference":{"ReferenceId":"1176018635","Spot":1.0,"SideOfStreet":"left","CountryId":"20624059","StateId":"20625395","CountyId":"20625489","CityId":"20625494","DistrictId":"20681541"}}}]}]}}