{"Response":{"MetaInfo":{"Timestamp":"2020-03-28T10:59:43.039+0000","NextPageInformation":"2"},"View":[{"_type":"SearchResultsViewType","ViewId":0,"Result":[{"Relevance":1.0,"Distance":-30.3,"MatchLevel":"landmark","MatchQuality":{"Country":1.0,"State":1.0,"County":1.0,"City":1.0,"District":1.0,"PostalCode":1.0,"Name":1.0},"Location":{"LocationId":"NT_SnS3lgZUgLTltayh5aP3tA","LocationType":"hospital","Name":"Lungen Clinic Großhansdorf","DisplayPosition":{"Latitude":53.66053,"Longitude":10.28118},"MapView":{"TopLeft":{"Latitude":53.66135,"Longitude":10.2792},"BottomRight":{"Latitude":53.6597,"Longitude":10.28316}},"Address":{"Label":"22927 Großhansdorf, Deutschland","Country":"DEU","State":"Schleswig-Holstein","County":"Stormarn","City":"Großhansdorf","District":"Großhansdorf","PostalCode":"22927","AdditionalData":[{"value":"Deutschland","key":"CountryName"},{"value":"Schleswig-Holstein","key":"StateName"},{"value":"Stormarn","key":"CountyName"}]},"MapReference":{"CountryId":"20147700","StateId":"20147701","CountyId":"20151315","CityId":"20151370","DistrictId":"20151374","PlaceId":"58218416"}}},{"Relevance":1.0,"Distance":0.0,"Direction":0.0,"MatchLevel":"district","MatchQuality":{"Country":1.0,"State":1.0,"County":1.0,"City":1.0,"District":1.0,"PostalCode":1.0},"Location":{"LocationId":"NT_XXs2YIexPpTuzCLQmBIgCD","LocationType":"point","DisplayPosition":{"Latitude":53.660578,"Longitude":10.2801684},"MapView":{"TopLeft":{"Latitude":53.67476,"Longitude":10.27082},"BottomRight":{"Latitude":53.65733,"Longitude":10.29396}},"Address":{"Label":"Großhansdorf, Schleswig-Holstein, Deutschland","Country":"DEU","State":"Schleswig-Holstein","County":"Stormarn","City":"Großhansdorf","District":"Großhansdorf","PostalCode":"22927","AdditionalData":[{"value":"Deutschland","key":"CountryName"},{"value":"Schleswig-Holstein","key":"StateName"},{"value":"Stormarn","key":"CountyName"}]},"MapReference":{"ReferenceId":"833436795","SideOfStreet":"neither","CountryId":"20147700","StateId":"20147701","CountyId":"20151315","CityId":"20151370","DistrictId":"20151374"}}},{"Relevance":1.0,"Distance":22.7,"MatchLevel":"street","MatchQuality":{"Country":1.0,"State":1.0,"County":1.0,"City":1.0,"District":1.0,"PostalCode":1.0},"Location":{"LocationId":"NT_9tFY5tePm2Q1Kvdb4hPLcB_l_586504886_R","LocationType":"point","DisplayPosition":{"Latitude":53.6607604,"Longitude":10.2800121},"MapView":{"TopLeft":{"Latitude":53.66114,"Longitude":10.27993},"BottomRight":{"Latitude":53.66069,"Longitude":10.28316}},"Address":{"Label":"22927 Großhansdorf, Deutschland","Country":"DEU","State":"Schleswig-Holstein","County":"Stormarn","City":"Großhansdorf","District":"Großhansdorf","PostalCode":"22927","AdditionalData":[{"value":"Deutschland","key":"CountryName"},{"value":"Schleswig-Holstein","key":"StateName"},{"value":"Stormarn","key":"CountyName"}]},"MapReference":{"ReferenceId":"586504886","Spot":0.03,"SideOfStreet":"right","CountryId":"20147700","StateId":"20147701","CountyId":"20151315","CityId":"20151370","DistrictId":"20151374"}}},{"Relevance":1.0,"Distance":30.4,"MatchLevel":"landmark","MatchQuality":{"Country":1.0,"State":1.0,"County":1.0,"Name":1.0},"Location":{"LocationId":"NT_wiAxxkgagdeKO2sa5S0.eC","LocationType":"woodland","Name":"Staatsforst Trittau","DisplayPosition":{"Latitude":53.65935,"Longitude":10.29845},"MapView":{"TopLeft":{"Latitude":53.6743,"Longitude":10.25434},"BottomRight":{"Latitude":53.6444,"Longitude":10.30669}},"Address":{"Label":"Deutschland","Country":"DEU","State":"Schleswig-Holstein","County":"Stormarn","AdditionalData":[{"value":"Deutschland","key":"CountryName"},{"value":"Schleswig-Holstein","key":"StateName"},{"value":"Stormarn","key":"CountyName"}]},"MapReference":{"CountryId":"20147700","StateId":"20147701","CountyId":"20151315","PlaceId":"50331767"}}},{"Relevance":1.0,"Distance":94.3,"MatchLevel":"houseNumber","MatchQuality":{"Country":1.0,"State":1.0,"County":1.0,"City":1.0,"District":1.0,"Street":[1.0],"HouseNumber":1.0,"PostalCode":1.0},"MatchType":"interpolated","Location":{"LocationId":"NT_RAmPzAzj.mQGTtuk05HpaD_4AD","LocationType":"point","DisplayPosition":{"Latitude":53.6602,"Longitude":10.28252},"MapView":{"TopLeft":{"Latitude":53.6613242,"Longitude":10.2806229},"BottomRight":{"Latitude":53.6590758,"Longitude":10.2844171}},"Address":{"Label":"Wöhrendamm 80, 22927 Großhansdorf, Deutschland","Country":"DEU","State":"Schleswig-Holstein","County":"Stormarn","City":"Großhansdorf","District":"Großhansdorf","Street":"Wöhrendamm","HouseNumber":"80","PostalCode":"22927","AdditionalData":[{"value":"Deutschland","key":"CountryName"},{"value":"Schleswig-Holstein","key":"StateName"},{"value":"Stormarn","key":"CountyName"}]},"MapReference":{"ReferenceId":"993098491","Spot":0.05,"SideOfStreet":"left","CountryId":"20147700","StateId":"20147701","CountyId":"20151315","CityId":"20151370","DistrictId":"20151374","AddressId":"622883573","RoadLinkId":"321641496"}}},{"Relevance":1.0,"Distance":144.4,"MatchLevel":"houseNumber","MatchQuality":{"Country":1.0,"State":1.0,"County":1.0,"City":1.0,"District":1.0,"Street":[1.0],"HouseNumber":1.0,"PostalCode":1.0},"MatchType":"interpolated","Location":{"LocationId":"NT_RAmPzAzj.mQGTtuk05HpaD_2gjQ","LocationType":"point","DisplayPosition":{"Latitude":53.66055,"Longitude":10.28277},"MapView":{"TopLeft":{"Latitude":53.6616742,"Longitude":10.2808729},"BottomRight":{"Latitude":53.6594258,"Longitude":10.2846671}},"Address":{"Label":"Wöhrendamm 68B, 22927 Großhansdorf, Deutschland","Country":"DEU","State":"Schleswig-Holstein","County":"Stormarn","City":"Großhansdorf","District":"Großhansdorf","Street":"Wöhrendamm","HouseNumber":"68B","PostalCode":"22927","AdditionalData":[{"value":"Deutschland","key":"CountryName"},{"value":"Schleswig-Holstein","key":"StateName"},{"value":"Stormarn","key":"CountyName"}]},"MapReference":{"ReferenceId":"993203925","Spot":0.0,"SideOfStreet":"left","CountryId":"20147700","StateId":"20147701","CountyId":"20151315","CityId":"20151370","DistrictId":"20151374","AddressId":"192623942","RoadLinkId":"321749171"}}},{"Relevance":1.0,"Distance":146.1,"MatchLevel":"houseNumber","MatchQuality":{"Country":1.0,"State":1.0,"County":1.0,"City":1.0,"Street":[1.0],"HouseNumber":1.0,"PostalCode":1.0},"MatchType":"interpolated","Location":{"LocationId":"NT_vg0xhutXs2OXVnuxKY7DsA_0ID","LocationType":"point","DisplayPosition":{"Latitude":53.65935,"Longitude":10.27938},"MapView":{"TopLeft":{"Latitude":53.6604742,"Longitude":10.277483},"BottomRight":{"Latitude":53.6582258,"Longitude":10.281277}},"Address":{"Label":"Waldreiterweg 42, 22927 Großhansdorf, Deutschland","Country":"DEU","State":"Schleswig-Holstein","County":"Stormarn","City":"Großhansdorf","Street":"Waldreiterweg","HouseNumber":"42","PostalCode":"22927","AdditionalData":[{"value":"Deutschland","key":"CountryName"},{"value":"Schleswig-Holstein","key":"StateName"},{"value":"Stormarn","key":"CountyName"}]},"MapReference":{"ReferenceId":"735363798","Spot":0.15,"SideOfStreet":"left","CountryId":"20147700","StateId":"20147701","CountyId":"20151315","CityId":"20151370","AddressId":"194015413","RoadLinkId":"135325081"}}},{"Relevance":1.0,"Distance":160.4,"MatchLevel":"street","MatchQuality":{"Country":1.0,"State":1.0,"County":1.0,"City":1.0,"District":1.0,"Street":[1.0],"PostalCode":1.0},"Location":{"LocationId":"NT_RAmPzAzj.mQGTtuk05HpaD_l_993098490_L","LocationType":"point","DisplayPosition":{"Latitude":53.65982,"Longitude":10.28224},"MapView":{"TopLeft":{"Latitude":53.66019,"Longitude":10.28224},"BottomRight":{"Latitude":53.65982,"Longitude":10.28251}},"Address":{"Label":"Wöhrendamm, 22927 Großhansdorf, Deutschland","Country":"DEU","State":"Schleswig-Holstein","County":"Stormarn","City":"Großhansdorf","District":"Großhansdorf","Street":"Wöhrendamm","PostalCode":"22927","AdditionalData":[{"value":"Deutschland","key":"CountryName"},{"value":"Schleswig-Holstein","key":"StateName"},{"value":"Stormarn","key":"CountyName"}]},"MapReference":{"ReferenceId":"993098490","Spot":0.0,"SideOfStreet":"left","CountryId":"20147700","StateId":"20147701","CountyId":"20151315","CityId":"20151370","DistrictId":"20151374"}}},{"Relevance":1.0,"Distance":163.9,"MatchLevel":"landmark","MatchQuality":{"Country":1.0,"State":1.0,"County":1.0,"City":1.0,"PostalCode":1.0,"Name":1.0},"Location":{"LocationId":"NT_gz-I5qafLvVRvsDdSVHc3A","LocationType":"lake","Name":"Mühlenteich","DisplayPosition":{"Latitude":53.66267,"Longitude":10.27917},"MapView":{"TopLeft":{"Latitude":53.66336,"Longitude":10.27879},"BottomRight":{"Latitude":53.66198,"Longitude":10.27988}},"Address":{"Label":"22927 Großhansdorf, Deutschland","Country":"DEU","State":"Schleswig-Holstein","County":"Stormarn","City":"Großhansdorf","PostalCode":"22927","AdditionalData":[{"value":"Deutschland","key":"CountryName"},{"value":"Schleswig-Holstein","key":"StateName"},{"value":"Stormarn","key":"CountyName"}]},"MapReference":{"CountryId":"20147700","StateId":"20147701","CountyId":"20151315","CityId":"20151370","PlaceId":"50393465"}}},{"Relevance":1.0,"Distance":175.0,"MatchLevel":"houseNumber","MatchQuality":{"Country":1.0,"State":1.0,"County":1.0,"City":1.0,"District":1.0,"Street":[1.0],"HouseNumber":1.0,"PostalCode":1.0},"MatchType":"interpolated","Location":{"LocationId":"NT_RAmPzAzj.mQGTtuk05HpaD_5MjR","LocationType":"point","DisplayPosition":{"Latitude":53.65938,"Longitude":10.28189},"MapView":{"TopLeft":{"Latitude":53.6605042,"Longitude":10.279993},"BottomRight":{"Latitude":53.6582558,"Longitude":10.283787}},"Address":{"Label":"Wöhrendamm 93F, 22927 Großhansdorf, Deutschland","Country":"DEU","State":"Schleswig-Holstein","County":"Stormarn","City":"Großhansdorf","District":"Großhansdorf","Street":"Wöhrendamm","HouseNumber":"93F","PostalCode":"22927","AdditionalData":[{"value":"Deutschland","key":"CountryName"},{"value":"Schleswig-Holstein","key":"StateName"},{"value":"Stormarn","key":"CountyName"}]},"MapReference":{"ReferenceId":"991462020","Spot":0.36,"SideOfStreet":"right","CountryId":"20147700","StateId":"20147701","CountyId":"20151315","CityId":"20151370","DistrictId":"20151374","AddressId":"194710269","RoadLinkId":"320097727"}}}]}]}}