{"Response":{"MetaInfo":{"Timestamp":"2020-03-28T10:19:55.512+0000","NextPageInformation":"2"},"View":[{"_type":"SearchResultsViewType","ViewId":0,"Result":[{"Relevance":1.0,"Distance":0.0,"Direction":0.0,"MatchLevel":"city","MatchQuality":{"Country":1.0,"State":1.0,"County":1.0,"City":1.0,"PostalCode":1.0},"Location":{"LocationId":"NT_HxmX0vJUl-ZbXlPwWMYPVA","LocationType":"point","DisplayPosition":{"Latitude":53.6957223,"Longitude":10.2372097},"MapView":{"TopLeft":{"Latitude":53.7067,"Longitude":10.16985},"BottomRight":{"Latitude":53.63347,"Longitude":10.31482}},"Address":{"Label":"Ahrensburg, Schleswig-Holstein, Deutschland","Country":"DEU","State":"Schleswig-Holstein","County":"Stormarn","City":"Ahrensburg","PostalCode":"22926","AdditionalData":[{"value":"Deutschland","key":"CountryName"},{"value":"Schleswig-Holstein","key":"StateName"},{"value":"Stormarn","key":"CountyName"}]},"MapReference":{"ReferenceId":"1067654899","SideOfStreet":"neither","CountryId":"20147700","StateId":"20147701","CountyId":"20151315","CityId":"20151316"}}},{"Relevance":1.0,"Distance":30.7,"MatchLevel":"houseNumber","MatchQuality":{"Country":1.0,"State":1.0,"County":1.0,"City":1.0,"Street":[1.0],"HouseNumber":1.0,"PostalCode":1.0},"MatchType":"interpolated","Location":{"LocationId":"NT_mpEno8nC0nvohOgxYeKSYC_zUD","LocationType":"point","DisplayPosition":{"Latitude":53.6957,"Longitude":10.23771},"MapView":{"TopLeft":{"Latitude":53.6968242,"Longitude":10.2358113},"BottomRight":{"Latitude":53.6945758,"Longitude":10.2396087}},"Address":{"Label":"Kremerbergredder 35, 22926 Ahrensburg, Deutschland","Country":"DEU","State":"Schleswig-Holstein","County":"Stormarn","City":"Ahrensburg","Street":"Kremerbergredder","HouseNumber":"35","PostalCode":"22926","AdditionalData":[{"value":"Deutschland","key":"CountryName"},{"value":"Schleswig-Holstein","key":"StateName"},{"value":"Stormarn","key":"CountyName"}]},"MapReference":{"ReferenceId":"51645375","Spot":0.5,"SideOfStreet":"right","CountryId":"20147700","StateId":"20147701","CountyId":"20151315","CityId":"20151316","AddressId":"194533363","RoadLinkId":"36662488"}}},{"Relevance":1.0,"Distance":250.6,"MatchLevel":"houseNumber","MatchQuality":{"Country":1.0,"State":1.0,"County":1.0,"City":1.0,"Street":[1.0],"HouseNumber":1.0,"PostalCode":1.0},"MatchType":"interpolated","Location":{"LocationId":"NT_mpEno8nC0nvohOgxYeKSYC_1A","LocationType":"point","DisplayPosition":{"Latitude":53.69611,"Longitude":10.24096},"MapView":{"TopLeft":{"Latitude":53.6972342,"Longitude":10.2390613},"BottomRight":{"Latitude":53.6949858,"Longitude":10.2428587}},"Address":{"Label":"Kremerbergredder 5, 22926 Ahrensburg, Deutschland","Country":"DEU","State":"Schleswig-Holstein","County":"Stormarn","City":"Ahrensburg","Street":"Kremerbergredder","HouseNumber":"5","PostalCode":"22926","AdditionalData":[{"value":"Deutschland","key":"CountryName"},{"value":"Schleswig-Holstein","key":"StateName"},{"value":"Stormarn","key":"CountyName"}]},"MapReference":{"ReferenceId":"51645328","Spot":0.28,"SideOfStreet":"right","CountryId":"20147700","StateId":"20147701","CountyId":"20151315","CityId":"20151316","AddressId":"193770858","RoadLinkId":"36796761"}}},{"Relevance":1.0,"Distance":270.6,"MatchLevel":"houseNumber","MatchQuality":{"Country":1.0,"State":1.0,"County":1.0,"City":1.0,"Street":[1.0],"HouseNumber":1.0,"PostalCode":1.0},"MatchType":"interpolated","Location":{"LocationId":"NT_U9QFvdOgZGtM00tCLjCuyB_xQTNBB","LocationType":"point","DisplayPosition":{"Latitude":53.69478,"Longitude":10.24174},"MapView":{"TopLeft":{"Latitude":53.6959042,"Longitude":10.2398414},"BottomRight":{"Latitude":53.6936558,"Longitude":10.2436386}},"Address":{"Label":"Lübecker Straße 145A, 22926 Ahrensburg, Deutschland","Country":"DEU","State":"Schleswig-Holstein","County":"Stormarn","City":"Ahrensburg","Street":"Lübecker Straße","HouseNumber":"145A","PostalCode":"22926","AdditionalData":[{"value":"Deutschland","key":"CountryName"},{"value":"Schleswig-Holstein","key":"StateName"},{"value":"Stormarn","key":"CountyName"}]},"MapReference":{"ReferenceId":"1067812846","Spot":0.33,"SideOfStreet":"left","CountryId":"20147700","StateId":"20147701","CountyId":"20151315","CityId":"20151316","AddressId":"193684205","RoadLinkId":"390111607"}}},{"Relevance":1.0,"Distance":272.5,"MatchLevel":"houseNumber","MatchQuality":{"Country":1.0,"State":1.0,"County":1.0,"City":1.0,"District":1.0,"Street":[1.0],"HouseNumber":1.0,"PostalCode":1.0},"MatchType":"interpolated","Location":{"LocationId":"NT_Sf6LyEhnGUFku8Wdo1Ak0C_xIzQ","LocationType":"point","DisplayPosition":{"Latitude":53.69665,"Longitude":10.24116},"MapView":{"TopLeft":{"Latitude":53.6977742,"Longitude":10.2392613},"BottomRight":{"Latitude":53.6955258,"Longitude":10.2430587}},"Address":{"Label":"Kremerbergweg 12C, 22949 Ammersbek, Deutschland","Country":"DEU","State":"Schleswig-Holstein","County":"Stormarn","City":"Ammersbek","District":"Kremerberg","Street":"Kremerbergweg","HouseNumber":"12C","PostalCode":"22949","AdditionalData":[{"value":"Deutschland","key":"CountryName"},{"value":"Schleswig-Holstein","key":"StateName"},{"value":"Stormarn","key":"CountyName"}]},"MapReference":{"ReferenceId":"1235892341","Spot":0.0,"SideOfStreet":"left","CountryId":"20147700","StateId":"20147701","CountyId":"20151315","CityId":"20151486","DistrictId":"20381733","AddressId":"194702179","RoadLinkId":"556461583"}}},{"Relevance":1.0,"Distance":273.4,"MatchLevel":"houseNumber","MatchQuality":{"Country":1.0,"State":1.0,"County":1.0,"City":1.0,"Street":[1.0],"HouseNumber":1.0,"PostalCode":1.0},"MatchType":"interpolated","Location":{"LocationId":"NT_4KGoWff7KVtGTdRcNhWrVB_5EE","LocationType":"point","DisplayPosition":{"Latitude":53.69844,"Longitude":10.24025},"MapView":{"TopLeft":{"Latitude":53.6995642,"Longitude":10.2383512},"BottomRight":{"Latitude":53.6973158,"Longitude":10.2421488}},"Address":{"Label":"Kremerbergweg 9A, 22949 Ahrensburg, Deutschland","Country":"DEU","State":"Schleswig-Holstein","County":"Stormarn","City":"Ahrensburg","Street":"Kremerbergweg","HouseNumber":"9A","PostalCode":"22949","AdditionalData":[{"value":"Deutschland","key":"CountryName"},{"value":"Schleswig-Holstein","key":"StateName"},{"value":"Stormarn","key":"CountyName"}]},"MapReference":{"ReferenceId":"539216077","Spot":0.27,"SideOfStreet":"left","CountryId":"20147700","StateId":"20147701","CountyId":"20151315","CityId":"20151316","AddressId":"193941468","RoadLinkId":"36716777"}}},{"Relevance":1.0,"Distance":286.0,"MatchLevel":"houseNumber","MatchQuality":{"Country":1.0,"State":1.0,"County":1.0,"City":1.0,"Street":[1.0],"HouseNumber":1.0,"PostalCode":1.0},"MatchType":"interpolated","Location":{"LocationId":"NT_U9QFvdOgZGtM00tCLjCuyB_xQTOCB","LocationType":"point","DisplayPosition":{"Latitude":53.69527,"Longitude":10.24191},"MapView":{"TopLeft":{"Latitude":53.6963942,"Longitude":10.2400114},"BottomRight":{"Latitude":53.6941458,"Longitude":10.2438086}},"Address":{"Label":"Lübecker Straße 149B, 22926 Ahrensburg, Deutschland","Country":"DEU","State":"Schleswig-Holstein","County":"Stormarn","City":"Ahrensburg","Street":"Lübecker Straße","HouseNumber":"149B","PostalCode":"22926","AdditionalData":[{"value":"Deutschland","key":"CountryName"},{"value":"Schleswig-Holstein","key":"StateName"},{"value":"Stormarn","key":"CountyName"}]},"MapReference":{"ReferenceId":"1067812840","Spot":0.23,"SideOfStreet":"left","CountryId":"20147700","StateId":"20147701","CountyId":"20151315","CityId":"20151316","AddressId":"249070297","RoadLinkId":"390111594"}}},{"Relevance":1.0,"Distance":290.3,"MatchLevel":"houseNumber","MatchQuality":{"Country":1.0,"State":1.0,"County":1.0,"City":1.0,"District":1.0,"Street":[1.0],"HouseNumber":1.0,"PostalCode":1.0},"MatchType":"interpolated","Location":{"LocationId":"NT_Sf6LyEhnGUFku8Wdo1Ak0C_yEE","LocationType":"point","DisplayPosition":{"Latitude":53.69632,"Longitude":10.24174},"MapView":{"TopLeft":{"Latitude":53.6974442,"Longitude":10.2398413},"BottomRight":{"Latitude":53.6951958,"Longitude":10.2436387}},"Address":{"Label":"Kremerbergweg 2A, 22949 Ammersbek, Deutschland","Country":"DEU","State":"Schleswig-Holstein","County":"Stormarn","City":"Ammersbek","District":"Kremerberg","Street":"Kremerbergweg","HouseNumber":"2A","PostalCode":"22949","AdditionalData":[{"value":"Deutschland","key":"CountryName"},{"value":"Schleswig-Holstein","key":"StateName"},{"value":"Stormarn","key":"CountyName"}]},"MapReference":{"ReferenceId":"51645326","Spot":0.12,"SideOfStreet":"left","CountryId":"20147700","StateId":"20147701","CountyId":"20151315","CityId":"20151486","DistrictId":"20381733","AddressId":"196610499","RoadLinkId":"36601179"}}},{"Relevance":1.0,"Distance":305.2,"MatchLevel":"street","MatchQuality":{"Country":1.0,"State":1.0,"County":1.0,"City":1.0,"Street":[1.0],"PostalCode":1.0},"Location":{"LocationId":"NT_LJAGR9nuisM85mM6Z4NKRA_l_51645361_L","LocationType":"point","DisplayPosition":{"Latitude":53.69618,"Longitude":10.24178},"MapView":{"TopLeft":{"Latitude":53.69618,"Longitude":10.24178},"BottomRight":{"Latitude":53.69587,"Longitude":10.24228}},"Address":{"Label":"Kremerbergweg, 22941 Delingsdorf, Deutschland","Country":"DEU","State":"Schleswig-Holstein","County":"Stormarn","City":"Delingsdorf","Street":"Kremerbergweg","PostalCode":"22941","AdditionalData":[{"value":"Deutschland","key":"CountryName"},{"value":"Schleswig-Holstein","key":"StateName"},{"value":"Stormarn","key":"CountyName"}]},"MapReference":{"ReferenceId":"51645361","Spot":1.0,"SideOfStreet":"left","CountryId":"20147700","StateId":"20147701","CountyId":"20151315","CityId":"20151348"}}},{"Relevance":1.0,"Distance":314.0,"MatchLevel":"street","MatchQuality":{"Country":1.0,"State":1.0,"County":1.0,"City":1.0,"Street":[1.0],"PostalCode":1.0},"Location":{"LocationId":"NT_Djr-tI-mrzulmOoAVJ0D6B_l_1067812848_L","LocationType":"point","DisplayPosition":{"Latitude":53.69518,"Longitude":10.24189},"MapView":{"TopLeft":{"Latitude":53.69518,"Longitude":10.24189},"BottomRight":{"Latitude":53.6941,"Longitude":10.24382}},"Address":{"Label":"Alter Postweg, 22941 Delingsdorf, Deutschland","Country":"DEU","State":"Schleswig-Holstein","County":"Stormarn","City":"Delingsdorf","Street":"Alter Postweg","PostalCode":"22941","AdditionalData":[{"value":"Deutschland","key":"CountryName"},{"value":"Schleswig-Holstein","key":"StateName"},{"value":"Stormarn","key":"CountyName"}]},"MapReference":{"ReferenceId":"1067812848","Spot":1.0,"SideOfStreet":"left","CountryId":"20147700","StateId":"20147701","CountyId":"20151315","CityId":"20151348"}}}]}]}}