{"Response":{"MetaInfo":{"Timestamp":"2020-03-28T10:21:37.166+0000","NextPageInformation":"2"},"View":[{"_type":"SearchResultsViewType","ViewId":0,"Result":[{"Relevance":1.0,"Distance":0.0,"Direction":0.0,"MatchLevel":"district","MatchQuality":{"Country":1.0,"State":1.0,"County":1.0,"City":1.0,"District":1.0,"PostalCode":1.0},"Location":{"LocationId":"NT_MNCQeFiCeIGBgUuOZjRzuC","LocationType":"point","DisplayPosition":{"Latitude":53.6244417,"Longitude":8.8433381},"MapView":{"TopLeft":{"Latitude":53.63253,"Longitude":8.80559},"BottomRight":{"Latitude":53.61001,"Longitude":8.85981}},"Address":{"Label":"Bad Bederkesa, Geestland, Niedersachsen, Deutschland","Country":"DEU","State":"Niedersachsen","County":"Cuxhaven","City":"Geestland","District":"Bad Bederkesa","PostalCode":"27624","AdditionalData":[{"value":"Deutschland","key":"CountryName"},{"value":"Niedersachsen","key":"StateName"},{"value":"Cuxhaven","key":"CountyName"}]},"MapReference":{"ReferenceId":"572197849","SideOfStreet":"neither","CountryId":"20147700","StateId":"20151542","CountyId":"20154117","CityId":"20154245","DistrictId":"20154127"}}},{"Relevance":1.0,"Distance":29.1,"MatchLevel":"houseNumber","MatchQuality":{"Country":1.0,"State":1.0,"County":1.0,"City":1.0,"District":1.0,"Street":[1.0],"HouseNumber":1.0,"PostalCode":1.0},"MatchType":"interpolated","Location":{"LocationId":"NT_RkY-3Rfkcdk4Q3NpMhJ-hA_1A","LocationType":"point","DisplayPosition":{"Latitude":53.62416,"Longitude":8.84301},"MapView":{"TopLeft":{"Latitude":53.6252842,"Longitude":8.8411146},"BottomRight":{"Latitude":53.6230358,"Longitude":8.8449054}},"Address":{"Label":"Gröpelinger Straße 5, 27624 Geestland, Deutschland","Country":"DEU","State":"Niedersachsen","County":"Cuxhaven","City":"Geestland","District":"Bad Bederkesa","Street":"Gröpelinger Straße","HouseNumber":"5","PostalCode":"27624","AdditionalData":[{"value":"Deutschland","key":"CountryName"},{"value":"Niedersachsen","key":"StateName"},{"value":"Cuxhaven","key":"CountyName"}]},"MapReference":{"ReferenceId":"80717605","Spot":0.47,"SideOfStreet":"right","CountryId":"20147700","StateId":"20151542","CountyId":"20154117","CityId":"20154245","DistrictId":"20154127","AddressId":"181155658","RoadLinkId":"36510356"}}},{"Relevance":1.0,"Distance":50.2,"MatchLevel":"houseNumber","MatchQuality":{"Country":1.0,"State":1.0,"County":1.0,"City":1.0,"District":1.0,"Street":[1.0],"HouseNumber":1.0,"PostalCode":1.0},"MatchType":"interpolated","Location":{"LocationId":"NT_.jDZYHYHq0tI7Wh..P-YxD_4A","LocationType":"point","DisplayPosition":{"Latitude":53.62505,"Longitude":8.84344},"MapView":{"TopLeft":{"Latitude":53.6261742,"Longitude":8.8415445},"BottomRight":{"Latitude":53.6239258,"Longitude":8.8453355}},"Address":{"Label":"Seebeckstraße 8, 27624 Geestland, Deutschland","Country":"DEU","State":"Niedersachsen","County":"Cuxhaven","City":"Geestland","District":"Bad Bederkesa","Street":"Seebeckstraße","HouseNumber":"8","PostalCode":"27624","AdditionalData":[{"value":"Deutschland","key":"CountryName"},{"value":"Niedersachsen","key":"StateName"},{"value":"Cuxhaven","key":"CountyName"}]},"MapReference":{"ReferenceId":"80717361","Spot":0.16,"SideOfStreet":"right","CountryId":"20147700","StateId":"20151542","CountyId":"20154117","CityId":"20154245","DistrictId":"20154127","AddressId":"177580210","RoadLinkId":"36840197"}}},{"Relevance":1.0,"Distance":64.1,"MatchLevel":"street","MatchQuality":{"Country":1.0,"State":1.0,"County":1.0,"City":1.0,"District":1.0,"Street":[1.0],"PostalCode":1.0},"Location":{"LocationId":"NT_-K.eefw0OkuFUV.BmX0h4D_l_80717454_R","LocationType":"point","DisplayPosition":{"Latitude":53.62498,"Longitude":8.84299},"MapView":{"TopLeft":{"Latitude":53.62498,"Longitude":8.84277},"BottomRight":{"Latitude":53.62493,"Longitude":8.84299}},"Address":{"Label":"Am Markt, 27624 Geestland, Deutschland","Country":"DEU","State":"Niedersachsen","County":"Cuxhaven","City":"Geestland","District":"Bad Bederkesa","Street":"Am Markt","PostalCode":"27624","AdditionalData":[{"value":"Deutschland","key":"CountryName"},{"value":"Niedersachsen","key":"StateName"},{"value":"Cuxhaven","key":"CountyName"}]},"MapReference":{"ReferenceId":"80717454","Spot":1.0,"SideOfStreet":"right","CountryId":"20147700","StateId":"20151542","CountyId":"20154117","CityId":"20154245","DistrictId":"20154127"}}},{"Relevance":1.0,"Distance":64.8,"MatchLevel":"street","MatchQuality":{"Country":1.0,"State":1.0,"County":1.0,"City":1.0,"District":1.0,"PostalCode":1.0},"Location":{"LocationId":"NT_iybcIzdXHjyLSsiQbscP3D_l_1233290194_L","LocationType":"point","DisplayPosition":{"Latitude":53.62482,"Longitude":8.84259},"MapView":{"TopLeft":{"Latitude":53.62486,"Longitude":8.84247},"BottomRight":{"Latitude":53.62481,"Longitude":8.84259}},"Address":{"Label":"27624 Geestland, Deutschland","Country":"DEU","State":"Niedersachsen","County":"Cuxhaven","City":"Geestland","District":"Bad Bederkesa","PostalCode":"27624","AdditionalData":[{"value":"Deutschland","key":"CountryName"},{"value":"Niedersachsen","key":"StateName"},{"value":"Cuxhaven","key":"CountyName"}]},"MapReference":{"ReferenceId":"1233290194","Spot":0.0,"SideOfStreet":"left","CountryId":"20147700","StateId":"20151542","CountyId":"20154117","CityId":"20154245","DistrictId":"20154127"}}},{"Relevance":1.0,"Distance":64.8,"MatchLevel":"street","MatchQuality":{"Country":1.0,"State":1.0,"County":1.0,"City":1.0,"District":1.0,"PostalCode":1.0},"Location":{"LocationId":"NT_iybcIzdXHjyLSsiQbscP3D_l_1233290196_R","LocationType":"point","DisplayPosition":{"Latitude":53.62484,"Longitude":8.84262},"MapView":{"TopLeft":{"Latitude":53.62488,"Longitude":8.84259},"BottomRight":{"Latitude":53.62482,"Longitude":8.84263}},"Address":{"Label":"27624 Geestland, Deutschland","Country":"DEU","State":"Niedersachsen","County":"Cuxhaven","City":"Geestland","District":"Bad Bederkesa","PostalCode":"27624","AdditionalData":[{"value":"Deutschland","key":"CountryName"},{"value":"Niedersachsen","key":"StateName"},{"value":"Cuxhaven","key":"CountyName"}]},"MapReference":{"ReferenceId":"1233290196","Spot":0.45,"SideOfStreet":"right","CountryId":"20147700","StateId":"20151542","CountyId":"20154117","CityId":"20154245","DistrictId":"20154127"}}},{"Relevance":1.0,"Distance":65.8,"MatchLevel":"houseNumber","MatchQuality":{"Country":1.0,"State":1.0,"County":1.0,"City":1.0,"District":1.0,"Street":[1.0],"HouseNumber":1.0,"PostalCode":1.0},"MatchType":"interpolated","Location":{"LocationId":"NT_-K.eefw0OkuFUV.BmX0h4D_yA","LocationType":"point","DisplayPosition":{"Latitude":53.62492,"Longitude":8.84275},"MapView":{"TopLeft":{"Latitude":53.6260442,"Longitude":8.8408545},"BottomRight":{"Latitude":53.6237958,"Longitude":8.8446455}},"Address":{"Label":"Am Markt 2, 27624 Geestland, Deutschland","Country":"DEU","State":"Niedersachsen","County":"Cuxhaven","City":"Geestland","District":"Bad Bederkesa","Street":"Am Markt","HouseNumber":"2","PostalCode":"27624","AdditionalData":[{"value":"Deutschland","key":"CountryName"},{"value":"Niedersachsen","key":"StateName"},{"value":"Cuxhaven","key":"CountyName"}]},"MapReference":{"ReferenceId":"80717455","Spot":0.86,"SideOfStreet":"left","CountryId":"20147700","StateId":"20151542","CountyId":"20154117","CityId":"20154245","DistrictId":"20154127","AddressId":"249835471","RoadLinkId":"37077812"}}},{"Relevance":1.0,"Distance":66.0,"MatchLevel":"street","MatchQuality":{"Country":1.0,"State":1.0,"County":1.0,"City":1.0,"District":1.0,"Street":[1.0],"PostalCode":1.0},"Location":{"LocationId":"NT_Pr2KOXVprMumuWQxQU40mB_l_540622964_R","LocationType":"point","DisplayPosition":{"Latitude":53.62493,"Longitude":8.84277},"MapView":{"TopLeft":{"Latitude":53.62536,"Longitude":8.84252},"BottomRight":{"Latitude":53.62493,"Longitude":8.84277}},"Address":{"Label":"An der Burg, 27624 Geestland, Deutschland","Country":"DEU","State":"Niedersachsen","County":"Cuxhaven","City":"Geestland","District":"Bad Bederkesa","Street":"An der Burg","PostalCode":"27624","AdditionalData":[{"value":"Deutschland","key":"CountryName"},{"value":"Niedersachsen","key":"StateName"},{"value":"Cuxhaven","key":"CountyName"}]},"MapReference":{"ReferenceId":"540622964","Spot":0.0,"SideOfStreet":"right","CountryId":"20147700","StateId":"20151542","CountyId":"20154117","CityId":"20154245","DistrictId":"20154127"}}},{"Relevance":1.0,"Distance":68.0,"MatchLevel":"street","MatchQuality":{"Country":1.0,"State":1.0,"County":1.0,"City":1.0,"District":1.0,"PostalCode":1.0},"Location":{"LocationId":"NT_iybcIzdXHjyLSsiQbscP3D_l_1233290195_L","LocationType":"point","DisplayPosition":{"Latitude":53.62488,"Longitude":8.84262},"MapView":{"TopLeft":{"Latitude":53.62491,"Longitude":8.84247},"BottomRight":{"Latitude":53.62486,"Longitude":8.84262}},"Address":{"Label":"27624 Geestland, Deutschland","Country":"DEU","State":"Niedersachsen","County":"Cuxhaven","City":"Geestland","District":"Bad Bederkesa","PostalCode":"27624","AdditionalData":[{"value":"Deutschland","key":"CountryName"},{"value":"Niedersachsen","key":"StateName"},{"value":"Cuxhaven","key":"CountyName"}]},"MapReference":{"ReferenceId":"1233290195","Spot":1.0,"SideOfStreet":"left","CountryId":"20147700","StateId":"20151542","CountyId":"20154117","CityId":"20154245","DistrictId":"20154127"}}},{"Relevance":1.0,"Distance":70.1,"MatchLevel":"houseNumber","MatchQuality":{"Country":1.0,"State":1.0,"County":1.0,"City":1.0,"District":1.0,"Street":[1.0],"HouseNumber":1.0,"PostalCode":1.0},"MatchType":"interpolated","Location":{"LocationId":"NT_uriwm3rNkxY.yHu6iHOkxB_xA","LocationType":"point","DisplayPosition":{"Latitude":53.62505,"Longitude":8.84306},"MapView":{"TopLeft":{"Latitude":53.6261742,"Longitude":8.8411645},"BottomRight":{"Latitude":53.6239258,"Longitude":8.8449555}},"Address":{"Label":"Amtsstraße 1, 27624 Geestland, Deutschland","Country":"DEU","State":"Niedersachsen","County":"Cuxhaven","City":"Geestland","District":"Bad Bederkesa","Street":"Amtsstraße","HouseNumber":"1","PostalCode":"27624","AdditionalData":[{"value":"Deutschland","key":"CountryName"},{"value":"Niedersachsen","key":"StateName"},{"value":"Cuxhaven","key":"CountyName"}]},"MapReference":{"ReferenceId":"540622966","Spot":0.22,"SideOfStreet":"left","CountryId":"20147700","StateId":"20151542","CountyId":"20154117","CityId":"20154245","DistrictId":"20154127","AddressId":"198748387","RoadLinkId":"36349353"}}}]}]}}