{"Response":{"MetaInfo":{"Timestamp":"2020-03-28T11:55:28.115+0000","NextPageInformation":"2"},"View":[{"_type":"SearchResultsViewType","ViewId":0,"Result":[{"Relevance":1.0,"Distance":-117.9,"MatchLevel":"landmark","MatchQuality":{"Country":1.0,"State":1.0,"County":1.0,"City":1.0,"District":1.0,"Street":[1.0],"PostalCode":1.0,"Name":1.0},"Location":{"LocationId":"NT_Yv-QBY0pYauuUqaIF3eAEA_p_Flu7rGqg-mwSk-uf4QsMsD","LocationType":"shoppingCentre","Name":"Great Northern Retail Park","DisplayPosition":{"Latitude":53.65247,"Longitude":-1.77757},"MapView":{"TopLeft":{"Latitude":53.65508,"Longitude":-1.77975},"BottomRight":{"Latitude":53.65128,"Longitude":-1.77698}},"Address":{"Label":"Great Northern Retail Park, Huddersfield, HD1 6, United Kingdom","Country":"GBR","State":"England","County":"West Yorkshire","City":"Huddersfield","District":"Huddersfield","Street":"Great Northern Retail Park","PostalCode":"HD1 6","AdditionalData":[{"value":"United Kingdom","key":"CountryName"},{"value":"England","key":"StateName"},{"value":"West Yorkshire","key":"CountyName"}]},"MapReference":{"StateId":"20248595","CountyId":"20345050","CityId":"20345209","DistrictId":"20345210","PlaceId":"1000994027"}}},{"Relevance":1.0,"Distance":0.0,"Direction":0.0,"MatchLevel":"district","MatchQuality":{"Country":1.0,"State":1.0,"County":1.0,"City":1.0,"District":1.0,"PostalCode":1.0},"Location":{"LocationId":"NT_qVBoAQr7Z.sfGE2Hy4HKzD","LocationType":"point","DisplayPosition":{"Latitude":53.6533117,"Longitude":-1.7783939},"MapView":{"TopLeft":{"Latitude":53.68586,"Longitude":-1.87539},"BottomRight":{"Latitude":53.61006,"Longitude":-1.72314}},"Address":{"Label":"Huddersfield, England, United Kingdom","Country":"GBR","State":"England","County":"West Yorkshire","City":"Huddersfield","District":"Huddersfield","PostalCode":"HD1 1","AdditionalData":[{"value":"United Kingdom","key":"CountryName"},{"value":"England","key":"StateName"},{"value":"West Yorkshire","key":"CountyName"}]},"MapReference":{"ReferenceId":"27076894","SideOfStreet":"neither","StateId":"20248595","CountyId":"20345050","CityId":"20345209","DistrictId":"20345210"}}},{"Relevance":1.0,"Distance":73.0,"MatchLevel":"street","MatchQuality":{"Country":1.0,"State":1.0,"County":1.0,"City":1.0,"District":1.0,"Street":[1.0],"PostalCode":1.0},"Location":{"LocationId":"NT_KFi7cdM.yhj2D6JG6ZQnzD_l_842195891_L","LocationType":"point","DisplayPosition":{"Latitude":53.65288,"Longitude":-1.77756},"MapView":{"TopLeft":{"Latitude":53.65288,"Longitude":-1.77758},"BottomRight":{"Latitude":53.65208,"Longitude":-1.7774}},"Address":{"Label":"Great Northern Retail Park, Huddersfield, HD1 6, United Kingdom","Country":"GBR","State":"England","County":"West Yorkshire","City":"Huddersfield","District":"Huddersfield","Street":"Great Northern Retail Park","PostalCode":"HD1 6","AdditionalData":[{"value":"United Kingdom","key":"CountryName"},{"value":"England","key":"StateName"},{"value":"West Yorkshire","key":"CountyName"}]},"MapReference":{"ReferenceId":"842195891","Spot":1.0,"SideOfStreet":"left","StateId":"20248595","CountyId":"20345050","CityId":"20345209","DistrictId":"20345210"}}},{"Relevance":1.0,"Distance":82.4,"MatchLevel":"landmark","MatchQuality":{"Country":1.0,"State":1.0,"County":1.0,"City":1.0,"PostalCode":1.0,"Name":1.0},"Location":{"LocationId":"NT_9YPBq7s1SI5YrWxrZobgtA","LocationType":"canalWaterChannel","Name":"Huddersfield Broad Canal","DisplayPosition":{"Latitude":53.66392,"Longitude":-1.76279},"MapView":{"TopLeft":{"Latitude":53.68171,"Longitude":-1.78807},"BottomRight":{"Latitude":53.64012,"Longitude":-1.73303}},"Address":{"Label":"Huddersfield, HD1 1, United Kingdom","Country":"GBR","State":"England","County":"West Yorkshire","City":"Huddersfield","PostalCode":"HD1 1","AdditionalData":[{"value":"United Kingdom","key":"CountryName"},{"value":"England","key":"StateName"},{"value":"West Yorkshire","key":"CountyName"}]},"MapReference":{"StateId":"20248595","CountyId":"20345050","CityId":"20345209","PlaceId":"718970987"}}},{"Relevance":1.0,"Distance":86.9,"MatchLevel":"street","MatchQuality":{"Country":1.0,"State":1.0,"County":1.0,"City":1.0,"District":1.0,"Street":[1.0],"PostalCode":1.0},"Location":{"LocationId":"NT_Vjp-AKbiLfMZdt.4EJwQtA_l_27075382_R","LocationType":"point","DisplayPosition":{"Latitude":53.6531262,"Longitude":-1.7796741},"MapView":{"TopLeft":{"Latitude":53.65365,"Longitude":-1.77975},"BottomRight":{"Latitude":53.65296,"Longitude":-1.77965}},"Address":{"Label":"Great Northern Street, Huddersfield, HD1 6, United Kingdom","Country":"GBR","State":"England","County":"West Yorkshire","City":"Huddersfield","District":"Huddersfield","Street":"Great Northern Street","PostalCode":"HD1 6","AdditionalData":[{"value":"United Kingdom","key":"CountryName"},{"value":"England","key":"StateName"},{"value":"West Yorkshire","key":"CountyName"}]},"MapReference":{"ReferenceId":"27075382","Spot":0.24,"SideOfStreet":"right","StateId":"20248595","CountyId":"20345050","CityId":"20345209","DistrictId":"20345210"}}},{"Relevance":1.0,"Distance":97.0,"MatchLevel":"street","MatchQuality":{"Country":1.0,"State":1.0,"County":1.0,"City":1.0,"District":1.0,"Street":[1.0],"PostalCode":1.0},"Location":{"LocationId":"NT_Vjp-AKbiLfMZdt.4EJwQtA_l_27075262_R","LocationType":"point","DisplayPosition":{"Latitude":53.65365,"Longitude":-1.77975},"MapView":{"TopLeft":{"Latitude":53.65418,"Longitude":-1.77975},"BottomRight":{"Latitude":53.65365,"Longitude":-1.77965}},"Address":{"Label":"Great Northern Street, Huddersfield, HD1 6, United Kingdom","Country":"GBR","State":"England","County":"West Yorkshire","City":"Huddersfield","District":"Huddersfield","Street":"Great Northern Street","PostalCode":"HD1 6","AdditionalData":[{"value":"United Kingdom","key":"CountryName"},{"value":"England","key":"StateName"},{"value":"West Yorkshire","key":"CountyName"}]},"MapReference":{"ReferenceId":"27075262","Spot":0.0,"SideOfStreet":"right","StateId":"20248595","CountyId":"20345050","CityId":"20345209","DistrictId":"20345210"}}},{"Relevance":1.0,"Distance":97.4,"MatchLevel":"houseNumber","MatchQuality":{"Country":1.0,"State":1.0,"County":1.0,"City":1.0,"District":1.0,"Street":[1.0],"HouseNumber":1.0,"PostalCode":1.0},"MatchType":"interpolated","Location":{"LocationId":"NT_9qiTWXyZ5pPnaTOqzB3xeA_l_27075383_R_5A","LocationType":"point","DisplayPosition":{"Latitude":53.65299,"Longitude":-1.7798601},"MapView":{"TopLeft":{"Latitude":53.6541142,"Longitude":-1.7817568},"BottomRight":{"Latitude":53.6518659,"Longitude":-1.7779633}},"Address":{"Label":"9 Ray Street, Huddersfield, HD1 6BB, United Kingdom","Country":"GBR","State":"England","County":"West Yorkshire","City":"Huddersfield","District":"Huddersfield","Street":"Ray Street","HouseNumber":"9","PostalCode":"HD1 6BB","AdditionalData":[{"value":"United Kingdom","key":"CountryName"},{"value":"England","key":"StateName"},{"value":"West Yorkshire","key":"CountyName"}]},"MapReference":{"ReferenceId":"27075383","Spot":0.15,"SideOfStreet":"right","StateId":"20248595","CountyId":"20345050","CityId":"20345209","DistrictId":"20345210"}}},{"Relevance":1.0,"Distance":98.3,"MatchLevel":"street","MatchQuality":{"Country":1.0,"State":1.0,"County":1.0,"City":1.0,"District":1.0,"Street":[1.0],"PostalCode":1.0},"Location":{"LocationId":"NT_Vjp-AKbiLfMZdt.4EJwQtA_l_27075578_R","LocationType":"point","DisplayPosition":{"Latitude":53.6527545,"Longitude":-1.7795511},"MapView":{"TopLeft":{"Latitude":53.65296,"Longitude":-1.77965},"BottomRight":{"Latitude":53.65215,"Longitude":-1.77926}},"Address":{"Label":"Great Northern Street, Huddersfield, HD1 6, United Kingdom","Country":"GBR","State":"England","County":"West Yorkshire","City":"Huddersfield","District":"Huddersfield","Street":"Great Northern Street","PostalCode":"HD1 6","AdditionalData":[{"value":"United Kingdom","key":"CountryName"},{"value":"England","key":"StateName"},{"value":"West Yorkshire","key":"CountyName"}]},"MapReference":{"ReferenceId":"27075578","Spot":0.75,"SideOfStreet":"right","StateId":"20248595","CountyId":"20345050","CityId":"20345209","DistrictId":"20345210"}}},{"Relevance":1.0,"Distance":107.3,"MatchLevel":"postalCode","MatchQuality":{"PostalCode":1.0},"MatchType":"interpolated","Location":{"LocationId":"NT_9qiTWXyZ5pPnaTOqzB3xeA_l_27075383_R_5A","LocationType":"point","DisplayPosition":{"Latitude":53.65262,"Longitude":-1.77953},"MapView":{"TopLeft":{"Latitude":53.6616132,"Longitude":-1.7947038},"BottomRight":{"Latitude":53.6436268,"Longitude":-1.7643562}},"Address":{"Label":"HD1 6BL, Huddersfield, England, United Kingdom","Country":"GBR","State":"England","County":"West Yorkshire","City":"Huddersfield","PostalCode":"HD1 6BL","AdditionalData":[{"value":"United Kingdom","key":"CountryName"},{"value":"England","key":"StateName"},{"value":"West Yorkshire","key":"CountyName"}]},"MapReference":{"ReferenceId":"27075383","Spot":0.15,"SideOfStreet":"neither","StateId":"20248595","CountyId":"20345050","CityId":"20345209"}}},{"Relevance":1.0,"Distance":108.0,"MatchLevel":"houseNumber","MatchQuality":{"Country":1.0,"State":1.0,"County":1.0,"City":1.0,"District":1.0,"Street":[1.0],"HouseNumber":1.0,"PostalCode":1.0},"MatchType":"interpolated","Location":{"LocationId":"NT_d.rMyK88aY9XcPsK3ZBxYD_l_27075263_L_xQD","LocationType":"point","DisplayPosition":{"Latitude":53.65368,"Longitude":-1.7799601},"MapView":{"TopLeft":{"Latitude":53.6548042,"Longitude":-1.7818569},"BottomRight":{"Latitude":53.6525559,"Longitude":-1.7780633}},"Address":{"Label":"14 Myrtle Street, Huddersfield, HD1 6, United Kingdom","Country":"GBR","State":"England","County":"West Yorkshire","City":"Huddersfield","District":"Huddersfield","Street":"Myrtle Street","HouseNumber":"14","PostalCode":"HD1 6","AdditionalData":[{"value":"United Kingdom","key":"CountryName"},{"value":"England","key":"StateName"},{"value":"West Yorkshire","key":"CountyName"}]},"MapReference":{"ReferenceId":"27075263","Spot":0.24,"SideOfStreet":"left","StateId":"20248595","CountyId":"20345050","CityId":"20345209","DistrictId":"20345210"}}}]}]}}