{"Response":{"MetaInfo":{"Timestamp":"2020-03-28T10:09:26.690+0000","NextPageInformation":"2"},"View":[{"_type":"SearchResultsViewType","ViewId":0,"Result":[{"Relevance":1.0,"Distance":0.0,"Direction":0.0,"MatchLevel":"district","MatchQuality":{"Country":1.0,"State":1.0,"County":1.0,"City":1.0,"District":1.0,"PostalCode":1.0},"Location":{"LocationId":"NT_JUrcIS1nOXJr6oFNwly9mD","LocationType":"point","DisplayPosition":{"Latitude":53.6112333,"Longitude":-1.7028403},"MapView":{"TopLeft":{"Latitude":53.61591,"Longitude":-1.70757},"BottomRight":{"Latitude":53.60333,"Longitude":-1.69137}},"Address":{"Label":"Kirkburton, Huddersfield, England, United Kingdom","Country":"GBR","State":"England","County":"West Yorkshire","City":"Huddersfield","District":"Kirkburton","PostalCode":"HD8 0","AdditionalData":[{"value":"United Kingdom","key":"CountryName"},{"value":"England","key":"StateName"},{"value":"West Yorkshire","key":"CountyName"}]},"MapReference":{"ReferenceId":"1199759515","SideOfStreet":"neither","StateId":"20248595","CountyId":"20345050","CityId":"20345209","DistrictId":"20345239"}}},{"Relevance":1.0,"Distance":1.7,"MatchLevel":"houseNumber","MatchQuality":{"Country":1.0,"State":1.0,"County":1.0,"City":1.0,"District":1.0,"Street":[1.0],"HouseNumber":1.0,"PostalCode":1.0},"MatchType":"interpolated","Location":{"LocationId":"NT_ujBi5ATH82Dd5alPqWlxyD_l_933188265_R_xMzM","LocationType":"point","DisplayPosition":{"Latitude":53.6111316,"Longitude":-1.7030177},"MapView":{"TopLeft":{"Latitude":53.6122558,"Longitude":-1.7049126},"BottomRight":{"Latitude":53.6100075,"Longitude":-1.7011229}},"Address":{"Label":"133 North Road, Huddersfield, HD8 0RN, United Kingdom","Country":"GBR","State":"England","County":"West Yorkshire","City":"Huddersfield","District":"Kirkburton","Street":"North Road","HouseNumber":"133","PostalCode":"HD8 0RN","AdditionalData":[{"value":"United Kingdom","key":"CountryName"},{"value":"England","key":"StateName"},{"value":"West Yorkshire","key":"CountyName"}]},"MapReference":{"ReferenceId":"933188265","Spot":0.12,"SideOfStreet":"right","StateId":"20248595","CountyId":"20345050","CityId":"20345209","DistrictId":"20345239"}}},{"Relevance":1.0,"Distance":4.4,"MatchLevel":"houseNumber","MatchQuality":{"Country":1.0,"State":1.0,"County":1.0,"City":1.0,"District":1.0,"Street":[1.0],"HouseNumber":1.0,"PostalCode":1.0},"MatchType":"interpolated","Location":{"LocationId":"NT_yDBsRGYm1so4a2x7.Fl0oA_l_27082778_L_zA","LocationType":"point","DisplayPosition":{"Latitude":53.6112583,"Longitude":-1.7027879},"MapView":{"TopLeft":{"Latitude":53.6123825,"Longitude":-1.7046828},"BottomRight":{"Latitude":53.6101342,"Longitude":-1.700893}},"Address":{"Label":"3 Hallas Road, Huddersfield, HD8 0QG, United Kingdom","Country":"GBR","State":"England","County":"West Yorkshire","City":"Huddersfield","District":"Kirkburton","Street":"Hallas Road","HouseNumber":"3","PostalCode":"HD8 0QG","AdditionalData":[{"value":"United Kingdom","key":"CountryName"},{"value":"England","key":"StateName"},{"value":"West Yorkshire","key":"CountyName"}]},"MapReference":{"ReferenceId":"27082778","Spot":0.25,"SideOfStreet":"left","StateId":"20248595","CountyId":"20345050","CityId":"20345209","DistrictId":"20345239"}}},{"Relevance":1.0,"Distance":7.4,"MatchLevel":"postalCode","MatchQuality":{"PostalCode":1.0},"MatchType":"interpolated","Location":{"LocationId":"NT_ujBi5ATH82Dd5alPqWlxyD_l_933188265_R_xMzM","LocationType":"point","DisplayPosition":{"Latitude":53.6113,"Longitude":-1.70284},"MapView":{"TopLeft":{"Latitude":53.6202932,"Longitude":-1.717999},"BottomRight":{"Latitude":53.6023068,"Longitude":-1.687681}},"Address":{"Label":"HD8 0RN, Huddersfield, England, United Kingdom","Country":"GBR","State":"England","County":"West Yorkshire","City":"Huddersfield","PostalCode":"HD8 0RN","AdditionalData":[{"value":"United Kingdom","key":"CountryName"},{"value":"England","key":"StateName"},{"value":"West Yorkshire","key":"CountyName"}]},"MapReference":{"ReferenceId":"933188265","Spot":0.12,"SideOfStreet":"neither","StateId":"20248595","CountyId":"20345050","CityId":"20345209"}}},{"Relevance":1.0,"Distance":43.6,"MatchLevel":"houseNumber","MatchQuality":{"Country":1.0,"State":1.0,"County":1.0,"City":1.0,"District":1.0,"Street":[1.0],"HouseNumber":1.0,"PostalCode":1.0},"MatchType":"interpolated","Location":{"LocationId":"NT_ujBi5ATH82Dd5alPqWlxyD_l_27082814_R_xMzN","LocationType":"point","DisplayPosition":{"Latitude":53.6108214,"Longitude":-1.7028686},"MapView":{"TopLeft":{"Latitude":53.6119456,"Longitude":-1.7047634},"BottomRight":{"Latitude":53.6096973,"Longitude":-1.7009737}},"Address":{"Label":"137 North Road, Huddersfield, HD8 0RR, United Kingdom","Country":"GBR","State":"England","County":"West Yorkshire","City":"Huddersfield","District":"Kirkburton","Street":"North Road","HouseNumber":"137","PostalCode":"HD8 0RR","AdditionalData":[{"value":"United Kingdom","key":"CountryName"},{"value":"England","key":"StateName"},{"value":"West Yorkshire","key":"CountyName"}]},"MapReference":{"ReferenceId":"27082814","Spot":0.54,"SideOfStreet":"right","StateId":"20248595","CountyId":"20345050","CityId":"20345209","DistrictId":"20345239"}}},{"Relevance":1.0,"Distance":66.1,"MatchLevel":"postalCode","MatchQuality":{"PostalCode":1.0},"MatchType":"interpolated","Location":{"LocationId":"NT_cP5ZJbvzViXQksgLTdxjEB_l_27082842_R_xUTM","LocationType":"point","DisplayPosition":{"Latitude":53.61064,"Longitude":-1.70278},"MapView":{"TopLeft":{"Latitude":53.6196332,"Longitude":-1.7179387},"BottomRight":{"Latitude":53.6016468,"Longitude":-1.6876213}},"Address":{"Label":"HD8 0RR, Huddersfield, England, United Kingdom","Country":"GBR","State":"England","County":"West Yorkshire","City":"Huddersfield","PostalCode":"HD8 0RR","AdditionalData":[{"value":"United Kingdom","key":"CountryName"},{"value":"England","key":"StateName"},{"value":"West Yorkshire","key":"CountyName"}]},"MapReference":{"ReferenceId":"27082842","Spot":0.75,"SideOfStreet":"neither","StateId":"20248595","CountyId":"20345050","CityId":"20345209"}}},{"Relevance":1.0,"Distance":66.6,"MatchLevel":"postalCode","MatchQuality":{"PostalCode":1.0},"MatchType":"interpolated","Location":{"LocationId":"NT_yDBsRGYm1so4a2x7.Fl0oA_l_27082778_L_zA","LocationType":"point","DisplayPosition":{"Latitude":53.61182,"Longitude":-1.70264},"MapView":{"TopLeft":{"Latitude":53.6208132,"Longitude":-1.7177992},"BottomRight":{"Latitude":53.6028268,"Longitude":-1.6874808}},"Address":{"Label":"HD8 0QG, Huddersfield, England, United Kingdom","Country":"GBR","State":"England","County":"West Yorkshire","City":"Huddersfield","PostalCode":"HD8 0QG","AdditionalData":[{"value":"United Kingdom","key":"CountryName"},{"value":"England","key":"StateName"},{"value":"West Yorkshire","key":"CountyName"}]},"MapReference":{"ReferenceId":"27082778","Spot":0.25,"SideOfStreet":"neither","StateId":"20248595","CountyId":"20345050","CityId":"20345209"}}},{"Relevance":1.0,"Distance":67.3,"MatchLevel":"houseNumber","MatchQuality":{"Country":1.0,"State":1.0,"County":1.0,"City":1.0,"District":1.0,"Street":[1.0],"HouseNumber":1.0,"PostalCode":1.0},"MatchType":"interpolated","Location":{"LocationId":"NT_nn9O6zyr63ehefrvsqZlyC_l_27082876_L_0A","LocationType":"point","DisplayPosition":{"Latitude":53.6105317,"Longitude":-1.7031448},"MapView":{"TopLeft":{"Latitude":53.6116559,"Longitude":-1.7050396},"BottomRight":{"Latitude":53.6094076,"Longitude":-1.7012499}},"Address":{"Label":"4 Riley Lane, Huddersfield, HD8 0, United Kingdom","Country":"GBR","State":"England","County":"West Yorkshire","City":"Huddersfield","District":"Kirkburton","Street":"Riley Lane","HouseNumber":"4","PostalCode":"HD8 0","AdditionalData":[{"value":"United Kingdom","key":"CountryName"},{"value":"England","key":"StateName"},{"value":"West Yorkshire","key":"CountyName"}]},"MapReference":{"ReferenceId":"27082876","Spot":0.66,"SideOfStreet":"left","StateId":"20248595","CountyId":"20345050","CityId":"20345209","DistrictId":"20345239"}}},{"Relevance":1.0,"Distance":72.0,"MatchLevel":"houseNumber","MatchQuality":{"Country":1.0,"State":1.0,"County":1.0,"City":1.0,"District":1.0,"Street":[1.0],"HouseNumber":1.0,"PostalCode":1.0},"MatchType":"interpolated","Location":{"LocationId":"NT_cP5ZJbvzViXQksgLTdxjEB_l_27082842_R_xUTM","LocationType":"point","DisplayPosition":{"Latitude":53.6105726,"Longitude":-1.7028316},"MapView":{"TopLeft":{"Latitude":53.6116967,"Longitude":-1.7047264},"BottomRight":{"Latitude":53.6094484,"Longitude":-1.7009367}},"Address":{"Label":"151 North Road, Huddersfield, HD8 0RR, United Kingdom","Country":"GBR","State":"England","County":"West Yorkshire","City":"Huddersfield","District":"Kirkburton","Street":"North Road","HouseNumber":"151","PostalCode":"HD8 0RR","AdditionalData":[{"value":"United Kingdom","key":"CountryName"},{"value":"England","key":"StateName"},{"value":"West Yorkshire","key":"CountyName"}]},"MapReference":{"ReferenceId":"27082842","Spot":0.75,"SideOfStreet":"right","StateId":"20248595","CountyId":"20345050","CityId":"20345209","DistrictId":"20345239"}}},{"Relevance":1.0,"Distance":81.4,"MatchLevel":"houseNumber","MatchQuality":{"Country":1.0,"State":1.0,"County":1.0,"City":1.0,"District":1.0,"Street":[1.0],"HouseNumber":1.0,"PostalCode":1.0},"MatchType":"interpolated","Location":{"LocationId":"NT_.nPLFB84mNCpQjbiNfL2wB_l_27082841_L_xA","LocationType":"point","DisplayPosition":{"Latitude":53.61038,"Longitude":-1.7025898},"MapView":{"TopLeft":{"Latitude":53.6115042,"Longitude":-1.7044846},"BottomRight":{"Latitude":53.6092559,"Longitude":-1.7006949}},"Address":{"Label":"1 Turnshaw Road, Huddersfield, HD8 0RT, United Kingdom","Country":"GBR","State":"England","County":"West Yorkshire","City":"Huddersfield","District":"Kirkburton","Street":"Turnshaw Road","HouseNumber":"1","PostalCode":"HD8 0RT","AdditionalData":[{"value":"United Kingdom","key":"CountryName"},{"value":"England","key":"StateName"},{"value":"West Yorkshire","key":"CountyName"}]},"MapReference":{"ReferenceId":"27082841","Spot":0.07,"SideOfStreet":"left","StateId":"20248595","CountyId":"20345050","CityId":"20345209","DistrictId":"20345239"}}}]}]}}