{"Response":{"MetaInfo":{"Timestamp":"2020-03-28T11:57:08.126+0000","NextPageInformation":"2"},"View":[{"_type":"SearchResultsViewType","ViewId":0,"Result":[{"Relevance":1.0,"Distance":0.0,"Direction":0.0,"MatchLevel":"district","MatchQuality":{"Country":1.0,"State":1.0,"County":1.0,"City":1.0,"District":1.0,"PostalCode":1.0},"Location":{"LocationId":"NT_.rCmlVmtlYNKDlnD1K4xxA","LocationType":"point","DisplayPosition":{"Latitude":53.622683,"Longitude":-1.8807816},"MapView":{"TopLeft":{"Latitude":53.63109,"Longitude":-1.8971},"BottomRight":{"Latitude":53.61407,"Longitude":-1.84281}},"Address":{"Label":"Slaithwaite, Huddersfield, England, United Kingdom","Country":"GBR","State":"England","County":"West Yorkshire","City":"Huddersfield","District":"Slaithwaite","PostalCode":"HD7 5","AdditionalData":[{"value":"United Kingdom","key":"CountryName"},{"value":"England","key":"StateName"},{"value":"West Yorkshire","key":"CountyName"}]},"MapReference":{"ReferenceId":"565939174","SideOfStreet":"neither","StateId":"20248595","CountyId":"20345050","CityId":"20345209","DistrictId":"20345268"}}},{"Relevance":1.0,"Distance":7.3,"MatchLevel":"houseNumber","MatchQuality":{"Country":1.0,"State":1.0,"County":1.0,"City":1.0,"District":1.0,"Street":[1.0],"HouseNumber":1.0,"PostalCode":1.0},"MatchType":"interpolated","Location":{"LocationId":"NT_raxJ0rTlUpzlYAcZhzwixA_l_1058765273_L_4A","LocationType":"point","DisplayPosition":{"Latitude":53.6226368,"Longitude":-1.8807036},"MapView":{"TopLeft":{"Latitude":53.6237609,"Longitude":-1.882599},"BottomRight":{"Latitude":53.6215126,"Longitude":-1.8788082}},"Address":{"Label":"8 Carr Lane, Huddersfield, HD7 5AN, United Kingdom","Country":"GBR","State":"England","County":"West Yorkshire","City":"Huddersfield","District":"Slaithwaite","Street":"Carr Lane","HouseNumber":"8","PostalCode":"HD7 5AN","AdditionalData":[{"value":"United Kingdom","key":"CountryName"},{"value":"England","key":"StateName"},{"value":"West Yorkshire","key":"CountyName"}]},"MapReference":{"ReferenceId":"1058765273","Spot":0.59,"SideOfStreet":"left","StateId":"20248595","CountyId":"20345050","CityId":"20345209","DistrictId":"20345268"}}},{"Relevance":1.0,"Distance":16.5,"MatchLevel":"landmark","MatchQuality":{"Country":1.0,"State":1.0,"County":1.0,"City":1.0,"PostalCode":1.0,"Name":1.0},"Location":{"LocationId":"NT_KsuI2kZ3TIh.X1duKmlQHB","LocationType":"canalWaterChannel","Name":"Huddersfield Narrow Canal","DisplayPosition":{"Latitude":53.62578,"Longitude":-1.86632},"MapView":{"TopLeft":{"Latitude":53.64167,"Longitude":-1.94164},"BottomRight":{"Latitude":53.60274,"Longitude":-1.78807}},"Address":{"Label":"Huddersfield, HD1 1, United Kingdom","Country":"GBR","State":"England","County":"West Yorkshire","City":"Huddersfield","PostalCode":"HD1 1","AdditionalData":[{"value":"United Kingdom","key":"CountryName"},{"value":"England","key":"StateName"},{"value":"West Yorkshire","key":"CountyName"}]},"MapReference":{"StateId":"20248595","CountyId":"20345050","CityId":"20345209","PlaceId":"1567130285"}}},{"Relevance":1.0,"Distance":20.0,"MatchLevel":"postalCode","MatchQuality":{"PostalCode":1.0},"MatchType":"interpolated","Location":{"LocationId":"NT_raxJ0rTlUpzlYAcZhzwixA_l_1058765273_L_4A","LocationType":"point","DisplayPosition":{"Latitude":53.62275,"Longitude":-1.8805},"MapView":{"TopLeft":{"Latitude":53.6317432,"Longitude":-1.8956631},"BottomRight":{"Latitude":53.6137568,"Longitude":-1.8653369}},"Address":{"Label":"HD7 5AN, Huddersfield, England, United Kingdom","Country":"GBR","State":"England","County":"West Yorkshire","City":"Huddersfield","PostalCode":"HD7 5AN","AdditionalData":[{"value":"United Kingdom","key":"CountryName"},{"value":"England","key":"StateName"},{"value":"West Yorkshire","key":"CountyName"}]},"MapReference":{"ReferenceId":"1058765273","Spot":0.59,"SideOfStreet":"neither","StateId":"20248595","CountyId":"20345050","CityId":"20345209"}}},{"Relevance":1.0,"Distance":27.6,"MatchLevel":"houseNumber","MatchQuality":{"Country":1.0,"State":1.0,"County":1.0,"City":1.0,"District":1.0,"Street":[1.0],"HouseNumber":1.0,"PostalCode":1.0},"MatchType":"interpolated","Location":{"LocationId":"NT_yegV1.zt8S2C709x.yRPLC_l_27081395_R_yAD","LocationType":"point","DisplayPosition":{"Latitude":53.6230484,"Longitude":-1.8809615},"MapView":{"TopLeft":{"Latitude":53.6241725,"Longitude":-1.8828569},"BottomRight":{"Latitude":53.6219242,"Longitude":-1.8790661}},"Address":{"Label":"20 Lewisham Road, Huddersfield, HD7 5AL, United Kingdom","Country":"GBR","State":"England","County":"West Yorkshire","City":"Huddersfield","District":"Slaithwaite","Street":"Lewisham Road","HouseNumber":"20","PostalCode":"HD7 5AL","AdditionalData":[{"value":"United Kingdom","key":"CountryName"},{"value":"England","key":"StateName"},{"value":"West Yorkshire","key":"CountyName"}]},"MapReference":{"ReferenceId":"27081395","Spot":0.24,"SideOfStreet":"right","StateId":"20248595","CountyId":"20345050","CityId":"20345209","DistrictId":"20345268"}}},{"Relevance":1.0,"Distance":28.0,"MatchLevel":"houseNumber","MatchQuality":{"Country":1.0,"State":1.0,"County":1.0,"City":1.0,"District":1.0,"Street":[1.0],"HouseNumber":1.0,"PostalCode":1.0},"MatchType":"interpolated","Location":{"LocationId":"NT_pBfa9XmxGpzlHT34p8RYkC_l_1199762966_L_zcD","LocationType":"point","DisplayPosition":{"Latitude":53.6223186,"Longitude":-1.8805901},"MapView":{"TopLeft":{"Latitude":53.6234427,"Longitude":-1.8824854},"BottomRight":{"Latitude":53.6211944,"Longitude":-1.8786947}},"Address":{"Label":"37 Bridge Street, Huddersfield, HD7 5, United Kingdom","Country":"GBR","State":"England","County":"West Yorkshire","City":"Huddersfield","District":"Slaithwaite","Street":"Bridge Street","HouseNumber":"37","PostalCode":"HD7 5","AdditionalData":[{"value":"United Kingdom","key":"CountryName"},{"value":"England","key":"StateName"},{"value":"West Yorkshire","key":"CountyName"}]},"MapReference":{"ReferenceId":"1199762966","Spot":0.5,"SideOfStreet":"left","StateId":"20248595","CountyId":"20345050","CityId":"20345209","DistrictId":"20345268"}}},{"Relevance":1.0,"Distance":40.1,"MatchLevel":"houseNumber","MatchQuality":{"Country":1.0,"State":1.0,"County":1.0,"City":1.0,"District":1.0,"Street":[1.0],"HouseNumber":1.0,"PostalCode":1.0},"MatchType":"interpolated","Location":{"LocationId":"NT_2mQCbayr9JbX0RslhP-awD_l_27081396_R_xUD","LocationType":"point","DisplayPosition":{"Latitude":53.62306,"Longitude":-1.88132},"MapView":{"TopLeft":{"Latitude":53.6241842,"Longitude":-1.8832154},"BottomRight":{"Latitude":53.6219359,"Longitude":-1.8794246}},"Address":{"Label":"15 Station Road, Huddersfield, HD7 5AW, United Kingdom","Country":"GBR","State":"England","County":"West Yorkshire","City":"Huddersfield","District":"Slaithwaite","Street":"Station Road","HouseNumber":"15","PostalCode":"HD7 5AW","AdditionalData":[{"value":"United Kingdom","key":"CountryName"},{"value":"England","key":"StateName"},{"value":"West Yorkshire","key":"CountyName"}]},"MapReference":{"ReferenceId":"27081396","Spot":0.13,"SideOfStreet":"right","StateId":"20248595","CountyId":"20345050","CityId":"20345209","DistrictId":"20345268"}}},{"Relevance":1.0,"Distance":45.3,"MatchLevel":"postalCode","MatchQuality":{"PostalCode":1.0},"MatchType":"interpolated","Location":{"LocationId":"NT_yegV1.zt8S2C709x.yRPLC_l_27081395_R_yAD","LocationType":"point","DisplayPosition":{"Latitude":53.62308,"Longitude":-1.88063},"MapView":{"TopLeft":{"Latitude":53.6320732,"Longitude":-1.8957932},"BottomRight":{"Latitude":53.6140868,"Longitude":-1.8654668}},"Address":{"Label":"HD7 5AL, Huddersfield, England, United Kingdom","Country":"GBR","State":"England","County":"West Yorkshire","City":"Huddersfield","PostalCode":"HD7 5AL","AdditionalData":[{"value":"United Kingdom","key":"CountryName"},{"value":"England","key":"StateName"},{"value":"West Yorkshire","key":"CountyName"}]},"MapReference":{"ReferenceId":"27081395","Spot":0.24,"SideOfStreet":"neither","StateId":"20248595","CountyId":"20345050","CityId":"20345209"}}},{"Relevance":1.0,"Distance":46.2,"MatchLevel":"street","MatchQuality":{"Country":1.0,"State":1.0,"County":1.0,"City":1.0,"District":1.0,"Street":[1.0],"PostalCode":1.0},"Location":{"LocationId":"NT_JNI9nmEr6fcpaFFqp1ILxB_l_27309250_R","LocationType":"point","DisplayPosition":{"Latitude":53.62244,"Longitude":-1.88135},"MapView":{"TopLeft":{"Latitude":53.6229,"Longitude":-1.88148},"BottomRight":{"Latitude":53.62244,"Longitude":-1.88135}},"Address":{"Label":"Britannia Road, Huddersfield, HD7 5, United Kingdom","Country":"GBR","State":"England","County":"West Yorkshire","City":"Huddersfield","District":"Slaithwaite","Street":"Britannia Road","PostalCode":"HD7 5","AdditionalData":[{"value":"United Kingdom","key":"CountryName"},{"value":"England","key":"StateName"},{"value":"West Yorkshire","key":"CountyName"}]},"MapReference":{"ReferenceId":"27309250","Spot":0.0,"SideOfStreet":"right","StateId":"20248595","CountyId":"20345050","CityId":"20345209","DistrictId":"20345268"}}},{"Relevance":1.0,"Distance":46.2,"MatchLevel":"street","MatchQuality":{"Country":1.0,"State":1.0,"County":1.0,"City":1.0,"District":1.0,"Street":[1.0],"PostalCode":1.0},"Location":{"LocationId":"NT_jX9TLN44hhX2NIbRPcuYkD_l_565912928_L","LocationType":"point","DisplayPosition":{"Latitude":53.62244,"Longitude":-1.88135},"MapView":{"TopLeft":{"Latitude":53.62244,"Longitude":-1.882},"BottomRight":{"Latitude":53.62232,"Longitude":-1.88135}},"Address":{"Label":"Market Place, Huddersfield, HD7 5, United Kingdom","Country":"GBR","State":"England","County":"West Yorkshire","City":"Huddersfield","District":"Slaithwaite","Street":"Market Place","PostalCode":"HD7 5","AdditionalData":[{"value":"United Kingdom","key":"CountryName"},{"value":"England","key":"StateName"},{"value":"West Yorkshire","key":"CountyName"}]},"MapReference":{"ReferenceId":"565912928","Spot":1.0,"SideOfStreet":"left","StateId":"20248595","CountyId":"20345050","CityId":"20345209","DistrictId":"20345268"}}}]}]}}