{"Response":{"MetaInfo":{"Timestamp":"2020-03-28T10:39:29.537+0000","NextPageInformation":"2"},"View":[{"_type":"SearchResultsViewType","ViewId":0,"Result":[{"Relevance":1.0,"Distance":0.0,"Direction":0.0,"MatchLevel":"district","MatchQuality":{"Country":1.0,"State":1.0,"County":1.0,"City":1.0,"District":1.0,"PostalCode":1.0},"Location":{"LocationId":"NT_DzKZe0VXO8QTUsvrw8zk5D","LocationType":"point","DisplayPosition":{"Latitude":53.6832547,"Longitude":-0.0130915},"MapView":{"TopLeft":{"Latitude":53.68985,"Longitude":-0.02788},"BottomRight":{"Latitude":53.67983,"Longitude":-0.00354}},"Address":{"Label":"Patrington, Hull, England, United Kingdom","Country":"GBR","State":"England","County":"North Humberside","City":"Hull","District":"Patrington","PostalCode":"HU12 0","AdditionalData":[{"value":"United Kingdom","key":"CountryName"},{"value":"England","key":"StateName"},{"value":"North Humberside","key":"CountyName"}]},"MapReference":{"ReferenceId":"999459065","SideOfStreet":"neither","StateId":"20248595","CountyId":"20344500","CityId":"20344678","DistrictId":"20344723"}}},{"Relevance":1.0,"Distance":7.9,"MatchLevel":"houseNumber","MatchQuality":{"Country":1.0,"State":1.0,"County":1.0,"City":1.0,"District":1.0,"Street":[1.0],"HouseNumber":1.0,"PostalCode":1.0},"MatchType":"interpolated","Location":{"LocationId":"NT_v7un4YHjIUi-dwUKMAxk4B_l_26973951_L_zA","LocationType":"point","DisplayPosition":{"Latitude":53.68331,"Longitude":-0.0130167},"MapView":{"TopLeft":{"Latitude":53.6844342,"Longitude":-0.0149148},"BottomRight":{"Latitude":53.6821858,"Longitude":-0.0111186}},"Address":{"Label":"3 The Crescent, Hull, HU12 0PF, United Kingdom","Country":"GBR","State":"England","County":"North Humberside","City":"Hull","District":"Patrington","Street":"The Crescent","HouseNumber":"3","PostalCode":"HU12 0PF","AdditionalData":[{"value":"United Kingdom","key":"CountryName"},{"value":"England","key":"StateName"},{"value":"North Humberside","key":"CountyName"}]},"MapReference":{"ReferenceId":"26973951","Spot":0.5,"SideOfStreet":"left","StateId":"20248595","CountyId":"20344500","CityId":"20344678","DistrictId":"20344723"}}},{"Relevance":1.0,"Distance":14.6,"MatchLevel":"street","MatchQuality":{"Country":1.0,"State":1.0,"County":1.0,"City":1.0,"District":1.0,"Street":[1.0],"PostalCode":1.0},"Location":{"LocationId":"NT_U2mYbjVX63IZ3QedjXxxaD_l_26973949_R","LocationType":"point","DisplayPosition":{"Latitude":53.68334,"Longitude":-0.01326},"MapView":{"TopLeft":{"Latitude":53.6838,"Longitude":-0.01326},"BottomRight":{"Latitude":53.68334,"Longitude":-0.01322}},"Address":{"Label":"St Patrick's Green, Hull, HU12 0, United Kingdom","Country":"GBR","State":"England","County":"North Humberside","City":"Hull","District":"Patrington","Street":"St Patrick's Green","PostalCode":"HU12 0","AdditionalData":[{"value":"United Kingdom","key":"CountryName"},{"value":"England","key":"StateName"},{"value":"North Humberside","key":"CountyName"}]},"MapReference":{"ReferenceId":"26973949","Spot":0.0,"SideOfStreet":"right","StateId":"20248595","CountyId":"20344500","CityId":"20344678","DistrictId":"20344723"}}},{"Relevance":1.0,"Distance":17.2,"MatchLevel":"houseNumber","MatchQuality":{"Country":1.0,"State":1.0,"County":1.0,"City":1.0,"District":1.0,"Street":[1.0],"HouseNumber":1.0,"PostalCode":1.0},"MatchType":"interpolated","Location":{"LocationId":"NT_U2mYbjVX63IZ3QedjXxxaD_l_26973961_R_xA","LocationType":"point","DisplayPosition":{"Latitude":53.6831429,"Longitude":-0.0132728},"MapView":{"TopLeft":{"Latitude":53.6842671,"Longitude":-0.0151709},"BottomRight":{"Latitude":53.6820188,"Longitude":-0.0113747}},"Address":{"Label":"1 St Patrick's Green, Hull, HU12 0PH, United Kingdom","Country":"GBR","State":"England","County":"North Humberside","City":"Hull","District":"Patrington","Street":"St Patrick's Green","HouseNumber":"1","PostalCode":"HU12 0PH","AdditionalData":[{"value":"United Kingdom","key":"CountryName"},{"value":"England","key":"StateName"},{"value":"North Humberside","key":"CountyName"}]},"MapReference":{"ReferenceId":"26973961","Spot":0.67,"SideOfStreet":"right","StateId":"20248595","CountyId":"20344500","CityId":"20344678","DistrictId":"20344723"}}},{"Relevance":1.0,"Distance":23.3,"MatchLevel":"postalCode","MatchQuality":{"PostalCode":1.0},"MatchType":"interpolated","Location":{"LocationId":"NT_v7un4YHjIUi-dwUKMAxk4B_l_26973951_L_zA","LocationType":"point","DisplayPosition":{"Latitude":53.68323,"Longitude":-0.01274},"MapView":{"TopLeft":{"Latitude":53.6922232,"Longitude":-0.0279249},"BottomRight":{"Latitude":53.6742368,"Longitude":0.0024449}},"Address":{"Label":"HU12 0PF, Hull, England, United Kingdom","Country":"GBR","State":"England","County":"North Humberside","City":"Hull","PostalCode":"HU12 0PF","AdditionalData":[{"value":"United Kingdom","key":"CountryName"},{"value":"England","key":"StateName"},{"value":"North Humberside","key":"CountyName"}]},"MapReference":{"ReferenceId":"26973951","Spot":0.5,"SideOfStreet":"neither","StateId":"20248595","CountyId":"20344500","CityId":"20344678"}}},{"Relevance":1.0,"Distance":47.0,"MatchLevel":"houseNumber","MatchQuality":{"Country":1.0,"State":1.0,"County":1.0,"City":1.0,"District":1.0,"Street":[1.0],"HouseNumber":1.0,"PostalCode":1.0},"MatchType":"interpolated","Location":{"LocationId":"NT_Sk7TVwsqfmmvr.UZllyj0A_l_26973938_L_xUD","LocationType":"point","DisplayPosition":{"Latitude":53.68379,"Longitude":-0.0128611},"MapView":{"TopLeft":{"Latitude":53.6849142,"Longitude":-0.0147593},"BottomRight":{"Latitude":53.6826658,"Longitude":-0.010963}},"Address":{"Label":"15 Market Place, Hull, HU12 0RA, United Kingdom","Country":"GBR","State":"England","County":"North Humberside","City":"Hull","District":"Patrington","Street":"Market Place","HouseNumber":"15","PostalCode":"HU12 0RA","AdditionalData":[{"value":"United Kingdom","key":"CountryName"},{"value":"England","key":"StateName"},{"value":"North Humberside","key":"CountyName"}]},"MapReference":{"ReferenceId":"26973938","Spot":0.76,"SideOfStreet":"left","StateId":"20248595","CountyId":"20344500","CityId":"20344678","DistrictId":"20344723"}}},{"Relevance":1.0,"Distance":57.0,"MatchLevel":"houseNumber","MatchQuality":{"Country":1.0,"State":1.0,"County":1.0,"City":1.0,"District":1.0,"Street":[1.0],"HouseNumber":1.0,"PostalCode":1.0},"MatchType":"interpolated","Location":{"LocationId":"NT_U2mYbjVX63IZ3QedjXxxaD_l_26973962_L_0UD","LocationType":"point","DisplayPosition":{"Latitude":53.6827967,"Longitude":-0.0137533},"MapView":{"TopLeft":{"Latitude":53.6839208,"Longitude":-0.0156514},"BottomRight":{"Latitude":53.6816725,"Longitude":-0.0118552}},"Address":{"Label":"45 St Patrick's Green, Hull, HU12 0PH, United Kingdom","Country":"GBR","State":"England","County":"North Humberside","City":"Hull","District":"Patrington","Street":"St Patrick's Green","HouseNumber":"45","PostalCode":"HU12 0PH","AdditionalData":[{"value":"United Kingdom","key":"CountryName"},{"value":"England","key":"StateName"},{"value":"North Humberside","key":"CountyName"}]},"MapReference":{"ReferenceId":"26973962","Spot":0.55,"SideOfStreet":"left","StateId":"20248595","CountyId":"20344500","CityId":"20344678","DistrictId":"20344723"}}},{"Relevance":1.0,"Distance":61.2,"MatchLevel":"street","MatchQuality":{"Country":1.0,"State":1.0,"County":1.0,"City":1.0,"District":1.0,"Street":[1.0],"PostalCode":1.0},"Location":{"LocationId":"NT_bCOKO.4i-HeW76lVUwNGOB_l_26973936_L","LocationType":"point","DisplayPosition":{"Latitude":53.6838,"Longitude":-0.01322},"MapView":{"TopLeft":{"Latitude":53.6839,"Longitude":-0.01391},"BottomRight":{"Latitude":53.6838,"Longitude":-0.01322}},"Address":{"Label":"Market Place, Hull, HU12 0, United Kingdom","Country":"GBR","State":"England","County":"North Humberside","City":"Hull","District":"Patrington","Street":"Market Place","PostalCode":"HU12 0","AdditionalData":[{"value":"United Kingdom","key":"CountryName"},{"value":"England","key":"StateName"},{"value":"North Humberside","key":"CountyName"}]},"MapReference":{"ReferenceId":"26973936","Spot":0.0,"SideOfStreet":"left","StateId":"20248595","CountyId":"20344500","CityId":"20344678","DistrictId":"20344723"}}},{"Relevance":1.0,"Distance":66.6,"MatchLevel":"postalCode","MatchQuality":{"PostalCode":1.0},"MatchType":"interpolated","Location":{"LocationId":"NT_Sk7TVwsqfmmvr.UZllyj0A_l_26973938_L_xUD","LocationType":"point","DisplayPosition":{"Latitude":53.68374,"Longitude":-0.0125},"MapView":{"TopLeft":{"Latitude":53.6927332,"Longitude":-0.027685},"BottomRight":{"Latitude":53.6747468,"Longitude":0.002685}},"Address":{"Label":"HU12 0RA, Hull, England, United Kingdom","Country":"GBR","State":"England","County":"North Humberside","City":"Hull","PostalCode":"HU12 0RA","AdditionalData":[{"value":"United Kingdom","key":"CountryName"},{"value":"England","key":"StateName"},{"value":"North Humberside","key":"CountyName"}]},"MapReference":{"ReferenceId":"26973938","Spot":0.76,"SideOfStreet":"neither","StateId":"20248595","CountyId":"20344500","CityId":"20344678"}}},{"Relevance":1.0,"Distance":73.6,"MatchLevel":"houseNumber","MatchQuality":{"Country":1.0,"State":1.0,"County":1.0,"City":1.0,"District":1.0,"Street":[1.0],"HouseNumber":1.0,"PostalCode":1.0},"MatchType":"interpolated","Location":{"LocationId":"NT_fHgPdwx29hXTMykiyjjXCC_l_26973927_R_yA","LocationType":"point","DisplayPosition":{"Latitude":53.68405,"Longitude":-0.0131699},"MapView":{"TopLeft":{"Latitude":53.6851742,"Longitude":-0.0150681},"BottomRight":{"Latitude":53.6829259,"Longitude":-0.0112718}},"Address":{"Label":"2 Northside, Hull, HU12 0PA, United Kingdom","Country":"GBR","State":"England","County":"North Humberside","City":"Hull","District":"Patrington","Street":"Northside","HouseNumber":"2","PostalCode":"HU12 0PA","AdditionalData":[{"value":"United Kingdom","key":"CountryName"},{"value":"England","key":"StateName"},{"value":"North Humberside","key":"CountyName"}]},"MapReference":{"ReferenceId":"26973927","Spot":0.12,"SideOfStreet":"right","StateId":"20248595","CountyId":"20344500","CityId":"20344678","DistrictId":"20344723"}}}]}]}}