{"Response":{"MetaInfo":{"Timestamp":"2020-03-28T10:04:17.793+0000","NextPageInformation":"2"},"View":[{"_type":"SearchResultsViewType","ViewId":0,"Result":[{"Relevance":1.0,"Distance":0.0,"Direction":0.0,"MatchLevel":"district","MatchQuality":{"Country":1.0,"State":1.0,"County":1.0,"City":1.0,"District":1.0,"PostalCode":1.0},"Location":{"LocationId":"NT_U-ZnLu4Z9xpRa6p31LFrjA","LocationType":"point","DisplayPosition":{"Latitude":53.6059253,"Longitude":9.4634227},"MapView":{"TopLeft":{"Latitude":53.61925,"Longitude":9.41379},"BottomRight":{"Latitude":53.56553,"Longitude":9.5164}},"Address":{"Label":"Stade, Niedersachsen, Deutschland","Country":"DEU","State":"Niedersachsen","County":"Stade","City":"Stade","District":"Stade","PostalCode":"21682","AdditionalData":[{"value":"Deutschland","key":"CountryName"},{"value":"Niedersachsen","key":"StateName"},{"value":"Stade","key":"CountyName"}]},"MapReference":{"ReferenceId":"1193520607","SideOfStreet":"neither","CountryId":"20147700","StateId":"20151542","CountyId":"20155449","CityId":"20155593","DistrictId":"20155599"}}},{"Relevance":1.0,"Distance":13.2,"MatchLevel":"houseNumber","MatchQuality":{"Country":1.0,"State":1.0,"County":1.0,"City":1.0,"District":1.0,"Street":[1.0],"HouseNumber":1.0,"PostalCode":1.0},"MatchType":"interpolated","Location":{"LocationId":"NT_mRVs27Fo8239Fqu21T7Z5C_0A","LocationType":"point","DisplayPosition":{"Latitude":53.60574,"Longitude":9.46316},"MapView":{"TopLeft":{"Latitude":53.6068642,"Longitude":9.4612654},"BottomRight":{"Latitude":53.6046158,"Longitude":9.4650546}},"Address":{"Label":"Hohenwedeler Weg 4, 21682 Stade, Deutschland","Country":"DEU","State":"Niedersachsen","County":"Stade","City":"Stade","District":"Stade","Street":"Hohenwedeler Weg","HouseNumber":"4","PostalCode":"21682","AdditionalData":[{"value":"Deutschland","key":"CountryName"},{"value":"Niedersachsen","key":"StateName"},{"value":"Stade","key":"CountyName"}]},"MapReference":{"ReferenceId":"918495436","Spot":0.35,"SideOfStreet":"right","CountryId":"20147700","StateId":"20151542","CountyId":"20155449","CityId":"20155593","DistrictId":"20155599","AddressId":"178393251","RoadLinkId":"276144008"}}},{"Relevance":1.0,"Distance":42.9,"MatchLevel":"street","MatchQuality":{"Country":1.0,"State":1.0,"County":1.0,"City":1.0,"District":1.0,"PostalCode":1.0},"Location":{"LocationId":"NT_qOcDLSE17fbMh-Xwq31UtB_l_586532928_R","LocationType":"point","DisplayPosition":{"Latitude":53.6055419,"Longitude":9.4634994},"MapView":{"TopLeft":{"Latitude":53.60555,"Longitude":9.46344},"BottomRight":{"Latitude":53.60549,"Longitude":9.46395}},"Address":{"Label":"21682 Stade, Deutschland","Country":"DEU","State":"Niedersachsen","County":"Stade","City":"Stade","District":"Stade","PostalCode":"21682","AdditionalData":[{"value":"Deutschland","key":"CountryName"},{"value":"Niedersachsen","key":"StateName"},{"value":"Stade","key":"CountyName"}]},"MapReference":{"ReferenceId":"586532928","Spot":0.88,"SideOfStreet":"right","CountryId":"20147700","StateId":"20151542","CountyId":"20155449","CityId":"20155593","DistrictId":"20155599"}}},{"Relevance":1.0,"Distance":44.0,"MatchLevel":"street","MatchQuality":{"Country":1.0,"State":1.0,"County":1.0,"City":1.0,"District":1.0,"PostalCode":1.0},"Location":{"LocationId":"NT_qOcDLSE17fbMh-Xwq31UtB_l_586532929_L","LocationType":"point","DisplayPosition":{"Latitude":53.60553,"Longitude":9.46344},"MapView":{"TopLeft":{"Latitude":53.60553,"Longitude":9.46339},"BottomRight":{"Latitude":53.60542,"Longitude":9.46344}},"Address":{"Label":"21682 Stade, Deutschland","Country":"DEU","State":"Niedersachsen","County":"Stade","City":"Stade","District":"Stade","PostalCode":"21682","AdditionalData":[{"value":"Deutschland","key":"CountryName"},{"value":"Niedersachsen","key":"StateName"},{"value":"Stade","key":"CountyName"}]},"MapReference":{"ReferenceId":"586532929","Spot":1.0,"SideOfStreet":"left","CountryId":"20147700","StateId":"20151542","CountyId":"20155449","CityId":"20155593","DistrictId":"20155599"}}},{"Relevance":1.0,"Distance":44.7,"MatchLevel":"houseNumber","MatchQuality":{"Country":1.0,"State":1.0,"County":1.0,"City":1.0,"District":1.0,"Street":[1.0],"HouseNumber":1.0,"PostalCode":1.0},"MatchType":"interpolated","Location":{"LocationId":"NT_imJzSroAn9D-74fBrxwxFB_1A","LocationType":"point","DisplayPosition":{"Latitude":53.6056,"Longitude":9.46435},"MapView":{"TopLeft":{"Latitude":53.6067242,"Longitude":9.4624554},"BottomRight":{"Latitude":53.6044758,"Longitude":9.4662446}},"Address":{"Label":"Glückstädter Straße 5, 21682 Stade, Deutschland","Country":"DEU","State":"Niedersachsen","County":"Stade","City":"Stade","District":"Stade","Street":"Glückstädter Straße","HouseNumber":"5","PostalCode":"21682","AdditionalData":[{"value":"Deutschland","key":"CountryName"},{"value":"Niedersachsen","key":"StateName"},{"value":"Stade","key":"CountyName"}]},"MapReference":{"ReferenceId":"841173104","Spot":0.15,"SideOfStreet":"left","CountryId":"20147700","StateId":"20151542","CountyId":"20155449","CityId":"20155593","DistrictId":"20155599","AddressId":"178517683","RoadLinkId":"223084152"}}},{"Relevance":1.0,"Distance":51.8,"MatchLevel":"houseNumber","MatchQuality":{"Country":1.0,"State":1.0,"County":1.0,"City":1.0,"District":1.0,"Street":[1.0],"HouseNumber":1.0,"PostalCode":1.0},"MatchType":"interpolated","Location":{"LocationId":"NT_r3.2x.XWazbMpr7QfyxgVD_yA","LocationType":"point","DisplayPosition":{"Latitude":53.60646,"Longitude":9.46305},"MapView":{"TopLeft":{"Latitude":53.6075842,"Longitude":9.4611553},"BottomRight":{"Latitude":53.6053358,"Longitude":9.4649447}},"Address":{"Label":"Zum Pulverberg 2, 21682 Stade, Deutschland","Country":"DEU","State":"Niedersachsen","County":"Stade","City":"Stade","District":"Stade","Street":"Zum Pulverberg","HouseNumber":"2","PostalCode":"21682","AdditionalData":[{"value":"Deutschland","key":"CountryName"},{"value":"Niedersachsen","key":"StateName"},{"value":"Stade","key":"CountyName"}]},"MapReference":{"ReferenceId":"51657093","Spot":0.47,"SideOfStreet":"right","CountryId":"20147700","StateId":"20151542","CountyId":"20155449","CityId":"20155593","DistrictId":"20155599","AddressId":"180632145","RoadLinkId":"36458503"}}},{"Relevance":1.0,"Distance":56.2,"MatchLevel":"street","MatchQuality":{"Country":1.0,"State":1.0,"County":1.0,"City":1.0,"District":1.0,"Street":[1.0],"PostalCode":1.0},"Location":{"LocationId":"NT_AZ06fcyTIy8FBn3xFNsH8A_l_841173106_L","LocationType":"point","DisplayPosition":{"Latitude":53.60542,"Longitude":9.46341},"MapView":{"TopLeft":{"Latitude":53.60542,"Longitude":9.46321},"BottomRight":{"Latitude":53.60538,"Longitude":9.46341}},"Address":{"Label":"Bremervörder Straße, 21682 Stade, Deutschland","Country":"DEU","State":"Niedersachsen","County":"Stade","City":"Stade","District":"Stade","Street":"Bremervörder Straße","PostalCode":"21682","AdditionalData":[{"value":"Deutschland","key":"CountryName"},{"value":"Niedersachsen","key":"StateName"},{"value":"Stade","key":"CountyName"}]},"MapReference":{"ReferenceId":"841173106","Spot":1.0,"SideOfStreet":"left","CountryId":"20147700","StateId":"20151542","CountyId":"20155449","CityId":"20155593","DistrictId":"20155599"}}},{"Relevance":1.0,"Distance":56.2,"MatchLevel":"street","MatchQuality":{"Country":1.0,"State":1.0,"County":1.0,"City":1.0,"District":1.0,"PostalCode":1.0},"Location":{"LocationId":"NT_qOcDLSE17fbMh-Xwq31UtB_l_586532930_R","LocationType":"point","DisplayPosition":{"Latitude":53.60542,"Longitude":9.46341},"MapView":{"TopLeft":{"Latitude":53.60542,"Longitude":9.46341},"BottomRight":{"Latitude":53.60535,"Longitude":9.46391}},"Address":{"Label":"21682 Stade, Deutschland","Country":"DEU","State":"Niedersachsen","County":"Stade","City":"Stade","District":"Stade","PostalCode":"21682","AdditionalData":[{"value":"Deutschland","key":"CountryName"},{"value":"Niedersachsen","key":"StateName"},{"value":"Stade","key":"CountyName"}]},"MapReference":{"ReferenceId":"586532930","Spot":1.0,"SideOfStreet":"right","CountryId":"20147700","StateId":"20151542","CountyId":"20155449","CityId":"20155593","DistrictId":"20155599"}}},{"Relevance":1.0,"Distance":59.6,"MatchLevel":"street","MatchQuality":{"Country":1.0,"State":1.0,"County":1.0,"City":1.0,"District":1.0,"Street":[1.0],"PostalCode":1.0},"Location":{"LocationId":"NT_imJzSroAn9D-74fBrxwxFB_l_841173103_L","LocationType":"point","DisplayPosition":{"Latitude":53.60549,"Longitude":9.46395},"MapView":{"TopLeft":{"Latitude":53.60555,"Longitude":9.46395},"BottomRight":{"Latitude":53.60549,"Longitude":9.46416}},"Address":{"Label":"Glückstädter Straße, 21682 Stade, Deutschland","Country":"DEU","State":"Niedersachsen","County":"Stade","City":"Stade","District":"Stade","Street":"Glückstädter Straße","PostalCode":"21682","AdditionalData":[{"value":"Deutschland","key":"CountryName"},{"value":"Niedersachsen","key":"StateName"},{"value":"Stade","key":"CountyName"}]},"MapReference":{"ReferenceId":"841173103","Spot":0.0,"SideOfStreet":"left","CountryId":"20147700","StateId":"20151542","CountyId":"20155449","CityId":"20155593","DistrictId":"20155599"}}},{"Relevance":1.0,"Distance":59.6,"MatchLevel":"street","MatchQuality":{"Country":1.0,"State":1.0,"County":1.0,"City":1.0,"District":1.0,"PostalCode":1.0},"Location":{"LocationId":"NT_qOcDLSE17fbMh-Xwq31UtB_l_586532931_L","LocationType":"point","DisplayPosition":{"Latitude":53.60549,"Longitude":9.46395},"MapView":{"TopLeft":{"Latitude":53.60549,"Longitude":9.46391},"BottomRight":{"Latitude":53.60538,"Longitude":9.46397}},"Address":{"Label":"21682 Stade, Deutschland","Country":"DEU","State":"Niedersachsen","County":"Stade","City":"Stade","District":"Stade","PostalCode":"21682","AdditionalData":[{"value":"Deutschland","key":"CountryName"},{"value":"Niedersachsen","key":"StateName"},{"value":"Stade","key":"CountyName"}]},"MapReference":{"ReferenceId":"586532931","Spot":1.0,"SideOfStreet":"left","CountryId":"20147700","StateId":"20151542","CountyId":"20155449","CityId":"20155593","DistrictId":"20155599"}}}]}]}}