{"Response":{"MetaInfo":{"Timestamp":"2020-03-28T09:50:52.045+0000","NextPageInformation":"2"},"View":[{"_type":"SearchResultsViewType","ViewId":0,"Result":[{"Relevance":1.0,"Distance":0.0,"Direction":0.0,"MatchLevel":"district","MatchQuality":{"Country":1.0,"State":1.0,"County":1.0,"City":1.0,"District":1.0,"PostalCode":1.0},"Location":{"LocationId":"NT_IAwC2tnO8zMCFzTdvzXb0D","LocationType":"point","DisplayPosition":{"Latitude":53.6961174,"Longitude":-2.4716117},"MapView":{"TopLeft":{"Latitude":53.71627,"Longitude":-2.49035},"BottomRight":{"Latitude":53.67544,"Longitude":-2.44302}},"Address":{"Label":"Darwen, England, United Kingdom","Country":"GBR","State":"England","County":"Lancashire","City":"Darwen","District":"Darwen","PostalCode":"BB3 1","AdditionalData":[{"value":"United Kingdom","key":"CountryName"},{"value":"England","key":"StateName"},{"value":"Lancashire","key":"CountyName"}]},"MapReference":{"ReferenceId":"938040461","SideOfStreet":"neither","StateId":"20248595","CountyId":"20343938","CityId":"20344141","DistrictId":"20344142"}}},{"Relevance":1.0,"Distance":20.4,"MatchLevel":"houseNumber","MatchQuality":{"Country":1.0,"State":1.0,"County":1.0,"City":1.0,"District":1.0,"Street":[1.0],"HouseNumber":1.0,"PostalCode":1.0},"MatchType":"interpolated","Location":{"LocationId":"NT_iM9K9QkJbtplH51gCHnKhC_l_78725934_L_xcD","LocationType":"point","DisplayPosition":{"Latitude":53.6961933,"Longitude":-2.4718933},"MapView":{"TopLeft":{"Latitude":53.6973175,"Longitude":-2.473792},"BottomRight":{"Latitude":53.6950692,"Longitude":-2.4699946}},"Address":{"Label":"17 Prince Street, Darwen, BB3 1, United Kingdom","Country":"GBR","State":"England","County":"Lancashire","City":"Darwen","District":"Darwen","Street":"Prince Street","HouseNumber":"17","PostalCode":"BB3 1","AdditionalData":[{"value":"United Kingdom","key":"CountryName"},{"value":"England","key":"StateName"},{"value":"Lancashire","key":"CountyName"}]},"MapReference":{"ReferenceId":"78725934","Spot":0.7,"SideOfStreet":"left","StateId":"20248595","CountyId":"20343938","CityId":"20344141","DistrictId":"20344142"}}},{"Relevance":1.0,"Distance":23.9,"MatchLevel":"postalCode","MatchQuality":{"PostalCode":1.0},"MatchType":"interpolated","Location":{"LocationId":"NT_iM9K9QkJbtplH51gCHnKhC_l_78725934_L_xcD","LocationType":"point","DisplayPosition":{"Latitude":53.69622,"Longitude":-2.47193},"MapView":{"TopLeft":{"Latitude":53.7052132,"Longitude":-2.4871195},"BottomRight":{"Latitude":53.6872268,"Longitude":-2.4567405}},"Address":{"Label":"BB3 1AP, Darwen, England, United Kingdom","Country":"GBR","State":"England","County":"Lancashire","City":"Darwen","PostalCode":"BB3 1AP","AdditionalData":[{"value":"United Kingdom","key":"CountryName"},{"value":"England","key":"StateName"},{"value":"Lancashire","key":"CountyName"}]},"MapReference":{"ReferenceId":"78725934","Spot":0.7,"SideOfStreet":"neither","StateId":"20248595","CountyId":"20343938","CityId":"20344141"}}},{"Relevance":1.0,"Distance":38.7,"MatchLevel":"street","MatchQuality":{"Country":1.0,"State":1.0,"County":1.0,"City":1.0,"District":1.0,"PostalCode":1.0},"Location":{"LocationId":"NT_h2vYuHEdpPkYD5Cji0aIWC_l_744680310_L","LocationType":"point","DisplayPosition":{"Latitude":53.69597,"Longitude":-2.47108},"MapView":{"TopLeft":{"Latitude":53.69605,"Longitude":-2.47109},"BottomRight":{"Latitude":53.6954,"Longitude":-2.47033}},"Address":{"Label":"Darwen, BB3 1, United Kingdom","Country":"GBR","State":"England","County":"Lancashire","City":"Darwen","District":"Darwen","PostalCode":"BB3 1","AdditionalData":[{"value":"United Kingdom","key":"CountryName"},{"value":"England","key":"StateName"},{"value":"Lancashire","key":"CountyName"}]},"MapReference":{"ReferenceId":"744680310","Spot":0.9,"SideOfStreet":"left","StateId":"20248595","CountyId":"20343938","CityId":"20344141","DistrictId":"20344142"}}},{"Relevance":1.0,"Distance":40.3,"MatchLevel":"street","MatchQuality":{"Country":1.0,"State":1.0,"County":1.0,"City":1.0,"District":1.0,"Street":[1.0],"PostalCode":1.0},"Location":{"LocationId":"NT_D.RV-5G2qXCiUh2Ok71A2A_l_27135608_L","LocationType":"point","DisplayPosition":{"Latitude":53.69605,"Longitude":-2.47101},"MapView":{"TopLeft":{"Latitude":53.69654,"Longitude":-2.47101},"BottomRight":{"Latitude":53.69605,"Longitude":-2.4699}},"Address":{"Label":"Police Street, Darwen, BB3 1, United Kingdom","Country":"GBR","State":"England","County":"Lancashire","City":"Darwen","District":"Darwen","Street":"Police Street","PostalCode":"BB3 1","AdditionalData":[{"value":"United Kingdom","key":"CountryName"},{"value":"England","key":"StateName"},{"value":"Lancashire","key":"CountyName"}]},"MapReference":{"ReferenceId":"27135608","Spot":0.0,"SideOfStreet":"left","StateId":"20248595","CountyId":"20343938","CityId":"20344141","DistrictId":"20344142"}}},{"Relevance":1.0,"Distance":45.3,"MatchLevel":"houseNumber","MatchQuality":{"Country":1.0,"State":1.0,"County":1.0,"City":1.0,"District":1.0,"Street":[1.0],"HouseNumber":1.0,"PostalCode":1.0},"MatchType":"interpolated","Location":{"LocationId":"NT_6dr9NivmRXgLbrE-4iWYrD_l_78725936_R_0A","LocationType":"point","DisplayPosition":{"Latitude":53.6963951,"Longitude":-2.4723675},"MapView":{"TopLeft":{"Latitude":53.6975192,"Longitude":-2.4742662},"BottomRight":{"Latitude":53.6952709,"Longitude":-2.4704688}},"Address":{"Label":"4 Everton Street, Darwen, BB3 1AW, United Kingdom","Country":"GBR","State":"England","County":"Lancashire","City":"Darwen","District":"Darwen","Street":"Everton Street","HouseNumber":"4","PostalCode":"BB3 1AW","AdditionalData":[{"value":"United Kingdom","key":"CountryName"},{"value":"England","key":"StateName"},{"value":"Lancashire","key":"CountyName"}]},"MapReference":{"ReferenceId":"78725936","Spot":0.22,"SideOfStreet":"right","StateId":"20248595","CountyId":"20343938","CityId":"20344141","DistrictId":"20344142"}}},{"Relevance":1.0,"Distance":50.5,"MatchLevel":"street","MatchQuality":{"Country":1.0,"State":1.0,"County":1.0,"City":1.0,"District":1.0,"Street":[1.0],"PostalCode":1.0},"Location":{"LocationId":"NT_7fXpbGzAqXpHwqVOtqAUbD_l_585764409_R","LocationType":"point","DisplayPosition":{"Latitude":53.6956844,"Longitude":-2.4718436},"MapView":{"TopLeft":{"Latitude":53.69587,"Longitude":-2.47219},"BottomRight":{"Latitude":53.69557,"Longitude":-2.47163}},"Address":{"Label":"Tockholes Road, Darwen, BB3 1, United Kingdom","Country":"GBR","State":"England","County":"Lancashire","City":"Darwen","District":"Darwen","Street":"Tockholes Road","PostalCode":"BB3 1","AdditionalData":[{"value":"United Kingdom","key":"CountryName"},{"value":"England","key":"StateName"},{"value":"Lancashire","key":"CountyName"}]},"MapReference":{"ReferenceId":"585764409","Spot":0.38,"SideOfStreet":"right","StateId":"20248595","CountyId":"20343938","CityId":"20344141","DistrictId":"20344142"}}},{"Relevance":1.0,"Distance":52.7,"MatchLevel":"houseNumber","MatchQuality":{"Country":1.0,"State":1.0,"County":1.0,"City":1.0,"District":1.0,"Street":[1.0],"HouseNumber":1.0,"PostalCode":1.0},"MatchType":"interpolated","Location":{"LocationId":"NT_7fXpbGzAqXpHwqVOtqAUbD_l_27135709_L_xA","LocationType":"point","DisplayPosition":{"Latitude":53.69595,"Longitude":-2.4723601},"MapView":{"TopLeft":{"Latitude":53.6970742,"Longitude":-2.4742588},"BottomRight":{"Latitude":53.6948259,"Longitude":-2.4704614}},"Address":{"Label":"1 Tockholes Road, Darwen, BB3 1LG, United Kingdom","Country":"GBR","State":"England","County":"Lancashire","City":"Darwen","District":"Darwen","Street":"Tockholes Road","HouseNumber":"1","PostalCode":"BB3 1LG","AdditionalData":[{"value":"United Kingdom","key":"CountryName"},{"value":"England","key":"StateName"},{"value":"Lancashire","key":"CountyName"}]},"MapReference":{"ReferenceId":"27135709","Spot":0.38,"SideOfStreet":"left","StateId":"20248595","CountyId":"20343938","CityId":"20344141","DistrictId":"20344142"}}},{"Relevance":1.0,"Distance":53.1,"MatchLevel":"postalCode","MatchQuality":{"PostalCode":1.0},"Location":{"LocationId":"NT_7fXpbGzAqXpHwqVOtqAUbD_l_585764409_R","LocationType":"point","DisplayPosition":{"Latitude":53.69564,"Longitude":-2.47164},"MapView":{"TopLeft":{"Latitude":53.7046332,"Longitude":-2.4868293},"BottomRight":{"Latitude":53.6866468,"Longitude":-2.4564507}},"Address":{"Label":"BB3 1PY, Darwen, England, United Kingdom","Country":"GBR","State":"England","County":"Lancashire","City":"Darwen","PostalCode":"BB3 1PY","AdditionalData":[{"value":"United Kingdom","key":"CountryName"},{"value":"England","key":"StateName"},{"value":"Lancashire","key":"CountyName"}]},"MapReference":{"ReferenceId":"585764409","Spot":0.38,"SideOfStreet":"neither","StateId":"20248595","CountyId":"20343938","CityId":"20344141"}}},{"Relevance":1.0,"Distance":59.5,"MatchLevel":"postalCode","MatchQuality":{"PostalCode":1.0},"MatchType":"interpolated","Location":{"LocationId":"NT_7fXpbGzAqXpHwqVOtqAUbD_l_27135709_L_xA","LocationType":"point","DisplayPosition":{"Latitude":53.69597,"Longitude":-2.47248},"MapView":{"TopLeft":{"Latitude":53.7049632,"Longitude":-2.4876695},"BottomRight":{"Latitude":53.6869768,"Longitude":-2.4572905}},"Address":{"Label":"BB3 1LG, Darwen, England, United Kingdom","Country":"GBR","State":"England","County":"Lancashire","City":"Darwen","PostalCode":"BB3 1LG","AdditionalData":[{"value":"United Kingdom","key":"CountryName"},{"value":"England","key":"StateName"},{"value":"Lancashire","key":"CountyName"}]},"MapReference":{"ReferenceId":"27135709","Spot":0.38,"SideOfStreet":"neither","StateId":"20248595","CountyId":"20343938","CityId":"20344141"}}}]}]}}