{"Response":{"MetaInfo":{"Timestamp":"2020-03-28T10:32:01.579+0000","NextPageInformation":"2"},"View":[{"_type":"SearchResultsViewType","ViewId":0,"Result":[{"Relevance":1.0,"Distance":0.0,"Direction":0.0,"MatchLevel":"district","MatchQuality":{"Country":1.0,"State":1.0,"County":1.0,"City":1.0,"District":1.0,"PostalCode":1.0},"Location":{"LocationId":"NT_0IwGY1.XBxSmbBaooPEn7D","LocationType":"point","DisplayPosition":{"Latitude":53.6863975,"Longitude":-1.835409},"MapView":{"TopLeft":{"Latitude":53.69653,"Longitude":-1.85024},"BottomRight":{"Latitude":53.67648,"Longitude":-1.81551}},"Address":{"Label":"Elland, England, United Kingdom","Country":"GBR","State":"England","County":"West Yorkshire","City":"Elland","District":"Elland","PostalCode":"HX5 0","AdditionalData":[{"value":"United Kingdom","key":"CountryName"},{"value":"England","key":"StateName"},{"value":"West Yorkshire","key":"CountyName"}]},"MapReference":{"ReferenceId":"27066130","SideOfStreet":"neither","StateId":"20248595","CountyId":"20345050","CityId":"20345156","DistrictId":"20345157"}}},{"Relevance":1.0,"Distance":18.6,"MatchLevel":"houseNumber","MatchQuality":{"Country":1.0,"State":1.0,"County":1.0,"City":1.0,"District":1.0,"Street":[1.0],"HouseNumber":1.0,"PostalCode":1.0},"MatchType":"interpolated","Location":{"LocationId":"NT_WO2cQegJA0P4jSlgoZYXiD_l_1032888256_R_xUD","LocationType":"point","DisplayPosition":{"Latitude":53.686098,"Longitude":-1.8353902},"MapView":{"TopLeft":{"Latitude":53.6872222,"Longitude":-1.8372884},"BottomRight":{"Latitude":53.6849739,"Longitude":-1.8334919}},"Address":{"Label":"15 Huddersfield Road, Elland, HX5 9BA, United Kingdom","Country":"GBR","State":"England","County":"West Yorkshire","City":"Elland","District":"Elland","Street":"Huddersfield Road","HouseNumber":"15","PostalCode":"HX5 9BA","AdditionalData":[{"value":"United Kingdom","key":"CountryName"},{"value":"England","key":"StateName"},{"value":"West Yorkshire","key":"CountyName"}]},"MapReference":{"ReferenceId":"1032888256","Spot":0.51,"SideOfStreet":"right","StateId":"20248595","CountyId":"20345050","CityId":"20345156","DistrictId":"20345157"}}},{"Relevance":1.0,"Distance":31.4,"MatchLevel":"street","MatchQuality":{"Country":1.0,"State":1.0,"County":1.0,"City":1.0,"District":1.0,"Street":[1.0],"PostalCode":1.0},"Location":{"LocationId":"NT_a9Dvtet9DJHNRtYjrzZFUC_l_27066130_R","LocationType":"point","DisplayPosition":{"Latitude":53.68615,"Longitude":-1.83564},"MapView":{"TopLeft":{"Latitude":53.68635,"Longitude":-1.83611},"BottomRight":{"Latitude":53.68615,"Longitude":-1.83564}},"Address":{"Label":"Huddersfield Road, Elland, HX5 0, United Kingdom","Country":"GBR","State":"England","County":"West Yorkshire","City":"Elland","District":"Elland","Street":"Huddersfield Road","PostalCode":"HX5 0","AdditionalData":[{"value":"United Kingdom","key":"CountryName"},{"value":"England","key":"StateName"},{"value":"West Yorkshire","key":"CountyName"}]},"MapReference":{"ReferenceId":"27066130","Spot":0.0,"SideOfStreet":"right","StateId":"20248595","CountyId":"20345050","CityId":"20345156","DistrictId":"20345157"}}},{"Relevance":1.0,"Distance":31.4,"MatchLevel":"street","MatchQuality":{"Country":1.0,"State":1.0,"County":1.0,"City":1.0,"District":1.0,"Street":[1.0],"PostalCode":1.0},"Location":{"LocationId":"NT_sJI7o3XJ.Q4q94A-BPRclA_l_27066223_R","LocationType":"point","DisplayPosition":{"Latitude":53.68615,"Longitude":-1.83564},"MapView":{"TopLeft":{"Latitude":53.68615,"Longitude":-1.83568},"BottomRight":{"Latitude":53.68593,"Longitude":-1.83564}},"Address":{"Label":"Huddersfield Road, Elland, HX5 0, United Kingdom","Country":"GBR","State":"England","County":"West Yorkshire","City":"Elland","District":"Elland","Street":"Huddersfield Road","PostalCode":"HX5 0","AdditionalData":[{"value":"United Kingdom","key":"CountryName"},{"value":"England","key":"StateName"},{"value":"West Yorkshire","key":"CountyName"}]},"MapReference":{"ReferenceId":"27066223","Spot":1.0,"SideOfStreet":"right","StateId":"20248595","CountyId":"20345050","CityId":"20345156","DistrictId":"20345157"}}},{"Relevance":1.0,"Distance":33.1,"MatchLevel":"postalCode","MatchQuality":{"PostalCode":1.0},"MatchType":"interpolated","Location":{"LocationId":"NT_WO2cQegJA0P4jSlgoZYXiD_l_1032888256_R_xUD","LocationType":"point","DisplayPosition":{"Latitude":53.68613,"Longitude":-1.83519},"MapView":{"TopLeft":{"Latitude":53.6951232,"Longitude":-1.8503759},"BottomRight":{"Latitude":53.6771368,"Longitude":-1.8200041}},"Address":{"Label":"HX5 9BA, Elland, England, United Kingdom","Country":"GBR","State":"England","County":"West Yorkshire","City":"Elland","PostalCode":"HX5 9BA","AdditionalData":[{"value":"United Kingdom","key":"CountryName"},{"value":"England","key":"StateName"},{"value":"West Yorkshire","key":"CountyName"}]},"MapReference":{"ReferenceId":"1032888256","Spot":0.51,"SideOfStreet":"neither","StateId":"20248595","CountyId":"20345050","CityId":"20345156"}}},{"Relevance":1.0,"Distance":40.8,"MatchLevel":"street","MatchQuality":{"Country":1.0,"State":1.0,"County":1.0,"City":1.0,"District":1.0,"Street":[1.0],"PostalCode":1.0},"Location":{"LocationId":"NT_WO2cQegJA0P4jSlgoZYXiD_l_1032888255_L","LocationType":"point","DisplayPosition":{"Latitude":53.68607,"Longitude":-1.83513},"MapView":{"TopLeft":{"Latitude":53.6861,"Longitude":-1.83513},"BottomRight":{"Latitude":53.68607,"Longitude":-1.83473}},"Address":{"Label":"Huddersfield Road, Elland, HX5 9, United Kingdom","Country":"GBR","State":"England","County":"West Yorkshire","City":"Elland","District":"Elland","Street":"Huddersfield Road","PostalCode":"HX5 9","AdditionalData":[{"value":"United Kingdom","key":"CountryName"},{"value":"England","key":"StateName"},{"value":"West Yorkshire","key":"CountyName"}]},"MapReference":{"ReferenceId":"1032888255","Spot":0.0,"SideOfStreet":"left","StateId":"20248595","CountyId":"20345050","CityId":"20345156","DistrictId":"20345157"}}},{"Relevance":1.0,"Distance":46.5,"MatchLevel":"street","MatchQuality":{"Country":1.0,"State":1.0,"County":1.0,"City":1.0,"District":1.0,"PostalCode":1.0},"Location":{"LocationId":"NT_k2phRje2p.VgN02E.yCDPA_l_27066086_R","LocationType":"point","DisplayPosition":{"Latitude":53.68635,"Longitude":-1.83611},"MapView":{"TopLeft":{"Latitude":53.68635,"Longitude":-1.83665},"BottomRight":{"Latitude":53.68623,"Longitude":-1.83611}},"Address":{"Label":"Elland, HX5 0, United Kingdom","Country":"GBR","State":"England","County":"West Yorkshire","City":"Elland","District":"Elland","PostalCode":"HX5 0","AdditionalData":[{"value":"United Kingdom","key":"CountryName"},{"value":"England","key":"StateName"},{"value":"West Yorkshire","key":"CountyName"}]},"MapReference":{"ReferenceId":"27066086","Spot":1.0,"SideOfStreet":"right","StateId":"20248595","CountyId":"20345050","CityId":"20345156","DistrictId":"20345157"}}},{"Relevance":1.0,"Distance":49.4,"MatchLevel":"street","MatchQuality":{"Country":1.0,"State":1.0,"County":1.0,"City":1.0,"District":1.0,"Street":[1.0],"PostalCode":1.0},"Location":{"LocationId":"NT_eG6aY8sKCOfxbnzoJ432tA_l_27066107_L","LocationType":"point","DisplayPosition":{"Latitude":53.6862555,"Longitude":-1.8346989},"MapView":{"TopLeft":{"Latitude":53.68641,"Longitude":-1.8347},"BottomRight":{"Latitude":53.68617,"Longitude":-1.83465}},"Address":{"Label":"Elland Riorges Link, Elland, HX5 9, United Kingdom","Country":"GBR","State":"England","County":"West Yorkshire","City":"Elland","District":"Elland","Street":"Elland Riorges Link","PostalCode":"HX5 9","AdditionalData":[{"value":"United Kingdom","key":"CountryName"},{"value":"England","key":"StateName"},{"value":"West Yorkshire","key":"CountyName"}]},"MapReference":{"ReferenceId":"27066107","Spot":0.34,"SideOfStreet":"left","StateId":"20248595","CountyId":"20345050","CityId":"20345156","DistrictId":"20345157"}}},{"Relevance":1.0,"Distance":50.0,"MatchLevel":"landmark","MatchQuality":{"Country":1.0,"State":1.0,"County":1.0,"City":1.0,"District":1.0,"PostalCode":1.0,"Name":1.0},"Location":{"LocationId":"NT_-b.XEscANIIPzoAN74Xp3B","LocationType":"industrialComplex","Name":"Wellington Business Park","DisplayPosition":{"Latitude":53.68627,"Longitude":-1.83386},"MapView":{"TopLeft":{"Latitude":53.68731,"Longitude":-1.83465},"BottomRight":{"Latitude":53.68524,"Longitude":-1.83299}},"Address":{"Label":"Elland, HX5 0, United Kingdom","Country":"GBR","State":"England","County":"West Yorkshire","City":"Elland","District":"Elland","PostalCode":"HX5 0","AdditionalData":[{"value":"United Kingdom","key":"CountryName"},{"value":"England","key":"StateName"},{"value":"West Yorkshire","key":"CountyName"}]},"MapReference":{"StateId":"20248595","CountyId":"20345050","CityId":"20345156","DistrictId":"20345157","PlaceId":"1407144304"}}},{"Relevance":1.0,"Distance":53.1,"MatchLevel":"street","MatchQuality":{"Country":1.0,"State":1.0,"County":1.0,"City":1.0,"District":1.0,"PostalCode":1.0},"Location":{"LocationId":"NT_zkeyK8iWnMGTciPd3ocGyB_l_27066145_L","LocationType":"point","DisplayPosition":{"Latitude":53.68615,"Longitude":-1.83472},"MapView":{"TopLeft":{"Latitude":53.68617,"Longitude":-1.83473},"BottomRight":{"Latitude":53.6861,"Longitude":-1.8347}},"Address":{"Label":"Elland, HX5 9, United Kingdom","Country":"GBR","State":"England","County":"West Yorkshire","City":"Elland","District":"Elland","PostalCode":"HX5 9","AdditionalData":[{"value":"United Kingdom","key":"CountryName"},{"value":"England","key":"StateName"},{"value":"West Yorkshire","key":"CountyName"}]},"MapReference":{"ReferenceId":"27066145","Spot":0.65,"SideOfStreet":"left","StateId":"20248595","CountyId":"20345050","CityId":"20345156","DistrictId":"20345157"}}}]}]}}