{"Response":{"MetaInfo":{"Timestamp":"2020-03-28T10:38:46.415+0000","NextPageInformation":"2"},"View":[{"_type":"SearchResultsViewType","ViewId":0,"Result":[{"Relevance":1.0,"Distance":0.0,"Direction":0.0,"MatchLevel":"district","MatchQuality":{"Country":1.0,"State":1.0,"County":1.0,"City":1.0,"District":1.0,"PostalCode":1.0},"Location":{"LocationId":"NT_puyVhiignktbxFuTZx-uHA","LocationType":"point","DisplayPosition":{"Latitude":53.6246892,"Longitude":-1.4085175},"MapView":{"TopLeft":{"Latitude":53.63215,"Longitude":-1.42732},"BottomRight":{"Latitude":53.61623,"Longitude":-1.3963}},"Address":{"Label":"Ryhill, Wakefield, England, United Kingdom","Country":"GBR","State":"England","County":"West Yorkshire","City":"Wakefield","District":"Ryhill","PostalCode":"WF4 2","AdditionalData":[{"value":"United Kingdom","key":"CountryName"},{"value":"England","key":"StateName"},{"value":"West Yorkshire","key":"CountyName"}]},"MapReference":{"ReferenceId":"1032593696","SideOfStreet":"neither","StateId":"20248595","CountyId":"20345050","CityId":"20345470","DistrictId":"20345510"}}},{"Relevance":1.0,"Distance":53.4,"MatchLevel":"street","MatchQuality":{"Country":1.0,"State":1.0,"County":1.0,"City":1.0,"District":1.0,"Street":[1.0],"PostalCode":1.0},"Location":{"LocationId":"NT_VuDofm.aetdjKpo0Md2elB_l_565955120_R","LocationType":"point","DisplayPosition":{"Latitude":53.6242088,"Longitude":-1.4085409},"MapView":{"TopLeft":{"Latitude":53.6243,"Longitude":-1.41041},"BottomRight":{"Latitude":53.6242,"Longitude":-1.40836}},"Address":{"Label":"Beachill Drive, Wakefield, WF4 2, United Kingdom","Country":"GBR","State":"England","County":"West Yorkshire","City":"Wakefield","District":"Havercroft","Street":"Beachill Drive","PostalCode":"WF4 2","AdditionalData":[{"value":"United Kingdom","key":"CountryName"},{"value":"England","key":"StateName"},{"value":"West Yorkshire","key":"CountyName"}]},"MapReference":{"ReferenceId":"565955120","Spot":0.09,"SideOfStreet":"right","StateId":"20248595","CountyId":"20345050","CityId":"20345470","DistrictId":"20345491"}}},{"Relevance":1.0,"Distance":53.7,"MatchLevel":"postalCode","MatchQuality":{"PostalCode":1.0},"MatchType":"interpolated","Location":{"LocationId":"NT_goFIztnDwOBJZ6qT4vHA8B_l_565955119_R_1MD","LocationType":"point","DisplayPosition":{"Latitude":53.62425,"Longitude":-1.40818},"MapView":{"TopLeft":{"Latitude":53.6332432,"Longitude":-1.4233436},"BottomRight":{"Latitude":53.6152568,"Longitude":-1.3930164}},"Address":{"Label":"WF4 2QG, Wakefield, England, United Kingdom","Country":"GBR","State":"England","County":"West Yorkshire","City":"Wakefield","PostalCode":"WF4 2QG","AdditionalData":[{"value":"United Kingdom","key":"CountryName"},{"value":"England","key":"StateName"},{"value":"West Yorkshire","key":"CountyName"}]},"MapReference":{"ReferenceId":"565955119","Spot":0.25,"SideOfStreet":"neither","StateId":"20248595","CountyId":"20345050","CityId":"20345470"}}},{"Relevance":1.0,"Distance":53.7,"MatchLevel":"street","MatchQuality":{"Country":1.0,"State":1.0,"County":1.0,"City":1.0,"District":1.0,"Street":[1.0],"PostalCode":1.0},"Location":{"LocationId":"NT_xhL6afYt-sMo8GxH1u5qhD_l_1057688598_R","LocationType":"point","DisplayPosition":{"Latitude":53.62499,"Longitude":-1.40788},"MapView":{"TopLeft":{"Latitude":53.62508,"Longitude":-1.40788},"BottomRight":{"Latitude":53.62497,"Longitude":-1.40706}},"Address":{"Label":"Madeley Drive, Wakefield, WF4 2, United Kingdom","Country":"GBR","State":"England","County":"West Yorkshire","City":"Wakefield","District":"Havercroft","Street":"Madeley Drive","PostalCode":"WF4 2","AdditionalData":[{"value":"United Kingdom","key":"CountryName"},{"value":"England","key":"StateName"},{"value":"West Yorkshire","key":"CountyName"}]},"MapReference":{"ReferenceId":"1057688598","Spot":0.0,"SideOfStreet":"right","StateId":"20248595","CountyId":"20345050","CityId":"20345470","DistrictId":"20345491"}}},{"Relevance":1.0,"Distance":60.1,"MatchLevel":"houseNumber","MatchQuality":{"Country":1.0,"State":1.0,"County":1.0,"City":1.0,"District":1.0,"Street":[1.0],"HouseNumber":1.0,"PostalCode":1.0},"MatchType":"interpolated","Location":{"LocationId":"NT_goFIztnDwOBJZ6qT4vHA8B_l_565955119_R_1MD","LocationType":"point","DisplayPosition":{"Latitude":53.6242,"Longitude":-1.40813},"MapView":{"TopLeft":{"Latitude":53.6253242,"Longitude":-1.4100254},"BottomRight":{"Latitude":53.6230758,"Longitude":-1.4062345}},"Address":{"Label":"53 Madeley Road, Wakefield, WF4 2PJ, United Kingdom","Country":"GBR","State":"England","County":"West Yorkshire","City":"Wakefield","District":"Havercroft","Street":"Madeley Road","HouseNumber":"53","PostalCode":"WF4 2PJ","AdditionalData":[{"value":"United Kingdom","key":"CountryName"},{"value":"England","key":"StateName"},{"value":"West Yorkshire","key":"CountyName"}]},"MapReference":{"ReferenceId":"565955119","Spot":0.25,"SideOfStreet":"right","StateId":"20248595","CountyId":"20345050","CityId":"20345470","DistrictId":"20345491"}}},{"Relevance":1.0,"Distance":78.0,"MatchLevel":"street","MatchQuality":{"Country":1.0,"State":1.0,"County":1.0,"City":1.0,"District":1.0,"Street":[1.0],"PostalCode":1.0},"Location":{"LocationId":"NT_UuDjUZbag7znlyjYuhbW3C_l_1084928431_R","LocationType":"point","DisplayPosition":{"Latitude":53.62537,"Longitude":-1.40823},"MapView":{"TopLeft":{"Latitude":53.62553,"Longitude":-1.40823},"BottomRight":{"Latitude":53.62537,"Longitude":-1.40739}},"Address":{"Label":"Madeley Mews, Wakefield, WF4 2, United Kingdom","Country":"GBR","State":"England","County":"West Yorkshire","City":"Wakefield","District":"Havercroft","Street":"Madeley Mews","PostalCode":"WF4 2","AdditionalData":[{"value":"United Kingdom","key":"CountryName"},{"value":"England","key":"StateName"},{"value":"West Yorkshire","key":"CountyName"}]},"MapReference":{"ReferenceId":"1084928431","Spot":0.0,"SideOfStreet":"right","StateId":"20248595","CountyId":"20345050","CityId":"20345470","DistrictId":"20345491"}}},{"Relevance":1.0,"Distance":79.7,"MatchLevel":"houseNumber","MatchQuality":{"Country":1.0,"State":1.0,"County":1.0,"City":1.0,"District":1.0,"Street":[1.0],"HouseNumber":1.0,"PostalCode":1.0},"MatchType":"interpolated","Location":{"LocationId":"NT_goFIztnDwOBJZ6qT4vHA8B_l_565955118_R_1UD","LocationType":"point","DisplayPosition":{"Latitude":53.6239767,"Longitude":-1.4083933},"MapView":{"TopLeft":{"Latitude":53.6251008,"Longitude":-1.4102888},"BottomRight":{"Latitude":53.6228525,"Longitude":-1.4064979}},"Address":{"Label":"55 Madeley Road, Wakefield, WF4 2PJ, United Kingdom","Country":"GBR","State":"England","County":"West Yorkshire","City":"Wakefield","District":"Havercroft","Street":"Madeley Road","HouseNumber":"55","PostalCode":"WF4 2PJ","AdditionalData":[{"value":"United Kingdom","key":"CountryName"},{"value":"England","key":"StateName"},{"value":"West Yorkshire","key":"CountyName"}]},"MapReference":{"ReferenceId":"565955118","Spot":0.57,"SideOfStreet":"right","StateId":"20248595","CountyId":"20345050","CityId":"20345470","DistrictId":"20345491"}}},{"Relevance":1.0,"Distance":95.2,"MatchLevel":"houseNumber","MatchQuality":{"Country":1.0,"State":1.0,"County":1.0,"City":1.0,"District":1.0,"Street":[1.0],"HouseNumber":1.0,"PostalCode":1.0},"MatchType":"interpolated","Location":{"LocationId":"NT_SU05qSMnN1Otf2EOOWmQ2B_l_27081187_R_xID","LocationType":"point","DisplayPosition":{"Latitude":53.62371,"Longitude":-1.4087703},"MapView":{"TopLeft":{"Latitude":53.6248342,"Longitude":-1.4106657},"BottomRight":{"Latitude":53.6225859,"Longitude":-1.4068748}},"Address":{"Label":"12 St James Court, Wakefield, WF4 2PQ, United Kingdom","Country":"GBR","State":"England","County":"West Yorkshire","City":"Wakefield","District":"Havercroft","Street":"St James Court","HouseNumber":"12","PostalCode":"WF4 2PQ","AdditionalData":[{"value":"United Kingdom","key":"CountryName"},{"value":"England","key":"StateName"},{"value":"West Yorkshire","key":"CountyName"}]},"MapReference":{"ReferenceId":"27081187","Spot":0.44,"SideOfStreet":"right","StateId":"20248595","CountyId":"20345050","CityId":"20345470","DistrictId":"20345491"}}},{"Relevance":1.0,"Distance":96.2,"MatchLevel":"postalCode","MatchQuality":{"PostalCode":1.0},"Location":{"LocationId":"NT_xhL6afYt-sMo8GxH1u5qhD_l_1057688598_R","LocationType":"point","DisplayPosition":{"Latitude":53.62499,"Longitude":-1.40715},"MapView":{"TopLeft":{"Latitude":53.6339832,"Longitude":-1.4223139},"BottomRight":{"Latitude":53.6159968,"Longitude":-1.3919861}},"Address":{"Label":"WF4 2FJ, Wakefield, England, United Kingdom","Country":"GBR","State":"England","County":"West Yorkshire","City":"Wakefield","PostalCode":"WF4 2FJ","AdditionalData":[{"value":"United Kingdom","key":"CountryName"},{"value":"England","key":"StateName"},{"value":"West Yorkshire","key":"CountyName"}]},"MapReference":{"ReferenceId":"1057688598","Spot":0.0,"SideOfStreet":"neither","StateId":"20248595","CountyId":"20345050","CityId":"20345470"}}},{"Relevance":1.0,"Distance":99.4,"MatchLevel":"postalCode","MatchQuality":{"PostalCode":1.0},"MatchType":"interpolated","Location":{"LocationId":"NT_goFIztnDwOBJZ6qT4vHA8B_l_565955118_R_1UD","LocationType":"point","DisplayPosition":{"Latitude":53.6238,"Longitude":-1.40837},"MapView":{"TopLeft":{"Latitude":53.6327932,"Longitude":-1.4235335},"BottomRight":{"Latitude":53.6148068,"Longitude":-1.3932065}},"Address":{"Label":"WF4 2PJ, Wakefield, England, United Kingdom","Country":"GBR","State":"England","County":"West Yorkshire","City":"Wakefield","PostalCode":"WF4 2PJ","AdditionalData":[{"value":"United Kingdom","key":"CountryName"},{"value":"England","key":"StateName"},{"value":"West Yorkshire","key":"CountyName"}]},"MapReference":{"ReferenceId":"565955118","Spot":0.57,"SideOfStreet":"neither","StateId":"20248595","CountyId":"20345050","CityId":"20345470"}}}]}]}}