{"Response":{"MetaInfo":{"Timestamp":"2020-03-28T09:50:14.426+0000","NextPageInformation":"2"},"View":[{"_type":"SearchResultsViewType","ViewId":0,"Result":[{"Relevance":1.0,"Distance":0.0,"Direction":0.0,"MatchLevel":"district","MatchQuality":{"Country":1.0,"State":1.0,"County":1.0,"City":1.0,"District":1.0,"PostalCode":1.0},"Location":{"LocationId":"NT_tdXflyOqvDpdx9U4RBSzWD","LocationType":"point","DisplayPosition":{"Latitude":53.6037651,"Longitude":-2.4320448},"MapView":{"TopLeft":{"Latitude":53.61689,"Longitude":-2.50933},"BottomRight":{"Latitude":53.55481,"Longitude":-2.37253}},"Address":{"Label":"Bolton, England, United Kingdom","Country":"GBR","State":"England","County":"Lancashire","City":"Bolton","District":"Bolton","PostalCode":"BL1 1","AdditionalData":[{"value":"United Kingdom","key":"CountryName"},{"value":"England","key":"StateName"},{"value":"Lancashire","key":"CountyName"}]},"MapReference":{"ReferenceId":"773533915","SideOfStreet":"neither","StateId":"20248595","CountyId":"20343938","CityId":"20343985","DistrictId":"20343986"}}},{"Relevance":1.0,"Distance":2.9,"MatchLevel":"houseNumber","MatchQuality":{"Country":1.0,"State":1.0,"County":1.0,"City":1.0,"District":1.0,"Street":[1.0],"HouseNumber":1.0,"PostalCode":1.0},"MatchType":"interpolated","Location":{"LocationId":"NT_li2I9vmALDV7.1NbCJ-cuA_l_27151309_R_2YDO","LocationType":"point","DisplayPosition":{"Latitude":53.6038267,"Longitude":-2.4321967},"MapView":{"TopLeft":{"Latitude":53.6049508,"Longitude":-2.4340912},"BottomRight":{"Latitude":53.6027025,"Longitude":-2.4303021}},"Address":{"Label":"668 Blackburn Road, Bolton, BL1 7, United Kingdom","Country":"GBR","State":"England","County":"Lancashire","City":"Bolton","District":"Bolton","Street":"Blackburn Road","HouseNumber":"668","PostalCode":"BL1 7","AdditionalData":[{"value":"United Kingdom","key":"CountryName"},{"value":"England","key":"StateName"},{"value":"Lancashire","key":"CountyName"}]},"MapReference":{"ReferenceId":"27151309","Spot":0.58,"SideOfStreet":"right","StateId":"20248595","CountyId":"20343938","CityId":"20343985","DistrictId":"20343986"}}},{"Relevance":1.0,"Distance":13.7,"MatchLevel":"postalCode","MatchQuality":{"PostalCode":1.0},"MatchType":"interpolated","Location":{"LocationId":"NT_li2I9vmALDV7.1NbCJ-cuA_l_27151309_R_2YDO","LocationType":"point","DisplayPosition":{"Latitude":53.60388,"Longitude":-2.43212},"MapView":{"TopLeft":{"Latitude":53.6128732,"Longitude":-2.4472763},"BottomRight":{"Latitude":53.5948868,"Longitude":-2.4169637}},"Address":{"Label":"BL1 7AJ, Bolton, England, United Kingdom","Country":"GBR","State":"England","County":"Lancashire","City":"Bolton","PostalCode":"BL1 7AJ","AdditionalData":[{"value":"United Kingdom","key":"CountryName"},{"value":"England","key":"StateName"},{"value":"Lancashire","key":"CountyName"}]},"MapReference":{"ReferenceId":"27151309","Spot":0.58,"SideOfStreet":"neither","StateId":"20248595","CountyId":"20343938","CityId":"20343985"}}},{"Relevance":1.0,"Distance":23.7,"MatchLevel":"houseNumber","MatchQuality":{"Country":1.0,"State":1.0,"County":1.0,"City":1.0,"District":1.0,"Street":[1.0],"HouseNumber":1.0,"PostalCode":1.0},"MatchType":"interpolated","Location":{"LocationId":"NT_lfXfKnbrUc.YLBq4jbQUeD_l_27151125_R_yA","LocationType":"point","DisplayPosition":{"Latitude":53.60407,"Longitude":-2.4318899},"MapView":{"TopLeft":{"Latitude":53.6051942,"Longitude":-2.4337845},"BottomRight":{"Latitude":53.6029459,"Longitude":-2.4299954}},"Address":{"Label":"2 Ashworth Lane, Bolton, BL1 8RA, United Kingdom","Country":"GBR","State":"England","County":"Lancashire","City":"Bolton","District":"Bolton","Street":"Ashworth Lane","HouseNumber":"2","PostalCode":"BL1 8RA","AdditionalData":[{"value":"United Kingdom","key":"CountryName"},{"value":"England","key":"StateName"},{"value":"Lancashire","key":"CountyName"}]},"MapReference":{"ReferenceId":"27151125","Spot":0.37,"SideOfStreet":"right","StateId":"20248595","CountyId":"20343938","CityId":"20343985","DistrictId":"20343986"}}},{"Relevance":1.0,"Distance":26.3,"MatchLevel":"houseNumber","MatchQuality":{"Country":1.0,"State":1.0,"County":1.0,"City":1.0,"District":1.0,"Street":[1.0],"HouseNumber":1.0,"PostalCode":1.0},"MatchType":"interpolated","Location":{"LocationId":"NT_li2I9vmALDV7.1NbCJ-cuA_l_27151124_R_2cDN","LocationType":"point","DisplayPosition":{"Latitude":53.60406,"Longitude":-2.43212},"MapView":{"TopLeft":{"Latitude":53.6051842,"Longitude":-2.4340145},"BottomRight":{"Latitude":53.6029359,"Longitude":-2.4302254}},"Address":{"Label":"674 Blackburn Road, Bolton, BL1 7AJ, United Kingdom","Country":"GBR","State":"England","County":"Lancashire","City":"Bolton","District":"Bolton","Street":"Blackburn Road","HouseNumber":"674","PostalCode":"BL1 7AJ","AdditionalData":[{"value":"United Kingdom","key":"CountryName"},{"value":"England","key":"StateName"},{"value":"Lancashire","key":"CountyName"}]},"MapReference":{"ReferenceId":"27151124","Spot":0.0,"SideOfStreet":"right","StateId":"20248595","CountyId":"20343938","CityId":"20343985","DistrictId":"20343986"}}},{"Relevance":1.0,"Distance":29.3,"MatchLevel":"houseNumber","MatchQuality":{"Country":1.0,"State":1.0,"County":1.0,"City":1.0,"District":1.0,"Street":[1.0],"HouseNumber":1.0,"PostalCode":1.0},"MatchType":"interpolated","Location":{"LocationId":"NT_sbSccvzwDj1IwHoF3PwYyB_l_865672378_L_xkD","LocationType":"point","DisplayPosition":{"Latitude":53.6036526,"Longitude":-2.4314062},"MapView":{"TopLeft":{"Latitude":53.6047768,"Longitude":-2.4333007},"BottomRight":{"Latitude":53.6025285,"Longitude":-2.4295117}},"Address":{"Label":"19 Primrose Street, Bolton, BL1 8, United Kingdom","Country":"GBR","State":"England","County":"Lancashire","City":"Bolton","District":"Bolton","Street":"Primrose Street","HouseNumber":"19","PostalCode":"BL1 8","AdditionalData":[{"value":"United Kingdom","key":"CountryName"},{"value":"England","key":"StateName"},{"value":"Lancashire","key":"CountyName"}]},"MapReference":{"ReferenceId":"865672378","Spot":0.31,"SideOfStreet":"left","StateId":"20248595","CountyId":"20343938","CityId":"20343985","DistrictId":"20343986"}}},{"Relevance":1.0,"Distance":34.3,"MatchLevel":"houseNumber","MatchQuality":{"Country":1.0,"State":1.0,"County":1.0,"City":1.0,"District":1.0,"Street":[1.0],"HouseNumber":1.0,"PostalCode":1.0},"MatchType":"interpolated","Location":{"LocationId":"NT_sbSccvzwDj1IwHoF3PwYyB_l_865672377_L_xUD","LocationType":"point","DisplayPosition":{"Latitude":53.6034838,"Longitude":-2.43147},"MapView":{"TopLeft":{"Latitude":53.6046079,"Longitude":-2.4333645},"BottomRight":{"Latitude":53.6023596,"Longitude":-2.4295755}},"Address":{"Label":"15 Primrose Street, Bolton, BL1 8QU, United Kingdom","Country":"GBR","State":"England","County":"Lancashire","City":"Bolton","District":"Bolton","Street":"Primrose Street","HouseNumber":"15","PostalCode":"BL1 8QU","AdditionalData":[{"value":"United Kingdom","key":"CountryName"},{"value":"England","key":"StateName"},{"value":"Lancashire","key":"CountyName"}]},"MapReference":{"ReferenceId":"865672377","Spot":0.88,"SideOfStreet":"left","StateId":"20248595","CountyId":"20343938","CityId":"20343985","DistrictId":"20343986"}}},{"Relevance":1.0,"Distance":39.4,"MatchLevel":"houseNumber","MatchQuality":{"Country":1.0,"State":1.0,"County":1.0,"City":1.0,"District":1.0,"Street":[1.0],"HouseNumber":1.0,"PostalCode":1.0},"MatchType":"interpolated","Location":{"LocationId":"NT_xFG1L9N1Bve30RFbLju5ZB_l_27151362_R_2UDN","LocationType":"point","DisplayPosition":{"Latitude":53.6034573,"Longitude":-2.4323392},"MapView":{"TopLeft":{"Latitude":53.6045814,"Longitude":-2.4342337},"BottomRight":{"Latitude":53.6023331,"Longitude":-2.4304447}},"Address":{"Label":"654 Blackburn Road, Bolton, BL1 7AJ, United Kingdom","Country":"GBR","State":"England","County":"Lancashire","City":"Bolton","District":"Bolton","Street":"Blackburn Road","HouseNumber":"654","PostalCode":"BL1 7AJ","AdditionalData":[{"value":"United Kingdom","key":"CountryName"},{"value":"England","key":"StateName"},{"value":"Lancashire","key":"CountyName"}]},"MapReference":{"ReferenceId":"27151362","Spot":0.52,"SideOfStreet":"right","StateId":"20248595","CountyId":"20343938","CityId":"20343985","DistrictId":"20343986"}}},{"Relevance":1.0,"Distance":40.1,"MatchLevel":"postalCode","MatchQuality":{"PostalCode":1.0},"MatchType":"interpolated","Location":{"LocationId":"NT_sbSccvzwDj1IwHoF3PwYyB_l_865672378_L_xkD","LocationType":"point","DisplayPosition":{"Latitude":53.60369,"Longitude":-2.43145},"MapView":{"TopLeft":{"Latitude":53.6126832,"Longitude":-2.4466062},"BottomRight":{"Latitude":53.5946968,"Longitude":-2.4162938}},"Address":{"Label":"BL1 8QZ, Bolton, England, United Kingdom","Country":"GBR","State":"England","County":"Lancashire","City":"Bolton","PostalCode":"BL1 8QZ","AdditionalData":[{"value":"United Kingdom","key":"CountryName"},{"value":"England","key":"StateName"},{"value":"Lancashire","key":"CountyName"}]},"MapReference":{"ReferenceId":"865672378","Spot":0.31,"SideOfStreet":"neither","StateId":"20248595","CountyId":"20343938","CityId":"20343985"}}},{"Relevance":1.0,"Distance":46.8,"MatchLevel":"street","MatchQuality":{"Country":1.0,"State":1.0,"County":1.0,"City":1.0,"District":1.0,"Street":[1.0],"PostalCode":1.0},"Location":{"LocationId":"NT_9ov1gK5oPDPw1XLkocUd3A_l_27151408_R","LocationType":"point","DisplayPosition":{"Latitude":53.6033443,"Longitude":-2.4320794},"MapView":{"TopLeft":{"Latitude":53.6034,"Longitude":-2.43236},"BottomRight":{"Latitude":53.6033,"Longitude":-2.43154}},"Address":{"Label":"Rainshaw Street, Bolton, BL1 8, United Kingdom","Country":"GBR","State":"England","County":"Lancashire","City":"Bolton","District":"Bolton","Street":"Rainshaw Street","PostalCode":"BL1 8","AdditionalData":[{"value":"United Kingdom","key":"CountryName"},{"value":"England","key":"StateName"},{"value":"Lancashire","key":"CountyName"}]},"MapReference":{"ReferenceId":"27151408","Spot":0.65,"SideOfStreet":"right","StateId":"20248595","CountyId":"20343938","CityId":"20343985","DistrictId":"20343986"}}}]}]}}