{"Response":{"MetaInfo":{"Timestamp":"2020-03-28T11:40:38.922+0000","NextPageInformation":"2"},"View":[{"_type":"SearchResultsViewType","ViewId":0,"Result":[{"Relevance":1.0,"Distance":0.0,"Direction":0.0,"MatchLevel":"district","MatchQuality":{"Country":1.0,"State":1.0,"County":1.0,"City":1.0,"District":1.0,"PostalCode":1.0},"Location":{"LocationId":"NT_EeNxkNMYuAQJVtx14-DAYC","LocationType":"point","DisplayPosition":{"Latitude":53.6080131,"Longitude":8.5962624},"MapView":{"TopLeft":{"Latitude":53.62088,"Longitude":8.58093},"BottomRight":{"Latitude":53.59306,"Longitude":8.62891}},"Address":{"Label":"Langen, Geestland, Niedersachsen, Deutschland","Country":"DEU","State":"Niedersachsen","County":"Cuxhaven","City":"Geestland","District":"Langen","PostalCode":"27607","AdditionalData":[{"value":"Deutschland","key":"CountryName"},{"value":"Niedersachsen","key":"StateName"},{"value":"Cuxhaven","key":"CountyName"}]},"MapReference":{"ReferenceId":"740439297","SideOfStreet":"neither","CountryId":"20147700","StateId":"20151542","CountyId":"20154117","CityId":"20154245","DistrictId":"20154248"}}},{"Relevance":1.0,"Distance":3.6,"MatchLevel":"houseNumber","MatchQuality":{"Country":1.0,"State":1.0,"County":1.0,"City":1.0,"District":1.0,"Street":[1.0],"HouseNumber":1.0,"PostalCode":1.0},"MatchType":"interpolated","Location":{"LocationId":"NT_045DEkf.uyZRHHGjJt.XUC_5IE","LocationType":"point","DisplayPosition":{"Latitude":53.6081,"Longitude":8.59622},"MapView":{"TopLeft":{"Latitude":53.6092242,"Longitude":8.5943253},"BottomRight":{"Latitude":53.6069758,"Longitude":8.5981147}},"Address":{"Label":"Debstedter Straße 9B, 27607 Geestland, Deutschland","Country":"DEU","State":"Niedersachsen","County":"Cuxhaven","City":"Geestland","District":"Langen","Street":"Debstedter Straße","HouseNumber":"9B","PostalCode":"27607","AdditionalData":[{"value":"Deutschland","key":"CountryName"},{"value":"Niedersachsen","key":"StateName"},{"value":"Cuxhaven","key":"CountyName"}]},"MapReference":{"ReferenceId":"60105835","Spot":0.62,"SideOfStreet":"right","CountryId":"20147700","StateId":"20151542","CountyId":"20154117","CityId":"20154245","DistrictId":"20154248","AddressId":"180717709","RoadLinkId":"37326217"}}},{"Relevance":1.0,"Distance":17.9,"MatchLevel":"street","MatchQuality":{"Country":1.0,"State":1.0,"County":1.0,"City":1.0,"District":1.0,"Street":[1.0],"PostalCode":1.0},"Location":{"LocationId":"NT_9Jso-spFNA73yOo10B6MyD_l_60105992_L","LocationType":"point","DisplayPosition":{"Latitude":53.6080739,"Longitude":8.5965133},"MapView":{"TopLeft":{"Latitude":53.60817,"Longitude":8.59649},"BottomRight":{"Latitude":53.60784,"Longitude":8.59657}},"Address":{"Label":"Ohldorpsweg, 27607 Geestland, Deutschland","Country":"DEU","State":"Niedersachsen","County":"Cuxhaven","City":"Geestland","District":"Langen","Street":"Ohldorpsweg","PostalCode":"27607","AdditionalData":[{"value":"Deutschland","key":"CountryName"},{"value":"Niedersachsen","key":"StateName"},{"value":"Cuxhaven","key":"CountyName"}]},"MapReference":{"ReferenceId":"60105992","Spot":0.71,"SideOfStreet":"left","CountryId":"20147700","StateId":"20151542","CountyId":"20154117","CityId":"20154245","DistrictId":"20154248"}}},{"Relevance":1.0,"Distance":37.1,"MatchLevel":"houseNumber","MatchQuality":{"Country":1.0,"State":1.0,"County":1.0,"City":1.0,"District":1.0,"Street":[1.0],"HouseNumber":1.0,"PostalCode":1.0},"MatchType":"interpolated","Location":{"LocationId":"NT_045DEkf.uyZRHHGjJt.XUC_3gE","LocationType":"point","DisplayPosition":{"Latitude":53.60802,"Longitude":8.5957},"MapView":{"TopLeft":{"Latitude":53.6091442,"Longitude":8.5938053},"BottomRight":{"Latitude":53.6068958,"Longitude":8.5975947}},"Address":{"Label":"Debstedter Straße 7H, 27607 Geestland, Deutschland","Country":"DEU","State":"Niedersachsen","County":"Cuxhaven","City":"Geestland","District":"Langen","Street":"Debstedter Straße","HouseNumber":"7H","PostalCode":"27607","AdditionalData":[{"value":"Deutschland","key":"CountryName"},{"value":"Niedersachsen","key":"StateName"},{"value":"Cuxhaven","key":"CountyName"}]},"MapReference":{"ReferenceId":"1193230574","Spot":0.9,"SideOfStreet":"right","CountryId":"20147700","StateId":"20151542","CountyId":"20154117","CityId":"20154245","DistrictId":"20154248","AddressId":"181044019","RoadLinkId":"503024157"}}},{"Relevance":1.0,"Distance":39.7,"MatchLevel":"houseNumber","MatchQuality":{"Country":1.0,"State":1.0,"County":1.0,"City":1.0,"District":1.0,"Street":[1.0],"HouseNumber":1.0,"PostalCode":1.0},"MatchType":"interpolated","Location":{"LocationId":"NT_045DEkf.uyZRHHGjJt.XUC_xED","LocationType":"point","DisplayPosition":{"Latitude":53.60823,"Longitude":8.59674},"MapView":{"TopLeft":{"Latitude":53.6093542,"Longitude":8.5948453},"BottomRight":{"Latitude":53.6071058,"Longitude":8.5986347}},"Address":{"Label":"Debstedter Straße 11, 27607 Geestland, Deutschland","Country":"DEU","State":"Niedersachsen","County":"Cuxhaven","City":"Geestland","District":"Langen","Street":"Debstedter Straße","HouseNumber":"11","PostalCode":"27607","AdditionalData":[{"value":"Deutschland","key":"CountryName"},{"value":"Niedersachsen","key":"StateName"},{"value":"Cuxhaven","key":"CountyName"}]},"MapReference":{"ReferenceId":"60105818","Spot":0.11,"SideOfStreet":"right","CountryId":"20147700","StateId":"20151542","CountyId":"20154117","CityId":"20154245","DistrictId":"20154248","AddressId":"180827798","RoadLinkId":"37102014"}}},{"Relevance":1.0,"Distance":52.8,"MatchLevel":"houseNumber","MatchQuality":{"Country":1.0,"State":1.0,"County":1.0,"City":1.0,"District":1.0,"Street":[1.0],"HouseNumber":1.0,"PostalCode":1.0},"MatchType":"interpolated","Location":{"LocationId":"NT_bm2ylhEO.8cGGcQm4yj-zD_xA","LocationType":"point","DisplayPosition":{"Latitude":53.6084,"Longitude":8.59566},"MapView":{"TopLeft":{"Latitude":53.6095242,"Longitude":8.5937653},"BottomRight":{"Latitude":53.6072758,"Longitude":8.5975547}},"Address":{"Label":"Driftweg 1, 27607 Geestland, Deutschland","Country":"DEU","State":"Niedersachsen","County":"Cuxhaven","City":"Geestland","District":"Langen","Street":"Driftweg","HouseNumber":"1","PostalCode":"27607","AdditionalData":[{"value":"Deutschland","key":"CountryName"},{"value":"Niedersachsen","key":"StateName"},{"value":"Cuxhaven","key":"CountyName"}]},"MapReference":{"ReferenceId":"60105836","Spot":0.3,"SideOfStreet":"right","CountryId":"20147700","StateId":"20151542","CountyId":"20154117","CityId":"20154245","DistrictId":"20154248","AddressId":"177284129","RoadLinkId":"36288166"}}},{"Relevance":1.0,"Distance":60.4,"MatchLevel":"houseNumber","MatchQuality":{"Country":1.0,"State":1.0,"County":1.0,"City":1.0,"District":1.0,"Street":[1.0],"HouseNumber":1.0,"PostalCode":1.0},"MatchType":"interpolated","Location":{"LocationId":"NT_9Jso-spFNA73yOo10B6MyD_xME","LocationType":"point","DisplayPosition":{"Latitude":53.6075,"Longitude":8.59665},"MapView":{"TopLeft":{"Latitude":53.6086242,"Longitude":8.5947553},"BottomRight":{"Latitude":53.6063758,"Longitude":8.5985447}},"Address":{"Label":"Ohldorpsweg 1C, 27607 Geestland, Deutschland","Country":"DEU","State":"Niedersachsen","County":"Cuxhaven","City":"Geestland","District":"Langen","Street":"Ohldorpsweg","HouseNumber":"1C","PostalCode":"27607","AdditionalData":[{"value":"Deutschland","key":"CountryName"},{"value":"Niedersachsen","key":"StateName"},{"value":"Cuxhaven","key":"CountyName"}]},"MapReference":{"ReferenceId":"60105991","Spot":0.58,"SideOfStreet":"left","CountryId":"20147700","StateId":"20151542","CountyId":"20154117","CityId":"20154245","DistrictId":"20154248","AddressId":"178437411","RoadLinkId":"37184964"}}},{"Relevance":1.0,"Distance":90.5,"MatchLevel":"houseNumber","MatchQuality":{"Country":1.0,"State":1.0,"County":1.0,"City":1.0,"District":1.0,"Street":[1.0],"HouseNumber":1.0,"PostalCode":1.0},"MatchType":"interpolated","Location":{"LocationId":"NT_045DEkf.uyZRHHGjJt.XUC_yA","LocationType":"point","DisplayPosition":{"Latitude":53.60803,"Longitude":8.59487},"MapView":{"TopLeft":{"Latitude":53.6091542,"Longitude":8.5929753},"BottomRight":{"Latitude":53.6069058,"Longitude":8.5967647}},"Address":{"Label":"Debstedter Straße 2, 27607 Geestland, Deutschland","Country":"DEU","State":"Niedersachsen","County":"Cuxhaven","City":"Geestland","District":"Langen","Street":"Debstedter Straße","HouseNumber":"2","PostalCode":"27607","AdditionalData":[{"value":"Deutschland","key":"CountryName"},{"value":"Niedersachsen","key":"StateName"},{"value":"Cuxhaven","key":"CountyName"}]},"MapReference":{"ReferenceId":"1193230727","Spot":0.29,"SideOfStreet":"right","CountryId":"20147700","StateId":"20151542","CountyId":"20154117","CityId":"20154245","DistrictId":"20154248","AddressId":"179332084","RoadLinkId":"503024351"}}},{"Relevance":1.0,"Distance":95.2,"MatchLevel":"houseNumber","MatchQuality":{"Country":1.0,"State":1.0,"County":1.0,"City":1.0,"District":1.0,"Street":[1.0],"HouseNumber":1.0,"PostalCode":1.0},"MatchType":"interpolated","Location":{"LocationId":"NT_jhi.lShADE3Bky7kq.wZdB_zA","LocationType":"point","DisplayPosition":{"Latitude":53.60912,"Longitude":8.59685},"MapView":{"TopLeft":{"Latitude":53.6102442,"Longitude":8.5949552},"BottomRight":{"Latitude":53.6079958,"Longitude":8.5987448}},"Address":{"Label":"Auf dem Berge 3, 27607 Geestland, Deutschland","Country":"DEU","State":"Niedersachsen","County":"Cuxhaven","City":"Geestland","District":"Langen","Street":"Auf dem Berge","HouseNumber":"3","PostalCode":"27607","AdditionalData":[{"value":"Deutschland","key":"CountryName"},{"value":"Niedersachsen","key":"StateName"},{"value":"Cuxhaven","key":"CountyName"}]},"MapReference":{"ReferenceId":"60105838","Spot":0.19,"SideOfStreet":"left","CountryId":"20147700","StateId":"20151542","CountyId":"20154117","CityId":"20154245","DistrictId":"20154248","AddressId":"181335598","RoadLinkId":"36314776"}}},{"Relevance":1.0,"Distance":100.0,"MatchLevel":"houseNumber","MatchQuality":{"Country":1.0,"State":1.0,"County":1.0,"City":1.0,"District":1.0,"Street":[1.0],"HouseNumber":1.0,"PostalCode":1.0},"MatchType":"interpolated","Location":{"LocationId":"NT_h6vfLqS3pR4o3Thdyrf32B_xA","LocationType":"point","DisplayPosition":{"Latitude":53.60833,"Longitude":8.59436},"MapView":{"TopLeft":{"Latitude":53.6094542,"Longitude":8.5924653},"BottomRight":{"Latitude":53.6072058,"Longitude":8.5962547}},"Address":{"Label":"Sieverner Straße 1, 27607 Geestland, Deutschland","Country":"DEU","State":"Niedersachsen","County":"Cuxhaven","City":"Geestland","District":"Langen","Street":"Sieverner Straße","HouseNumber":"1","PostalCode":"27607","AdditionalData":[{"value":"Deutschland","key":"CountryName"},{"value":"Niedersachsen","key":"StateName"},{"value":"Cuxhaven","key":"CountyName"}]},"MapReference":{"ReferenceId":"1193174535","Spot":0.61,"SideOfStreet":"right","CountryId":"20147700","StateId":"20151542","CountyId":"20154117","CityId":"20154245","DistrictId":"20154248","AddressId":"789855850","RoadLinkId":"502958712"}}}]}]}}