{"Response":{"MetaInfo":{"Timestamp":"2020-03-28T11:59:05.371+0000","NextPageInformation":"2"},"View":[{"_type":"SearchResultsViewType","ViewId":0,"Result":[{"Relevance":1.0,"Distance":0.0,"Direction":0.0,"MatchLevel":"district","MatchQuality":{"Country":1.0,"State":1.0,"County":1.0,"City":1.0,"District":1.0,"PostalCode":1.0},"Location":{"LocationId":"NT_tdXflyOqvDpdx9U4RBSzWD","LocationType":"point","DisplayPosition":{"Latitude":53.6016068,"Longitude":-2.4325612},"MapView":{"TopLeft":{"Latitude":53.61689,"Longitude":-2.50933},"BottomRight":{"Latitude":53.55481,"Longitude":-2.37253}},"Address":{"Label":"Bolton, England, United Kingdom","Country":"GBR","State":"England","County":"Lancashire","City":"Bolton","District":"Bolton","PostalCode":"BL1 1","AdditionalData":[{"value":"United Kingdom","key":"CountryName"},{"value":"England","key":"StateName"},{"value":"Lancashire","key":"CountyName"}]},"MapReference":{"ReferenceId":"773533915","SideOfStreet":"neither","StateId":"20248595","CountyId":"20343938","CityId":"20343985","DistrictId":"20343986"}}},{"Relevance":1.0,"Distance":5.3,"MatchLevel":"houseNumber","MatchQuality":{"Country":1.0,"State":1.0,"County":1.0,"City":1.0,"District":1.0,"Street":[1.0],"HouseNumber":1.0,"PostalCode":1.0},"MatchType":"interpolated","Location":{"LocationId":"NT_li2I9vmALDV7.1NbCJ-cuA_l_27192523_R_1cjN","LocationType":"point","DisplayPosition":{"Latitude":53.6016256,"Longitude":-2.4327075},"MapView":{"TopLeft":{"Latitude":53.6027498,"Longitude":-2.4346019},"BottomRight":{"Latitude":53.6005015,"Longitude":-2.430813}},"Address":{"Label":"576 Blackburn Road, Bolton, BL1 7AL, United Kingdom","Country":"GBR","State":"England","County":"Lancashire","City":"Bolton","District":"Bolton","Street":"Blackburn Road","HouseNumber":"576","PostalCode":"BL1 7AL","AdditionalData":[{"value":"United Kingdom","key":"CountryName"},{"value":"England","key":"StateName"},{"value":"Lancashire","key":"CountyName"}]},"MapReference":{"ReferenceId":"27192523","Spot":0.38,"SideOfStreet":"right","StateId":"20248595","CountyId":"20343938","CityId":"20343985","DistrictId":"20343986"}}},{"Relevance":1.0,"Distance":18.1,"MatchLevel":"street","MatchQuality":{"Country":1.0,"State":1.0,"County":1.0,"City":1.0,"District":1.0,"Street":[1.0],"PostalCode":1.0},"Location":{"LocationId":"NT_li2I9vmALDV7.1NbCJ-cuA_l_27152126_R","LocationType":"point","DisplayPosition":{"Latitude":53.6016449,"Longitude":-2.4328279},"MapView":{"TopLeft":{"Latitude":53.60189,"Longitude":-2.43288},"BottomRight":{"Latitude":53.60137,"Longitude":-2.43273}},"Address":{"Label":"Blackburn Road, Bolton, BL1 7, United Kingdom","Country":"GBR","State":"England","County":"Lancashire","City":"Bolton","District":"Bolton","Street":"Blackburn Road","PostalCode":"BL1 7","AdditionalData":[{"value":"United Kingdom","key":"CountryName"},{"value":"England","key":"StateName"},{"value":"Lancashire","key":"CountyName"}]},"MapReference":{"ReferenceId":"27152126","Spot":0.5,"SideOfStreet":"right","StateId":"20248595","CountyId":"20343938","CityId":"20343985","DistrictId":"20343986"}}},{"Relevance":1.0,"Distance":22.4,"MatchLevel":"houseNumber","MatchQuality":{"Country":1.0,"State":1.0,"County":1.0,"City":1.0,"District":1.0,"Street":[1.0],"HouseNumber":1.0,"PostalCode":1.0},"MatchType":"interpolated","Location":{"LocationId":"NT_li2I9vmALDV7.1NbCJ-cuA_l_27192524_R_1cDM","LocationType":"point","DisplayPosition":{"Latitude":53.6014183,"Longitude":-2.4327217},"MapView":{"TopLeft":{"Latitude":53.6025425,"Longitude":-2.4346161},"BottomRight":{"Latitude":53.6002942,"Longitude":-2.4308272}},"Address":{"Label":"570 Blackburn Road, Bolton, BL1 7AL, United Kingdom","Country":"GBR","State":"England","County":"Lancashire","City":"Bolton","District":"Bolton","Street":"Blackburn Road","HouseNumber":"570","PostalCode":"BL1 7AL","AdditionalData":[{"value":"United Kingdom","key":"CountryName"},{"value":"England","key":"StateName"},{"value":"Lancashire","key":"CountyName"}]},"MapReference":{"ReferenceId":"27192524","Spot":0.83,"SideOfStreet":"right","StateId":"20248595","CountyId":"20343938","CityId":"20343985","DistrictId":"20343986"}}},{"Relevance":1.0,"Distance":24.9,"MatchLevel":"street","MatchQuality":{"Country":1.0,"State":1.0,"County":1.0,"City":1.0,"District":1.0,"Street":[1.0],"PostalCode":1.0},"Location":{"LocationId":"NT_-NSV6XMKZreNvGF0cPiUuB_l_27152239_L","LocationType":"point","DisplayPosition":{"Latitude":53.6015797,"Longitude":-2.4321868},"MapView":{"TopLeft":{"Latitude":53.60195,"Longitude":-2.43222},"BottomRight":{"Latitude":53.60112,"Longitude":-2.43216}},"Address":{"Label":"Back Holly Place, Bolton, BL1 7, United Kingdom","Country":"GBR","State":"England","County":"Lancashire","City":"Bolton","District":"Bolton","Street":"Back Holly Place","PostalCode":"BL1 7","AdditionalData":[{"value":"United Kingdom","key":"CountryName"},{"value":"England","key":"StateName"},{"value":"Lancashire","key":"CountyName"}]},"MapReference":{"ReferenceId":"27152239","Spot":0.55,"SideOfStreet":"left","StateId":"20248595","CountyId":"20343938","CityId":"20343985","DistrictId":"20343986"}}},{"Relevance":1.0,"Distance":28.6,"MatchLevel":"houseNumber","MatchQuality":{"Country":1.0,"State":1.0,"County":1.0,"City":1.0,"District":1.0,"Street":[1.0],"HouseNumber":1.0,"PostalCode":1.0},"MatchType":"interpolated","Location":{"LocationId":"NT_BOGYNCgLBcpitOzANqAfCB_l_565924665_L_3A","LocationType":"point","DisplayPosition":{"Latitude":53.6015439,"Longitude":-2.4329808},"MapView":{"TopLeft":{"Latitude":53.6026681,"Longitude":-2.4348753},"BottomRight":{"Latitude":53.6004198,"Longitude":-2.4310864}},"Address":{"Label":"7 Belmont Road, Bolton, BL1 7AF, United Kingdom","Country":"GBR","State":"England","County":"Lancashire","City":"Bolton","District":"Bolton","Street":"Belmont Road","HouseNumber":"7","PostalCode":"BL1 7AF","AdditionalData":[{"value":"United Kingdom","key":"CountryName"},{"value":"England","key":"StateName"},{"value":"Lancashire","key":"CountyName"}]},"MapReference":{"ReferenceId":"565924665","Spot":0.2,"SideOfStreet":"left","StateId":"20248595","CountyId":"20343938","CityId":"20343985","DistrictId":"20343986"}}},{"Relevance":1.0,"Distance":33.7,"MatchLevel":"street","MatchQuality":{"Country":1.0,"State":1.0,"County":1.0,"City":1.0,"District":1.0,"Street":[1.0],"PostalCode":1.0},"Location":{"LocationId":"NT_xFG1L9N1Bve30RFbLju5ZB_l_27152280_R","LocationType":"point","DisplayPosition":{"Latitude":53.60137,"Longitude":-2.43288},"MapView":{"TopLeft":{"Latitude":53.60137,"Longitude":-2.43291},"BottomRight":{"Latitude":53.60099,"Longitude":-2.43288}},"Address":{"Label":"Blackburn Road, Bolton, BL1 7, United Kingdom","Country":"GBR","State":"England","County":"Lancashire","City":"Bolton","District":"Bolton","Street":"Blackburn Road","PostalCode":"BL1 7","AdditionalData":[{"value":"United Kingdom","key":"CountryName"},{"value":"England","key":"StateName"},{"value":"Lancashire","key":"CountyName"}]},"MapReference":{"ReferenceId":"27152280","Spot":1.0,"SideOfStreet":"right","StateId":"20248595","CountyId":"20343938","CityId":"20343985","DistrictId":"20343986"}}},{"Relevance":1.0,"Distance":36.5,"MatchLevel":"postalCode","MatchQuality":{"PostalCode":1.0},"MatchType":"interpolated","Location":{"LocationId":"NT_BOGYNCgLBcpitOzANqAfCB_l_565924665_L_3A","LocationType":"point","DisplayPosition":{"Latitude":53.60168,"Longitude":-2.4331},"MapView":{"TopLeft":{"Latitude":53.6106732,"Longitude":-2.4482555},"BottomRight":{"Latitude":53.5926868,"Longitude":-2.4179445}},"Address":{"Label":"BL1 7AF, Bolton, England, United Kingdom","Country":"GBR","State":"England","County":"Lancashire","City":"Bolton","PostalCode":"BL1 7AF","AdditionalData":[{"value":"United Kingdom","key":"CountryName"},{"value":"England","key":"StateName"},{"value":"Lancashire","key":"CountyName"}]},"MapReference":{"ReferenceId":"565924665","Spot":0.2,"SideOfStreet":"neither","StateId":"20248595","CountyId":"20343938","CityId":"20343985"}}},{"Relevance":1.0,"Distance":42.2,"MatchLevel":"houseNumber","MatchQuality":{"Country":1.0,"State":1.0,"County":1.0,"City":1.0,"District":1.0,"Street":[1.0],"HouseNumber":1.0,"PostalCode":1.0},"MatchType":"interpolated","Location":{"LocationId":"NT_li2I9vmALDV7.1NbCJ-cuA_l_1204076769_R_1kDM","LocationType":"point","DisplayPosition":{"Latitude":53.6020201,"Longitude":-2.4327},"MapView":{"TopLeft":{"Latitude":53.6031443,"Longitude":-2.4345944},"BottomRight":{"Latitude":53.6008959,"Longitude":-2.4308055}},"Address":{"Label":"590 Blackburn Road, Bolton, BL1 7AL, United Kingdom","Country":"GBR","State":"England","County":"Lancashire","City":"Bolton","District":"Bolton","Street":"Blackburn Road","HouseNumber":"590","PostalCode":"BL1 7AL","AdditionalData":[{"value":"United Kingdom","key":"CountryName"},{"value":"England","key":"StateName"},{"value":"Lancashire","key":"CountyName"}]},"MapReference":{"ReferenceId":"1204076769","Spot":0.4,"SideOfStreet":"right","StateId":"20248595","CountyId":"20343938","CityId":"20343985","DistrictId":"20343986"}}},{"Relevance":1.0,"Distance":45.5,"MatchLevel":"street","MatchQuality":{"Country":1.0,"State":1.0,"County":1.0,"City":1.0,"District":1.0,"Street":[1.0],"PostalCode":1.0},"Location":{"LocationId":"NT_xFG1L9N1Bve30RFbLju5ZB_l_27152267_R","LocationType":"point","DisplayPosition":{"Latitude":53.60121,"Longitude":-2.43273},"MapView":{"TopLeft":{"Latitude":53.60121,"Longitude":-2.43273},"BottomRight":{"Latitude":53.60104,"Longitude":-2.43273}},"Address":{"Label":"Blackburn Road, Bolton, BL1 7, United Kingdom","Country":"GBR","State":"England","County":"Lancashire","City":"Bolton","District":"Bolton","Street":"Blackburn Road","PostalCode":"BL1 7","AdditionalData":[{"value":"United Kingdom","key":"CountryName"},{"value":"England","key":"StateName"},{"value":"Lancashire","key":"CountyName"}]},"MapReference":{"ReferenceId":"27152267","Spot":1.0,"SideOfStreet":"right","StateId":"20248595","CountyId":"20343938","CityId":"20343985","DistrictId":"20343986"}}}]}]}}