{"Response":{"MetaInfo":{"Timestamp":"2020-03-28T09:36:41.297+0000","NextPageInformation":"2"},"View":[{"_type":"SearchResultsViewType","ViewId":0,"Result":[{"Relevance":1.0,"Distance":-35.7,"MatchLevel":"landmark","MatchQuality":{"Country":1.0,"State":1.0,"County":1.0,"City":1.0,"PostalCode":1.0,"Name":1.0},"Location":{"LocationId":"NT_mAgIgQg-hLo7929Uxg3pQB_p_D09gcRGufwPiQmfqCBjOBC","LocationType":"hospital","Name":"Regio Klinikum Pinneberg","DisplayPosition":{"Latitude":53.6555,"Longitude":9.81089},"MapView":{"TopLeft":{"Latitude":53.65574,"Longitude":9.81018},"BottomRight":{"Latitude":53.65357,"Longitude":9.81315}},"Address":{"Label":"25421 Pinneberg, Deutschland","Country":"DEU","State":"Schleswig-Holstein","County":"Pinneberg","City":"Pinneberg","PostalCode":"25421","AdditionalData":[{"value":"Deutschland","key":"CountryName"},{"value":"Schleswig-Holstein","key":"StateName"},{"value":"Pinneberg","key":"CountyName"}]},"MapReference":{"CountryId":"20147700","StateId":"20147701","CountyId":"20149202","CityId":"20149314","PlaceId":"58161866"}}},{"Relevance":1.0,"Distance":0.0,"Direction":0.0,"MatchLevel":"city","MatchQuality":{"Country":1.0,"State":1.0,"County":1.0,"City":1.0,"PostalCode":1.0},"Location":{"LocationId":"NT_PPf8UiFxbMWG-6rQgqgkfC","LocationType":"point","DisplayPosition":{"Latitude":53.6550778,"Longitude":9.8119227},"MapView":{"TopLeft":{"Latitude":53.68396,"Longitude":9.7638},"BottomRight":{"Latitude":53.60858,"Longitude":9.82856}},"Address":{"Label":"Pinneberg, Schleswig-Holstein, Deutschland","Country":"DEU","State":"Schleswig-Holstein","County":"Pinneberg","City":"Pinneberg","PostalCode":"25421","AdditionalData":[{"value":"Deutschland","key":"CountryName"},{"value":"Schleswig-Holstein","key":"StateName"},{"value":"Pinneberg","key":"CountyName"}]},"MapReference":{"ReferenceId":"985759418","SideOfStreet":"neither","CountryId":"20147700","StateId":"20147701","CountyId":"20149202","CityId":"20149314"}}},{"Relevance":1.0,"Distance":5.1,"MatchLevel":"street","MatchQuality":{"Country":1.0,"State":1.0,"County":1.0,"City":1.0,"PostalCode":1.0},"Location":{"LocationId":"NT_MSmvmsU9YcsGr3W1G6wFND_l_987776515_R","LocationType":"point","DisplayPosition":{"Latitude":53.6550366,"Longitude":9.8118873},"MapView":{"TopLeft":{"Latitude":53.65512,"Longitude":9.81179},"BottomRight":{"Latitude":53.6537,"Longitude":9.81237}},"Address":{"Label":"25421 Pinneberg, Deutschland","Country":"DEU","State":"Schleswig-Holstein","County":"Pinneberg","City":"Pinneberg","PostalCode":"25421","AdditionalData":[{"value":"Deutschland","key":"CountryName"},{"value":"Schleswig-Holstein","key":"StateName"},{"value":"Pinneberg","key":"CountyName"}]},"MapReference":{"ReferenceId":"987776515","Spot":0.92,"SideOfStreet":"right","CountryId":"20147700","StateId":"20147701","CountyId":"20149202","CityId":"20149314"}}},{"Relevance":1.0,"Distance":11.1,"MatchLevel":"street","MatchQuality":{"Country":1.0,"State":1.0,"County":1.0,"City":1.0,"Street":[1.0],"PostalCode":1.0},"Location":{"LocationId":"NT_viMyfLwywnKBHZIQyaHdVA_l_987776514_R","LocationType":"point","DisplayPosition":{"Latitude":53.6551682,"Longitude":9.8118498},"MapView":{"TopLeft":{"Latitude":53.65537,"Longitude":9.81179},"BottomRight":{"Latitude":53.65512,"Longitude":9.8121}},"Address":{"Label":"Fahltskamp, 25421 Pinneberg, Deutschland","Country":"DEU","State":"Schleswig-Holstein","County":"Pinneberg","City":"Pinneberg","Street":"Fahltskamp","PostalCode":"25421","AdditionalData":[{"value":"Deutschland","key":"CountryName"},{"value":"Schleswig-Holstein","key":"StateName"},{"value":"Pinneberg","key":"CountyName"}]},"MapReference":{"ReferenceId":"987776514","Spot":0.19,"SideOfStreet":"right","CountryId":"20147700","StateId":"20147701","CountyId":"20149202","CityId":"20149314"}}},{"Relevance":1.0,"Distance":25.2,"MatchLevel":"houseNumber","MatchQuality":{"Country":1.0,"State":1.0,"County":1.0,"City":1.0,"Street":[1.0],"HouseNumber":1.0,"PostalCode":1.0},"MatchType":"interpolated","Location":{"LocationId":"NT_viMyfLwywnKBHZIQyaHdVA_3QD","LocationType":"point","DisplayPosition":{"Latitude":53.65507,"Longitude":9.81154},"MapView":{"TopLeft":{"Latitude":53.6561942,"Longitude":9.8096432},"BottomRight":{"Latitude":53.6539458,"Longitude":9.8134368}},"Address":{"Label":"Fahltskamp 74, 25421 Pinneberg, Deutschland","Country":"DEU","State":"Schleswig-Holstein","County":"Pinneberg","City":"Pinneberg","Street":"Fahltskamp","HouseNumber":"74","PostalCode":"25421","AdditionalData":[{"value":"Deutschland","key":"CountryName"},{"value":"Schleswig-Holstein","key":"StateName"},{"value":"Pinneberg","key":"CountyName"}]},"MapReference":{"ReferenceId":"987776513","Spot":0.0,"SideOfStreet":"right","CountryId":"20147700","StateId":"20147701","CountyId":"20149202","CityId":"20149314","AddressId":"249067650","RoadLinkId":"317525380"}}},{"Relevance":1.0,"Distance":33.8,"MatchLevel":"street","MatchQuality":{"Country":1.0,"State":1.0,"County":1.0,"City":1.0,"Street":[1.0],"PostalCode":1.0},"Location":{"LocationId":"NT_5xRVvbCBG0b.i8Cclp5lPC_l_51705089_L","LocationType":"point","DisplayPosition":{"Latitude":53.65533,"Longitude":9.81221},"MapView":{"TopLeft":{"Latitude":53.65533,"Longitude":9.81221},"BottomRight":{"Latitude":53.65512,"Longitude":9.81272}},"Address":{"Label":"Oberer Ehmschen, 25421 Pinneberg, Deutschland","Country":"DEU","State":"Schleswig-Holstein","County":"Pinneberg","City":"Pinneberg","Street":"Oberer Ehmschen","PostalCode":"25421","AdditionalData":[{"value":"Deutschland","key":"CountryName"},{"value":"Schleswig-Holstein","key":"StateName"},{"value":"Pinneberg","key":"CountyName"}]},"MapReference":{"ReferenceId":"51705089","Spot":1.0,"SideOfStreet":"left","CountryId":"20147700","StateId":"20147701","CountyId":"20149202","CityId":"20149314"}}},{"Relevance":1.0,"Distance":34.5,"MatchLevel":"street","MatchQuality":{"Country":1.0,"State":1.0,"County":1.0,"City":1.0,"District":1.0,"Street":[1.0],"PostalCode":1.0},"Location":{"LocationId":"NT_q9XxChXckWVt5KOqD1NfdD_l_51649878_L","LocationType":"point","DisplayPosition":{"Latitude":53.65537,"Longitude":9.8121},"MapView":{"TopLeft":{"Latitude":53.65537,"Longitude":9.8121},"BottomRight":{"Latitude":53.65533,"Longitude":9.81221}},"Address":{"Label":"Fahltskamp, 25421 Pinneberg, Deutschland","Country":"DEU","State":"Schleswig-Holstein","County":"Pinneberg","City":"Pinneberg","District":"Pinneberg","Street":"Fahltskamp","PostalCode":"25421","AdditionalData":[{"value":"Deutschland","key":"CountryName"},{"value":"Schleswig-Holstein","key":"StateName"},{"value":"Pinneberg","key":"CountyName"}]},"MapReference":{"ReferenceId":"51649878","Spot":1.0,"SideOfStreet":"left","CountryId":"20147700","StateId":"20147701","CountyId":"20149202","CityId":"20149314","DistrictId":"20149316"}}},{"Relevance":1.0,"Distance":36.7,"MatchLevel":"houseNumber","MatchQuality":{"Country":1.0,"State":1.0,"County":1.0,"City":1.0,"District":1.0,"Street":[1.0],"HouseNumber":1.0,"PostalCode":1.0},"MatchType":"interpolated","Location":{"LocationId":"NT_vqNytRwKO88UF9dw09n3VA_xA","LocationType":"point","DisplayPosition":{"Latitude":53.65534,"Longitude":9.81226},"MapView":{"TopLeft":{"Latitude":53.6564642,"Longitude":9.8103631},"BottomRight":{"Latitude":53.6542158,"Longitude":9.8141569}},"Address":{"Label":"Holstenstraße 1, 25421 Pinneberg, Deutschland","Country":"DEU","State":"Schleswig-Holstein","County":"Pinneberg","City":"Pinneberg","District":"Pinneberg","Street":"Holstenstraße","HouseNumber":"1","PostalCode":"25421","AdditionalData":[{"value":"Deutschland","key":"CountryName"},{"value":"Schleswig-Holstein","key":"StateName"},{"value":"Pinneberg","key":"CountyName"}]},"MapReference":{"ReferenceId":"51649877","Spot":0.07,"SideOfStreet":"left","CountryId":"20147700","StateId":"20147701","CountyId":"20149202","CityId":"20149314","DistrictId":"20149316","AddressId":"193915475","RoadLinkId":"36552841"}}},{"Relevance":1.0,"Distance":43.8,"MatchLevel":"houseNumber","MatchQuality":{"Country":1.0,"State":1.0,"County":1.0,"City":1.0,"Street":[1.0],"HouseNumber":1.0,"PostalCode":1.0},"MatchType":"interpolated","Location":{"LocationId":"NT_5xRVvbCBG0b.i8Cclp5lPC_xAzN","LocationType":"point","DisplayPosition":{"Latitude":53.65505,"Longitude":9.81293},"MapView":{"TopLeft":{"Latitude":53.6561742,"Longitude":9.8110332},"BottomRight":{"Latitude":53.6539258,"Longitude":9.8148268}},"Address":{"Label":"Oberer Ehmschen 107, 25421 Pinneberg, Deutschland","Country":"DEU","State":"Schleswig-Holstein","County":"Pinneberg","City":"Pinneberg","Street":"Oberer Ehmschen","HouseNumber":"107","PostalCode":"25421","AdditionalData":[{"value":"Deutschland","key":"CountryName"},{"value":"Schleswig-Holstein","key":"StateName"},{"value":"Pinneberg","key":"CountyName"}]},"MapReference":{"ReferenceId":"51649938","Spot":0.51,"SideOfStreet":"left","CountryId":"20147700","StateId":"20147701","CountyId":"20149202","CityId":"20149314","AddressId":"249097970","RoadLinkId":"36481082"}}},{"Relevance":1.0,"Distance":46.8,"MatchLevel":"houseNumber","MatchQuality":{"Country":1.0,"State":1.0,"County":1.0,"City":1.0,"District":1.0,"Street":[1.0],"HouseNumber":1.0,"PostalCode":1.0},"MatchType":"interpolated","Location":{"LocationId":"NT_q9XxChXckWVt5KOqD1NfdD_4MD","LocationType":"point","DisplayPosition":{"Latitude":53.65549,"Longitude":9.81178},"MapView":{"TopLeft":{"Latitude":53.6566142,"Longitude":9.8098831},"BottomRight":{"Latitude":53.6543658,"Longitude":9.8136769}},"Address":{"Label":"Fahltskamp 83, 25421 Pinneberg, Deutschland","Country":"DEU","State":"Schleswig-Holstein","County":"Pinneberg","City":"Pinneberg","District":"Pinneberg","Street":"Fahltskamp","HouseNumber":"83","PostalCode":"25421","AdditionalData":[{"value":"Deutschland","key":"CountryName"},{"value":"Schleswig-Holstein","key":"StateName"},{"value":"Pinneberg","key":"CountyName"}]},"MapReference":{"ReferenceId":"51649875","Spot":0.32,"SideOfStreet":"right","CountryId":"20147700","StateId":"20147701","CountyId":"20149202","CityId":"20149314","DistrictId":"20149316","AddressId":"194630761","RoadLinkId":"36816474"}}}]}]}}