{"Response":{"MetaInfo":{"Timestamp":"2020-03-28T09:51:08.272+0000","NextPageInformation":"2"},"View":[{"_type":"SearchResultsViewType","ViewId":0,"Result":[{"Relevance":1.0,"Distance":0.0,"Direction":0.0,"MatchLevel":"district","MatchQuality":{"Country":1.0,"State":1.0,"County":1.0,"City":1.0,"District":1.0,"PostalCode":1.0},"Location":{"LocationId":"NT_tdXflyOqvDpdx9U4RBSzWD","LocationType":"point","DisplayPosition":{"Latitude":53.6045514,"Longitude":-2.435087},"MapView":{"TopLeft":{"Latitude":53.61689,"Longitude":-2.50933},"BottomRight":{"Latitude":53.55481,"Longitude":-2.37253}},"Address":{"Label":"Bolton, England, United Kingdom","Country":"GBR","State":"England","County":"Lancashire","City":"Bolton","District":"Bolton","PostalCode":"BL1 1","AdditionalData":[{"value":"United Kingdom","key":"CountryName"},{"value":"England","key":"StateName"},{"value":"Lancashire","key":"CountyName"}]},"MapReference":{"ReferenceId":"773533915","SideOfStreet":"neither","StateId":"20248595","CountyId":"20343938","CityId":"20343985","DistrictId":"20343986"}}},{"Relevance":1.0,"Distance":7.7,"MatchLevel":"houseNumber","MatchQuality":{"Country":1.0,"State":1.0,"County":1.0,"City":1.0,"District":1.0,"Street":[1.0],"HouseNumber":1.0,"PostalCode":1.0},"MatchType":"interpolated","Location":{"LocationId":"NT_BOGYNCgLBcpitOzANqAfCB_l_1204076764_R_xMDM","LocationType":"point","DisplayPosition":{"Latitude":53.6045,"Longitude":-2.43522},"MapView":{"TopLeft":{"Latitude":53.6056242,"Longitude":-2.4371146},"BottomRight":{"Latitude":53.6033759,"Longitude":-2.4333255}},"Address":{"Label":"130 Belmont Road, Bolton, BL1 7AN, United Kingdom","Country":"GBR","State":"England","County":"Lancashire","City":"Bolton","District":"Bolton","Street":"Belmont Road","HouseNumber":"130","PostalCode":"BL1 7AN","AdditionalData":[{"value":"United Kingdom","key":"CountryName"},{"value":"England","key":"StateName"},{"value":"Lancashire","key":"CountyName"}]},"MapReference":{"ReferenceId":"1204076764","Spot":0.0,"SideOfStreet":"right","StateId":"20248595","CountyId":"20343938","CityId":"20343985","DistrictId":"20343986"}}},{"Relevance":1.0,"Distance":10.7,"MatchLevel":"houseNumber","MatchQuality":{"Country":1.0,"State":1.0,"County":1.0,"City":1.0,"District":1.0,"Street":[1.0],"HouseNumber":1.0,"PostalCode":1.0},"MatchType":"interpolated","Location":{"LocationId":"NT_FvOM0oV2NP5gAbph6SUisC_l_1204076763_R_xIDO","LocationType":"point","DisplayPosition":{"Latitude":53.6043675,"Longitude":-2.4350763},"MapView":{"TopLeft":{"Latitude":53.6054917,"Longitude":-2.4369708},"BottomRight":{"Latitude":53.6032434,"Longitude":-2.4331817}},"Address":{"Label":"128 Belmont Road, Bolton, BL1 7AN, United Kingdom","Country":"GBR","State":"England","County":"Lancashire","City":"Bolton","District":"Bolton","Street":"Belmont Road","HouseNumber":"128","PostalCode":"BL1 7AN","AdditionalData":[{"value":"United Kingdom","key":"CountryName"},{"value":"England","key":"StateName"},{"value":"Lancashire","key":"CountyName"}]},"MapReference":{"ReferenceId":"1204076763","Spot":0.6,"SideOfStreet":"right","StateId":"20248595","CountyId":"20343938","CityId":"20343985","DistrictId":"20343986"}}},{"Relevance":1.0,"Distance":11.8,"MatchLevel":"houseNumber","MatchQuality":{"Country":1.0,"State":1.0,"County":1.0,"City":1.0,"District":1.0,"Street":[1.0],"HouseNumber":1.0,"PostalCode":1.0},"MatchType":"interpolated","Location":{"LocationId":"NT_Jl9llSa3HwwsORkwTlG8NB_l_1228715787_R_2A","LocationType":"point","DisplayPosition":{"Latitude":53.6047484,"Longitude":-2.4350132},"MapView":{"TopLeft":{"Latitude":53.6058726,"Longitude":-2.4369078},"BottomRight":{"Latitude":53.6036243,"Longitude":-2.4331186}},"Address":{"Label":"6 Bar Lane, Bolton, BL1 7JD, United Kingdom","Country":"GBR","State":"England","County":"Lancashire","City":"Bolton","District":"Bolton","Street":"Bar Lane","HouseNumber":"6","PostalCode":"BL1 7JD","AdditionalData":[{"value":"United Kingdom","key":"CountryName"},{"value":"England","key":"StateName"},{"value":"Lancashire","key":"CountyName"}]},"MapReference":{"ReferenceId":"1228715787","Spot":0.61,"SideOfStreet":"right","StateId":"20248595","CountyId":"20343938","CityId":"20343985","DistrictId":"20343986"}}},{"Relevance":1.0,"Distance":13.3,"MatchLevel":"houseNumber","MatchQuality":{"Country":1.0,"State":1.0,"County":1.0,"City":1.0,"District":1.0,"Street":[1.0],"HouseNumber":1.0,"PostalCode":1.0},"MatchType":"interpolated","Location":{"LocationId":"NT_Jl9llSa3HwwsORkwTlG8NB_l_1228715788_R_4A","LocationType":"point","DisplayPosition":{"Latitude":53.60476,"Longitude":-2.43499},"MapView":{"TopLeft":{"Latitude":53.6058842,"Longitude":-2.4368845},"BottomRight":{"Latitude":53.6036359,"Longitude":-2.4330954}},"Address":{"Label":"8 Bar Lane, Bolton, BL1 7JD, United Kingdom","Country":"GBR","State":"England","County":"Lancashire","City":"Bolton","District":"Bolton","Street":"Bar Lane","HouseNumber":"8","PostalCode":"BL1 7JD","AdditionalData":[{"value":"United Kingdom","key":"CountryName"},{"value":"England","key":"StateName"},{"value":"Lancashire","key":"CountyName"}]},"MapReference":{"ReferenceId":"1228715788","Spot":0.0,"SideOfStreet":"right","StateId":"20248595","CountyId":"20343938","CityId":"20343985","DistrictId":"20343986"}}},{"Relevance":1.0,"Distance":15.3,"MatchLevel":"street","MatchQuality":{"Country":1.0,"State":1.0,"County":1.0,"City":1.0,"District":1.0,"Street":[1.0],"PostalCode":1.0},"Location":{"LocationId":"NT_Jl9llSa3HwwsORkwTlG8NB_l_27150877_R","LocationType":"point","DisplayPosition":{"Latitude":53.6046842,"Longitude":-2.4351487},"MapView":{"TopLeft":{"Latitude":53.60473,"Longitude":-2.43533},"BottomRight":{"Latitude":53.6046,"Longitude":-2.43505}},"Address":{"Label":"Bar Lane, Bolton, BL1 7, United Kingdom","Country":"GBR","State":"England","County":"Lancashire","City":"Bolton","District":"Bolton","Street":"Bar Lane","PostalCode":"BL1 7","AdditionalData":[{"value":"United Kingdom","key":"CountryName"},{"value":"England","key":"StateName"},{"value":"Lancashire","key":"CountyName"}]},"MapReference":{"ReferenceId":"27150877","Spot":0.65,"SideOfStreet":"right","StateId":"20248595","CountyId":"20343938","CityId":"20343985","DistrictId":"20343986"}}},{"Relevance":1.0,"Distance":16.9,"MatchLevel":"street","MatchQuality":{"Country":1.0,"State":1.0,"County":1.0,"City":1.0,"District":1.0,"Street":[1.0],"PostalCode":1.0},"Location":{"LocationId":"NT_LhfFgP.XLzDbI1N9zFMB3A_l_27150888_R","LocationType":"point","DisplayPosition":{"Latitude":53.6046,"Longitude":-2.43533},"MapView":{"TopLeft":{"Latitude":53.6046,"Longitude":-2.43542},"BottomRight":{"Latitude":53.60451,"Longitude":-2.43533}},"Address":{"Label":"Broad O TH Lane, Bolton, BL1 6, United Kingdom","Country":"GBR","State":"England","County":"Lancashire","City":"Bolton","District":"Bolton","Street":"Broad O TH Lane","PostalCode":"BL1 6","AdditionalData":[{"value":"United Kingdom","key":"CountryName"},{"value":"England","key":"StateName"},{"value":"Lancashire","key":"CountyName"}]},"MapReference":{"ReferenceId":"27150888","Spot":1.0,"SideOfStreet":"right","StateId":"20248595","CountyId":"20343938","CityId":"20343985","DistrictId":"20343986"}}},{"Relevance":1.0,"Distance":16.9,"MatchLevel":"houseNumber","MatchQuality":{"Country":1.0,"State":1.0,"County":1.0,"City":1.0,"District":1.0,"Street":[1.0],"HouseNumber":1.0,"PostalCode":1.0},"MatchType":"interpolated","Location":{"LocationId":"NT_BOGYNCgLBcpitOzANqAfCB_l_1204076765_R_xcDO","LocationType":"point","DisplayPosition":{"Latitude":53.6046,"Longitude":-2.43533},"MapView":{"TopLeft":{"Latitude":53.6057242,"Longitude":-2.4372246},"BottomRight":{"Latitude":53.6034759,"Longitude":-2.4334355}},"Address":{"Label":"178 Belmont Road, Bolton, BL1 7AR, United Kingdom","Country":"GBR","State":"England","County":"Lancashire","City":"Bolton","District":"Bolton","Street":"Belmont Road","HouseNumber":"178","PostalCode":"BL1 7AR","AdditionalData":[{"value":"United Kingdom","key":"CountryName"},{"value":"England","key":"StateName"},{"value":"Lancashire","key":"CountyName"}]},"MapReference":{"ReferenceId":"1204076765","Spot":0.0,"SideOfStreet":"right","StateId":"20248595","CountyId":"20343938","CityId":"20343985","DistrictId":"20343986"}}},{"Relevance":1.0,"Distance":20.0,"MatchLevel":"street","MatchQuality":{"Country":1.0,"State":1.0,"County":1.0,"City":1.0,"District":1.0,"Street":[1.0],"PostalCode":1.0},"Location":{"LocationId":"NT_DPpy9o0hRgYPFw0LVkzLaC_l_27150827_L","LocationType":"point","DisplayPosition":{"Latitude":53.60473,"Longitude":-2.43505},"MapView":{"TopLeft":{"Latitude":53.6051,"Longitude":-2.43542},"BottomRight":{"Latitude":53.60473,"Longitude":-2.43505}},"Address":{"Label":"Back Belmont Road, Bolton, BL1 7, United Kingdom","Country":"GBR","State":"England","County":"Lancashire","City":"Bolton","District":"Bolton","Street":"Back Belmont Road","PostalCode":"BL1 7","AdditionalData":[{"value":"United Kingdom","key":"CountryName"},{"value":"England","key":"StateName"},{"value":"Lancashire","key":"CountyName"}]},"MapReference":{"ReferenceId":"27150827","Spot":0.0,"SideOfStreet":"left","StateId":"20248595","CountyId":"20343938","CityId":"20343985","DistrictId":"20343986"}}},{"Relevance":1.0,"Distance":20.1,"MatchLevel":"street","MatchQuality":{"Country":1.0,"State":1.0,"County":1.0,"City":1.0,"District":1.0,"PostalCode":1.0},"Location":{"LocationId":"NT_frJ9feJymNlcpWkGLTqd5C_l_865672252_L","LocationType":"point","DisplayPosition":{"Latitude":53.6047084,"Longitude":-2.4349363},"MapView":{"TopLeft":{"Latitude":53.60476,"Longitude":-2.43499},"BottomRight":{"Latitude":53.60452,"Longitude":-2.43474}},"Address":{"Label":"Bolton, BL1 7, United Kingdom","Country":"GBR","State":"England","County":"Lancashire","City":"Bolton","District":"Bolton","PostalCode":"BL1 7","AdditionalData":[{"value":"United Kingdom","key":"CountryName"},{"value":"England","key":"StateName"},{"value":"Lancashire","key":"CountyName"}]},"MapReference":{"ReferenceId":"865672252","Spot":0.79,"SideOfStreet":"left","StateId":"20248595","CountyId":"20343938","CityId":"20343985","DistrictId":"20343986"}}}]}]}}