{"Response":{"MetaInfo":{"Timestamp":"2020-03-28T10:08:11.020+0000","NextPageInformation":"2"},"View":[{"_type":"SearchResultsViewType","ViewId":0,"Result":[{"Relevance":1.0,"Distance":0.0,"Direction":0.0,"MatchLevel":"district","MatchQuality":{"Country":1.0,"State":1.0,"County":1.0,"City":1.0,"District":1.0,"PostalCode":1.0},"Location":{"LocationId":"NT_uEEE6r6BqE8Oe.NmoFzHmC","LocationType":"point","DisplayPosition":{"Latitude":53.6178632,"Longitude":-3.0158239},"MapView":{"TopLeft":{"Latitude":53.68062,"Longitude":-3.05729},"BottomRight":{"Latitude":53.58515,"Longitude":-2.94354}},"Address":{"Label":"Southport, England, United Kingdom","Country":"GBR","State":"England","County":"Merseyside","City":"Southport","District":"Southport","PostalCode":"PR8 1","AdditionalData":[{"value":"United Kingdom","key":"CountryName"},{"value":"England","key":"StateName"},{"value":"Merseyside","key":"CountyName"}]},"MapReference":{"ReferenceId":"565908306","SideOfStreet":"neither","StateId":"20248595","CountyId":"20343208","CityId":"20343898","DistrictId":"20343899"}}},{"Relevance":1.0,"Distance":1.0,"MatchLevel":"houseNumber","MatchQuality":{"Country":1.0,"State":1.0,"County":1.0,"City":1.0,"District":1.0,"Street":[1.0],"HouseNumber":1.0,"PostalCode":1.0},"MatchType":"interpolated","Location":{"LocationId":"NT_SmViIWyHwZOWbctFJSjKYB_l_27312920_R_ygTM","LocationType":"point","DisplayPosition":{"Latitude":53.6179261,"Longitude":-3.016012},"MapView":{"TopLeft":{"Latitude":53.6190502,"Longitude":-3.0179071},"BottomRight":{"Latitude":53.6168019,"Longitude":-3.0141168}},"Address":{"Label":"281 Liverpool Road, Southport, PR8 4, United Kingdom","Country":"GBR","State":"England","County":"Merseyside","City":"Southport","District":"Southport","Street":"Liverpool Road","HouseNumber":"281","PostalCode":"PR8 4","AdditionalData":[{"value":"United Kingdom","key":"CountryName"},{"value":"England","key":"StateName"},{"value":"Merseyside","key":"CountyName"}]},"MapReference":{"ReferenceId":"27312920","Spot":0.32,"SideOfStreet":"right","StateId":"20248595","CountyId":"20343208","CityId":"20343898","DistrictId":"20343899"}}},{"Relevance":1.0,"Distance":15.3,"MatchLevel":"houseNumber","MatchQuality":{"Country":1.0,"State":1.0,"County":1.0,"City":1.0,"District":1.0,"Street":[1.0],"HouseNumber":1.0,"PostalCode":1.0},"MatchType":"interpolated","Location":{"LocationId":"NT_r5RTkvV.mFGsqkZpBCO.9A_l_27312925_R_xA","LocationType":"point","DisplayPosition":{"Latitude":53.617645,"Longitude":-3.0156633},"MapView":{"TopLeft":{"Latitude":53.6187692,"Longitude":-3.0175585},"BottomRight":{"Latitude":53.6165209,"Longitude":-3.0137682}},"Address":{"Label":"1 Halsall Road, Southport, PR8 3DB, United Kingdom","Country":"GBR","State":"England","County":"Merseyside","City":"Southport","District":"Southport","Street":"Halsall Road","HouseNumber":"1","PostalCode":"PR8 3DB","AdditionalData":[{"value":"United Kingdom","key":"CountryName"},{"value":"England","key":"StateName"},{"value":"Merseyside","key":"CountyName"}]},"MapReference":{"ReferenceId":"27312925","Spot":0.74,"SideOfStreet":"right","StateId":"20248595","CountyId":"20343208","CityId":"20343898","DistrictId":"20343899"}}},{"Relevance":1.0,"Distance":30.9,"MatchLevel":"houseNumber","MatchQuality":{"Country":1.0,"State":1.0,"County":1.0,"City":1.0,"District":1.0,"Street":[1.0],"HouseNumber":1.0,"PostalCode":1.0},"MatchType":"interpolated","Location":{"LocationId":"NT_LangbSJK0dJ4MUIBawNB8A_l_27312921_R_yA","LocationType":"point","DisplayPosition":{"Latitude":53.61775,"Longitude":-3.0163101},"MapView":{"TopLeft":{"Latitude":53.6188742,"Longitude":-3.0182052},"BottomRight":{"Latitude":53.6166259,"Longitude":-3.0144149}},"Address":{"Label":"2 Arundel Road, Southport, PR8 3DQ, United Kingdom","Country":"GBR","State":"England","County":"Merseyside","City":"Southport","District":"Southport","Street":"Arundel Road","HouseNumber":"2","PostalCode":"PR8 3DQ","AdditionalData":[{"value":"United Kingdom","key":"CountryName"},{"value":"England","key":"StateName"},{"value":"Merseyside","key":"CountyName"}]},"MapReference":{"ReferenceId":"27312921","Spot":0.21,"SideOfStreet":"right","StateId":"20248595","CountyId":"20343208","CityId":"20343898","DistrictId":"20343899"}}},{"Relevance":1.0,"Distance":42.5,"MatchLevel":"houseNumber","MatchQuality":{"Country":1.0,"State":1.0,"County":1.0,"City":1.0,"District":1.0,"Street":[1.0],"HouseNumber":1.0,"PostalCode":1.0},"MatchType":"interpolated","Location":{"LocationId":"NT_gFgF59JlzzosGIsIDYmq8C_l_837311899_R_ygzN","LocationType":"point","DisplayPosition":{"Latitude":53.61753,"Longitude":-3.01614},"MapView":{"TopLeft":{"Latitude":53.6186542,"Longitude":-3.0180351},"BottomRight":{"Latitude":53.6164059,"Longitude":-3.0142448}},"Address":{"Label":"287 Liverpool Road, Southport, PR8 3, United Kingdom","Country":"GBR","State":"England","County":"Merseyside","City":"Southport","District":"Southport","Street":"Liverpool Road","HouseNumber":"287","PostalCode":"PR8 3","AdditionalData":[{"value":"United Kingdom","key":"CountryName"},{"value":"England","key":"StateName"},{"value":"Merseyside","key":"CountyName"}]},"MapReference":{"ReferenceId":"837311899","Spot":0.49,"SideOfStreet":"right","StateId":"20248595","CountyId":"20343208","CityId":"20343898","DistrictId":"20343899"}}},{"Relevance":1.0,"Distance":44.1,"MatchLevel":"postalCode","MatchQuality":{"PostalCode":1.0},"MatchType":"interpolated","Location":{"LocationId":"NT_SmViIWyHwZOWbctFJSjKYB_l_27312920_R_ygTM","LocationType":"point","DisplayPosition":{"Latitude":53.61826,"Longitude":-3.01583},"MapView":{"TopLeft":{"Latitude":53.6272532,"Longitude":-3.0309915},"BottomRight":{"Latitude":53.6092668,"Longitude":-3.0006685}},"Address":{"Label":"PR8 4PL, Southport, England, United Kingdom","Country":"GBR","State":"England","County":"Merseyside","City":"Southport","PostalCode":"PR8 4PL","AdditionalData":[{"value":"United Kingdom","key":"CountryName"},{"value":"England","key":"StateName"},{"value":"Merseyside","key":"CountyName"}]},"MapReference":{"ReferenceId":"27312920","Spot":0.32,"SideOfStreet":"neither","StateId":"20248595","CountyId":"20343208","CityId":"20343898"}}},{"Relevance":1.0,"Distance":56.4,"MatchLevel":"street","MatchQuality":{"Country":1.0,"State":1.0,"County":1.0,"City":1.0,"District":1.0,"Street":[1.0],"PostalCode":1.0},"Location":{"LocationId":"NT_cIEWR8vgv41tzb.tIJP0TD_l_27312894_L","LocationType":"point","DisplayPosition":{"Latitude":53.61837,"Longitude":-3.01586},"MapView":{"TopLeft":{"Latitude":53.61872,"Longitude":-3.01653},"BottomRight":{"Latitude":53.61837,"Longitude":-3.01586}},"Address":{"Label":"The Briars, Southport, PR8 4, United Kingdom","Country":"GBR","State":"England","County":"Merseyside","City":"Southport","District":"Southport","Street":"The Briars","PostalCode":"PR8 4","AdditionalData":[{"value":"United Kingdom","key":"CountryName"},{"value":"England","key":"StateName"},{"value":"Merseyside","key":"CountyName"}]},"MapReference":{"ReferenceId":"27312894","Spot":0.0,"SideOfStreet":"left","StateId":"20248595","CountyId":"20343208","CityId":"20343898","DistrictId":"20343899"}}},{"Relevance":1.0,"Distance":59.5,"MatchLevel":"postalCode","MatchQuality":{"PostalCode":1.0},"MatchType":"interpolated","Location":{"LocationId":"NT_gFgF59JlzzosGIsIDYmq8C_l_837311899_R_ygzN","LocationType":"point","DisplayPosition":{"Latitude":53.61736,"Longitude":-3.01613},"MapView":{"TopLeft":{"Latitude":53.6263532,"Longitude":-3.0312912},"BottomRight":{"Latitude":53.6083668,"Longitude":-3.0009688}},"Address":{"Label":"PR8 3BY, Southport, England, United Kingdom","Country":"GBR","State":"England","County":"Merseyside","City":"Southport","PostalCode":"PR8 3BY","AdditionalData":[{"value":"United Kingdom","key":"CountryName"},{"value":"England","key":"StateName"},{"value":"Merseyside","key":"CountyName"}]},"MapReference":{"ReferenceId":"837311899","Spot":0.49,"SideOfStreet":"neither","StateId":"20248595","CountyId":"20343208","CityId":"20343898"}}},{"Relevance":1.0,"Distance":64.0,"MatchLevel":"houseNumber","MatchQuality":{"Country":1.0,"State":1.0,"County":1.0,"City":1.0,"District":1.0,"Street":[1.0],"HouseNumber":1.0,"PostalCode":1.0},"MatchType":"interpolated","Location":{"LocationId":"NT_Ia36Pnefno55rRRfkIic9B_l_27312893_R_yYTN","LocationType":"point","DisplayPosition":{"Latitude":53.6185001,"Longitude":-3.01581},"MapView":{"TopLeft":{"Latitude":53.6196242,"Longitude":-3.0177052},"BottomRight":{"Latitude":53.6173759,"Longitude":-3.0139148}},"Address":{"Label":"265 Liverpool Road, Southport, PR8 4PL, United Kingdom","Country":"GBR","State":"England","County":"Merseyside","City":"Southport","District":"Southport","Street":"Liverpool Road","HouseNumber":"265","PostalCode":"PR8 4PL","AdditionalData":[{"value":"United Kingdom","key":"CountryName"},{"value":"England","key":"StateName"},{"value":"Merseyside","key":"CountyName"}]},"MapReference":{"ReferenceId":"27312893","Spot":0.21,"SideOfStreet":"right","StateId":"20248595","CountyId":"20343208","CityId":"20343898","DistrictId":"20343899"}}},{"Relevance":1.0,"Distance":78.4,"MatchLevel":"postalCode","MatchQuality":{"PostalCode":1.0},"Location":{"LocationId":"NT_cIEWR8vgv41tzb.tIJP0TD_l_27312894_L","LocationType":"point","DisplayPosition":{"Latitude":53.61843,"Longitude":-3.01653},"MapView":{"TopLeft":{"Latitude":53.6274232,"Longitude":-3.0316915},"BottomRight":{"Latitude":53.6094368,"Longitude":-3.0013685}},"Address":{"Label":"PR8 4QU, Southport, England, United Kingdom","Country":"GBR","State":"England","County":"Merseyside","City":"Southport","PostalCode":"PR8 4QU","AdditionalData":[{"value":"United Kingdom","key":"CountryName"},{"value":"England","key":"StateName"},{"value":"Merseyside","key":"CountyName"}]},"MapReference":{"ReferenceId":"27312894","Spot":0.0,"SideOfStreet":"neither","StateId":"20248595","CountyId":"20343208","CityId":"20343898"}}}]}]}}