{"Response":{"MetaInfo":{"Timestamp":"2020-03-28T09:50:32.800+0000","NextPageInformation":"2"},"View":[{"_type":"SearchResultsViewType","ViewId":0,"Result":[{"Relevance":1.0,"Distance":0.0,"Direction":0.0,"MatchLevel":"district","MatchQuality":{"Country":1.0,"State":1.0,"County":1.0,"City":1.0,"District":1.0,"PostalCode":1.0},"Location":{"LocationId":"NT_3e9usXkVZRdOLVU74LFsTB","LocationType":"point","DisplayPosition":{"Latitude":53.6030738,"Longitude":-2.8412514},"MapView":{"TopLeft":{"Latitude":53.61213,"Longitude":-2.87374},"BottomRight":{"Latitude":53.58391,"Longitude":-2.82807}},"Address":{"Label":"Burscough, Ormskirk, England, United Kingdom","Country":"GBR","State":"England","County":"Lancashire","City":"Ormskirk","District":"Burscough","PostalCode":"L40 5","AdditionalData":[{"value":"United Kingdom","key":"CountryName"},{"value":"England","key":"StateName"},{"value":"Lancashire","key":"CountyName"}]},"MapReference":{"ReferenceId":"1147097495","SideOfStreet":"neither","StateId":"20248595","CountyId":"20343938","CityId":"20344304","DistrictId":"20344310"}}},{"Relevance":1.0,"Distance":7.8,"MatchLevel":"houseNumber","MatchQuality":{"Country":1.0,"State":1.0,"County":1.0,"City":1.0,"District":1.0,"Street":[1.0],"HouseNumber":1.0,"PostalCode":1.0},"MatchType":"interpolated","Location":{"LocationId":"NT_vYLY18lLoKYLRZLfC.FC3C_l_27313414_R_zQD","LocationType":"point","DisplayPosition":{"Latitude":53.60313,"Longitude":-2.84118},"MapView":{"TopLeft":{"Latitude":53.6042541,"Longitude":-2.8430745},"BottomRight":{"Latitude":53.6020058,"Longitude":-2.8392855}},"Address":{"Label":"34 Lord Street, Ormskirk, L40 4BZ, United Kingdom","Country":"GBR","State":"England","County":"Lancashire","City":"Ormskirk","District":"Burscough","Street":"Lord Street","HouseNumber":"34","PostalCode":"L40 4BZ","AdditionalData":[{"value":"United Kingdom","key":"CountryName"},{"value":"England","key":"StateName"},{"value":"Lancashire","key":"CountyName"}]},"MapReference":{"ReferenceId":"27313414","Spot":0.12,"SideOfStreet":"right","StateId":"20248595","CountyId":"20343938","CityId":"20344304","DistrictId":"20344310"}}},{"Relevance":1.0,"Distance":14.1,"MatchLevel":"street","MatchQuality":{"Country":1.0,"State":1.0,"County":1.0,"City":1.0,"District":1.0,"Street":[1.0],"PostalCode":1.0},"Location":{"LocationId":"NT_UKssbiVxMWCi6E2ySaQZxB_l_27313418_R","LocationType":"point","DisplayPosition":{"Latitude":53.6031541,"Longitude":-2.8414177},"MapView":{"TopLeft":{"Latitude":53.60317,"Longitude":-2.84155},"BottomRight":{"Latitude":53.60288,"Longitude":-2.84141}},"Address":{"Label":"Smithy Walk, Ormskirk, L40 4, United Kingdom","Country":"GBR","State":"England","County":"Lancashire","City":"Ormskirk","District":"Burscough","Street":"Smithy Walk","PostalCode":"L40 4","AdditionalData":[{"value":"United Kingdom","key":"CountryName"},{"value":"England","key":"StateName"},{"value":"Lancashire","key":"CountyName"}]},"MapReference":{"ReferenceId":"27313418","Spot":0.95,"SideOfStreet":"right","StateId":"20248595","CountyId":"20343938","CityId":"20344304","DistrictId":"20344310"}}},{"Relevance":1.0,"Distance":22.1,"MatchLevel":"postalCode","MatchQuality":{"PostalCode":1.0},"MatchType":"interpolated","Location":{"LocationId":"NT_vYLY18lLoKYLRZLfC.FC3C_l_27313414_R_zQD","LocationType":"point","DisplayPosition":{"Latitude":53.60316,"Longitude":-2.84095},"MapView":{"TopLeft":{"Latitude":53.6121532,"Longitude":-2.8561061},"BottomRight":{"Latitude":53.5941668,"Longitude":-2.8257939}},"Address":{"Label":"L40 4BZ, Ormskirk, England, United Kingdom","Country":"GBR","State":"England","County":"Lancashire","City":"Ormskirk","PostalCode":"L40 4BZ","AdditionalData":[{"value":"United Kingdom","key":"CountryName"},{"value":"England","key":"StateName"},{"value":"Lancashire","key":"CountyName"}]},"MapReference":{"ReferenceId":"27313414","Spot":0.12,"SideOfStreet":"neither","StateId":"20248595","CountyId":"20343938","CityId":"20344304"}}},{"Relevance":1.0,"Distance":28.1,"MatchLevel":"houseNumber","MatchQuality":{"Country":1.0,"State":1.0,"County":1.0,"City":1.0,"District":1.0,"Street":[1.0],"HouseNumber":1.0,"PostalCode":1.0},"MatchType":"interpolated","Location":{"LocationId":"NT_Hsq6HJ-Tx6dTa0wRx-wxsD_l_27313412_R_5A","LocationType":"point","DisplayPosition":{"Latitude":53.60319,"Longitude":-2.8416301},"MapView":{"TopLeft":{"Latitude":53.6043142,"Longitude":-2.8435246},"BottomRight":{"Latitude":53.6020659,"Longitude":-2.8397356}},"Address":{"Label":"9 Lord Street, Ormskirk, L40 5, United Kingdom","Country":"GBR","State":"England","County":"Lancashire","City":"Ormskirk","District":"Burscough","Street":"Lord Street","HouseNumber":"9","PostalCode":"L40 5","AdditionalData":[{"value":"United Kingdom","key":"CountryName"},{"value":"England","key":"StateName"},{"value":"Lancashire","key":"CountyName"}]},"MapReference":{"ReferenceId":"27313412","Spot":0.27,"SideOfStreet":"right","StateId":"20248595","CountyId":"20343938","CityId":"20344304","DistrictId":"20344310"}}},{"Relevance":1.0,"Distance":29.2,"MatchLevel":"street","MatchQuality":{"Country":1.0,"State":1.0,"County":1.0,"City":1.0,"District":1.0,"Street":[1.0],"PostalCode":1.0},"Location":{"LocationId":"NT_PooDIA3HMqIQ7RTEd2Jm6A_l_27313419_R","LocationType":"point","DisplayPosition":{"Latitude":53.60288,"Longitude":-2.84155},"MapView":{"TopLeft":{"Latitude":53.60325,"Longitude":-2.8423},"BottomRight":{"Latitude":53.60288,"Longitude":-2.84155}},"Address":{"Label":"Smithy Walk, Ormskirk, L40 5, United Kingdom","Country":"GBR","State":"England","County":"Lancashire","City":"Ormskirk","District":"Burscough","Street":"Smithy Walk","PostalCode":"L40 5","AdditionalData":[{"value":"United Kingdom","key":"CountryName"},{"value":"England","key":"StateName"},{"value":"Lancashire","key":"CountyName"}]},"MapReference":{"ReferenceId":"27313419","Spot":0.0,"SideOfStreet":"right","StateId":"20248595","CountyId":"20343938","CityId":"20344304","DistrictId":"20344310"}}},{"Relevance":1.0,"Distance":33.2,"MatchLevel":"street","MatchQuality":{"Country":1.0,"State":1.0,"County":1.0,"City":1.0,"District":1.0,"Street":[1.0],"PostalCode":1.0},"Location":{"LocationId":"NT_0Tm9tzDWxjYaS68fyvYD2D_l_27313435_R","LocationType":"point","DisplayPosition":{"Latitude":53.6027757,"Longitude":-2.84129},"MapView":{"TopLeft":{"Latitude":53.60288,"Longitude":-2.84155},"BottomRight":{"Latitude":53.60258,"Longitude":-2.83978}},"Address":{"Label":"Stanley Court, Ormskirk, L40 4, United Kingdom","Country":"GBR","State":"England","County":"Lancashire","City":"Ormskirk","District":"Burscough","Street":"Stanley Court","PostalCode":"L40 4","AdditionalData":[{"value":"United Kingdom","key":"CountryName"},{"value":"England","key":"StateName"},{"value":"Lancashire","key":"CountyName"}]},"MapReference":{"ReferenceId":"27313435","Spot":0.84,"SideOfStreet":"right","StateId":"20248595","CountyId":"20343938","CityId":"20344304","DistrictId":"20344310"}}},{"Relevance":1.0,"Distance":55.3,"MatchLevel":"postalCode","MatchQuality":{"PostalCode":1.0},"Location":{"LocationId":"NT_PooDIA3HMqIQ7RTEd2Jm6A_l_27313419_R","LocationType":"point","DisplayPosition":{"Latitude":53.603,"Longitude":-2.84208},"MapView":{"TopLeft":{"Latitude":53.6119932,"Longitude":-2.857236},"BottomRight":{"Latitude":53.5940068,"Longitude":-2.826924}},"Address":{"Label":"L40 5UU, Ormskirk, England, United Kingdom","Country":"GBR","State":"England","County":"Lancashire","City":"Ormskirk","PostalCode":"L40 5UU","AdditionalData":[{"value":"United Kingdom","key":"CountryName"},{"value":"England","key":"StateName"},{"value":"Lancashire","key":"CountyName"}]},"MapReference":{"ReferenceId":"27313419","Spot":0.0,"SideOfStreet":"neither","StateId":"20248595","CountyId":"20343938","CityId":"20344304"}}},{"Relevance":1.0,"Distance":63.3,"MatchLevel":"houseNumber","MatchQuality":{"Country":1.0,"State":1.0,"County":1.0,"City":1.0,"District":1.0,"Street":[1.0],"HouseNumber":1.0,"PostalCode":1.0},"MatchType":"interpolated","Location":{"LocationId":"NT_-3U4WoKhFoptlNLrTPdKTA_l_808159416_R_1AD","LocationType":"point","DisplayPosition":{"Latitude":53.60349,"Longitude":-2.84218},"MapView":{"TopLeft":{"Latitude":53.6046142,"Longitude":-2.8440745},"BottomRight":{"Latitude":53.6023659,"Longitude":-2.8402854}},"Address":{"Label":"50 Liverpool Road North, Ormskirk, L40 4BY, United Kingdom","Country":"GBR","State":"England","County":"Lancashire","City":"Ormskirk","District":"Burscough","Street":"Liverpool Road North","HouseNumber":"50","PostalCode":"L40 4BY","AdditionalData":[{"value":"United Kingdom","key":"CountryName"},{"value":"England","key":"StateName"},{"value":"Lancashire","key":"CountyName"}]},"MapReference":{"ReferenceId":"808159416","Spot":0.0,"SideOfStreet":"right","StateId":"20248595","CountyId":"20343938","CityId":"20344304","DistrictId":"20344310"}}},{"Relevance":1.0,"Distance":65.3,"MatchLevel":"houseNumber","MatchQuality":{"Country":1.0,"State":1.0,"County":1.0,"City":1.0,"District":1.0,"Street":[1.0],"HouseNumber":1.0,"PostalCode":1.0},"MatchType":"interpolated","Location":{"LocationId":"NT_5VXm0ehNQSMbEMMd93rO3D_l_808159415_R_0gD","LocationType":"point","DisplayPosition":{"Latitude":53.603385,"Longitude":-2.842295},"MapView":{"TopLeft":{"Latitude":53.6045092,"Longitude":-2.8441895},"BottomRight":{"Latitude":53.6022609,"Longitude":-2.8404005}},"Address":{"Label":"48 Liverpool Road North, Ormskirk, L40 4BY, United Kingdom","Country":"GBR","State":"England","County":"Lancashire","City":"Ormskirk","District":"Burscough","Street":"Liverpool Road North","HouseNumber":"48","PostalCode":"L40 4BY","AdditionalData":[{"value":"United Kingdom","key":"CountryName"},{"value":"England","key":"StateName"},{"value":"Lancashire","key":"CountyName"}]},"MapReference":{"ReferenceId":"808159415","Spot":0.5,"SideOfStreet":"right","StateId":"20248595","CountyId":"20343938","CityId":"20344304","DistrictId":"20344310"}}}]}]}}