{"Response":{"MetaInfo":{"Timestamp":"2020-03-28T11:00:41.879+0000","NextPageInformation":"2"},"View":[{"_type":"SearchResultsViewType","ViewId":0,"Result":[{"Relevance":1.0,"Distance":-90.5,"MatchLevel":"landmark","MatchQuality":{"Country":1.0,"State":1.0,"County":1.0,"City":1.0,"PostalCode":1.0,"Name":1.0},"Location":{"LocationId":"NT_eN4rvr-m6ttThY53I7rwrC_p_ImkOrrKisGd0IEJCWiJy8C","LocationType":"hospital","Name":"Regio Klinikum Wedel","DisplayPosition":{"Latitude":53.6027,"Longitude":9.67433},"MapView":{"TopLeft":{"Latitude":53.60363,"Longitude":9.67117},"BottomRight":{"Latitude":53.60081,"Longitude":9.67946}},"Address":{"Label":"22880 Wedel (Holstein), Deutschland","Country":"DEU","State":"Schleswig-Holstein","County":"Pinneberg","City":"Wedel (Holstein)","PostalCode":"22880","AdditionalData":[{"value":"Deutschland","key":"CountryName"},{"value":"Schleswig-Holstein","key":"StateName"},{"value":"Pinneberg","key":"CountyName"}]},"MapReference":{"CountryId":"20147700","StateId":"20147701","CountyId":"20149202","CityId":"20149349","PlaceId":"50344117"}}},{"Relevance":1.0,"Distance":0.0,"Direction":0.0,"MatchLevel":"city","MatchQuality":{"Country":1.0,"State":1.0,"County":1.0,"City":1.0,"PostalCode":1.0},"Location":{"LocationId":"NT_bcJuNwUoisXiN20TzQXZ8B","LocationType":"point","DisplayPosition":{"Latitude":53.6019236,"Longitude":9.6773228},"MapView":{"TopLeft":{"Latitude":53.61929,"Longitude":9.63334},"BottomRight":{"Latitude":53.55671,"Longitude":9.75921}},"Address":{"Label":"Wedel (Holstein), Schleswig-Holstein, Deutschland","Country":"DEU","State":"Schleswig-Holstein","County":"Pinneberg","City":"Wedel (Holstein)","PostalCode":"22880","AdditionalData":[{"value":"Deutschland","key":"CountryName"},{"value":"Schleswig-Holstein","key":"StateName"},{"value":"Pinneberg","key":"CountyName"}]},"MapReference":{"ReferenceId":"763546519","SideOfStreet":"neither","CountryId":"20147700","StateId":"20147701","CountyId":"20149202","CityId":"20149349"}}},{"Relevance":1.0,"Distance":55.1,"MatchLevel":"houseNumber","MatchQuality":{"Country":1.0,"State":1.0,"County":1.0,"City":1.0,"Street":[1.0],"HouseNumber":1.0,"PostalCode":1.0},"MatchType":"interpolated","Location":{"LocationId":"NT_mh0ZT3ptsaEiDyk.UJiuCC_xUTNFB","LocationType":"point","DisplayPosition":{"Latitude":53.60288,"Longitude":9.67657},"MapView":{"TopLeft":{"Latitude":53.6040042,"Longitude":9.6746755},"BottomRight":{"Latitude":53.6017558,"Longitude":9.6784645}},"Address":{"Label":"Holmer Straße 155E, 22880 Wedel (Holstein), Deutschland","Country":"DEU","State":"Schleswig-Holstein","County":"Pinneberg","City":"Wedel (Holstein)","Street":"Holmer Straße","HouseNumber":"155E","PostalCode":"22880","AdditionalData":[{"value":"Deutschland","key":"CountryName"},{"value":"Schleswig-Holstein","key":"StateName"},{"value":"Pinneberg","key":"CountyName"}]},"MapReference":{"ReferenceId":"51657572","Spot":0.33,"SideOfStreet":"right","CountryId":"20147700","StateId":"20147701","CountyId":"20149202","CityId":"20149349","AddressId":"194712919","RoadLinkId":"127710386"}}},{"Relevance":1.0,"Distance":90.0,"MatchLevel":"houseNumber","MatchQuality":{"Country":1.0,"State":1.0,"County":1.0,"City":1.0,"Street":[1.0],"HouseNumber":1.0,"PostalCode":1.0},"MatchType":"interpolated","Location":{"LocationId":"NT_mh0ZT3ptsaEiDyk.UJiuCC_xUzM","LocationType":"point","DisplayPosition":{"Latitude":53.60242,"Longitude":9.67895},"MapView":{"TopLeft":{"Latitude":53.6035442,"Longitude":9.6770555},"BottomRight":{"Latitude":53.6012958,"Longitude":9.6808445}},"Address":{"Label":"Holmer Straße 153, 22880 Wedel (Holstein), Deutschland","Country":"DEU","State":"Schleswig-Holstein","County":"Pinneberg","City":"Wedel (Holstein)","Street":"Holmer Straße","HouseNumber":"153","PostalCode":"22880","AdditionalData":[{"value":"Deutschland","key":"CountryName"},{"value":"Schleswig-Holstein","key":"StateName"},{"value":"Pinneberg","key":"CountyName"}]},"MapReference":{"ReferenceId":"1225423066","Spot":0.69,"SideOfStreet":"left","CountryId":"20147700","StateId":"20147701","CountyId":"20149202","CityId":"20149349","AddressId":"195659067","RoadLinkId":"543618980"}}},{"Relevance":1.0,"Distance":125.8,"MatchLevel":"street","MatchQuality":{"Country":1.0,"State":1.0,"County":1.0,"City":1.0,"Street":[1.0],"PostalCode":1.0},"Location":{"LocationId":"NT_mh0ZT3ptsaEiDyk.UJiuCC_l_1067303288_L","LocationType":"point","DisplayPosition":{"Latitude":53.60256,"Longitude":9.6789},"MapView":{"TopLeft":{"Latitude":53.60295,"Longitude":9.67877},"BottomRight":{"Latitude":53.60256,"Longitude":9.6789}},"Address":{"Label":"Holmer Straße, 22880 Wedel (Holstein), Deutschland","Country":"DEU","State":"Schleswig-Holstein","County":"Pinneberg","City":"Wedel (Holstein)","Street":"Holmer Straße","PostalCode":"22880","AdditionalData":[{"value":"Deutschland","key":"CountryName"},{"value":"Schleswig-Holstein","key":"StateName"},{"value":"Pinneberg","key":"CountyName"}]},"MapReference":{"ReferenceId":"1067303288","Spot":0.0,"SideOfStreet":"left","CountryId":"20147700","StateId":"20147701","CountyId":"20149202","CityId":"20149349"}}},{"Relevance":1.0,"Distance":134.7,"MatchLevel":"houseNumber","MatchQuality":{"Country":1.0,"State":1.0,"County":1.0,"City":1.0,"Street":[1.0],"HouseNumber":1.0,"PostalCode":1.0},"MatchType":"interpolated","Location":{"LocationId":"NT_mh0ZT3ptsaEiDyk.UJiuCC_xQDN","LocationType":"point","DisplayPosition":{"Latitude":53.6016,"Longitude":9.67929},"MapView":{"TopLeft":{"Latitude":53.6027242,"Longitude":9.6773956},"BottomRight":{"Latitude":53.6004758,"Longitude":9.6811844}},"Address":{"Label":"Holmer Straße 144, 22880 Wedel (Holstein), Deutschland","Country":"DEU","State":"Schleswig-Holstein","County":"Pinneberg","City":"Wedel (Holstein)","Street":"Holmer Straße","HouseNumber":"144","PostalCode":"22880","AdditionalData":[{"value":"Deutschland","key":"CountryName"},{"value":"Schleswig-Holstein","key":"StateName"},{"value":"Pinneberg","key":"CountyName"}]},"MapReference":{"ReferenceId":"1225423065","Spot":0.4,"SideOfStreet":"right","CountryId":"20147700","StateId":"20147701","CountyId":"20149202","CityId":"20149349","AddressId":"193186021","RoadLinkId":"543618979"}}},{"Relevance":1.0,"Distance":148.8,"MatchLevel":"street","MatchQuality":{"Country":1.0,"State":1.0,"County":1.0,"City":1.0,"Street":[1.0],"PostalCode":1.0},"Location":{"LocationId":"NT_mh0ZT3ptsaEiDyk.UJiuCC_l_812837910_L","LocationType":"point","DisplayPosition":{"Latitude":53.60295,"Longitude":9.67877},"MapView":{"TopLeft":{"Latitude":53.60325,"Longitude":9.67867},"BottomRight":{"Latitude":53.60295,"Longitude":9.67877}},"Address":{"Label":"Holmer Straße, 22880 Wedel (Holstein), Deutschland","Country":"DEU","State":"Schleswig-Holstein","County":"Pinneberg","City":"Wedel (Holstein)","Street":"Holmer Straße","PostalCode":"22880","AdditionalData":[{"value":"Deutschland","key":"CountryName"},{"value":"Schleswig-Holstein","key":"StateName"},{"value":"Pinneberg","key":"CountyName"}]},"MapReference":{"ReferenceId":"812837910","Spot":0.0,"SideOfStreet":"left","CountryId":"20147700","StateId":"20147701","CountyId":"20149202","CityId":"20149349"}}},{"Relevance":1.0,"Distance":158.6,"MatchLevel":"street","MatchQuality":{"Country":1.0,"State":1.0,"County":1.0,"City":1.0,"Street":[1.0],"PostalCode":1.0},"Location":{"LocationId":"NT_9mncAdAY1yryWcsBwV2q0B_l_554721907_L","LocationType":"point","DisplayPosition":{"Latitude":53.60127,"Longitude":9.67946},"MapView":{"TopLeft":{"Latitude":53.60127,"Longitude":9.67946},"BottomRight":{"Latitude":53.60109,"Longitude":9.67957}},"Address":{"Label":"Holmer Straße, 22880 Wedel (Holstein), Deutschland","Country":"DEU","State":"Schleswig-Holstein","County":"Pinneberg","City":"Wedel (Holstein)","Street":"Holmer Straße","PostalCode":"22880","AdditionalData":[{"value":"Deutschland","key":"CountryName"},{"value":"Schleswig-Holstein","key":"StateName"},{"value":"Pinneberg","key":"CountyName"}]},"MapReference":{"ReferenceId":"554721907","Spot":1.0,"SideOfStreet":"left","CountryId":"20147700","StateId":"20147701","CountyId":"20149202","CityId":"20149349"}}},{"Relevance":1.0,"Distance":158.9,"MatchLevel":"street","MatchQuality":{"Country":1.0,"State":1.0,"County":1.0,"City":1.0,"PostalCode":1.0},"Location":{"LocationId":"NT_bSC90JJsO4mC06IskmWPyD_l_51657548_R","LocationType":"point","DisplayPosition":{"Latitude":53.60285,"Longitude":9.67549},"MapView":{"TopLeft":{"Latitude":53.60312,"Longitude":9.67458},"BottomRight":{"Latitude":53.60285,"Longitude":9.67549}},"Address":{"Label":"22880 Wedel (Holstein), Deutschland","Country":"DEU","State":"Schleswig-Holstein","County":"Pinneberg","City":"Wedel (Holstein)","PostalCode":"22880","AdditionalData":[{"value":"Deutschland","key":"CountryName"},{"value":"Schleswig-Holstein","key":"StateName"},{"value":"Pinneberg","key":"CountyName"}]},"MapReference":{"ReferenceId":"51657548","Spot":0.0,"SideOfStreet":"right","CountryId":"20147700","StateId":"20147701","CountyId":"20149202","CityId":"20149349"}}},{"Relevance":1.0,"Distance":158.9,"MatchLevel":"street","MatchQuality":{"Country":1.0,"State":1.0,"County":1.0,"City":1.0,"PostalCode":1.0},"Location":{"LocationId":"NT_bSC90JJsO4mC06IskmWPyD_l_572208823_R","LocationType":"point","DisplayPosition":{"Latitude":53.60285,"Longitude":9.67549},"MapView":{"TopLeft":{"Latitude":53.60285,"Longitude":9.67462},"BottomRight":{"Latitude":53.60285,"Longitude":9.67549}},"Address":{"Label":"22880 Wedel (Holstein), Deutschland","Country":"DEU","State":"Schleswig-Holstein","County":"Pinneberg","City":"Wedel (Holstein)","PostalCode":"22880","AdditionalData":[{"value":"Deutschland","key":"CountryName"},{"value":"Schleswig-Holstein","key":"StateName"},{"value":"Pinneberg","key":"CountyName"}]},"MapReference":{"ReferenceId":"572208823","Spot":1.0,"SideOfStreet":"right","CountryId":"20147700","StateId":"20147701","CountyId":"20149202","CityId":"20149349"}}}]}]}}