{"Response":{"MetaInfo":{"Timestamp":"2020-03-28T11:57:08.359+0000","NextPageInformation":"2"},"View":[{"_type":"SearchResultsViewType","ViewId":0,"Result":[{"Relevance":1.0,"Distance":0.0,"Direction":0.0,"MatchLevel":"district","MatchQuality":{"Country":1.0,"State":1.0,"County":1.0,"City":1.0,"District":1.0,"PostalCode":1.0},"Location":{"LocationId":"NT_sV99qlsuj9KP0APkJFizbA","LocationType":"point","DisplayPosition":{"Latitude":53.6672179,"Longitude":-1.4871627},"MapView":{"TopLeft":{"Latitude":53.72392,"Longitude":-1.55205},"BottomRight":{"Latitude":53.63084,"Longitude":-1.45154}},"Address":{"Label":"Wakefield, England, United Kingdom","Country":"GBR","State":"England","County":"West Yorkshire","City":"Wakefield","District":"Wakefield","PostalCode":"WF2 9","AdditionalData":[{"value":"United Kingdom","key":"CountryName"},{"value":"England","key":"StateName"},{"value":"West Yorkshire","key":"CountyName"}]},"MapReference":{"ReferenceId":"27068375","SideOfStreet":"neither","StateId":"20248595","CountyId":"20345050","CityId":"20345470","DistrictId":"20345471"}}},{"Relevance":1.0,"Distance":5.5,"MatchLevel":"houseNumber","MatchQuality":{"Country":1.0,"State":1.0,"County":1.0,"City":1.0,"District":1.0,"Street":[1.0],"HouseNumber":1.0,"PostalCode":1.0},"MatchType":"interpolated","Location":{"LocationId":"NT_ieAry3xE67zn1s.l2UyDWD_l_905891852_R_xA","LocationType":"point","DisplayPosition":{"Latitude":53.6673204,"Longitude":-1.4872686},"MapView":{"TopLeft":{"Latitude":53.6684446,"Longitude":-1.489166},"BottomRight":{"Latitude":53.6661963,"Longitude":-1.4853712}},"Address":{"Label":"1 Manygates Lane, Wakefield, WF1 5, United Kingdom","Country":"GBR","State":"England","County":"West Yorkshire","City":"Wakefield","District":"Wakefield","Street":"Manygates Lane","HouseNumber":"1","PostalCode":"WF1 5","AdditionalData":[{"value":"United Kingdom","key":"CountryName"},{"value":"England","key":"StateName"},{"value":"West Yorkshire","key":"CountyName"}]},"MapReference":{"ReferenceId":"905891852","Spot":0.48,"SideOfStreet":"right","StateId":"20248595","CountyId":"20345050","CityId":"20345470","DistrictId":"20345471"}}},{"Relevance":1.0,"Distance":8.5,"MatchLevel":"houseNumber","MatchQuality":{"Country":1.0,"State":1.0,"County":1.0,"City":1.0,"District":1.0,"Street":[1.0],"HouseNumber":1.0,"PostalCode":1.0},"MatchType":"interpolated","Location":{"LocationId":"NT_-lCpm3zmm1cSPrbDUZezSC_l_841767587_L_5gD","LocationType":"point","DisplayPosition":{"Latitude":53.66722,"Longitude":-1.487012},"MapView":{"TopLeft":{"Latitude":53.6683442,"Longitude":-1.4889094},"BottomRight":{"Latitude":53.6660959,"Longitude":-1.4851146}},"Address":{"Label":"98 Barnsley Road, Wakefield, WF1 5NX, United Kingdom","Country":"GBR","State":"England","County":"West Yorkshire","City":"Wakefield","District":"Wakefield","Street":"Barnsley Road","HouseNumber":"98","PostalCode":"WF1 5NX","AdditionalData":[{"value":"United Kingdom","key":"CountryName"},{"value":"England","key":"StateName"},{"value":"West Yorkshire","key":"CountyName"}]},"MapReference":{"ReferenceId":"841767587","Spot":0.57,"SideOfStreet":"left","StateId":"20248595","CountyId":"20345050","CityId":"20345470","DistrictId":"20345471"}}},{"Relevance":1.0,"Distance":11.7,"MatchLevel":"houseNumber","MatchQuality":{"Country":1.0,"State":1.0,"County":1.0,"City":1.0,"District":1.0,"Street":[1.0],"HouseNumber":1.0,"PostalCode":1.0},"MatchType":"interpolated","Location":{"LocationId":"NT_-lCpm3zmm1cSPrbDUZezSC_l_1228109355_L_5YD","LocationType":"point","DisplayPosition":{"Latitude":53.66737,"Longitude":-1.48709},"MapView":{"TopLeft":{"Latitude":53.6684942,"Longitude":-1.4889874},"BottomRight":{"Latitude":53.6662459,"Longitude":-1.4851926}},"Address":{"Label":"96 Barnsley Road, Wakefield, WF1 5NP, United Kingdom","Country":"GBR","State":"England","County":"West Yorkshire","City":"Wakefield","District":"Wakefield","Street":"Barnsley Road","HouseNumber":"96","PostalCode":"WF1 5NP","AdditionalData":[{"value":"United Kingdom","key":"CountryName"},{"value":"England","key":"StateName"},{"value":"West Yorkshire","key":"CountyName"}]},"MapReference":{"ReferenceId":"1228109355","Spot":0.0,"SideOfStreet":"left","StateId":"20248595","CountyId":"20345050","CityId":"20345470","DistrictId":"20345471"}}},{"Relevance":1.0,"Distance":14.9,"MatchLevel":"postalCode","MatchQuality":{"PostalCode":1.0},"MatchType":"interpolated","Location":{"LocationId":"NT_ieAry3xE67zn1s.l2UyDWD_l_905891851_R_zA","LocationType":"point","DisplayPosition":{"Latitude":53.66718,"Longitude":-1.48738},"MapView":{"TopLeft":{"Latitude":53.6761732,"Longitude":-1.5025591},"BottomRight":{"Latitude":53.6581868,"Longitude":-1.4722009}},"Address":{"Label":"WF1 5NJ, Wakefield, England, United Kingdom","Country":"GBR","State":"England","County":"West Yorkshire","City":"Wakefield","PostalCode":"WF1 5NJ","AdditionalData":[{"value":"United Kingdom","key":"CountryName"},{"value":"England","key":"StateName"},{"value":"West Yorkshire","key":"CountyName"}]},"MapReference":{"ReferenceId":"905891851","Spot":0.52,"SideOfStreet":"neither","StateId":"20248595","CountyId":"20345050","CityId":"20345470"}}},{"Relevance":1.0,"Distance":16.3,"MatchLevel":"street","MatchQuality":{"Country":1.0,"State":1.0,"County":1.0,"City":1.0,"District":1.0,"Street":[1.0],"PostalCode":1.0},"Location":{"LocationId":"NT_XE4-MxYrx1jr8ScetPSP1D_l_905891853_L","LocationType":"point","DisplayPosition":{"Latitude":53.66723,"Longitude":-1.48741},"MapView":{"TopLeft":{"Latitude":53.6674,"Longitude":-1.48797},"BottomRight":{"Latitude":53.66722,"Longitude":-1.48741}},"Address":{"Label":"Woodlands Village, Wakefield, WF1 5, United Kingdom","Country":"GBR","State":"England","County":"West Yorkshire","City":"Wakefield","District":"Wakefield","Street":"Woodlands Village","PostalCode":"WF1 5","AdditionalData":[{"value":"United Kingdom","key":"CountryName"},{"value":"England","key":"StateName"},{"value":"West Yorkshire","key":"CountyName"}]},"MapReference":{"ReferenceId":"905891853","Spot":0.0,"SideOfStreet":"left","StateId":"20248595","CountyId":"20345050","CityId":"20345470","DistrictId":"20345471"}}},{"Relevance":1.0,"Distance":17.6,"MatchLevel":"street","MatchQuality":{"Country":1.0,"State":1.0,"County":1.0,"City":1.0,"District":1.0,"Street":[1.0],"PostalCode":1.0},"Location":{"LocationId":"NT_ieAry3xE67zn1s.l2UyDWD_l_27072048_R","LocationType":"point","DisplayPosition":{"Latitude":53.66737,"Longitude":-1.48709},"MapView":{"TopLeft":{"Latitude":53.6674,"Longitude":-1.48709},"BottomRight":{"Latitude":53.66737,"Longitude":-1.48696}},"Address":{"Label":"Manygates Lane, Wakefield, WF1 5, United Kingdom","Country":"GBR","State":"England","County":"West Yorkshire","City":"Wakefield","District":"Wakefield","Street":"Manygates Lane","PostalCode":"WF1 5","AdditionalData":[{"value":"United Kingdom","key":"CountryName"},{"value":"England","key":"StateName"},{"value":"West Yorkshire","key":"CountyName"}]},"MapReference":{"ReferenceId":"27072048","Spot":0.0,"SideOfStreet":"right","StateId":"20248595","CountyId":"20345050","CityId":"20345470","DistrictId":"20345471"}}},{"Relevance":1.0,"Distance":17.8,"MatchLevel":"houseNumber","MatchQuality":{"Country":1.0,"State":1.0,"County":1.0,"City":1.0,"District":1.0,"Street":[1.0],"HouseNumber":1.0,"PostalCode":1.0},"MatchType":"interpolated","Location":{"LocationId":"NT_-lCpm3zmm1cSPrbDUZezSC_l_840773758_R_yETO","LocationType":"point","DisplayPosition":{"Latitude":53.66725,"Longitude":-1.4868986},"MapView":{"TopLeft":{"Latitude":53.6683742,"Longitude":-1.488796},"BottomRight":{"Latitude":53.6661259,"Longitude":-1.4850012}},"Address":{"Label":"219 Barnsley Road, Wakefield, WF1 5NU, United Kingdom","Country":"GBR","State":"England","County":"West Yorkshire","City":"Wakefield","District":"Wakefield","Street":"Barnsley Road","HouseNumber":"219","PostalCode":"WF1 5NU","AdditionalData":[{"value":"United Kingdom","key":"CountryName"},{"value":"England","key":"StateName"},{"value":"West Yorkshire","key":"CountyName"}]},"MapReference":{"ReferenceId":"840773758","Spot":0.71,"SideOfStreet":"right","StateId":"20248595","CountyId":"20345050","CityId":"20345470","DistrictId":"20345471"}}},{"Relevance":1.0,"Distance":19.8,"MatchLevel":"houseNumber","MatchQuality":{"Country":1.0,"State":1.0,"County":1.0,"City":1.0,"District":1.0,"Street":[1.0],"HouseNumber":1.0,"PostalCode":1.0},"MatchType":"interpolated","Location":{"LocationId":"NT_-lCpm3zmm1cSPrbDUZezSC_l_840773759_R_yETN","LocationType":"point","DisplayPosition":{"Latitude":53.66733,"Longitude":-1.48693},"MapView":{"TopLeft":{"Latitude":53.6684542,"Longitude":-1.4888274},"BottomRight":{"Latitude":53.6662059,"Longitude":-1.4850326}},"Address":{"Label":"215 Barnsley Road, Wakefield, WF1 5NU, United Kingdom","Country":"GBR","State":"England","County":"West Yorkshire","City":"Wakefield","District":"Wakefield","Street":"Barnsley Road","HouseNumber":"215","PostalCode":"WF1 5NU","AdditionalData":[{"value":"United Kingdom","key":"CountryName"},{"value":"England","key":"StateName"},{"value":"West Yorkshire","key":"CountyName"}]},"MapReference":{"ReferenceId":"840773759","Spot":0.0,"SideOfStreet":"right","StateId":"20248595","CountyId":"20345050","CityId":"20345470","DistrictId":"20345471"}}},{"Relevance":1.0,"Distance":31.5,"MatchLevel":"houseNumber","MatchQuality":{"Country":1.0,"State":1.0,"County":1.0,"City":1.0,"District":1.0,"Street":[1.0],"HouseNumber":1.0,"PostalCode":1.0},"MatchType":"interpolated","Location":{"LocationId":"NT_ieAry3xE67zn1s.l2UyDWD_l_905891851_R_zA","LocationType":"point","DisplayPosition":{"Latitude":53.6670625,"Longitude":-1.4875632},"MapView":{"TopLeft":{"Latitude":53.6681866,"Longitude":-1.4894606},"BottomRight":{"Latitude":53.6659383,"Longitude":-1.4856658}},"Address":{"Label":"3 Manygates Lane, Wakefield, WF1 5NJ, United Kingdom","Country":"GBR","State":"England","County":"West Yorkshire","City":"Wakefield","District":"Wakefield","Street":"Manygates Lane","HouseNumber":"3","PostalCode":"WF1 5NJ","AdditionalData":[{"value":"United Kingdom","key":"CountryName"},{"value":"England","key":"StateName"},{"value":"West Yorkshire","key":"CountyName"}]},"MapReference":{"ReferenceId":"905891851","Spot":0.52,"SideOfStreet":"right","StateId":"20248595","CountyId":"20345050","CityId":"20345470","DistrictId":"20345471"}}}]}]}}