{"Response":{"MetaInfo":{"Timestamp":"2020-03-28T10:32:42.769+0000","NextPageInformation":"2"},"View":[{"_type":"SearchResultsViewType","ViewId":0,"Result":[{"Relevance":1.0,"Distance":0.0,"Direction":0.0,"MatchLevel":"district","MatchQuality":{"Country":1.0,"State":1.0,"County":1.0,"City":1.0,"District":1.0,"PostalCode":1.0},"Location":{"LocationId":"NT_77ag5ts5b8l9M1qiuyHq0B","LocationType":"point","DisplayPosition":{"Latitude":53.7602399,"Longitude":-0.3039135},"MapView":{"TopLeft":{"Latitude":53.81215,"Longitude":-0.42255},"BottomRight":{"Latitude":53.71955,"Longitude":-0.24288}},"Address":{"Label":"Hull, England, United Kingdom","Country":"GBR","State":"England","County":"North Humberside","City":"Hull","District":"Hull","PostalCode":"HU1 2","AdditionalData":[{"value":"United Kingdom","key":"CountryName"},{"value":"England","key":"StateName"},{"value":"North Humberside","key":"CountyName"}]},"MapReference":{"ReferenceId":"1208800402","SideOfStreet":"neither","StateId":"20248595","CountyId":"20344500","CityId":"20344678","DistrictId":"20344679"}}},{"Relevance":1.0,"Distance":5.3,"MatchLevel":"houseNumber","MatchQuality":{"Country":1.0,"State":1.0,"County":1.0,"City":1.0,"District":1.0,"Street":[1.0],"HouseNumber":1.0,"PostalCode":1.0},"MatchType":"interpolated","Location":{"LocationId":"NT_IYa5CCVlr.dZViSgg3Zd2C_l_26965688_L_0QzN","LocationType":"point","DisplayPosition":{"Latitude":53.760145,"Longitude":-0.303785},"MapView":{"TopLeft":{"Latitude":53.7612692,"Longitude":-0.3056866},"BottomRight":{"Latitude":53.7590209,"Longitude":-0.3018834}},"Address":{"Label":"447 Holderness Road, Hull, HU8 8JS, United Kingdom","Country":"GBR","State":"England","County":"North Humberside","City":"Hull","District":"Hull","Street":"Holderness Road","HouseNumber":"447","PostalCode":"HU8 8JS","AdditionalData":[{"value":"United Kingdom","key":"CountryName"},{"value":"England","key":"StateName"},{"value":"North Humberside","key":"CountyName"}]},"MapReference":{"ReferenceId":"26965688","Spot":0.5,"SideOfStreet":"left","StateId":"20248595","CountyId":"20344500","CityId":"20344678","DistrictId":"20344679"}}},{"Relevance":1.0,"Distance":15.3,"MatchLevel":"houseNumber","MatchQuality":{"Country":1.0,"State":1.0,"County":1.0,"City":1.0,"District":1.0,"Street":[1.0],"HouseNumber":1.0,"PostalCode":1.0},"MatchType":"interpolated","Location":{"LocationId":"NT_MR03pjzQDu9WGYFVTXoFWC_l_78753764_L_xA","LocationType":"point","DisplayPosition":{"Latitude":53.76015,"Longitude":-0.30409},"MapView":{"TopLeft":{"Latitude":53.7612742,"Longitude":-0.3059916},"BottomRight":{"Latitude":53.7590259,"Longitude":-0.3021884}},"Address":{"Label":"1 Lee Street, Hull, HU8 8JR, United Kingdom","Country":"GBR","State":"England","County":"North Humberside","City":"Hull","District":"Hull","Street":"Lee Street","HouseNumber":"1","PostalCode":"HU8 8JR","AdditionalData":[{"value":"United Kingdom","key":"CountryName"},{"value":"England","key":"StateName"},{"value":"North Humberside","key":"CountyName"}]},"MapReference":{"ReferenceId":"78753764","Spot":0.2,"SideOfStreet":"left","StateId":"20248595","CountyId":"20344500","CityId":"20344678","DistrictId":"20344679"}}},{"Relevance":1.0,"Distance":20.0,"MatchLevel":"houseNumber","MatchQuality":{"Country":1.0,"State":1.0,"County":1.0,"City":1.0,"District":1.0,"Street":[1.0],"HouseNumber":1.0,"PostalCode":1.0},"MatchType":"interpolated","Location":{"LocationId":"NT_7sZ44yeGncS6xiISXITc9D_l_26965581_L_xA","LocationType":"point","DisplayPosition":{"Latitude":53.7604805,"Longitude":-0.3035906},"MapView":{"TopLeft":{"Latitude":53.7616046,"Longitude":-0.3054922},"BottomRight":{"Latitude":53.7593563,"Longitude":-0.301689}},"Address":{"Label":"1 Summergangs Road, Hull, HU8 8JX, United Kingdom","Country":"GBR","State":"England","County":"North Humberside","City":"Hull","District":"Hull","Street":"Summergangs Road","HouseNumber":"1","PostalCode":"HU8 8JX","AdditionalData":[{"value":"United Kingdom","key":"CountryName"},{"value":"England","key":"StateName"},{"value":"North Humberside","key":"CountyName"}]},"MapReference":{"ReferenceId":"26965581","Spot":0.04,"SideOfStreet":"left","StateId":"20248595","CountyId":"20344500","CityId":"20344678","DistrictId":"20344679"}}},{"Relevance":1.0,"Distance":25.8,"MatchLevel":"houseNumber","MatchQuality":{"Country":1.0,"State":1.0,"County":1.0,"City":1.0,"District":1.0,"Street":[1.0],"HouseNumber":1.0,"PostalCode":1.0},"MatchType":"interpolated","Location":{"LocationId":"NT_w.P4jzb7lc007C1lyz.4CB_l_26965624_L_0QTO","LocationType":"point","DisplayPosition":{"Latitude":53.7603067,"Longitude":-0.303538},"MapView":{"TopLeft":{"Latitude":53.7614308,"Longitude":-0.3054396},"BottomRight":{"Latitude":53.7591825,"Longitude":-0.3016364}},"Address":{"Label":"449 Holderness Road, Hull, HU8 8, United Kingdom","Country":"GBR","State":"England","County":"North Humberside","City":"Hull","District":"Hull","Street":"Holderness Road","HouseNumber":"449","PostalCode":"HU8 8","AdditionalData":[{"value":"United Kingdom","key":"CountryName"},{"value":"England","key":"StateName"},{"value":"North Humberside","key":"CountyName"}]},"MapReference":{"ReferenceId":"26965624","Spot":0.51,"SideOfStreet":"left","StateId":"20248595","CountyId":"20344500","CityId":"20344678","DistrictId":"20344679"}}},{"Relevance":1.0,"Distance":26.1,"MatchLevel":"postalCode","MatchQuality":{"PostalCode":1.0},"MatchType":"interpolated","Location":{"LocationId":"NT_MR03pjzQDu9WGYFVTXoFWC_l_78753764_L_xA","LocationType":"point","DisplayPosition":{"Latitude":53.76023,"Longitude":-0.30431},"MapView":{"TopLeft":{"Latitude":53.7692232,"Longitude":-0.3195227},"BottomRight":{"Latitude":53.7512368,"Longitude":-0.2890973}},"Address":{"Label":"HU8 8JR, Hull, England, United Kingdom","Country":"GBR","State":"England","County":"North Humberside","City":"Hull","PostalCode":"HU8 8JR","AdditionalData":[{"value":"United Kingdom","key":"CountryName"},{"value":"England","key":"StateName"},{"value":"North Humberside","key":"CountyName"}]},"MapReference":{"ReferenceId":"78753764","Spot":0.2,"SideOfStreet":"neither","StateId":"20248595","CountyId":"20344500","CityId":"20344678"}}},{"Relevance":1.0,"Distance":31.8,"MatchLevel":"postalCode","MatchQuality":{"PostalCode":1.0},"MatchType":"interpolated","Location":{"LocationId":"NT_IYa5CCVlr.dZViSgg3Zd2C_l_26965688_L_0QzN","LocationType":"point","DisplayPosition":{"Latitude":53.76048,"Longitude":-0.30365},"MapView":{"TopLeft":{"Latitude":53.7694732,"Longitude":-0.3188628},"BottomRight":{"Latitude":53.7514868,"Longitude":-0.2884372}},"Address":{"Label":"HU8 8JS, Hull, England, United Kingdom","Country":"GBR","State":"England","County":"North Humberside","City":"Hull","PostalCode":"HU8 8JS","AdditionalData":[{"value":"United Kingdom","key":"CountryName"},{"value":"England","key":"StateName"},{"value":"North Humberside","key":"CountyName"}]},"MapReference":{"ReferenceId":"26965688","Spot":0.5,"SideOfStreet":"neither","StateId":"20248595","CountyId":"20344500","CityId":"20344678"}}},{"Relevance":1.0,"Distance":32.1,"MatchLevel":"houseNumber","MatchQuality":{"Country":1.0,"State":1.0,"County":1.0,"City":1.0,"District":1.0,"Street":[1.0],"HouseNumber":1.0,"PostalCode":1.0},"MatchType":"interpolated","Location":{"LocationId":"NT_w.P4jzb7lc007C1lyz.4CB_l_26965623_R_0YDN","LocationType":"point","DisplayPosition":{"Latitude":53.7602938,"Longitude":-0.3034334},"MapView":{"TopLeft":{"Latitude":53.7614179,"Longitude":-0.305335},"BottomRight":{"Latitude":53.7591696,"Longitude":-0.3015318}},"Address":{"Label":"464 Holderness Road, Hull, HU8 8, United Kingdom","Country":"GBR","State":"England","County":"North Humberside","City":"Hull","District":"Hull","Street":"Holderness Road","HouseNumber":"464","PostalCode":"HU8 8","AdditionalData":[{"value":"United Kingdom","key":"CountryName"},{"value":"England","key":"StateName"},{"value":"North Humberside","key":"CountyName"}]},"MapReference":{"ReferenceId":"26965623","Spot":0.53,"SideOfStreet":"right","StateId":"20248595","CountyId":"20344500","CityId":"20344678","DistrictId":"20344679"}}},{"Relevance":1.0,"Distance":34.2,"MatchLevel":"street","MatchQuality":{"Country":1.0,"State":1.0,"County":1.0,"City":1.0,"District":1.0,"Street":[1.0],"PostalCode":1.0},"Location":{"LocationId":"NT_IYa5CCVlr.dZViSgg3Zd2C_l_26965580_L","LocationType":"point","DisplayPosition":{"Latitude":53.76038,"Longitude":-0.30345},"MapView":{"TopLeft":{"Latitude":53.76043,"Longitude":-0.30345},"BottomRight":{"Latitude":53.76038,"Longitude":-0.30336}},"Address":{"Label":"Holderness Road, Hull, HU8 8, United Kingdom","Country":"GBR","State":"England","County":"North Humberside","City":"Hull","District":"Hull","Street":"Holderness Road","PostalCode":"HU8 8","AdditionalData":[{"value":"United Kingdom","key":"CountryName"},{"value":"England","key":"StateName"},{"value":"North Humberside","key":"CountyName"}]},"MapReference":{"ReferenceId":"26965580","Spot":0.0,"SideOfStreet":"left","StateId":"20248595","CountyId":"20344500","CityId":"20344678","DistrictId":"20344679"}}},{"Relevance":1.0,"Distance":35.1,"MatchLevel":"houseNumber","MatchQuality":{"Country":1.0,"State":1.0,"County":1.0,"City":1.0,"District":1.0,"Street":[1.0],"HouseNumber":1.0,"PostalCode":1.0},"MatchType":"interpolated","Location":{"LocationId":"NT_w.P4jzb7lc007C1lyz.4CB_l_813413329_L_0QzM","LocationType":"point","DisplayPosition":{"Latitude":53.7598852,"Longitude":-0.3041972},"MapView":{"TopLeft":{"Latitude":53.7610093,"Longitude":-0.3060988},"BottomRight":{"Latitude":53.758761,"Longitude":-0.3022957}},"Address":{"Label":"443 Holderness Road, Hull, HU8 8JP, United Kingdom","Country":"GBR","State":"England","County":"North Humberside","City":"Hull","District":"Hull","Street":"Holderness Road","HouseNumber":"443","PostalCode":"HU8 8JP","AdditionalData":[{"value":"United Kingdom","key":"CountryName"},{"value":"England","key":"StateName"},{"value":"North Humberside","key":"CountyName"}]},"MapReference":{"ReferenceId":"813413329","Spot":0.73,"SideOfStreet":"left","StateId":"20248595","CountyId":"20344500","CityId":"20344678","DistrictId":"20344679"}}}]}]}}