{"Response":{"MetaInfo":{"Timestamp":"2020-03-28T11:56:48.281+0000","NextPageInformation":"2"},"View":[{"_type":"SearchResultsViewType","ViewId":0,"Result":[{"Relevance":1.0,"Distance":0.0,"Direction":0.0,"MatchLevel":"district","MatchQuality":{"Country":1.0,"State":1.0,"County":1.0,"City":1.0,"District":1.0,"PostalCode":1.0},"Location":{"LocationId":"NT_77ag5ts5b8l9M1qiuyHq0B","LocationType":"point","DisplayPosition":{"Latitude":53.7535765,"Longitude":-0.4158247},"MapView":{"TopLeft":{"Latitude":53.81215,"Longitude":-0.42255},"BottomRight":{"Latitude":53.71955,"Longitude":-0.24288}},"Address":{"Label":"Hull, England, United Kingdom","Country":"GBR","State":"England","County":"North Humberside","City":"Hull","District":"Hull","PostalCode":"HU1 2","AdditionalData":[{"value":"United Kingdom","key":"CountryName"},{"value":"England","key":"StateName"},{"value":"North Humberside","key":"CountyName"}]},"MapReference":{"ReferenceId":"1208800402","SideOfStreet":"neither","StateId":"20248595","CountyId":"20344500","CityId":"20344678","DistrictId":"20344679"}}},{"Relevance":1.0,"Distance":5.2,"MatchLevel":"houseNumber","MatchQuality":{"Country":1.0,"State":1.0,"County":1.0,"City":1.0,"District":1.0,"Street":[1.0],"HouseNumber":1.0,"PostalCode":1.0},"MatchType":"interpolated","Location":{"LocationId":"NT_gOp3tPfYjou0.73p7LjfjA_l_26967618_R_3kzM","LocationType":"point","DisplayPosition":{"Latitude":53.7537517,"Longitude":-0.4158883},"MapView":{"TopLeft":{"Latitude":53.7548758,"Longitude":-0.4177896},"BottomRight":{"Latitude":53.7526275,"Longitude":-0.413987}},"Address":{"Label":"793 Hotham Road South, Hull, HU5 5JX, United Kingdom","Country":"GBR","State":"England","County":"North Humberside","City":"Hull","District":"Hull","Street":"Hotham Road South","HouseNumber":"793","PostalCode":"HU5 5JX","AdditionalData":[{"value":"United Kingdom","key":"CountryName"},{"value":"England","key":"StateName"},{"value":"North Humberside","key":"CountyName"}]},"MapReference":{"ReferenceId":"26967618","Spot":0.74,"SideOfStreet":"right","StateId":"20248595","CountyId":"20344500","CityId":"20344678","DistrictId":"20344679"}}},{"Relevance":1.0,"Distance":17.1,"MatchLevel":"postalCode","MatchQuality":{"PostalCode":1.0},"MatchType":"interpolated","Location":{"LocationId":"NT_gOp3tPfYjou0.73p7LjfjA_l_26967618_R_3kzM","LocationType":"point","DisplayPosition":{"Latitude":53.75373,"Longitude":-0.41585},"MapView":{"TopLeft":{"Latitude":53.7627232,"Longitude":-0.4310603},"BottomRight":{"Latitude":53.7447368,"Longitude":-0.4006397}},"Address":{"Label":"HU5 5JX, Hull, England, United Kingdom","Country":"GBR","State":"England","County":"North Humberside","City":"Hull","PostalCode":"HU5 5JX","AdditionalData":[{"value":"United Kingdom","key":"CountryName"},{"value":"England","key":"StateName"},{"value":"North Humberside","key":"CountyName"}]},"MapReference":{"ReferenceId":"26967618","Spot":0.74,"SideOfStreet":"neither","StateId":"20248595","CountyId":"20344500","CityId":"20344678"}}},{"Relevance":1.0,"Distance":42.0,"MatchLevel":"houseNumber","MatchQuality":{"Country":1.0,"State":1.0,"County":1.0,"City":1.0,"District":1.0,"Street":[1.0],"HouseNumber":1.0,"PostalCode":1.0},"MatchType":"interpolated","Location":{"LocationId":"NT_gan3aPG.153VxWX4nFXuwC_l_26967497_L_xkzN","LocationType":"point","DisplayPosition":{"Latitude":53.7539067,"Longitude":-0.4152717},"MapView":{"TopLeft":{"Latitude":53.7550309,"Longitude":-0.417173},"BottomRight":{"Latitude":53.7527826,"Longitude":-0.4133704}},"Address":{"Label":"197 Westlands Road, Hull, HU5 5NY, United Kingdom","Country":"GBR","State":"England","County":"North Humberside","City":"Hull","District":"Hull","Street":"Westlands Road","HouseNumber":"197","PostalCode":"HU5 5NY","AdditionalData":[{"value":"United Kingdom","key":"CountryName"},{"value":"England","key":"StateName"},{"value":"North Humberside","key":"CountyName"}]},"MapReference":{"ReferenceId":"26967497","Spot":0.93,"SideOfStreet":"left","StateId":"20248595","CountyId":"20344500","CityId":"20344678","DistrictId":"20344679"}}},{"Relevance":1.0,"Distance":45.4,"MatchLevel":"houseNumber","MatchQuality":{"Country":1.0,"State":1.0,"County":1.0,"City":1.0,"District":1.0,"Street":[1.0],"HouseNumber":1.0,"PostalCode":1.0},"MatchType":"interpolated","Location":{"LocationId":"NT_WGv931OsixDfyhttrOns3A_l_26967678_R_zYjM","LocationType":"point","DisplayPosition":{"Latitude":53.7530333,"Longitude":-0.4158601},"MapView":{"TopLeft":{"Latitude":53.7541575,"Longitude":-0.4177614},"BottomRight":{"Latitude":53.7519092,"Longitude":-0.4139589}},"Address":{"Label":"362 Willerby Road, Hull, HU5 5JT, United Kingdom","Country":"GBR","State":"England","County":"North Humberside","City":"Hull","District":"Hull","Street":"Willerby Road","HouseNumber":"362","PostalCode":"HU5 5JT","AdditionalData":[{"value":"United Kingdom","key":"CountryName"},{"value":"England","key":"StateName"},{"value":"North Humberside","key":"CountyName"}]},"MapReference":{"ReferenceId":"26967678","Spot":0.59,"SideOfStreet":"right","StateId":"20248595","CountyId":"20344500","CityId":"20344678","DistrictId":"20344679"}}},{"Relevance":1.0,"Distance":47.0,"MatchLevel":"houseNumber","MatchQuality":{"Country":1.0,"State":1.0,"County":1.0,"City":1.0,"District":1.0,"Street":[1.0],"HouseNumber":1.0,"PostalCode":1.0},"MatchType":"interpolated","Location":{"LocationId":"NT_gOp3tPfYjou0.73p7LjfjA_l_26967468_R_3kTM","LocationType":"point","DisplayPosition":{"Latitude":53.75402,"Longitude":-0.41541},"MapView":{"TopLeft":{"Latitude":53.7551442,"Longitude":-0.4173113},"BottomRight":{"Latitude":53.7528959,"Longitude":-0.4135087}},"Address":{"Label":"791 Hotham Road South, Hull, HU5 5JY, United Kingdom","Country":"GBR","State":"England","County":"North Humberside","City":"Hull","District":"Hull","Street":"Hotham Road South","HouseNumber":"791","PostalCode":"HU5 5JY","AdditionalData":[{"value":"United Kingdom","key":"CountryName"},{"value":"England","key":"StateName"},{"value":"North Humberside","key":"CountyName"}]},"MapReference":{"ReferenceId":"26967468","Spot":0.29,"SideOfStreet":"right","StateId":"20248595","CountyId":"20344500","CityId":"20344678","DistrictId":"20344679"}}},{"Relevance":1.0,"Distance":70.8,"MatchLevel":"street","MatchQuality":{"Country":1.0,"State":1.0,"County":1.0,"City":1.0,"District":1.0,"Street":[1.0],"PostalCode":1.0},"Location":{"LocationId":"NT_gOp3tPfYjou0.73p7LjfjA_l_26967661_R","LocationType":"point","DisplayPosition":{"Latitude":53.7532125,"Longitude":-0.4167087},"MapView":{"TopLeft":{"Latitude":53.75327,"Longitude":-0.4168},"BottomRight":{"Latitude":53.75307,"Longitude":-0.41665}},"Address":{"Label":"Hotham Road South, Hull, HU5 5, United Kingdom","Country":"GBR","State":"England","County":"North Humberside","City":"Hull","District":"Hull","Street":"Hotham Road South","PostalCode":"HU5 5","AdditionalData":[{"value":"United Kingdom","key":"CountryName"},{"value":"England","key":"StateName"},{"value":"North Humberside","key":"CountyName"}]},"MapReference":{"ReferenceId":"26967661","Spot":0.57,"SideOfStreet":"right","StateId":"20248595","CountyId":"20344500","CityId":"20344678","DistrictId":"20344679"}}},{"Relevance":1.0,"Distance":72.6,"MatchLevel":"street","MatchQuality":{"Country":1.0,"State":1.0,"County":1.0,"City":1.0,"District":1.0,"Street":[1.0],"PostalCode":1.0},"Location":{"LocationId":"NT_gOp3tPfYjou0.73p7LjfjA_l_26967619_R","LocationType":"point","DisplayPosition":{"Latitude":53.75327,"Longitude":-0.4168},"MapView":{"TopLeft":{"Latitude":53.75337,"Longitude":-0.41721},"BottomRight":{"Latitude":53.75327,"Longitude":-0.4168}},"Address":{"Label":"Hotham Road South, Hull, HU5 5, United Kingdom","Country":"GBR","State":"England","County":"North Humberside","City":"Hull","District":"Hull","Street":"Hotham Road South","PostalCode":"HU5 5","AdditionalData":[{"value":"United Kingdom","key":"CountryName"},{"value":"England","key":"StateName"},{"value":"North Humberside","key":"CountyName"}]},"MapReference":{"ReferenceId":"26967619","Spot":0.0,"SideOfStreet":"right","StateId":"20248595","CountyId":"20344500","CityId":"20344678","DistrictId":"20344679"}}},{"Relevance":1.0,"Distance":76.0,"MatchLevel":"houseNumber","MatchQuality":{"Country":1.0,"State":1.0,"County":1.0,"City":1.0,"District":1.0,"Street":[1.0],"HouseNumber":1.0,"PostalCode":1.0},"MatchType":"interpolated","Location":{"LocationId":"NT_WGv931OsixDfyhttrOns3A_l_27587366_L_zczN","LocationType":"point","DisplayPosition":{"Latitude":53.7528967,"Longitude":-0.4159401},"MapView":{"TopLeft":{"Latitude":53.7540208,"Longitude":-0.4178413},"BottomRight":{"Latitude":53.7517725,"Longitude":-0.4140388}},"Address":{"Label":"377 Willerby Road, Hull, HU5 5HY, United Kingdom","Country":"GBR","State":"England","County":"North Humberside","City":"Hull","District":"Hull","Street":"Willerby Road","HouseNumber":"377","PostalCode":"HU5 5HY","AdditionalData":[{"value":"United Kingdom","key":"CountryName"},{"value":"England","key":"StateName"},{"value":"North Humberside","key":"CountyName"}]},"MapReference":{"ReferenceId":"27587366","Spot":0.62,"SideOfStreet":"left","StateId":"20248595","CountyId":"20344500","CityId":"20344678","DistrictId":"20344679"}}},{"Relevance":1.0,"Distance":78.2,"MatchLevel":"street","MatchQuality":{"Country":1.0,"State":1.0,"County":1.0,"City":1.0,"District":1.0,"Street":[1.0],"PostalCode":1.0},"Location":{"LocationId":"NT_WGv931OsixDfyhttrOns3A_l_26967662_R","LocationType":"point","DisplayPosition":{"Latitude":53.75307,"Longitude":-0.41665},"MapView":{"TopLeft":{"Latitude":53.7531,"Longitude":-0.41735},"BottomRight":{"Latitude":53.75307,"Longitude":-0.41665}},"Address":{"Label":"Willerby Road, Hull, HU5 5, United Kingdom","Country":"GBR","State":"England","County":"North Humberside","City":"Hull","District":"Hull","Street":"Willerby Road","PostalCode":"HU5 5","AdditionalData":[{"value":"United Kingdom","key":"CountryName"},{"value":"England","key":"StateName"},{"value":"North Humberside","key":"CountyName"}]},"MapReference":{"ReferenceId":"26967662","Spot":0.0,"SideOfStreet":"right","StateId":"20248595","CountyId":"20344500","CityId":"20344678","DistrictId":"20344679"}}}]}]}}