{"Response":{"MetaInfo":{"Timestamp":"2020-03-28T11:59:58.263+0000","NextPageInformation":"2"},"View":[{"_type":"SearchResultsViewType","ViewId":0,"Result":[{"Relevance":1.0,"Distance":0.0,"Direction":0.0,"MatchLevel":"district","MatchQuality":{"Country":1.0,"State":1.0,"County":1.0,"City":1.0,"District":1.0,"PostalCode":1.0},"Location":{"LocationId":"NT_b6pw47x0O1EKceFsGFwNkD","LocationType":"point","DisplayPosition":{"Latitude":53.7481254,"Longitude":-2.6721636},"MapView":{"TopLeft":{"Latitude":53.75294,"Longitude":-2.69702},"BottomRight":{"Latitude":53.73514,"Longitude":-2.65191}},"Address":{"Label":"Walton le Dale, Preston, England, United Kingdom","Country":"GBR","State":"England","County":"Lancashire","City":"Preston","District":"Walton le Dale","PostalCode":"PR5 4","AdditionalData":[{"value":"United Kingdom","key":"CountryName"},{"value":"England","key":"StateName"},{"value":"Lancashire","key":"CountyName"}]},"MapReference":{"ReferenceId":"781625903","SideOfStreet":"neither","StateId":"20248595","CountyId":"20343938","CityId":"20344330","DistrictId":"20344415"}}},{"Relevance":1.0,"Distance":6.5,"MatchLevel":"houseNumber","MatchQuality":{"Country":1.0,"State":1.0,"County":1.0,"City":1.0,"District":1.0,"Street":[1.0],"HouseNumber":1.0,"PostalCode":1.0},"MatchType":"interpolated","Location":{"LocationId":"NT_7iEAuo7c.A7UerzMjzkbUB_l_30096072_L_xgjM","LocationType":"point","DisplayPosition":{"Latitude":53.7482001,"Longitude":-2.6721},"MapView":{"TopLeft":{"Latitude":53.7493242,"Longitude":-2.6740011},"BottomRight":{"Latitude":53.7470759,"Longitude":-2.670199}},"Address":{"Label":"182 Victoria Road, Preston, PR5 4AY, United Kingdom","Country":"GBR","State":"England","County":"Lancashire","City":"Preston","District":"Walton le Dale","Street":"Victoria Road","HouseNumber":"182","PostalCode":"PR5 4AY","AdditionalData":[{"value":"United Kingdom","key":"CountryName"},{"value":"England","key":"StateName"},{"value":"Lancashire","key":"CountyName"}]},"MapReference":{"ReferenceId":"30096072","Spot":0.22,"SideOfStreet":"left","StateId":"20248595","CountyId":"20343938","CityId":"20344330","DistrictId":"20344415"}}},{"Relevance":1.0,"Distance":10.7,"MatchLevel":"street","MatchQuality":{"Country":1.0,"State":1.0,"County":1.0,"City":1.0,"District":1.0,"PostalCode":1.0},"Location":{"LocationId":"NT_M1574osnwFuTdK1u-HT64A_l_1232255232_R","LocationType":"point","DisplayPosition":{"Latitude":53.74808,"Longitude":-2.67202},"MapView":{"TopLeft":{"Latitude":53.74809,"Longitude":-2.67202},"BottomRight":{"Latitude":53.74805,"Longitude":-2.67186}},"Address":{"Label":"Preston, PR5 4, United Kingdom","Country":"GBR","State":"England","County":"Lancashire","City":"Preston","District":"Walton le Dale","PostalCode":"PR5 4","AdditionalData":[{"value":"United Kingdom","key":"CountryName"},{"value":"England","key":"StateName"},{"value":"Lancashire","key":"CountyName"}]},"MapReference":{"ReferenceId":"1232255232","Spot":1.0,"SideOfStreet":"right","StateId":"20248595","CountyId":"20343938","CityId":"20344330","DistrictId":"20344415"}}},{"Relevance":1.0,"Distance":10.8,"MatchLevel":"street","MatchQuality":{"Country":1.0,"State":1.0,"County":1.0,"City":1.0,"District":1.0,"PostalCode":1.0},"Location":{"LocationId":"NT_M1574osnwFuTdK1u-HT64A_l_1232255233_L","LocationType":"point","DisplayPosition":{"Latitude":53.74805,"Longitude":-2.67206},"MapView":{"TopLeft":{"Latitude":53.74808,"Longitude":-2.67207},"BottomRight":{"Latitude":53.74802,"Longitude":-2.67202}},"Address":{"Label":"Preston, PR5 4, United Kingdom","Country":"GBR","State":"England","County":"Lancashire","City":"Preston","District":"Walton le Dale","PostalCode":"PR5 4","AdditionalData":[{"value":"United Kingdom","key":"CountryName"},{"value":"England","key":"StateName"},{"value":"Lancashire","key":"CountyName"}]},"MapReference":{"ReferenceId":"1232255233","Spot":0.39,"SideOfStreet":"left","StateId":"20248595","CountyId":"20343938","CityId":"20344330","DistrictId":"20344415"}}},{"Relevance":1.0,"Distance":11.1,"MatchLevel":"postalCode","MatchQuality":{"PostalCode":1.0},"MatchType":"interpolated","Location":{"LocationId":"NT_7iEAuo7c.A7UerzMjzkbUB_l_30096072_L_xgjM","LocationType":"point","DisplayPosition":{"Latitude":53.74804,"Longitude":-2.67225},"MapView":{"TopLeft":{"Latitude":53.7570332,"Longitude":-2.6874583},"BottomRight":{"Latitude":53.7390468,"Longitude":-2.6570417}},"Address":{"Label":"PR5 4AY, Preston, England, United Kingdom","Country":"GBR","State":"England","County":"Lancashire","City":"Preston","PostalCode":"PR5 4AY","AdditionalData":[{"value":"United Kingdom","key":"CountryName"},{"value":"England","key":"StateName"},{"value":"Lancashire","key":"CountyName"}]},"MapReference":{"ReferenceId":"30096072","Spot":0.22,"SideOfStreet":"neither","StateId":"20248595","CountyId":"20343938","CityId":"20344330"}}},{"Relevance":1.0,"Distance":13.1,"MatchLevel":"street","MatchQuality":{"Country":1.0,"State":1.0,"County":1.0,"City":1.0,"District":1.0,"Street":[1.0],"PostalCode":1.0},"Location":{"LocationId":"NT_s1W8AFQhnfcN08imjkyDAC_l_27479127_L","LocationType":"point","DisplayPosition":{"Latitude":53.7480079,"Longitude":-2.6721445},"MapView":{"TopLeft":{"Latitude":53.74802,"Longitude":-2.67244},"BottomRight":{"Latitude":53.74796,"Longitude":-2.67207}},"Address":{"Label":"Chapel Yard, Preston, PR5 4, United Kingdom","Country":"GBR","State":"England","County":"Lancashire","City":"Preston","District":"Walton le Dale","Street":"Chapel Yard","PostalCode":"PR5 4","AdditionalData":[{"value":"United Kingdom","key":"CountryName"},{"value":"England","key":"StateName"},{"value":"Lancashire","key":"CountyName"}]},"MapReference":{"ReferenceId":"27479127","Spot":0.8,"SideOfStreet":"left","StateId":"20248595","CountyId":"20343938","CityId":"20344330","DistrictId":"20344415"}}},{"Relevance":1.0,"Distance":13.2,"MatchLevel":"street","MatchQuality":{"Country":1.0,"State":1.0,"County":1.0,"City":1.0,"District":1.0,"PostalCode":1.0},"Location":{"LocationId":"NT_M1574osnwFuTdK1u-HT64A_l_1232255234_L","LocationType":"point","DisplayPosition":{"Latitude":53.74802,"Longitude":-2.67207},"MapView":{"TopLeft":{"Latitude":53.74802,"Longitude":-2.67207},"BottomRight":{"Latitude":53.74795,"Longitude":-2.6719}},"Address":{"Label":"Preston, PR5 4, United Kingdom","Country":"GBR","State":"England","County":"Lancashire","City":"Preston","District":"Walton le Dale","PostalCode":"PR5 4","AdditionalData":[{"value":"United Kingdom","key":"CountryName"},{"value":"England","key":"StateName"},{"value":"Lancashire","key":"CountyName"}]},"MapReference":{"ReferenceId":"1232255234","Spot":1.0,"SideOfStreet":"left","StateId":"20248595","CountyId":"20343938","CityId":"20344330","DistrictId":"20344415"}}},{"Relevance":1.0,"Distance":21.7,"MatchLevel":"street","MatchQuality":{"Country":1.0,"State":1.0,"County":1.0,"City":1.0,"District":1.0,"Street":[1.0],"PostalCode":1.0},"Location":{"LocationId":"NT_t3AgbUzQBkpPjKeVcg92iA_l_1218910793_L","LocationType":"point","DisplayPosition":{"Latitude":53.74805,"Longitude":-2.67186},"MapView":{"TopLeft":{"Latitude":53.7481,"Longitude":-2.67186},"BottomRight":{"Latitude":53.74805,"Longitude":-2.67159}},"Address":{"Label":"Church Brow, Preston, PR5 4, United Kingdom","Country":"GBR","State":"England","County":"Lancashire","City":"Preston","District":"Walton le Dale","Street":"Church Brow","PostalCode":"PR5 4","AdditionalData":[{"value":"United Kingdom","key":"CountryName"},{"value":"England","key":"StateName"},{"value":"Lancashire","key":"CountyName"}]},"MapReference":{"ReferenceId":"1218910793","Spot":0.0,"SideOfStreet":"left","StateId":"20248595","CountyId":"20343938","CityId":"20344330","DistrictId":"20344415"}}},{"Relevance":1.0,"Distance":25.3,"MatchLevel":"street","MatchQuality":{"Country":1.0,"State":1.0,"County":1.0,"City":1.0,"District":1.0,"PostalCode":1.0},"Location":{"LocationId":"NT_M1574osnwFuTdK1u-HT64A_l_1232255235_L","LocationType":"point","DisplayPosition":{"Latitude":53.74796,"Longitude":-2.6719},"MapView":{"TopLeft":{"Latitude":53.74805,"Longitude":-2.6719},"BottomRight":{"Latitude":53.74796,"Longitude":-2.67185}},"Address":{"Label":"Preston, PR5 4, United Kingdom","Country":"GBR","State":"England","County":"Lancashire","City":"Preston","District":"Walton le Dale","PostalCode":"PR5 4","AdditionalData":[{"value":"United Kingdom","key":"CountryName"},{"value":"England","key":"StateName"},{"value":"Lancashire","key":"CountyName"}]},"MapReference":{"ReferenceId":"1232255235","Spot":0.0,"SideOfStreet":"left","StateId":"20248595","CountyId":"20343938","CityId":"20344330","DistrictId":"20344415"}}},{"Relevance":1.0,"Distance":25.9,"MatchLevel":"street","MatchQuality":{"Country":1.0,"State":1.0,"County":1.0,"City":1.0,"District":1.0,"Street":[1.0],"PostalCode":1.0},"Location":{"LocationId":"NT_s1W8AFQhnfcN08imjkyDAC_l_1198012745_R","LocationType":"point","DisplayPosition":{"Latitude":53.74796,"Longitude":-2.67244},"MapView":{"TopLeft":{"Latitude":53.74816,"Longitude":-2.67266},"BottomRight":{"Latitude":53.74796,"Longitude":-2.67244}},"Address":{"Label":"Chapel Yard, Preston, PR5 4, United Kingdom","Country":"GBR","State":"England","County":"Lancashire","City":"Preston","District":"Walton le Dale","Street":"Chapel Yard","PostalCode":"PR5 4","AdditionalData":[{"value":"United Kingdom","key":"CountryName"},{"value":"England","key":"StateName"},{"value":"Lancashire","key":"CountyName"}]},"MapReference":{"ReferenceId":"1198012745","Spot":0.0,"SideOfStreet":"right","StateId":"20248595","CountyId":"20343938","CityId":"20344330","DistrictId":"20344415"}}}]}]}}