{"Response":{"MetaInfo":{"Timestamp":"2020-03-28T11:55:20.258+0000","NextPageInformation":"2"},"View":[{"_type":"SearchResultsViewType","ViewId":0,"Result":[{"Relevance":1.0,"Distance":0.0,"Direction":0.0,"MatchLevel":"district","MatchQuality":{"Country":1.0,"State":1.0,"County":1.0,"City":1.0,"District":1.0,"PostalCode":1.0},"Location":{"LocationId":"NT_tMgBVJ701S-zG00f.BgXoC","LocationType":"point","DisplayPosition":{"Latitude":53.7838107,"Longitude":-1.0689984},"MapView":{"TopLeft":{"Latitude":53.79648,"Longitude":-1.10166},"BottomRight":{"Latitude":53.76485,"Longitude":-1.03745}},"Address":{"Label":"Selby, England, United Kingdom","Country":"GBR","State":"England","County":"North Yorkshire","City":"Selby","District":"Selby","PostalCode":"YO8 4","AdditionalData":[{"value":"United Kingdom","key":"CountryName"},{"value":"England","key":"StateName"},{"value":"North Yorkshire","key":"CountyName"}]},"MapReference":{"ReferenceId":"882238178","SideOfStreet":"neither","StateId":"20248595","CountyId":"20346756","CityId":"20347191","DistrictId":"20347192"}}},{"Relevance":1.0,"Distance":8.8,"MatchLevel":"street","MatchQuality":{"Country":1.0,"State":1.0,"County":1.0,"City":1.0,"District":1.0,"Street":[1.0],"PostalCode":1.0},"Location":{"LocationId":"NT_fjE0-zf3yYqZ3mxAAPZleD_l_882240615_L","LocationType":"point","DisplayPosition":{"Latitude":53.7838893,"Longitude":-1.0689857},"MapView":{"TopLeft":{"Latitude":53.78389,"Longitude":-1.06899},"BottomRight":{"Latitude":53.78383,"Longitude":-1.06862}},"Address":{"Label":"The Crescent, Selby, YO8 4, United Kingdom","Country":"GBR","State":"England","County":"North Yorkshire","City":"Selby","District":"Selby","Street":"The Crescent","PostalCode":"YO8 4","AdditionalData":[{"value":"United Kingdom","key":"CountryName"},{"value":"England","key":"StateName"},{"value":"North Yorkshire","key":"CountyName"}]},"MapReference":{"ReferenceId":"882240615","Spot":0.99,"SideOfStreet":"left","StateId":"20248595","CountyId":"20346756","CityId":"20347191","DistrictId":"20347192"}}},{"Relevance":1.0,"Distance":8.8,"MatchLevel":"street","MatchQuality":{"Country":1.0,"State":1.0,"County":1.0,"City":1.0,"District":1.0,"Street":[1.0],"PostalCode":1.0},"Location":{"LocationId":"NT_fjE0-zf3yYqZ3mxAAPZleD_l_882240616_L","LocationType":"point","DisplayPosition":{"Latitude":53.7838902,"Longitude":-1.0689946},"MapView":{"TopLeft":{"Latitude":53.78391,"Longitude":-1.06941},"BottomRight":{"Latitude":53.78389,"Longitude":-1.06899}},"Address":{"Label":"The Crescent, Selby, YO8 4, United Kingdom","Country":"GBR","State":"England","County":"North Yorkshire","City":"Selby","District":"Selby","Street":"The Crescent","PostalCode":"YO8 4","AdditionalData":[{"value":"United Kingdom","key":"CountryName"},{"value":"England","key":"StateName"},{"value":"North Yorkshire","key":"CountyName"}]},"MapReference":{"ReferenceId":"882240616","Spot":0.01,"SideOfStreet":"left","StateId":"20248595","CountyId":"20346756","CityId":"20347191","DistrictId":"20347192"}}},{"Relevance":1.0,"Distance":14.0,"MatchLevel":"houseNumber","MatchQuality":{"Country":1.0,"State":1.0,"County":1.0,"City":1.0,"District":1.0,"Street":[1.0],"HouseNumber":1.0,"PostalCode":1.0},"MatchType":"interpolated","Location":{"LocationId":"NT_hBpG3bLDt5qWCMeMmKHniB_l_565958279_L_xgD","LocationType":"point","DisplayPosition":{"Latitude":53.78407,"Longitude":-1.0689667},"MapView":{"TopLeft":{"Latitude":53.7851942,"Longitude":-1.0708694},"BottomRight":{"Latitude":53.7829458,"Longitude":-1.067064}},"Address":{"Label":"18 Market Place, Selby, YO8 4, United Kingdom","Country":"GBR","State":"England","County":"North Yorkshire","City":"Selby","District":"Selby","Street":"Market Place","HouseNumber":"18","PostalCode":"YO8 4","AdditionalData":[{"value":"United Kingdom","key":"CountryName"},{"value":"England","key":"StateName"},{"value":"North Yorkshire","key":"CountyName"}]},"MapReference":{"ReferenceId":"565958279","Spot":0.58,"SideOfStreet":"left","StateId":"20248595","CountyId":"20346756","CityId":"20347191","DistrictId":"20347192"}}},{"Relevance":1.0,"Distance":25.0,"MatchLevel":"houseNumber","MatchQuality":{"Country":1.0,"State":1.0,"County":1.0,"City":1.0,"District":1.0,"Street":[1.0],"HouseNumber":1.0,"PostalCode":1.0},"MatchType":"interpolated","Location":{"LocationId":"NT_hBpG3bLDt5qWCMeMmKHniB_l_565958281_L_xAD","LocationType":"point","DisplayPosition":{"Latitude":53.78383,"Longitude":-1.0686199},"MapView":{"TopLeft":{"Latitude":53.7849542,"Longitude":-1.0705226},"BottomRight":{"Latitude":53.7827059,"Longitude":-1.0667173}},"Address":{"Label":"10 Market Place, Selby, YO8 4PB, United Kingdom","Country":"GBR","State":"England","County":"North Yorkshire","City":"Selby","District":"Selby","Street":"Market Place","HouseNumber":"10","PostalCode":"YO8 4PB","AdditionalData":[{"value":"United Kingdom","key":"CountryName"},{"value":"England","key":"StateName"},{"value":"North Yorkshire","key":"CountyName"}]},"MapReference":{"ReferenceId":"565958281","Spot":0.0,"SideOfStreet":"left","StateId":"20248595","CountyId":"20346756","CityId":"20347191","DistrictId":"20347192"}}},{"Relevance":1.0,"Distance":25.0,"MatchLevel":"street","MatchQuality":{"Country":1.0,"State":1.0,"County":1.0,"City":1.0,"District":1.0,"Street":[1.0],"PostalCode":1.0},"Location":{"LocationId":"NT_zV1m8B80Us.qZ1ag2A9y5C_l_26985786_L","LocationType":"point","DisplayPosition":{"Latitude":53.7837323,"Longitude":-1.0686414},"MapView":{"TopLeft":{"Latitude":53.78383,"Longitude":-1.06871},"BottomRight":{"Latitude":53.78342,"Longitude":-1.06862}},"Address":{"Label":"James Street, Selby, YO8 4, United Kingdom","Country":"GBR","State":"England","County":"North Yorkshire","City":"Selby","District":"Selby","Street":"James Street","PostalCode":"YO8 4","AdditionalData":[{"value":"United Kingdom","key":"CountryName"},{"value":"England","key":"StateName"},{"value":"North Yorkshire","key":"CountyName"}]},"MapReference":{"ReferenceId":"26985786","Spot":0.76,"SideOfStreet":"left","StateId":"20248595","CountyId":"20346756","CityId":"20347191","DistrictId":"20347192"}}},{"Relevance":1.0,"Distance":25.1,"MatchLevel":"postalCode","MatchQuality":{"PostalCode":1.0},"Location":{"LocationId":"NT_zV1m8B80Us.qZ1ag2A9y5C_l_26985786_L","LocationType":"point","DisplayPosition":{"Latitude":53.78367,"Longitude":-1.0687},"MapView":{"TopLeft":{"Latitude":53.7926632,"Longitude":-1.0839212},"BottomRight":{"Latitude":53.7746768,"Longitude":-1.0534788}},"Address":{"Label":"YO8 4PA, Selby, England, United Kingdom","Country":"GBR","State":"England","County":"North Yorkshire","City":"Selby","PostalCode":"YO8 4PA","AdditionalData":[{"value":"United Kingdom","key":"CountryName"},{"value":"England","key":"StateName"},{"value":"North Yorkshire","key":"CountyName"}]},"MapReference":{"ReferenceId":"26985786","Spot":0.76,"SideOfStreet":"neither","StateId":"20248595","CountyId":"20346756","CityId":"20347191"}}},{"Relevance":1.0,"Distance":29.2,"MatchLevel":"houseNumber","MatchQuality":{"Country":1.0,"State":1.0,"County":1.0,"City":1.0,"District":1.0,"Street":[1.0],"HouseNumber":1.0,"PostalCode":1.0},"MatchType":"interpolated","Location":{"LocationId":"NT_.TU2yW0sTTPkP8mIJcsV.A_l_26985769_R_yA","LocationType":"point","DisplayPosition":{"Latitude":53.78391,"Longitude":-1.0694101},"MapView":{"TopLeft":{"Latitude":53.7850342,"Longitude":-1.0713127},"BottomRight":{"Latitude":53.7827859,"Longitude":-1.0675074}},"Address":{"Label":"2 Gowthorpe, Selby, YO8 4, United Kingdom","Country":"GBR","State":"England","County":"North Yorkshire","City":"Selby","District":"Selby","Street":"Gowthorpe","HouseNumber":"2","PostalCode":"YO8 4","AdditionalData":[{"value":"United Kingdom","key":"CountryName"},{"value":"England","key":"StateName"},{"value":"North Yorkshire","key":"CountyName"}]},"MapReference":{"ReferenceId":"26985769","Spot":0.0,"SideOfStreet":"right","StateId":"20248595","CountyId":"20346756","CityId":"20347191","DistrictId":"20347192"}}},{"Relevance":1.0,"Distance":29.3,"MatchLevel":"street","MatchQuality":{"Country":1.0,"State":1.0,"County":1.0,"City":1.0,"District":1.0,"Street":[1.0],"PostalCode":1.0},"Location":{"LocationId":"NT_8fSQv4YCr6T3maSDJ8a85A_l_26985768_R","LocationType":"point","DisplayPosition":{"Latitude":53.7839134,"Longitude":-1.0694092},"MapView":{"TopLeft":{"Latitude":53.78407,"Longitude":-1.06941},"BottomRight":{"Latitude":53.78391,"Longitude":-1.06937}},"Address":{"Label":"Finkle Street, Selby, YO8 4, United Kingdom","Country":"GBR","State":"England","County":"North Yorkshire","City":"Selby","District":"Selby","Street":"Finkle Street","PostalCode":"YO8 4","AdditionalData":[{"value":"United Kingdom","key":"CountryName"},{"value":"England","key":"StateName"},{"value":"North Yorkshire","key":"CountyName"}]},"MapReference":{"ReferenceId":"26985768","Spot":0.02,"SideOfStreet":"right","StateId":"20248595","CountyId":"20346756","CityId":"20347191","DistrictId":"20347192"}}},{"Relevance":1.0,"Distance":35.6,"MatchLevel":"postalCode","MatchQuality":{"PostalCode":1.0},"MatchType":"interpolated","Location":{"LocationId":"NT_hBpG3bLDt5qWCMeMmKHniB_l_565958279_L_xgD","LocationType":"point","DisplayPosition":{"Latitude":53.78413,"Longitude":-1.06896},"MapView":{"TopLeft":{"Latitude":53.7931232,"Longitude":-1.0841813},"BottomRight":{"Latitude":53.7751368,"Longitude":-1.0537387}},"Address":{"Label":"YO8 4NT, Selby, England, United Kingdom","Country":"GBR","State":"England","County":"North Yorkshire","City":"Selby","PostalCode":"YO8 4NT","AdditionalData":[{"value":"United Kingdom","key":"CountryName"},{"value":"England","key":"StateName"},{"value":"North Yorkshire","key":"CountyName"}]},"MapReference":{"ReferenceId":"565958279","Spot":0.58,"SideOfStreet":"neither","StateId":"20248595","CountyId":"20346756","CityId":"20347191"}}}]}]}}