{"Response":{"MetaInfo":{"Timestamp":"2020-03-28T10:07:06.818+0000","NextPageInformation":"2"},"View":[{"_type":"SearchResultsViewType","ViewId":0,"Result":[{"Relevance":1.0,"Distance":0.0,"Direction":0.0,"MatchLevel":"district","MatchQuality":{"Country":1.0,"State":1.0,"County":1.0,"City":1.0,"District":1.0,"PostalCode":1.0},"Location":{"LocationId":"NT_Zv3F5yE3iw4nZzDmzCgAUB","LocationType":"point","DisplayPosition":{"Latitude":53.7012983,"Longitude":-1.6311412},"MapView":{"TopLeft":{"Latitude":53.70177,"Longitude":-1.6402},"BottomRight":{"Latitude":53.6943,"Longitude":-1.62989}},"Address":{"Label":"Batley Carr, Dewsbury, England, United Kingdom","Country":"GBR","State":"England","County":"West Yorkshire","City":"Dewsbury","District":"Batley Carr","PostalCode":"WF13 2","AdditionalData":[{"value":"United Kingdom","key":"CountryName"},{"value":"England","key":"StateName"},{"value":"West Yorkshire","key":"CountyName"}]},"MapReference":{"ReferenceId":"1228232180","SideOfStreet":"neither","StateId":"20248595","CountyId":"20345050","CityId":"20345138","DistrictId":"20345140"}}},{"Relevance":1.0,"Distance":12.5,"MatchLevel":"houseNumber","MatchQuality":{"Country":1.0,"State":1.0,"County":1.0,"City":1.0,"District":1.0,"Street":[1.0],"HouseNumber":1.0,"PostalCode":1.0},"MatchType":"interpolated","Location":{"LocationId":"NT_yCztiG7ZkIf4CQsSKhYQEC_l_1228231367_L_yETN","LocationType":"point","DisplayPosition":{"Latitude":53.70114,"Longitude":-1.630825},"MapView":{"TopLeft":{"Latitude":53.7022642,"Longitude":-1.6327239},"BottomRight":{"Latitude":53.7000159,"Longitude":-1.6289261}},"Address":{"Label":"215 Bradford Road, Dewsbury, WF13 2HD, United Kingdom","Country":"GBR","State":"England","County":"West Yorkshire","City":"Dewsbury","District":"Batley Carr","Street":"Bradford Road","HouseNumber":"215","PostalCode":"WF13 2HD","AdditionalData":[{"value":"United Kingdom","key":"CountryName"},{"value":"England","key":"StateName"},{"value":"West Yorkshire","key":"CountyName"}]},"MapReference":{"ReferenceId":"1228231367","Spot":0.5,"SideOfStreet":"left","StateId":"20248595","CountyId":"20345050","CityId":"20345138","DistrictId":"20345140"}}},{"Relevance":1.0,"Distance":16.6,"MatchLevel":"houseNumber","MatchQuality":{"Country":1.0,"State":1.0,"County":1.0,"City":1.0,"District":1.0,"Street":[1.0],"HouseNumber":1.0,"PostalCode":1.0},"MatchType":"interpolated","Location":{"LocationId":"NT_tKAbPqLApSDHq6wMM1lf-B_l_27060976_R_3A","LocationType":"point","DisplayPosition":{"Latitude":53.7014063,"Longitude":-1.6315498},"MapView":{"TopLeft":{"Latitude":53.7025305,"Longitude":-1.6334487},"BottomRight":{"Latitude":53.7002822,"Longitude":-1.6296509}},"Address":{"Label":"7 Carr Street, Dewsbury, WF13 2HF, United Kingdom","Country":"GBR","State":"England","County":"West Yorkshire","City":"Dewsbury","District":"Batley Carr","Street":"Carr Street","HouseNumber":"7","PostalCode":"WF13 2HF","AdditionalData":[{"value":"United Kingdom","key":"CountryName"},{"value":"England","key":"StateName"},{"value":"West Yorkshire","key":"CountyName"}]},"MapReference":{"ReferenceId":"27060976","Spot":0.62,"SideOfStreet":"right","StateId":"20248595","CountyId":"20345050","CityId":"20345138","DistrictId":"20345140"}}},{"Relevance":1.0,"Distance":21.7,"MatchLevel":"houseNumber","MatchQuality":{"Country":1.0,"State":1.0,"County":1.0,"City":1.0,"District":1.0,"Street":[1.0],"HouseNumber":1.0,"PostalCode":1.0},"MatchType":"interpolated","Location":{"LocationId":"NT_A4KqaA5eSJOZUvha1tk60D_l_1228231368_L_yEzN","LocationType":"point","DisplayPosition":{"Latitude":53.70135,"Longitude":-1.63072},"MapView":{"TopLeft":{"Latitude":53.7024742,"Longitude":-1.6326189},"BottomRight":{"Latitude":53.7002259,"Longitude":-1.6288211}},"Address":{"Label":"217 Bradford Road, Dewsbury, WF13 2, United Kingdom","Country":"GBR","State":"England","County":"West Yorkshire","City":"Dewsbury","District":"Batley Carr","Street":"Bradford Road","HouseNumber":"217","PostalCode":"WF13 2","AdditionalData":[{"value":"United Kingdom","key":"CountryName"},{"value":"England","key":"StateName"},{"value":"West Yorkshire","key":"CountyName"}]},"MapReference":{"ReferenceId":"1228231368","Spot":0.34,"SideOfStreet":"left","StateId":"20248595","CountyId":"20345050","CityId":"20345138","DistrictId":"20345140"}}},{"Relevance":1.0,"Distance":25.0,"MatchLevel":"houseNumber","MatchQuality":{"Country":1.0,"State":1.0,"County":1.0,"City":1.0,"District":1.0,"Street":[1.0],"HouseNumber":1.0,"PostalCode":1.0},"MatchType":"interpolated","Location":{"LocationId":"NT_A4KqaA5eSJOZUvha1tk60D_l_1218175498_L_yETM","LocationType":"point","DisplayPosition":{"Latitude":53.701024,"Longitude":-1.6308715},"MapView":{"TopLeft":{"Latitude":53.7021481,"Longitude":-1.6327704},"BottomRight":{"Latitude":53.6998998,"Longitude":-1.6289726}},"Address":{"Label":"211 Bradford Road, Dewsbury, WF13 2HD, United Kingdom","Country":"GBR","State":"England","County":"West Yorkshire","City":"Dewsbury","District":"Batley Carr","Street":"Bradford Road","HouseNumber":"211","PostalCode":"WF13 2HD","AdditionalData":[{"value":"United Kingdom","key":"CountryName"},{"value":"England","key":"StateName"},{"value":"West Yorkshire","key":"CountyName"}]},"MapReference":{"ReferenceId":"1218175498","Spot":0.55,"SideOfStreet":"left","StateId":"20248595","CountyId":"20345050","CityId":"20345138","DistrictId":"20345140"}}},{"Relevance":1.0,"Distance":25.8,"MatchLevel":"landmark","MatchQuality":{"Country":1.0,"State":1.0,"County":1.0,"Name":1.0},"Location":{"LocationId":"NT_BMGFhIrh9IW0LnFLIzlRqD","LocationType":"industrialComplex","Name":"Baig Business Park","DisplayPosition":{"Latitude":53.70027,"Longitude":-1.63051},"MapView":{"TopLeft":{"Latitude":53.70159,"Longitude":-1.63142},"BottomRight":{"Latitude":53.69895,"Longitude":-1.62933}},"Address":{"Label":"United Kingdom","Country":"GBR","State":"England","County":"West Yorkshire","AdditionalData":[{"value":"United Kingdom","key":"CountryName"},{"value":"England","key":"StateName"},{"value":"West Yorkshire","key":"CountyName"}]},"MapReference":{"StateId":"20248595","CountyId":"20345050","PlaceId":"1410909164"}}},{"Relevance":1.0,"Distance":41.1,"MatchLevel":"street","MatchQuality":{"Country":1.0,"State":1.0,"County":1.0,"City":1.0,"District":1.0,"Street":[1.0],"PostalCode":1.0},"Location":{"LocationId":"NT_xhjpdp2p1c6TuwqTcBv72A_l_27060727_L","LocationType":"point","DisplayPosition":{"Latitude":53.701666,"Longitude":-1.6310834},"MapView":{"TopLeft":{"Latitude":53.7017,"Longitude":-1.6313},"BottomRight":{"Latitude":53.70159,"Longitude":-1.6306}},"Address":{"Label":"Town Street, Dewsbury, WF13 2, United Kingdom","Country":"GBR","State":"England","County":"West Yorkshire","City":"Dewsbury","District":"Batley Carr","Street":"Town Street","PostalCode":"WF13 2","AdditionalData":[{"value":"United Kingdom","key":"CountryName"},{"value":"England","key":"StateName"},{"value":"West Yorkshire","key":"CountyName"}]},"MapReference":{"ReferenceId":"27060727","Spot":0.69,"SideOfStreet":"left","StateId":"20248595","CountyId":"20345050","CityId":"20345138","DistrictId":"20345140"}}},{"Relevance":1.0,"Distance":45.9,"MatchLevel":"street","MatchQuality":{"Country":1.0,"State":1.0,"County":1.0,"City":1.0,"District":1.0,"Street":[1.0],"PostalCode":1.0},"Location":{"LocationId":"NT_KyEZ.C8P4x.6WjG6C85FFB_l_27060682_L","LocationType":"point","DisplayPosition":{"Latitude":53.7017,"Longitude":-1.6313},"MapView":{"TopLeft":{"Latitude":53.70172,"Longitude":-1.63145},"BottomRight":{"Latitude":53.7017,"Longitude":-1.6313}},"Address":{"Label":"Town Street, Batley, WF17 6, United Kingdom","Country":"GBR","State":"England","County":"West Yorkshire","City":"Batley","District":"Hanging Heaton","Street":"Town Street","PostalCode":"WF17 6","AdditionalData":[{"value":"United Kingdom","key":"CountryName"},{"value":"England","key":"StateName"},{"value":"West Yorkshire","key":"CountyName"}]},"MapReference":{"ReferenceId":"27060682","Spot":0.0,"SideOfStreet":"left","StateId":"20248595","CountyId":"20345050","CityId":"20345051","DistrictId":"20345054"}}},{"Relevance":1.0,"Distance":47.1,"MatchLevel":"houseNumber","MatchQuality":{"Country":1.0,"State":1.0,"County":1.0,"City":1.0,"District":1.0,"Street":[1.0],"HouseNumber":1.0,"PostalCode":1.0},"MatchType":"interpolated","Location":{"LocationId":"NT_A4KqaA5eSJOZUvha1tk60D_l_1218175497_L_yATO","LocationType":"point","DisplayPosition":{"Latitude":53.7008129,"Longitude":-1.6309353},"MapView":{"TopLeft":{"Latitude":53.701937,"Longitude":-1.6328342},"BottomRight":{"Latitude":53.6996887,"Longitude":-1.6290364}},"Address":{"Label":"209 Bradford Road, Dewsbury, WF13 2HD, United Kingdom","Country":"GBR","State":"England","County":"West Yorkshire","City":"Dewsbury","District":"Batley Carr","Street":"Bradford Road","HouseNumber":"209","PostalCode":"WF13 2HD","AdditionalData":[{"value":"United Kingdom","key":"CountryName"},{"value":"England","key":"StateName"},{"value":"West Yorkshire","key":"CountyName"}]},"MapReference":{"ReferenceId":"1218175497","Spot":0.58,"SideOfStreet":"left","StateId":"20248595","CountyId":"20345050","CityId":"20345138","DistrictId":"20345140"}}},{"Relevance":1.0,"Distance":49.6,"MatchLevel":"houseNumber","MatchQuality":{"Country":1.0,"State":1.0,"County":1.0,"City":1.0,"District":1.0,"Street":[1.0],"HouseNumber":1.0,"PostalCode":1.0},"MatchType":"interpolated","Location":{"LocationId":"NT_-7Ue8X-ChNvdNP0GXlOE9C_l_27060676_L_xA","LocationType":"point","DisplayPosition":{"Latitude":53.70174,"Longitude":-1.6316701},"MapView":{"TopLeft":{"Latitude":53.7028642,"Longitude":-1.633569},"BottomRight":{"Latitude":53.7006159,"Longitude":-1.6297711}},"Address":{"Label":"1 Town Street, Dewsbury, WF17 6, United Kingdom","Country":"GBR","State":"England","County":"West Yorkshire","City":"Dewsbury","District":"Batley Carr","Street":"Town Street","HouseNumber":"1","PostalCode":"WF17 6","AdditionalData":[{"value":"United Kingdom","key":"CountryName"},{"value":"England","key":"StateName"},{"value":"West Yorkshire","key":"CountyName"}]},"MapReference":{"ReferenceId":"27060676","Spot":0.23,"SideOfStreet":"left","StateId":"20248595","CountyId":"20345050","CityId":"20345138","DistrictId":"20345140"}}}]}]}}